~V
VERS. 2.00: Ver 2.00
~W
STRT.M 62.0000:
STOP.M 265.0000:
STEP.M 0.1250:
NULL. -999.2500:
UWI. DF3071:
~C
DEPT.M :
GR.API :
CALI.CM :
RXO.OHMM :
RI. :
RML.OHMM :
DEN.GM/CC :
SP.MV :
~A
# ...
  152.0000    75.6070    24.7030    15.9790    13.3880    14.7370     2.4100   -20.7670 
  152.1250    67.9860    24.8830    21.4980    15.9870    17.2300     2.4030   -20.7140 
  152.2500    64.0580    25.0890    24.6720    18.4590    19.5640     2.3480   -20.6770 
  152.3750    63.8980    25.2440    25.1260    20.6220    21.7300     2.2690   -20.6600 
  152.5000    67.7040    25.3240    25.0470    22.6190    23.9420     2.2010   -20.7140 
  152.6250    71.6410    25.3570    27.1810    24.8690    26.5810     2.1770   -20.7880 
  152.7500    71.5030    25.3780    31.6190    27.5470    29.6190     2.2030   -20.9180 
  152.8750    67.1400    25.3930    37.0120    30.3900    32.6070     2.2720   -20.9940 
  153.0000    63.1820    25.4110    40.4450    32.6670    34.7530     2.3680   -21.0490 
  153.1250    62.6120    25.4140    39.2600    33.1740    35.0090     2.4710   -21.0440 
  153.2500    61.7190    25.3920    34.5790    31.9380    33.5900     2.5630   -20.9860 
  153.3750    61.9540    25.3580    30.0960    29.6100    31.1290     2.6270   -20.8920 
  153.5000    65.1680    25.3280    27.3700    27.0560    28.4520     2.6490   -20.7670 
  153.6250    66.8520    25.3050    24.6990    24.9680    26.2660     2.6280   -20.6250 
  153.7500    65.0720    25.2910    22.4600    23.4680    24.6860     2.5980   -20.4790 
  153.8750    63.2900    25.2860    21.5250    22.4800    23.6240     2.5850   -20.4340 
  154.0000    65.1750    25.2930    21.9030    21.8640    22.9430     2.5950   -20.4520 
  154.1250    67.1450    25.3080    22.4500    21.5470    22.5920     2.6050   -20.5280 
  154.2500    65.7950    25.3240    22.0860    21.4630    22.4930     2.5960   -20.6370 
  154.3750    63.5890    25.3410    21.4110    21.5970    22.6060     2.5790   -20.7560 
  154.5000    62.6760    25.3680    21.4380    21.8620    22.8160     2.5810   -20.8880 
  154.6250    62.9980    25.4060    22.1120    22.0350    22.8580     2.6090   -21.0070 
  154.7500    64.5870    25.4290    22.4150    21.8490    22.4890     2.6370   -21.1130 
  154.8750    65.7710    25.4240    21.7410    21.1210    21.5870     2.6440   -21.1680 
  155.0000    65.0410    25.3950    20.1170    19.8740    20.2190     2.6310   -21.1970 
  155.1250    61.2470    25.3520    18.3020    18.3580    18.6520     2.6160   -21.1890 
  155.2500    56.2770    25.3170    16.9830    16.9730    17.2680     2.6090   -21.1730 
  155.3750    54.0240    25.3000    16.2520    15.9460    16.2990     2.6060   -21.1280 
  155.5000    56.2560    25.3000    15.9270    15.3880    15.8480     2.6000   -21.0830 
  155.6250    60.6440    25.3210    16.2290    15.3750    15.9640     2.5880   -21.0830 
  155.7500    61.5130    25.3470    17.1700    15.7180    16.4130     2.5760   -21.1000 
  155.8750    58.9600    25.3530    18.3070    16.2480    16.9950     2.5680   -21.1210 
  156.0000    58.6870    25.3250    18.9570    16.7600    17.4920     2.5660   -21.1230 
  156.1250    62.0770    25.2900    18.6340    16.9900    17.6600     2.5750   -21.1720 
  156.2500    63.4040    25.2720    18.1450    16.8530    17.4640     2.5880   -21.1870 
  156.3750    60.9780    25.2660    17.6360    16.3860    16.9640     2.5910   -21.2220 
  156.5000    58.6920    25.2620    17.0830    15.7260    16.3030     2.5760   -21.2100 
  156.6250    59.8900    25.2630    15.8710    15.0620    15.6760     2.5480   -21.1850 
  156.7500    60.9030    25.2680    14.6380    14.5420    15.2180     2.5250   -21.1060 
  156.8750    58.7240    25.2670    14.1090    14.2080    14.9630     2.5090   -21.0220 
  157.0000    54.1740    25.2520    14.5780    14.0300    14.8710     2.5050   -20.9490 
  157.1250    51.7370    25.2430    15.0930    13.9360    14.8630     2.5160   -20.8580 
  157.2500    53.3170    25.2350    15.3040    13.8440    14.8440     2.5370   -20.7710 
  157.3750    56.5200    25.2200    15.0360    13.7240    14.7930     2.5570   -20.6740 
  157.5000    58.5310    25.1990    14.3920    13.5940    14.7320     2.5720   -20.5800 
  157.6250    59.7650    25.1930    14.0940    13.5180    14.7320     2.5790   -20.5190 
  157.7500    61.2130    25.1950    14.2860    13.5390    14.8320     2.5780   -20.5020 
  157.8750    62.4270    25.1940    14.6850    13.6670    15.0360     2.5690   -20.5110 
  158.0000    62.3080    25.1980    14.9050    13.8850    15.3210     2.5610   -20.5120 
  158.1250    59.8840    25.2210    15.0260    14.1640    15.6490     2.5510   -20.4890 
  158.2500    56.3670    25.2380    15.1470    14.4540    15.9730     2.5380   -20.4350 
  158.3750    54.5250    25.2360    15.2680    14.7280    16.2660     2.5250   -20.3670 
  158.5000    55.9730    25.2060    15.4660    14.9660    16.5090     2.5260   -20.2780 
  158.6250    59.6550    25.1310    15.8150    15.1350    16.6720     2.5460   -20.1620 
  158.7500    62.3650    24.9990    16.3260    15.2300    16.7610     2.5690   -20.0030 
  158.8750    63.9230    24.8710    16.6640    15.2550    16.7870     2.5780   -19.8180 
  159.0000    64.2960    24.8790    16.6330    15.2390    16.7760     2.5680   -19.6130 
  159.1250    63.7640    25.0920    16.3450    15.2180    16.7530     2.5470   -19.4370 
  159.2500    62.8060    25.3330    16.1100    15.2000    16.7140     2.5290   -19.2880 
  159.3750    62.3590    25.4590    15.8520    15.1560    16.6170     2.5250   -19.1790 
  159.5000    62.4920    25.4330    15.4090    15.0340    16.4080     2.5340   -19.1230 
  159.6250    61.1450    25.2750    14.8610    14.7670    16.0210     2.5530   -19.0650 
  159.7500    59.2730    25.1180    14.2120    14.3760    15.5030     2.5710   -19.0800 
  159.8750    58.4640    25.0640    13.3570    13.9140    14.9230     2.5810   -19.1100 
  160.0000    58.3910    25.1010    12.4750    13.4660    14.3740     2.5770   -19.1640 
  160.1250    57.0430    25.1160    11.9930    13.1430    13.9580     2.5650   -19.2020 
  160.2500    55.9420    25.0930    11.9400    12.9770    13.6830     2.5590   -19.2640 
  160.3750    57.5070    25.1070    12.0880    12.9530    13.5160     2.5620   -19.3210 
  160.5000    60.3890    25.1570    12.2730    13.0060    13.3960     2.5600   -19.3780 
  160.6250    60.7650    25.1540    12.3240    13.0280    13.2450     2.5450   -19.4490 
  160.7500    58.0440    25.0370    12.3530    12.9460    13.0260     2.5350   -19.5060 
  160.8750    54.9910    24.7790    12.1910    12.7420    12.7420     2.5430   -19.5780 
  161.0000    53.6830    24.4010    11.7330    12.4430    12.4230     2.5590   -19.6600 
  161.1250    54.2260    23.9970    11.0790    12.1010    12.1190     2.5620   -19.7710 
  161.2500    53.6960    23.6840    10.5950    11.7720    11.8560     2.5540   -19.8580 
  161.3750    52.8150    23.4950    10.4210    11.4640    11.6170     2.5400   -19.9510 
  161.5000    54.2500    23.4010    10.4590    11.1360    11.3490     2.5250   -20.0290 
  161.6250    58.7190    23.3670    10.4370    10.7070    10.9910     2.5030   -20.1050 
  161.7500    63.3210    23.3500    10.3220    10.2250    10.6200     2.4810   -20.1800 
  161.8750    65.6140    23.3320    10.2360     9.8620    10.4250     2.4620   -20.2910 
  162.0000    66.2360    23.3090    10.4550     9.8470    10.6780     2.4450   -20.4790 
  162.1250    67.4770    23.2830    11.5820    10.5470    11.8640     2.4230   -20.7200 
  162.2500    67.8390    23.3050    14.4410    12.1750    14.1580     2.3970   -21.0790 
  162.3750    66.2720    23.4290    20.2870    15.1170    17.7600     2.3690   -21.4690 
  162.5000    65.0740    23.6390    28.4400    19.8160    23.6300     2.3420   -21.9150 
  162.6250    68.3120    23.8330    35.1380    27.0530    33.7880     2.3190   -22.3590 
  162.7500    72.7400    23.9530    39.5600    36.6200    47.1070     2.3020   -22.8140 
  162.8750    76.7280    24.0170    46.0490    48.0240    61.2010     2.2900   -23.2180 
  163.0000    81.3520    24.0690    55.6290    59.6620    73.4360     2.2800   -23.5390 
  163.1250    84.0860    24.1770    62.3830    68.0230    80.7090     2.2730   -23.7770 
