~V
VERS. 2.00: Ver 2.00
~W
STRT.M 125.0000:
STOP.M 275.0000:
STEP.M 0.1250:
NULL. -999.2500:
UWI. DF3046:
~C
DEPT.M :
GR.API :
CALI.CM :
RXO.OHMM :
RI. :
RML.OHMM :
DEN.GM/CC :
SP.MV :
~A
# ...
  158.7500    61.4910    24.5350    19.6330    21.4380    24.6010     2.4800    -9.7940 
  158.8750    60.5320    24.5440    17.9300    20.0580    22.9540     2.4590    -9.7960 
  159.0000    59.4030    24.5660    16.2090    18.4860    21.1130     2.4480    -9.8410 
  159.1250    61.3630    24.5450    15.3550    16.9710    19.3860     2.4590    -9.9010 
  159.2500    65.5840    24.5040    14.7150    15.7260    18.0120     2.4860    -9.9860 
  159.3750    68.7530    24.4450    14.0040    14.8780    17.1320     2.5210   -10.0520 
  159.5000    68.0310    24.3700    13.4060    14.4770    16.7890     2.5500   -10.1050 
  159.6250    64.1010    24.2610    13.7660    14.5470    16.9900     2.5600   -10.1780 
  159.7500    60.7920    24.1310    14.6300    14.8880    17.4770     2.5490   -10.2620 
  159.8750    58.6870    24.0450    15.4190    15.3260    18.0220     2.5280   -10.3570 
  160.0000    55.8020    24.0340    15.7500    15.6640    18.4030     2.5120   -10.4380 
  160.1250    52.6660    24.0370    15.3590    15.7220    18.4400     2.5190   -10.4960 
  160.2500    51.0160    24.0200    14.7810    15.5670    18.2470     2.5460   -10.5330 
  160.3750    51.0890    23.9970    14.2100    15.3380    18.0030     2.5790   -10.5780 
  160.5000    52.7300    23.9800    14.1020    15.1790    17.8900     2.5950   -10.6140 
  160.6250    55.9450    23.9760    14.6460    15.1930    18.0220     2.5800   -10.6460 
  160.7500    59.0150    23.9720    15.6200    15.3170    18.2780     2.5510   -10.7150 
  160.8750    60.5720    23.9700    16.1520    15.4360    18.4800     2.5280   -10.7980 
  161.0000    60.9810    23.9740    15.8020    15.4180    18.4560     2.5280   -10.9160 
  161.1250    61.3590    23.9720    15.3630    15.1610    18.1030     2.5530   -11.0980 
  161.2500    60.7770    23.9690    15.4090    14.8000    17.6180     2.5850   -11.3240 
  161.3750    60.1740    23.9650    15.6640    14.5350    17.2480     2.6050   -11.5500 
  161.5000    61.7290    23.9630    15.6330    14.5540    17.2060     2.6050   -11.7700 
  161.6250    66.0040    23.9580    15.9790    14.9810    17.6150     2.5840   -11.9780 
  161.7500    68.3960    23.9480    18.0400    15.6510    18.2420     2.5540   -12.1570 
  161.8750    66.6170    23.9340    20.8680    16.3340    18.8020     2.5220   -12.2980 
  162.0000    63.7340    23.9200    21.7650    16.7340    18.9990     2.4940   -12.3860 
  162.1250    62.2880    24.0080    19.7010    16.5310    18.5850     2.4760   -12.4220 
  162.2500    61.6240    24.1290    18.0450    15.8750    17.7700     2.4590   -12.4490 
  162.3750    62.8360    24.2590    17.6990    15.0490    16.8440     2.4340   -12.4800 
  162.5000    64.8640    24.4520    17.1490    14.3310    16.0920     2.4060   -12.5370 
  162.6250    63.7210    24.6300    15.6310    13.9130    15.7210     2.3880   -12.6250 
  162.7500    61.2760    24.7810    15.2180    13.7190    15.6180     2.3840   -12.7850 
  162.8750    64.5840    24.8440    16.5640    13.6340    15.6230     2.3880   -13.0440 
  163.0000    74.5610    24.8540    17.7440    13.5440    15.5890     2.3960   -13.3980 
  163.1250    83.2620    24.8590    17.0070    13.4040    15.4750     2.4000   -13.8060 
  163.2500    87.3570    24.8650    15.8680    13.3210    15.4470     2.3980   -14.2140 
  163.3750    89.1110    24.8620    16.8740    13.4820    15.7670     2.3900   -14.6320 
  163.5000    89.4210    24.8580    19.5170    14.1120    16.7460     2.3760   -15.0630 
  163.6250    88.8090    24.8640    21.4700    15.6210    18.8790     2.3550   -15.4950 
  163.7500    86.7160    24.8470    20.6240    18.1680    22.2340     2.3320   -15.8670 
  163.8750    81.5860    24.8340    22.0810    21.9050    26.8210     2.3140   -16.1640 
  164.0000    75.4460    24.8380    28.8930    26.7410    32.3380     2.3010   -16.4010 
  164.1250    73.7050    24.8580    37.4920    32.1020    37.9090     2.2900   -16.6050 
  164.2500    74.4150    24.8870    44.2260    36.7250    42.2950     2.2800   -16.8060 
  164.3750    73.4410    24.8990    47.1860    39.5640    44.6550     2.2780   -16.9980 
  164.5000    71.7120    24.9010    45.9570    40.2690    44.8760     2.2920   -17.1670 
  164.6250    72.2820    24.9010    41.1440    39.3060    43.5380     2.3230   -17.3040 
  164.7500    73.3510    24.8990    35.9240    37.9640    41.9430     2.3470   -17.4190 
  164.8750    74.4660    24.8840    32.9470    36.8140    40.6790     2.3490   -17.5330 
  165.0000    75.9410    24.8360    33.2220    36.0190    39.8670     2.3350   -17.6510 
  165.1250    75.8490    24.7260    34.7670    35.4700    39.3310     2.3260   -17.8020 
  165.2500    75.3940    24.6640    35.2750    34.9490    38.8000     2.3280   -17.9620 
  165.3750    76.0670    24.7460    33.5570    34.4350    38.2670     2.3280   -18.1410 
  165.5000    77.7810    24.8910    30.2910    34.0910    37.9650     2.3120   -18.3170 
  165.6250    79.0600    24.9370    27.9660    34.4040    38.4970     2.2920   -18.5010 
  165.7500    80.4160    24.9340    29.4250    35.7690    40.2740     2.2890   -18.6970 
  165.8750    81.0670    24.9700    34.0880    38.5760    43.6760     2.2990   -18.8940 
  166.0000    80.0260    25.0350    39.1290    43.0920    48.9560     2.3020   -19.0840 
  166.1250    79.5050    25.0660    44.9230    49.7940    56.6090     2.2900   -19.2490 
  166.2500    79.2130    25.0340    55.2970    58.4280    66.3610     2.2780   -19.4170 
  166.3750    78.7470    25.0280    68.2230    68.9320    78.1840     2.2760   -19.5850 
  166.5000    79.0290    25.0550    80.3840    81.0960    91.9260     2.2800   -19.7690 
  166.6250    80.2730    25.0710    94.9560    94.5750   107.2610     2.2760   -19.9760 
  166.7500    79.7840    25.0830   122.6080   108.1640   122.7730     2.2630   -20.1960 
  166.8750    76.3240    25.1180   160.7990   120.4890   136.8040     2.2490   -20.4160 
  167.0000    71.1590    25.1490   193.8140   130.0030   147.4790     2.2430   -20.6610 
  167.1250    66.8560    25.1630   193.4200   134.7350   152.4670     2.2450   -20.9530 
  167.2500    64.1140    25.1660   180.1060   135.2140   152.5040     2.2460   -21.2360 
  167.3750    63.5590    25.1550   173.5280   132.4510   148.8860     2.2490   -21.4710 
  167.5000    64.2940    25.1180   171.8970   128.1130   143.5370     2.2560   -21.6910 
  167.6250    65.7120    25.0520   169.6890   124.0700   138.4560     2.2630   -21.8700 
  167.7500    68.4060    25.0180   165.4600   121.3140   134.7060     2.2640   -22.0590 
  167.8750    71.4590    24.9720   160.8730   119.9950   132.4970     2.2610   -22.2660 
  168.0000    72.8470    24.9190   157.8140   119.8600   131.5960     2.2600   -22.4510 
  168.1250    71.5640    24.9410   161.2550   120.4850   131.5130     2.2670   -22.5740 
  168.2500    69.9760    24.9600   159.6130   121.0960   131.3750     2.2740   -22.6900 
  168.3750    68.6850    24.9750   144.8920   121.1990   130.6680     2.2760   -22.8250 
  168.5000    66.8250    24.9850   124.0790   120.6680   129.2740     2.2690   -22.9730 
  168.6250    66.4100    24.9820   111.5870   119.8330   127.6500     2.2580   -23.1410 
  168.7500    69.3990    24.9880   105.8960   119.4410   126.7050     2.2530   -23.2710 
  168.8750    73.9220    24.9820   106.3740   120.1650   127.1220     2.2610   -23.3640 
  169.0000    76.2890    24.9590   115.1920   122.3070   129.0850     2.2720   -23.4190 
  169.1250    74.9810    24.9990   132.4990   125.4000   132.0290     2.2670   -23.4050 
  169.2500    71.7370    25.0760   158.7820   127.9870   134.4870     2.2450   -23.3560 
  169.3750    68.7280    25.1220   183.9350   129.0180   135.4410     2.2200   -23.2790 
  169.5000    67.7730    25.0800   182.1910   128.1890   134.6220     2.2070   -23.2050 
  169.6250    69.0100    24.9000   151.5310   126.1610   132.7710     2.2100   -23.1130 
  169.7500    70.4200    24.6780   123.9000   124.7570   131.6800     2.2180   -23.0290 
  169.8750    70.7580    24.5050   121.0670   125.4590   132.7300     2.2250   -22.9510 
