~V
VERS. 2.00: Ver 2.00
~W
STRT.M 125.0000:
STOP.M 275.0000:
STEP.M 0.1250:
NULL. -999.2500:
UWI. DF3074:
~C
DEPT.M :
GR.API :
CALI.CM :
RXO.OHMM :
RI. :
RML.OHMM :
DEN.GM/CC :
SP.MV :
~A
# ...
  226.2500    60.4360    24.8150   101.5190    87.8970   101.9430     2.1980   -17.0370 
  226.3750    61.7750    24.9630   103.6080    87.4440   101.8000     2.1980   -16.9130 
  226.5000    64.9410    25.2240    95.4080    84.8290    98.8540     2.2020   -16.7630 
  226.6250    66.7500    25.4450    78.9940    80.6050    93.9050     2.2140   -16.6050 
  226.7500    67.0650    25.5740    65.3340    76.1880    88.8510     2.2320   -16.4960 
  226.8750    67.9280    25.6180    57.1710    72.6390    85.0290     2.2400   -16.3640 
  227.0000    68.6780    25.5580    51.2760    70.8010    83.4040     2.2300   -16.2210 
  227.1250    68.1770    25.3520    46.5570    71.6060    85.0310     2.2080   -16.1740 
  227.2500    67.3690    25.0090    49.6390    74.7980    89.5770     2.1940   -16.0310 
  227.3750    67.5600    24.7400    67.5970    80.0170    96.6640     2.1930   -15.8880 
  227.5000    68.2260    24.7010    88.7590    86.3660   105.2720     2.1970   -15.7160 
  227.6250    66.6440    24.7570    82.8580    92.2440   113.4070     2.2020   -15.6410 
  227.7500    64.4590    24.5540    58.3990    96.4500   119.3700     2.2090   -15.5440 
  227.8750    63.7690    23.9950    41.2640    98.9320   123.0030     2.2220   -15.4200 
  228.0000    63.4840    23.5610    40.6600   100.8490   125.8480     2.2330   -15.3430 
  228.1250    61.3320    23.8940    52.7860   104.5940   131.0380     2.2400   -15.1980 
  228.2500    59.3880    24.6150    75.3600   111.4990   140.3520     2.2540   -15.0650 
  228.3750    59.6750    25.1580   117.0930   121.5020   153.9390     2.2830   -14.8710 
  228.5000    60.3990    25.2290   187.3370   133.1730   170.1460     2.3030   -14.6910 
  228.6250    59.3410    24.9910   223.1100   144.1990   185.7190     2.2900   -14.3690 
  228.7500    58.8670    24.6910   195.5770   153.1900   198.3990     2.2530   -14.0470 
  228.8750    60.8360    24.3330   135.0860   159.3430   206.9410     2.2430   -13.6430 
  229.0000    62.3540    23.9120    90.3120   160.3160   206.7800     2.2880   -13.1540 
  229.1250    61.3810    23.6610    74.2950   147.8200   182.4880     2.3850   -12.6200 
  229.2500    60.1510    23.5790    93.7230   119.7440   136.6980     2.4960   -12.0010 
  229.3750    59.0640    23.7160   113.4420    83.1390    88.2190     2.5710   -11.3390 
  229.5000    56.6890    24.1290    91.9650    50.4100    52.1610     2.5820   -10.5630 
  229.6250    53.0510    24.4910    46.5530    29.9990    31.7830     2.5390    -9.8250 
  229.7500    50.6430    24.7300    18.0280    18.4920    20.1380     2.4720    -9.1020 
  229.8750    50.4110    24.7770     9.3840    12.4940    13.7870     2.4120    -8.4240 
  230.0000    52.2380    24.7020     6.8560     9.4490    10.5340     2.3750    -7.8320 
  230.1250    55.2180    24.8210     6.3820     8.0200     9.1720     2.3620    -7.3470 
  230.2500    55.9020    25.0550     6.2100     7.2360     8.5170     2.3650    -6.9760 
  230.3750    54.9980    25.3190     6.1460     6.7420     8.0540     2.3600    -6.7140 
  230.5000    55.7140    25.4090     5.9580     6.3190     7.5020     2.3420    -6.5730 
  230.6250    58.9760    25.4740     5.5680     5.9130     6.8610     2.3180    -6.5550 
  230.7500    60.8120    25.5420     5.2120     5.5890     6.3420     2.3000    -6.6280 
  230.8750    61.6990    25.6140     5.0310     5.4320     6.1080     2.2930    -6.8220 
  231.0000    65.8380    25.6090     5.0430     5.4950     6.2440     2.2980    -7.0130 
  231.1250    76.7050    25.5610     5.4530     5.8200     6.8030     2.3190    -7.1940 
  231.2500    87.9070    25.5750     6.3140     6.3070     7.6070     2.3530    -7.3020 
  231.3750    94.4870    25.7080     7.2210     6.8420     8.4630     2.3880    -7.3600 
  231.5000    95.8760    25.8130     7.6900     7.2880     9.1520     2.4120    -7.3790 
  231.6250    96.7750    25.8020     7.7740     7.4880     9.4430     2.4280    -7.3530 
  231.7500    99.6480    25.7800     7.7690     7.4550     9.3850     2.4370    -7.2470 
  231.8750   103.4530    25.7810     7.7320     7.2640     9.1150     2.4390    -7.0640 
  232.0000   106.7700    25.7980     7.6520     7.0210     8.8200     2.4320    -6.9250 
  232.1250   108.3700    25.7850     7.5660     6.8260     8.6660     2.4210    -6.7930 
  232.2500   108.2530    25.7730     7.4770     6.7120     8.6710     2.4090    -6.7560 
  232.3750   108.6800    25.7550     7.3980     6.6750     8.7940     2.3950    -6.7970 
  232.5000   111.4980    25.7230     7.3530     6.6970     8.9740     2.3800    -6.8810 
  232.6250   114.6720    25.6910     7.3640     6.7530     9.1460     2.3680    -7.0200 
  232.7500   116.4560    25.6330     7.3860     6.8150     9.2850     2.3660    -7.1630 
  232.8750   118.3510    25.5460     7.3990     6.8840     9.4150     2.3690    -7.2940 
  233.0000   120.8600    25.4740     7.4170     6.9750     9.5780     2.3700    -7.3420 
  233.1250   121.6150    25.4810     7.4830     7.1160     9.8150     2.3740    -7.3110 
  233.2500   118.9120    25.5440     7.6380     7.2920    10.0850     2.3920    -7.2720 
  233.3750   113.3070    25.6080     7.8620     7.4660    10.3120     2.4150    -7.1630 
  233.5000   107.5690    25.6450     8.1690     7.5850    10.4090     2.4260    -7.0640 
  233.6250   106.0150    25.6850     8.3910     7.5900    10.2930     2.4180    -6.8680 
  233.7500   107.1370    25.7410     8.1490     7.5070    10.0380     2.4070    -6.7010 
  233.8750   107.8330    25.7450     7.6440     7.3940     9.7550     2.4110    -6.5790 
  234.0000   107.1060    25.6700     7.3770     7.3170     9.5670     2.4260    -6.4710 
  234.1250   107.1580    25.5890     7.4470     7.3360     9.5650     2.4330    -6.4910 
  234.2500   107.0370    25.5330     7.5090     7.4260     9.6810     2.4250    -6.4930 
  234.3750   106.2290    25.4680     7.4490     7.5410     9.8160     2.4130    -6.5610 
  234.5000   105.3520    25.3480     7.3450     7.6240     9.8770     2.4010    -6.6390 
  234.6250   104.8250    25.2290     7.2350     7.6140     9.7920     2.3900    -6.7690 
  234.7500   104.4650    25.2030     7.1610     7.5300     9.6330     2.3820    -6.8770 
  234.8750   105.2450    25.3220     7.1370     7.4400     9.5300     2.3830    -6.9740 
  235.0000   108.0430    25.4810     7.1490     7.4340     9.6350     2.3890    -7.0930 
  235.1250   109.7660    25.5760     7.2490     7.5920    10.0550     2.3830    -7.1660 
  235.2500   108.5190    25.6200     7.6040     7.8470    10.6160     2.3590    -7.2650 
  235.3750   105.7820    25.6300     8.5890     8.0720    11.0640     2.3350    -7.3310 
  235.5000   105.1060    25.6130     9.8460     8.1500    11.1740     2.3300    -7.4440 
  235.6250   107.1790    25.5510     9.9070     8.0920    10.9760     2.3400    -7.5600 
  235.7500   107.4210    25.4980     8.8860     8.1910    11.0530     2.3470    -7.6860 
  235.8750   105.0590    25.5080     8.2870     8.8530    12.1460     2.3420    -7.8950 
  236.0000   100.7650    25.5680     9.6830    10.7050    15.1270     2.3330    -8.1840 
  236.1250    94.3220    25.5760    20.4650    15.5550    21.9220     2.3250    -8.4710 
  236.2500    84.3700    25.4760    63.2590    25.2990    34.1990     2.3190    -8.8020 
  236.3750    72.9430    25.3020   131.0580    42.3910    54.8740     2.3150    -9.1660 
  236.5000    65.1130    25.1070   188.8920    67.6110    86.4810     2.3150    -9.5160 
  236.6250    63.4630    24.9050   200.7430    95.4020   124.6530     2.3240    -9.8640 
  236.7500    63.0820    24.6820   206.5160   113.9860   149.7190     2.3490   -10.2190 
  236.8750    61.5130    24.5250   192.0870   117.8730   150.5270     2.3660   -10.5240 
  237.0000    60.0920    24.6280   154.5890   109.7200   134.3430     2.3460   -10.7460 
  237.1250    62.5410    25.0080   109.9580    95.6970   113.9870     2.2900   -10.9840 
  237.2500    67.5540    25.4010    76.8010    82.1730    96.8660     2.2330   -11.1300 
  237.3750    70.7320    25.6230    55.9220    71.8230    84.8850     2.2070   -11.2490 
