~V
VERS. 2.00: Ver 2.00
~W
STRT.M 64.0000:
STOP.M 268.0000:
STEP.M 0.1250:
NULL. -999.2500:
UWI. DF3073:
~C
DEPT.M :
SP.MV :
GR.API :
CALI.CM :
RXO.OHMM :
RI. :
RML.OHMM :
DEN.GM/CC :
~A
# ...
   75.2500   -33.0100    70.4830    25.5800     8.4300     7.5310    10.1950  -999.2500 
   75.3750   -32.9230    65.5900    25.6040     8.4520     7.5210    10.2290  -999.2500 
   75.5000   -32.8120    65.1230    25.6670     8.3610     7.5470    10.3180  -999.2500 
   75.6250   -32.6400    66.6110    26.0990     8.3260     7.6080    10.4340  -999.2500 
   75.7500   -32.4000    66.3900    26.3970     8.3770     7.6730    10.5350  -999.2500 
   75.8750   -32.1240    65.5780    26.3590     8.4280     7.7490    10.6150  -999.2500 
   76.0000   -31.8360    66.7590    26.1390     8.4380     7.8320    10.6580  -999.2500 
   76.1250   -31.4880    70.3580    25.5420     8.4630     7.9050    10.6490  -999.2500 
   76.2500   -31.0860    74.1520    25.0810     8.4440     7.9850    10.6620  -999.2500 
   76.3750   -30.6510    75.8430    24.6650     8.3190     8.0780    10.7200  -999.2500 
   76.5000   -30.1650    73.5230    24.4360     8.0700     8.1600    10.7870  -999.2500 
   76.6250   -29.6770    69.4260    24.4260     8.0750     8.1750    10.8040  -999.2500 
   76.7500   -29.2220    69.2110    24.4690     8.2380     8.0640    10.6880  -999.2500 
   76.8750   -28.7450    73.6030    24.3380     8.4080     7.7800    10.3860  -999.2500 
   77.0000   -28.2490    80.1820    24.2770     8.5180     7.3220     9.8560  -999.2500 
   77.1250   -27.8190    88.6340    24.1410     8.3770     6.7440     9.1750  -999.2500 
   77.2500   -27.4530   100.2950    23.9680     7.5010     6.1850     8.5100  -999.2500 
   77.3750   -27.1280   110.8650    23.9640     6.3840     5.7180     7.9690  -999.2500 
   77.5000   -26.8280   115.4700    24.1300     5.8750     5.3900     7.6500  -999.2500 
   77.6250   -26.5550   111.7070    24.1640     6.1720     5.2570     7.5950  -999.2500 
   77.7500   -26.2910   104.9790    24.0740     6.5220     5.2580     7.7010  -999.2500 
   77.8750   -26.0680    98.8530    24.0120     6.7190     5.3310     7.8660  -999.2500 
   78.0000   -25.8760    94.6600    24.3300     6.7660     5.4140     7.9960  -999.2500 
   78.1250   -25.6980    95.9980    24.4200     6.5900     5.4470     7.9700  -999.2500 
   78.2500   -25.5440   100.5070    24.3780     6.2040     5.3940     7.7400  -999.2500 
   78.3750   -25.4310   104.3150    24.3830     5.9500     5.2730     7.3890  -999.2500 
   78.5000   -25.4000   104.8220    24.6990     5.8620     5.1590     7.0420  -999.2500 
   78.6250   -25.4480   102.4550    24.9400     5.8440     5.1570     6.8730  -999.2500 
   78.7500   -25.5530    99.8520    24.9220     5.8490     5.2720     6.9210  -999.2500 
   78.8750   -25.7080    97.2960    24.7040     5.8490     5.5100     7.1640  -999.2500 
   79.0000   -25.8820    94.6210    24.3530     5.9680     5.8520     7.5640  -999.2500 
   79.1250   -26.0500    92.7920    23.8450     6.4460     6.1950     7.9700  -999.2500 
   79.2500   -26.2240    92.4520    23.5860     7.4460     6.4180     8.2290  -999.2500 
   79.3750   -26.4070    95.1580    23.4640     8.7430     6.4600     8.3030  -999.2500 
   79.5000   -26.5780   101.0500    23.5380     8.4780     6.3130     8.2060  -999.2500 
   79.6250   -26.7680   105.3900    23.4110     7.1110     5.9800     7.9400  -999.2500 
   79.7500   -26.9990   106.5290    23.3960     5.9470     5.5940     7.6230  -999.2500 
   79.8750   -27.2430   106.1290    23.6810     5.7960     5.2320     7.3480  -999.2500 
   80.0000   -27.5170   105.4490    24.1380     5.7500     4.9250     7.1400  -999.2500 
   80.1250   -27.8480   104.2670    24.5630     5.7550     4.7070     6.9720  -999.2500 
   80.2500   -28.1940   102.4390    24.6040     5.7420     4.5850     6.8170  -999.2500 
   80.3750   -28.5540   103.0720    24.6330     5.7020     4.5730     6.6960  -999.2500 
   80.5000   -28.9440   106.5680    24.6280     5.6850     4.7000     6.7000  -999.2500 
   80.6250   -29.3230   107.0510    24.4430     5.8180     5.0520     6.9800  -999.2500 
   80.7500   -29.7010   100.7560    24.5570     6.2000     5.6130     7.5550  -999.2500 
   80.8750   -30.0970    89.9550    24.9240     6.8370     6.3700     8.3620  -999.2500 
   81.0000   -30.4880    80.2480    25.4760     7.6650     7.2180     9.2630  -999.2500 
   81.1250   -30.8610    74.5260    26.0470     9.3320     7.9420    10.0280  -999.2500 
   81.2500   -31.2200    71.7670    26.5890    10.7670     8.3820    10.5210  -999.2500 
   81.3750   -31.5100    74.0650    26.7760    10.4220     8.4580    10.6370  -999.2500 
   81.5000   -31.7380    78.9840    26.7410     8.8560     8.2060    10.4130  -999.2500 
   81.6250   -31.9180    80.5450    26.2770     8.2610     7.7830    10.0280  -999.2500 
   81.7500   -32.0190    77.7760    25.5000     8.1220     7.4010     9.7230  -999.2500 
   81.8750   -32.0460    75.0970    25.0120     8.0280     7.1420     9.5870  -999.2500 
   82.0000   -32.0310    75.5530    24.4440     8.0710     7.0490     9.6540  -999.2500 
   82.1250   -31.9560    78.6740    24.1150     8.2030     7.1280     9.8960  -999.2500 
   82.2500   -31.8540    79.5470    24.0380     8.2920     7.2690    10.1480  -999.2500 
   82.3750   -31.7610    76.8660    24.0290     8.3120     7.4120    10.3380  -999.2500 
   82.5000   -31.6530    73.0180    23.9750     8.3680     7.5390    10.4800  -999.2500 
   82.6250   -31.5140    70.2650    23.8970     8.3330     7.6420    10.5740  -999.2500 
   82.7500   -31.3690    69.2430    23.9330     8.3520     7.7170    10.6510  -999.2500 
   82.8750   -31.2240    69.2700    24.2090     8.4440     7.7690    10.7210  -999.2500 
   83.0000   -31.0730    69.3180    24.2830     8.6630     7.8060    10.7660  -999.2500 
   83.1250   -30.8840    67.7600    24.2780     8.8020     7.8060    10.7880  -999.2500 
   83.2500   -30.6680    66.8050    24.3220     8.7150     7.7600    10.7460  -999.2500 
   83.3750   -30.4470    67.5680    24.3120     8.4290     7.6650    10.6240  -999.2500 
   83.5000   -30.2190    68.7320    24.2620     8.1230     7.5230    10.3820  -999.2500 
   83.6250   -29.9830    70.3150    24.3020     7.9600     7.3200    10.0040  -999.2500 
   83.7500   -29.7470    72.2740    24.3070     7.8610     7.1390     9.6350  -999.2500 
   83.8750   -29.5010    73.4090    24.1600     7.7940     7.0960     9.4610  -999.2500 
   84.0000   -29.2370    73.3110    23.8530     7.6310     7.2450     9.5740  -999.2500 
   84.1250   -29.0090    73.2920    23.8620     7.4360     7.5910     9.9810  -999.2500 
   84.2500   -28.7770    75.3000    24.0150     7.3370     8.0550    10.5260  -999.2500 
   84.3750   -28.5500    76.4800    24.1330     7.6280     8.5230    11.0550  -999.2500 
   84.5000   -28.3470    74.6110    24.2770     9.2560     8.7860    11.3220  -999.2500 
   84.6250   -28.1700    72.2150    24.3400    14.1430     8.6220    11.1010  -999.2500 
   84.7500   -27.9930    75.8040    24.3290    16.7250     8.1030    10.4940  -999.2500 
   84.8750   -27.8430    84.1670    24.3240    13.5350     7.3240     9.5910  -999.2500 
   85.0000   -27.7250    89.9080    24.3440     8.1120     6.4910     8.6220  -999.2500 
   85.1250   -27.6120    88.4710    24.1500     6.7100     5.8850     7.9470  -999.2500 
   85.2500   -27.5020    85.6130    23.8910     6.3470     5.5470     7.6520  -999.2500 
   85.3750   -27.3830    84.4230    23.7160     6.3110     5.4520     7.6940  -999.2500 
   85.5000   -27.2610    84.2910    23.6820     6.3560     5.5720     8.0100  -999.2500 
   85.6250   -27.1220    83.8080    23.6960     6.4040     5.8170     8.4490  -999.2500 
   85.7500   -26.9770    83.4720    23.7280     6.4520     6.0080     8.7390  -999.2500 
   85.8750   -26.8280    83.8180    23.7280     6.6890     6.0440     8.7730  -999.2500 
   86.0000   -26.6880    85.1420    23.6920     6.9200     5.9140     8.5970  -999.2500 
   86.1250   -26.5790    89.0110    23.6910     6.5630     5.6310     8.2490  -999.2500 
   86.2500   -26.5200    92.7270    23.5720     6.0850     5.2870     7.8310  -999.2500 
   86.3750   -26.5110    95.4360    23.5060     5.8870     4.9650     7.4260  -999.2500 
