~V
VERS. 2.00: Ver 2.00
~W
STRT.M 60.0000:
STOP.M 283.0000:
STEP.M 0.1250:
NULL. -999.2500:
UWI. DF3045:
~C
DEPT.M :
DEN.GM/CC :
SP.MV :
AC.US/MT :
GR.API :
CALI.CM :
RXO.OHMM :
RI. :
RML.OHMM :
~A
# ...
  130.0000     2.3350   -30.2500   374.8560    76.0980    23.0790    11.8990    11.2080    12.9010 
  130.1250     2.3060   -30.3870   393.6760    74.0370    23.0940    12.2910    11.0990    12.8250 
  130.2500     2.2930   -30.5210   399.6180    69.1290    23.1720    12.8320    11.1100    12.9170 
  130.3750     2.2870   -30.6240   403.8520    63.6080    23.3570    13.3700    11.2000    13.1170 
  130.5000     2.2750   -30.6710   410.8690    60.6840    23.6360    13.5930    11.2620    13.2590 
  130.6250     2.2450   -30.6780   418.4840    61.1280    23.6400    13.3330    11.1730    13.2130 
  130.7500     2.2020   -30.6400   424.8330    61.2550    23.4330    12.9270    10.9250    12.9760 
  130.8750     2.1650   -30.5520   428.6710    61.7220    22.9470    12.6760    10.5620    12.5730 
  131.0000     2.1550   -30.4330   430.6690    64.3900    22.5280    12.9150    10.1490    12.0920 
  131.1250     2.1770   -30.3250   433.1730    66.3600    22.4110    12.8670     9.8080    11.7100 
  131.2500     2.2110   -30.2100   436.1180    66.2470    22.3880    11.9120     9.6400    11.5460 
  131.3750     2.2360   -30.1100   436.4670    65.5540    22.4480    11.1030     9.6620    11.6400 
  131.5000     2.2390   -30.0240   431.8510    65.4810    22.4840    11.5120     9.8700    11.9850 
  131.6250     2.2250   -29.9510   424.8030    64.3900    22.5340    12.6170    10.2390    12.4940 
  131.7500     2.2200   -29.8900   420.7940    62.8590    22.5430    12.9480    10.6050    12.9400 
  131.8750     2.2350   -29.8430   420.8160    61.7210    22.4880    12.9360    10.8740    13.2240 
  132.0000     2.2560   -29.7990   422.3340    61.5440    22.4520    12.7990    10.9880    13.3050 
  132.1250     2.2560   -29.7120   422.3350    63.7130    22.4050    12.8050    10.9170    13.1470 
  132.2500     2.2420   -29.5940   421.3910    65.7100    22.4720    12.6040    10.7290    12.8990 
  132.3750     2.2300   -29.4220   420.5080    64.3340    22.5650    12.4300    10.5410    12.6960 
  132.5000     2.2230   -29.2130   419.9860    62.3810    22.8590    12.3130    10.4230    12.6240 
  132.6250     2.2150   -28.9720   419.7060    64.5340    23.4150    12.0410    10.3180    12.5720 
  132.7500     2.2090   -28.7010   419.7900    66.6230    23.6600    11.9400    10.1100    12.3850 
  132.8750     2.2150   -28.3920   420.1460    65.7510    23.7030    12.1510     9.7950    12.0240 
  133.0000     2.2290   -28.0480   420.2800    65.3720    23.6920    12.3920     9.4010    11.5060 
  133.1250     2.2360   -27.6850   421.1110    70.2800    23.6430    12.2750     8.9730    10.9150 
  133.2500     2.2320   -27.3040   425.7690    77.8370    23.5280    11.8430     8.6500    10.4870 
  133.3750     2.2360   -26.9540   430.7110    82.9790    23.4240    10.4130     8.5480    10.3840 
  133.5000     2.2640   -26.6630   424.6490    81.3160    23.4910     8.5850     8.6850    10.5940 
  133.6250     2.3000   -26.4050   398.4520    73.2520    23.1910     8.4060     9.0580    11.0840 
  133.7500     2.3110   -26.1600   372.7050    65.7830    22.7480    10.2470     9.5120    11.6200 
  133.8750     2.2900   -25.9230   369.5780    62.6020    22.4990    12.2310     9.8200    11.9220 
  134.0000     2.2540   -25.6930   389.7630    63.6680    22.4470    13.2560     9.7780    11.7710 
  134.1250     2.2320   -25.4610   411.1950    67.7240    22.3740    12.5000     9.2770    11.0530 
  134.2500     2.2320   -25.2080   420.5110    72.7790    22.2700    10.7150     8.4700     9.9760 
  134.3750     2.2490   -24.9140   423.2810    77.0280    22.1840     8.8260     7.5490     8.7740 
  134.5000     2.2780   -24.5770   428.1970    79.5720    22.2600     7.0220     6.7280     7.7550 
  134.6250     2.3120   -24.2370   436.0810    80.6700    22.5150     5.7890     6.1620     7.0740 
  134.7500     2.3330   -23.9150   444.1580    81.2530    22.8830     5.2090     5.8210     6.6760 
  134.8750     2.3360   -23.6160   449.6790    82.1050    23.0250     5.2290     5.7090     6.5560 
  135.0000     2.3280   -23.3390   450.4500    82.5700    22.9100     5.3410     5.7870     6.6560 
  135.1250     2.3280   -23.0600   445.1200    81.5550    22.7070     5.4400     5.9860     6.8790 
  135.2500     2.3430   -22.8080   436.9110    80.0580    22.5440     5.8000     6.2200     7.1190 
  135.3750     2.3690   -22.5930   425.9650    79.0620    22.7600     5.9470     6.4290     7.3140 
  135.5000     2.3960   -22.4050   411.4330    76.6310    23.3100     6.0780     6.5430     7.3900 
  135.6250     2.4140   -22.2410   397.0100    73.7030    23.7210     7.0530     6.5150     7.3400 
  135.7500     2.4230   -22.0970   393.5590    75.9460    23.9550     7.1850     6.3870     7.1930 
  135.8750     2.4190   -21.9910   406.3110    82.5400    24.0270     6.0300     6.1520     6.9320 
  136.0000     2.3990   -21.9480   426.8070    87.6500    24.1740     5.3000     5.8290     6.5710 
  136.1250     2.3670   -22.0100   438.7490    87.5320    24.1400     5.0230     5.4580     6.1690 
  136.2500     2.3390   -22.1700   440.7540    88.8500    24.0310     4.8620     5.0740     5.7580 
  136.3750     2.3190   -22.4080   440.2770    92.6140    24.0260     4.5560     4.7080     5.3800 
  136.5000     2.3050   -22.6980   442.9140    93.1410    24.1130     4.4050     4.4530     5.1420 
  136.6250     2.3030   -23.0020   448.0320    89.1460    24.0890     4.2100     4.4350     5.2210 
  136.7500     2.3150   -23.1770   451.3710    87.6520    23.9980     4.1550     4.6900     5.6780 
  136.8750     2.3290   -23.4710   449.8500    90.0590    23.8580     4.4620     5.2890     6.5950 
  137.0000     2.3350   -23.8630   438.8360    88.7750    23.6120     5.7390     6.3060     8.0000 
  137.1250     2.3620   -24.2690   407.6950    77.8830    23.1030     8.6760     7.8320     9.9020 
  137.2500     2.4440   -24.6810   356.9430    67.6240    22.6240    14.1980     9.7360    12.1060 
  137.3750     2.5720   -25.0880   296.8130    63.7830    22.9670    21.5900    11.8350    14.3720 
  137.5000     2.6880   -25.4920   247.1520    66.4380    23.5080    26.1930    13.7760    16.3290 
  137.6250     2.7270   -25.9070   227.6460    67.9540    23.6170    24.8560    14.4490    16.9690 
  137.7500     2.7160   -26.3460   227.7560    68.6910    23.6880    22.8990    15.1210    17.5860 
  137.8750     2.7010   -26.8170   230.0120    67.1300    23.6910    21.0690    15.4370    17.8000 
  138.0000     2.6980   -27.3160   225.8790    66.3040    23.6490    22.1700    15.1120    17.3450 
  138.1250     2.6640   -27.8340   231.3560    70.5810    23.5960    29.6490    14.2890    16.4080 
  138.2500     2.5740   -28.3440   263.2940    74.6270    23.6300    33.0600    13.3510    15.3810 
  138.3750     2.4540   -28.8160   316.8790    73.0270    23.1480    27.2570    12.4450    14.4320 
  138.5000     2.3520   -29.2430   369.8360    68.1120    22.8960    18.3370    11.6670    13.6500 
  138.6250     2.2960   -29.5970   399.2870    65.9000    23.0770    14.6030    11.1440    13.1530 
  138.7500     2.2570   -29.8720   410.2550    65.8910    23.2700    13.6270    10.8530    12.8960 
  138.8750     2.2140   -30.0500   414.3690    65.8010    23.1820    13.3710    10.7570    12.8300 
  139.0000     2.1740   -30.1460   419.3740    63.6890    23.1390    13.0440    10.8200    12.9270 
  139.1250     2.1610   -30.1460   425.7380    61.0570    22.7570    12.8240    11.0000    13.0960 
  139.2500     2.1740   -30.0550   430.6880    61.9330    22.6620    12.7020    11.1640    13.1870 
  139.3750     2.1930   -29.8810   431.8450    64.8290    22.7550    12.4290    11.2660    13.1740 
  139.5000     2.2000   -29.6520   429.5970    64.8750    22.8700    12.0990    11.3120    13.1080 
  139.6250     2.1940   -29.3640   426.5300    62.9260    22.6830    12.3640    11.3080    13.0300 
  139.7500     2.1960   -29.0510   423.9030    63.1990    22.4920    13.0630    11.2860    12.9420 
  139.8750     2.2130   -28.7430   420.7660    64.5780    22.4430    13.8580    11.2550    12.8580 
