~V
VERS. 2.00: Ver 2.00
~W
STRT.M 60.0000:
STOP.M 232.0000:
STEP.M 0.1250:
NULL. -999.2500:
UWI. DF3065:
~C
DEPT.M :
GR.API :
CALI.CM :
RXO.OHMM :
RI. :
RML.OHMM :
DEN.GM/CC :
SP.MV :
~A
# ...
   93.7500    81.1690    22.8850     8.1250     7.5220    10.7230  -999.2500   -25.2430 
   93.8750    79.6550    23.0210     8.5860     7.6540    10.9950  -999.2500   -25.1050 
   94.0000    74.3860    23.0640     8.9460     7.8150    11.2860  -999.2500   -24.9840 
   94.1250    69.2770    22.9060     9.2890     7.9660    11.4840  -999.2500   -24.8760 
   94.2500    69.1090    22.9920     9.4580     8.0640    11.5620  -999.2500   -24.7490 
   94.3750    72.9850    23.0890     9.6320     8.0970    11.5180  -999.2500   -24.5920 
   94.5000    77.2470    23.0770     9.8830     8.0720    11.4090  -999.2500   -24.4080 
   94.6250    77.7770    22.9060     9.9960     8.0360    11.2870  -999.2500   -24.1870 
   94.7500    76.6000    22.9920     9.9740     8.0170    11.2190  -999.2500   -23.9070 
   94.8750    75.7370    23.0890    10.0400     8.0290    11.2360  -999.2500   -23.6130 
   95.0000    75.2230    23.0770    10.6040     8.0610    11.3370  -999.2500   -23.3230 
   95.1250    73.2490    22.9050    11.4100     8.1040    11.4860  -999.2500   -23.0340 
   95.2500    69.2520    22.9860    11.8230     8.1310    11.6050  -999.2500   -22.7510 
   95.3750    65.3320    23.0530    11.4090     8.1280    11.6600  -999.2500   -22.4790 
   95.5000    63.4010    23.0330    10.8320     8.1050    11.6710  -999.2500   -22.2150 
   95.6250    64.3960    22.8870     9.9390     8.0950    11.6810  -999.2500   -21.9540 
   95.7500    67.2520    22.8870     9.3210     8.1130    11.7080  -999.2500   -21.6980 
   95.8750    70.8000    22.9110     9.4350     8.1600    11.7210  -999.2500   -21.4230 
   96.0000    74.5030    22.9630     9.8970     8.2040    11.7030  -999.2500   -21.1350 
   96.1250    76.6200    22.9580    10.2080     8.1890    11.5920  -999.2500   -20.8320 
   96.2500    77.6120    23.1040    10.0660     8.0470    11.3340  -999.2500   -20.4750 
   96.3750    78.3350    23.3410     9.5410     7.7680    10.9120  -999.2500   -20.0930 
   96.5000    81.3880    23.5200     8.0520     7.3830    10.3620  -999.2500   -19.7030 
   96.6250    86.5800    23.5420     7.2170     6.9470     9.7610  -999.2500   -19.3190 
   96.7500    92.0400    23.6060     7.2670     6.5470     9.2230  -999.2500   -18.9760 
   96.8750    97.6450    23.5660     7.4600     6.2410     8.8480  -999.2500   -18.6660 
   97.0000   101.4170    23.5450     7.2480     6.0530     8.6460  -999.2500   -18.3790 
   97.1250   103.0400    23.5960     7.3880     5.9760     8.5830  -999.2500   -18.1350 
   97.2500   104.3690    23.5770     7.6990     5.9640     8.5950  -999.2500   -17.9950 
   97.3750   107.3490    23.5750     7.9850     5.9890     8.6460  -999.2500   -17.9030 
   97.5000   108.2520    23.5520     8.2330     6.0060     8.6810  -999.2500   -17.8350 
   97.6250   105.7680    23.5510     8.1060     5.9870     8.6750  -999.2500   -17.8180 
   97.7500   104.0620    23.5460     7.5610     5.9720     8.6820  -999.2500   -17.8350 
   97.8750   103.8850    23.5530     6.6120     5.9920     8.7480  -999.2500   -17.8610 
   98.0000   105.1840    23.6650     6.6620     6.0490     8.8670  -999.2500   -17.9000 
   98.1250   106.2860    23.4880     6.5830     6.1380     9.0340  -999.2500   -17.9580 
   98.2500   104.3590    23.2850     6.0650     6.2280     9.1830  -999.2500   -18.0030 
   98.3750    97.8730    23.4470     6.0380     6.2480     9.2170  -999.2500   -18.0500 
   98.5000    90.4440    23.6430     7.0740     6.1720     9.0790  -999.2500   -18.1200 
   98.6250    90.7950    23.7740     7.7160     5.9860     8.7780  -999.2500   -18.1840 
   98.7500    98.6170    23.9090     7.0850     5.7830     8.4990  -999.2500   -18.2500 
   98.8750   107.9760    24.2190     6.1590     5.6570     8.3990  -999.2500   -18.3430 
   99.0000   111.5170    24.4420     6.1300     5.7100     8.6260  -999.2500   -18.4590 
   99.1250   104.9550    24.4530     6.6180     6.0530     9.3360  -999.2500   -18.5870 
   99.2500    95.3910    24.4590     8.4490     6.6330    10.3430  -999.2500   -18.7640 
   99.3750    88.2500    24.2480    11.7890     7.3660    11.4370  -999.2500   -18.9860 
   99.5000    84.2810    24.1310    13.1450     8.1030    12.3740  -999.2500   -19.2360 
   99.6250    84.1380    23.7930    11.9080     8.5890    12.8200  -999.2500   -19.5020 
   99.7500    85.8790    23.4180    10.2550     8.7170    12.6890  -999.2500   -19.7590 
   99.8750    88.2590    23.2250     9.3410     8.4830    12.0570  -999.2500   -19.9620 
  100.0000    88.7220    23.2640     8.7880     8.0150    11.1670  -999.2500   -20.1420 
  100.1250    88.3630    23.4570     8.1410     7.4760    10.3010  -999.2500   -20.3250 
  100.2500    87.9730    23.8880     7.4930     6.9990     9.6530  -999.2500   -20.5010 
  100.3750    85.9710    24.1900     7.2120     6.6890     9.3530  -999.2500   -20.6820 
  100.5000    83.4000    24.1030     7.4400     6.5890     9.3860  -999.2500   -20.8680 
  100.6250    83.4520    23.6730     7.6250     6.7340     9.7810  -999.2500   -21.0690 
  100.7500    84.9290    23.6200     7.9650     7.0890    10.4630  -999.2500   -21.3090 
  100.8750    83.0760    23.5880     9.0690     7.6580    11.4000  -999.2500   -21.6150 
  101.0000    76.0700    23.5900    13.9410     8.4020    12.4810  -999.2500   -21.9580 
  101.1250    69.7520    23.6670    21.6960     9.2360    13.4800  -999.2500   -22.2950 
  101.2500    67.8260    23.8110    29.0800     9.9680    14.1840  -999.2500   -22.6040 
  101.3750    70.1130    24.0600    30.9380    10.4370    14.4650  -999.2500   -22.8780 
  101.5000    74.1620    24.0260    24.7780    10.5490    14.3020  -999.2500   -23.1110 
  101.6250    76.8120    23.6790    17.0090    10.2930    13.7630  -999.2500   -23.3080 
  101.7500    76.5120    23.2930    12.4560     9.8520    13.1150  -999.2500   -23.4380 
  101.8750    73.7870    23.2080    10.7710     9.3860    12.5650  -999.2500   -23.5090 
  102.0000    70.6770    23.1770    10.3800     9.0110    12.2300  -999.2500   -23.5030 
  102.1250    69.1760    23.1020    10.1110     8.8020    12.1490  -999.2500   -23.4550 
  102.2500    69.6270    22.9420    10.0870     8.7150    12.2160  -999.2500   -23.3480 
  102.3750    72.1990    22.8210    10.2360     8.6890    12.2980  -999.2500   -23.1920 
  102.5000    74.2230    22.7520    10.0170     8.6540    12.2820  -999.2500   -22.9820 
  102.6250    74.2090    22.6190     9.4230     8.5730    12.1190  -999.2500   -22.7230 
  102.7500    74.5420    22.6080     8.8040     8.4390    11.8400  -999.2500   -22.4430 
  102.8750    76.1820    22.6530     8.5630     8.2510    11.4830  -999.2500   -22.1460 
  103.0000    78.1780    22.8330     8.4670     8.0180    11.1040  -999.2500   -21.8530 
  103.1250    79.2260    22.9440     8.3750     7.8480    10.8970  -999.2500   -21.5390 
  103.2500    79.0980    23.0200     8.4890     7.8770    11.0520  -999.2500   -21.2230 
  103.3750    78.0830    22.9420     8.6310     8.2040    11.6830  -999.2500   -20.8930 
  103.5000    76.2160    22.9130     8.3800     8.8130    12.7080  -999.2500   -20.5710 
  103.6250    74.7110    22.9390     9.2290     9.6650    13.9510  -999.2500   -20.2400 
  103.7500    74.3300    23.1000    15.6020    10.5570    15.0480  -999.2500   -19.8950 
  103.8750    74.6720    23.5300    32.2830    11.1870    15.5910  -999.2500   -19.5380 
  104.0000    76.1220    23.8480    44.6470    11.2290    15.2630  -999.2500   -19.1910 
  104.1250    78.6760    24.1030    34.6500    10.5020    13.9760  -999.2500   -18.8980 
  104.2500    84.0910    24.1310    16.0590     9.3440    12.2380  -999.2500   -18.6710 
  104.3750    90.3920    23.9690     7.9970     8.0700    10.4370  -999.2500   -18.5040 
  104.5000    93.9350    23.8470     7.0250     6.9620     8.9640  -999.2500   -18.3930 
  104.6250    96.0340    23.7300     6.7110     6.1790     8.0330  -999.2500   -18.3430 
  104.7500    99.2040    23.6190     6.6510     5.6700     7.5390  -999.2500   -18.3580 
  104.8750   103.9100    23.5710     6.6130     5.4230     7.4170  -999.2500   -18.4220 
