~V
VERS. 2.00: Ver 2.00
~W
STRT.M 90.0000:
STOP.M 264.0000:
STEP.M 0.1250:
NULL. -999.2500:
UWI. DF3021:
~C
DEPT.M :
AC.US/MT :
DEN.GM/CC :
GR.API :
CALI.CM :
RXO.OHMM :
RI. :
RML.OHMM :
SP.MV :
~A
# ...
  210.0000   386.4490     2.4330    99.5440    24.2200    11.0620     9.0770     9.5950   -31.6890 
  210.1250   380.1470     2.4400    96.3980    24.1620    12.1540     9.8110    10.1100   -32.2100 
  210.2500   371.8120     2.4360    93.6020    24.1120    13.9390    10.8600    10.9650   -32.7720 
  210.3750   363.8690     2.4180    89.9950    24.0850    15.6650    12.0630    12.2800   -33.3300 
  210.5000   358.2950     2.3970    86.4090    24.0770    17.0110    13.4730    13.9550   -33.8790 
  210.6250   356.2550     2.3840    85.2060    24.0770    19.1560    15.2030    15.9660   -34.3600 
  210.7500   356.3020     2.3750    85.0880    24.0770    22.6080    17.2030    18.2810   -34.7700 
  210.8750   357.2290     2.3630    85.5040    24.0800    26.8210    19.4540    20.8790   -35.1440 
  211.0000   358.4190     2.3490    85.0140    24.0860    30.7800    21.8940    23.6690   -35.4590 
  211.1250   360.0600     2.3410    82.3340    24.0900    33.8250    24.3750    26.4440   -35.7080 
  211.2500   362.4150     2.3410    77.6590    24.0670    35.2050    26.6830    28.9720   -35.8500 
  211.3750   365.5260     2.3400    73.9400    24.0340    35.4570    28.6800    31.1250   -35.9230 
  211.5000   368.8930     2.3390    72.3920    24.0380    35.8790    30.3080    32.8770   -35.9470 
  211.6250   371.0200     2.3420    72.0810    24.0920    37.1380    31.4930    34.1770   -35.9180 
  211.7500   371.1070     2.3430    70.8280    24.1470    38.7570    32.2970    35.0830   -35.8440 
  211.8750   369.7140     2.3350    69.3010    24.1830    40.0630    32.7470    35.5930   -35.7050 
  212.0000   368.3090     2.3190    69.5740    24.2170    40.3340    32.9160    35.7660   -35.5200 
  212.1250   367.9640     2.3060    73.1210    24.2120    39.7780    32.9300    35.7450   -35.2790 
  212.2500   368.0960     2.3060    76.0650    24.1850    39.6930    32.9960    35.7970   -35.0200 
  212.3750   368.1800     2.3150    76.0910    24.1670    40.1890    33.2650    36.1100   -34.7330 
  212.5000   368.3430     2.3150    75.1250    24.1640    40.6870    33.8360    36.7940   -34.3920 
  212.6250   369.1670     2.2900    75.1300    24.1640    41.7960    34.7490    37.8770   -34.0010 
  212.7500   370.5710     2.2560    73.9910    24.1640    43.9000    35.8010    39.0850   -33.5590 
  212.8750   372.0230     2.2340    71.8160    24.1640    46.6500    36.7930    40.1420   -33.0800 
  213.0000   372.5050     2.2370    71.4260    24.1640    48.7580    37.5940    40.8510   -32.5310 
  213.1250   369.2720     2.2620    74.6440    24.1600    47.8000    38.2340    41.2080   -31.8950 
  213.2500   359.7400     2.2960    76.9160    24.1390    45.3760    38.9520    41.5670   -31.1800 
  213.3750   342.2230     2.3370    77.1180    24.0830    45.0620    39.9090    42.1970   -30.3960 
  213.5000   318.2950     2.3870    76.6110    24.0040    48.4560    41.0330    43.0880   -29.5970 
  213.6250   293.8660     2.4400    76.4990    23.9370    53.4110    41.7110    43.6100   -28.7600 
  213.7500   275.4070     2.4830    76.7170    23.9050    55.1880    41.0380    42.7500   -27.9290 
  213.8750   265.3890     2.5060    75.2750    23.8820    50.8020    38.3020    39.7140   -27.0930 
  214.0000   263.5070     2.5060    73.0110    23.8460    42.1630    33.5940    34.5680   -26.3150 
  214.1250   270.6480     2.4890    73.2990    23.8340    33.9080    27.9680    28.4240   -25.6370 
  214.2500   286.7060     2.4590    76.0800    23.8460    27.0590    22.8570    22.8500   -25.0710 
  214.3750   311.7180     2.4130    77.6940    23.8880    20.4840    18.8550    18.5310   -24.6200 
  214.5000   341.8930     2.3620    76.8300    23.9470    15.6360    16.0840    15.6320   -24.2290 
  214.6250   368.9380     2.3220    76.4280    24.0240    13.7950    14.5600    14.1880   -23.9380 
  214.7500   387.6230     2.2980    75.5420    24.0640    13.5030    13.8750    13.6970   -23.7260 
  214.8750   398.0630     2.2840    73.8240    24.0770    14.1640    13.8270    13.8840   -23.5780 
  215.0000   403.1080     2.2790    73.3520    24.0880    15.3110    14.1930    14.4550   -23.4730 
  215.1250   404.4360     2.2800    74.4280    24.1170    16.3160    14.7170    15.0790   -23.3970 
  215.2500   402.8270     2.2800    74.5810    24.1610    17.2050    15.1720    15.5370   -23.3050 
  215.3750   398.8310     2.2780    74.3200    24.2030    17.8800    15.5480    15.8630   -23.1910 
  215.5000   394.3410     2.2740    74.6690    24.2360    17.9800    15.9850    16.2700   -23.0890 
  215.6250   391.7280     2.2750    73.5850    24.2220    18.1070    16.7780    17.1510   -22.9820 
  215.7500   390.9070     2.2780    70.5490    24.0540    19.8790    18.0550    18.6650   -22.8720 
  215.8750   390.8620     2.2770    67.1790    23.6680    23.8880    19.8030    20.7890   -22.7390 
  216.0000   391.2820     2.2690    67.9220    23.2530    28.6030    21.7700    23.2200   -22.5640 
  216.1250   393.4950     2.2560    72.3260    23.4630    30.7300    23.3150    25.1940   -22.3730 
  216.2500   397.6390     2.2420    72.9550    23.8110    29.0840    23.8780    26.0120   -22.1950 
  216.3750   401.9720     2.2280    67.6620    24.0300    26.1770    23.2700    25.4000   -22.0480 
  216.5000   404.2960     2.2180    61.1430    24.0290    24.0780    21.7880    23.6840   -21.8870 
  216.6250   404.7280     2.2170    62.7040    23.9080    22.0050    20.0540    21.6310   -21.7340 
  216.7500   404.9260     2.2250    68.6360    23.8330    19.8020    18.6480    19.9880   -21.5730 
  216.8750   401.5090     2.2400    71.5880    23.7970    18.7720    17.8080    19.0410   -21.4160 
  217.0000   387.7540     2.2630    68.7840    23.7210    21.4160    17.5810    18.8260   -21.2830 
  217.1250   363.6280     2.2990    65.4610    23.5200    29.9560    17.9270    19.2610   -21.1400 
  217.2500   348.5430     2.3330    66.6620    23.4910    35.2150    18.5290    19.9480   -20.9900 
  217.3750   359.3490     2.3440    70.5460    23.7040    33.1380    19.1240    20.5710   -20.8040 
  217.5000   394.8630     2.3230    72.5200    23.9860    27.2630    19.4040    20.7980   -20.6180 
  217.6250   431.5780     2.2990    70.3930    24.2050    22.7380    18.8720    20.1230   -20.3970 
  217.7500   448.9970     2.3030    67.8810    24.2880    21.4670    17.4130    18.4600   -20.1420 
  217.8750   447.9470     2.3300    68.6780    24.1920    20.6630    15.1630    15.9480   -19.8740 
  218.0000   437.8660     2.3530    71.0930    24.1170    16.8770    12.5370    13.0070   -19.5810 
  218.1250   423.5800     2.3440    71.1650    24.1330    10.3420    10.1010    10.2550   -19.2970 
  218.2500   406.8360     2.3170    68.4280    24.1670     6.6640     8.1780     8.1040   -19.0080 
  218.3750   391.2340     2.2930    65.3760    24.0980     5.6070     6.8590     6.6930   -18.7320 
  218.5000   380.1760     2.2890    63.2920    23.9690     5.6050     6.1140     5.9800   -18.4590 
  218.6250   371.6800     2.3110    62.5990    23.7940     5.6020     5.9180     5.8980   -18.2070 
  218.7500   360.9380     2.3380    62.4770    23.5830     5.5780     6.0580     6.1610   -17.9980 
  218.8750   348.3580     2.3540    63.0880    23.3970     5.7030     6.3950     6.5860   -17.8350 
  219.0000   337.6430     2.3610    64.8760    23.4080     5.8560     6.7860     7.0130   -17.7330 
  219.1250   332.3890     2.3720    65.3140    23.6060     5.9060     7.0960     7.3140   -17.6380 
  219.2500   331.0490     2.3830    63.1380    23.8150     5.9820     7.2810     7.4800   -17.5710 
  219.3750   331.5720     2.3830    60.2560    23.9660     6.1630     7.3330     7.5250   -17.5040 
  219.5000   332.5230     2.3690    59.1920    24.0290     6.4210     7.2730     7.4730   -17.4580 
  219.6250   333.4780     2.3560    61.3260    24.0080     6.6050     7.1230     7.3510   -17.4400 
  219.7500   334.5400     2.3540    63.7090    23.9680     6.7040     6.9400     7.2100   -17.4160 
  219.8750   335.7920     2.3600    64.1100    23.9310     6.7960     6.7610     7.0850   -17.3820 
