~V
VERS. 2.00: Ver 2.00
~W
STRT.M 130.0000:
STOP.M 271.0000:
STEP.M 0.1250:
NULL. -999.2500:
UWI. DF3076:
~C
DEPT.M :
DEN.GM/CC :
GR.API :
CALI.CM :
RXO.OHMM :
RI. :
RML.OHMM :
SP.MV :
~A
# ...
  152.5000     2.3010    89.3360    23.1870     6.5480     6.0210     6.2850    -9.4250 
  152.6250     2.2880    91.3610    23.1360     6.4950     6.0270     6.3840    -9.4290 
  152.7500     2.2890    91.8900    23.1140     6.4910     6.1700     6.5860    -9.4150 
  152.8750     2.3140    88.3180    23.1220     6.5890     6.4040     6.8470    -9.3830 
  153.0000     2.3560    83.4430    23.1400     6.9670     6.6700     7.1050    -9.3390 
  153.1250     2.3870    81.3290    23.2030     7.8350     6.8580     7.2550    -9.3040 
  153.2500     2.3890    80.7170    23.3330     8.6560     6.9120     7.2870    -9.2900 
  153.3750     2.3680    82.4310    23.4630     8.5620     6.8870     7.3150    -9.2950 
  153.5000     2.3480    87.1580    23.5110     7.7320     6.9530     7.5570    -9.3150 
  153.6250     2.3650    89.1970    23.4980     7.8570     7.3770     8.3130    -9.3730 
  153.7500     2.4210    83.4340    23.5250     9.5940     8.2370     9.5730    -9.4670 
  153.8750     2.4980    73.6140    23.5530    13.9260     9.5030    11.1780    -9.6120 
  154.0000     2.5560    67.6780    23.5700    18.4380    10.9340    12.7390    -9.8030 
  154.1250     2.5460    69.8150    23.5410    18.9350    11.9780    13.6210   -10.0010 
  154.2500     2.4750    75.2320    23.4220    15.9070    12.3890    13.7600   -10.1960 
  154.3750     2.3730    79.3080    23.2520    13.5060    12.3780    13.5740   -10.3820 
  154.5000     2.2780    79.7320    23.1500    13.2630    12.4060    13.6860   -10.5650 
  154.6250     2.2190    76.9330    23.1330    14.9590    13.0420    14.7530   -10.7300 
  154.7500     2.1900    74.8380    23.1550    18.0850    14.5080    16.8560   -10.8640 
  154.8750     2.1820    73.8380    23.2190    21.7500    16.9060    19.9350   -10.9430 
  155.0000     2.1840    72.7290    23.3600    24.7900    20.1190    23.6750   -10.9620 
  155.1250     2.1920    70.1440    23.5560    27.6530    23.5820    27.2110   -10.9330 
  155.2500     2.1980    69.1880    23.7360    30.6910    26.0920    29.2580   -10.8670 
  155.3750     2.1980    72.2090    23.8850    32.3110    26.5910    28.8660   -10.7650 
  155.5000     2.1980    77.7410    24.0070    30.4810    24.8700    26.1860   -10.6260 
  155.6250     2.2180    80.8920    24.0830    24.1140    21.8120    22.5820   -10.4540 
  155.7500     2.2740    80.1590    24.0690    17.4970    18.9770    19.6900   -10.2630 
  155.8750     2.3620    76.0520    24.0290    13.9890    17.0680    18.1280   -10.0730 
  156.0000     2.4630    70.2020    24.0090    14.7570    16.3010    17.9610    -9.8820 
  156.1250     2.5470    66.0660    23.9620    18.2060    16.7320    19.0460    -9.6990 
  156.2500     2.5980    65.3500    23.8160    20.5350    17.8710    20.6680    -9.5250 
  156.3750     2.6200    66.0600    23.6330    20.9090    19.3140    22.2900    -9.3740 
  156.5000     2.6230    65.8100    23.5080    20.3690    20.6510    23.5000    -9.2540 
  156.6250     2.6150    64.6810    23.5150    20.7340    21.5990    24.1640    -9.1740 
  156.7500     2.6010    63.0030    23.5960    21.9720    22.3080    24.6400    -9.1160 
  156.8750     2.5850    60.1690    23.6590    23.8910    22.9450    25.1460    -9.0720 
  157.0000     2.5740    59.1300    23.6810    25.5000    23.5580    25.6840    -9.0400 
  157.1250     2.5800    63.3360    23.6890    25.4160    24.0290    26.0640    -9.0020 
  157.2500     2.5980    67.3540    23.6770    24.0740    24.2680    26.1760    -8.9580 
  157.3750     2.6160    66.6830    23.6130    23.0440    24.2630    26.0430    -8.9040 
  157.5000     2.6210    62.8530    23.5820    23.1020    24.0830    25.7710    -8.8390 
  157.6250     2.6120    61.7070    23.6380    23.7570    23.8190    25.4630    -8.7630 
  157.7500     2.6020    64.8640    23.7040    23.7950    23.5310    25.1460    -8.6930 
  157.8750     2.5910    67.6780    23.7040    22.6000    23.2000    24.7640    -8.6410 
  158.0000     2.5780    67.2280    23.6350    20.7890    22.7810    24.2470    -8.6070 
  158.1250     2.5680    65.0130    23.5660    19.3200    22.1710    23.4930    -8.6030 
  158.2500     2.5700    62.9040    23.4770    18.3000    21.3570    22.5380    -8.6160 
  158.3750     2.5810    60.8740    23.3720    17.4260    20.4090    21.5080    -8.6440 
  158.5000     2.5870    60.0550    23.2660    16.6710    19.5120    20.6290    -8.6800 
  158.6250     2.5810    60.7230    23.1530    15.8860    18.9580    20.2140    -8.7350 
  158.7500     2.5770    59.4890    23.0620    15.5170    18.8380    20.2960    -8.8020 
  158.8750     2.5840    56.8140    23.0220    16.1020    19.1220    20.7640    -8.8740 
  159.0000     2.6030    57.2110    22.9940    17.5970    19.6090    21.3150    -8.9430 
  159.1250     2.6170    61.6520    22.9620    18.7700    19.8570    21.4020    -9.0110 
  159.2500     2.6170    65.3200    22.9140    18.0670    19.5470    20.7750    -9.0770 
  159.3750     2.6060    66.9450    22.8430    16.0620    18.6680    19.5500    -9.1380 
  159.5000     2.5930    67.0110    22.7590    14.1870    17.5020    18.1510    -9.1990 
  159.6250     2.5860    65.7780    22.7100    13.0480    16.4970    17.1540    -9.2520 
  159.7500     2.5820    63.1150    22.6890    12.5950    15.9340    16.7780    -9.2990 
  159.8750     2.5790    59.3440    22.7170    12.8210    15.8840    16.9980    -9.3420 
  160.0000     2.5770    55.8710    22.7530    13.5810    16.2440    17.5820    -9.3880 
  160.1250     2.5840    54.5050    22.7680    14.1820    16.7360    18.1220    -9.4320 
  160.2500     2.5950    54.8150    22.7590    14.3360    16.9860    18.2520    -9.4730 
  160.3750     2.5990    57.9620    22.7260    14.0870    16.7880    17.8340    -9.5190 
  160.5000     2.5890    62.3650    22.6600    13.3540    16.1450    16.9740    -9.5710 
  160.6250     2.5760    64.0190    22.6020    12.3080    15.2790    16.0090    -9.6300 
  160.7500     2.5730    62.1350    22.5990    11.5000    14.5450    15.3090    -9.6810 
  160.8750     2.5760    60.2150    22.6450    11.3530    14.1210    15.0320    -9.7130 
  161.0000     2.5770    60.7600    22.7080    11.8690    14.0680    15.1960    -9.7290 
  161.1250     2.5700    61.3600    22.8190    12.9100    14.3980    15.7400    -9.7480 
  161.2500     2.5630    61.1190    22.9390    13.9110    14.9250    16.4040    -9.7780 
  161.3750     2.5560    61.9120    23.0400    14.5100    15.4720    16.9760    -9.8130 
  161.5000     2.5450    64.9530    23.1070    14.8770    15.8660    17.2980    -9.8580 
  161.6250     2.5330    66.7000    23.1560    15.0090    15.9740    17.2840    -9.8960 
  161.7500     2.5290    66.0230    23.1010    14.5290    15.8780    17.0870    -9.9310 
  161.8750     2.5270    65.1670    22.9350    13.6530    15.7060    16.8770    -9.9660 
  162.0000     2.5210    66.8950    22.8110    13.2700    15.6120    16.8260    -9.9980 
  162.1250     2.5110    70.3420    22.8560    14.0550    15.7410    17.0700   -10.0100 
  162.2500     2.5060    72.2430    22.9660    15.7740    16.0680    17.5290   -10.0100 
  162.3750     2.5010    72.3740    23.1070    17.8260    16.5130    18.0720   -10.0010 
  162.5000     2.4900    71.3450    23.3200    19.4770    16.9420    18.5200    -9.9670 
  162.6250     2.4790    70.6120    23.6230    20.0830    17.1600    18.6610    -9.9280 
  162.7500     2.4810    70.2350    23.9540    20.0120    17.1140    18.5060    -9.8850 
  162.8750     2.4920    70.3130    24.2080    19.6540    16.8510    18.1570    -9.8470 
  163.0000     2.5010    69.5190    24.2990    19.0770    16.4720    17.7430    -9.8150 
  163.1250     2.4950    67.8060    24.2490    18.5720    16.0670    17.3600    -9.8030 
  163.2500     2.4890    68.7810    24.1670    18.0420    15.6870    17.0280    -9.8120 
  163.3750     2.4930    72.0180    24.1020    17.6410    15.3380    16.7340    -9.8440 
  163.5000     2.5080    73.1710    24.0810    17.2850    15.0180    16.4710    -9.8880 
  163.6250     2.5260    70.2400    24.1030    16.7620    14.7450    16.2620    -9.9310 
