~V
VERS. 2.00: Ver 2.00
~W
STRT.M 125.0000:
STOP.M 265.0000:
STEP.M 0.1250:
NULL. -999.2500:
UWI. DF3008:
~C
DEPT.M :
DEN.GM/CC :
GR.API :
CALI.CM :
RXO.OHMM :
RI. :
RML.OHMM :
SP.MV :
~A
# ...
  147.5000     2.5970    55.3760    25.0100    23.9510    19.0270    21.4620   -12.6130 
  147.6250     2.6090    55.2900    25.0110    23.4350    19.0720    21.4930   -12.5940 
  147.7500     2.6190    54.8460    25.0120    21.1700    18.7960    21.1400   -12.5610 
  147.8750     2.6140    53.5840    25.0140    18.7600    18.2110    20.4340   -12.5360 
  148.0000     2.5990    52.4370    25.0150    17.1540    17.3520    19.4320   -12.5210 
  148.1250     2.5860    52.8980    25.0170    16.5950    16.2860    18.2170   -12.5180 
  148.2500     2.5760    53.6230    25.0150    16.0450    15.2020    16.9920   -12.5420 
  148.3750     2.5620    53.4170    25.0130    14.8260    14.2760    15.9500   -12.5900 
  148.5000     2.5440    53.6590    25.0120    13.4170    13.6560    15.2710   -12.6610 
  148.6250     2.5380    54.6500    25.0150    13.2070    13.4700    15.1200   -12.7410 
  148.7500     2.5490    54.2020    25.0160    13.8490    13.6190    15.3750   -12.8440 
  148.8750     2.5630    51.8300    25.0160    14.9310    13.9990    15.8970   -12.9710 
  149.0000     2.5630    49.6630    25.0130    16.2190    14.4630    16.4800   -13.1130 
  149.1250     2.5400    48.7520    25.0110    16.8510    14.8270    16.8600   -13.2840 
  149.2500     2.5090    48.4100    25.0100    16.6480    15.0270    16.9810   -13.4700 
  149.3750     2.4860    49.4310    25.0100    16.1750    15.1060    16.9390   -13.6650 
  149.5000     2.4800    54.9750    25.0100    15.7690    15.1450    16.8850   -13.8630 
  149.6250     2.4950    59.7620    25.0060    15.7210    15.2250    16.9520   -14.0690 
  149.7500     2.5200    58.7170    24.9880    16.1830    15.3580    17.1260   -14.2750 
  149.8750     2.5470    54.2460    24.9560    16.9830    15.4940    17.3080   -14.4940 
  150.0000     2.5610    51.8970    24.9350    17.5630    15.5510    17.3580   -14.7170 
  150.1250     2.5540    51.6630    24.9330    17.7370    15.3960    17.0980   -14.9210 
  150.2500     2.5390    49.9990    24.9340    17.4390    15.0140    16.5420   -15.1140 
  150.3750     2.5280    48.3020    24.9310    16.4840    14.4610    15.7820   -15.3010 
  150.5000     2.5250    48.5230    24.9250    15.1330    13.8830    15.0100   -15.4980 
  150.6250     2.5300    49.5260    24.9230    14.1240    13.5060    14.5080   -15.7140 
  150.7500     2.5350    53.3710    24.9220    13.4150    13.4620    14.4360   -15.9430 
  150.8750     2.5310    60.4700    24.9230    13.5080    13.8170    14.8800   -16.1720 
  151.0000     2.5190    66.3330    24.9250    14.4460    14.5250    15.7760   -16.4250 
  151.1250     2.5030    67.4850    24.9190    15.9120    15.3260    16.7780   -16.7210 
  151.2500     2.4910    66.2630    24.8740    17.1270    15.7390    17.2720   -17.0560 
  151.3750     2.4780    67.3960    24.7640    17.8300    15.3950    16.8110   -17.4290 
  151.5000     2.4570    75.6760    24.6400    17.3750    14.2830    15.4050   -17.8340 
  151.6250     2.4260    84.5620    24.5650    15.2770    12.8420    13.6390   -18.2700 
  151.7500     2.4000    88.9610    24.5020    12.9750    11.6890    12.3080   -18.7100 
  151.8750     2.3890    87.8260    24.4250    11.7430    11.1090    11.7720   -19.1350 
  152.0000     2.3880    83.9760    24.3160    12.1680    11.1930    12.1150   -19.5360 
  152.1250     2.3840    81.1370    24.1950    14.3670    11.9950    13.3280   -19.8930 
  152.2500     2.3740    79.7450    24.0890    17.3620    13.2210    14.9610   -20.1950 
  152.3750     2.3610    79.9180    24.0280    19.6730    14.5750    16.5910   -20.4470 
  152.5000     2.3510    77.0390    23.9870    19.9950    15.7730    17.8630   -20.6400 
  152.6250     2.3460    72.8050    23.9160    18.5260    16.7210    18.7250   -20.7620 
  152.7500     2.3420    71.4950    23.8310    17.4810    17.6800    19.6160   -20.8420 
  152.8750     2.3400    70.5100    23.7870    17.6750    18.8920    20.8860   -20.8890 
  153.0000     2.3400    69.7530    23.7760    18.7190    20.4830    22.6800   -20.9030 
  153.1250     2.3380    74.6130    23.7820    19.7540    22.3490    24.8380   -20.8840 
  153.2500     2.3360    84.1040    23.8020    20.2440    24.0080    26.7270   -20.8450 
  153.3750     2.3330    88.7080    23.8310    20.5060    24.9920    27.7710   -20.7820 
  153.5000     2.3330    82.8080    23.8470    21.2850    25.0470    27.6840   -20.7010 
  153.6250     2.3420    74.9810    23.8600    22.0300    24.1900    26.5200   -20.6080 
  153.7500     2.3580    71.7950    23.9110    21.7740    23.0450    25.0470   -20.5090 
  153.8750     2.3690    73.4340    24.0510    21.2260    22.1310    23.8960   -20.4150 
  154.0000     2.3660    76.7460    24.3120    21.1900    21.8490    23.5300   -20.3290 
  154.1250     2.3490    78.1890    24.6340    20.9050    22.5780    24.3670   -20.2740 
  154.2500     2.3290    78.3770    24.8810    21.7780    24.2190    26.2320   -20.2530 
  154.3750     2.3160    77.2450    24.9700    25.7270    26.6050    28.8610   -20.2590 
  154.5000     2.3100    75.5520    24.9440    31.6210    29.3240    31.6930   -20.2800 
  154.6250     2.3120    74.0270    24.8790    33.9630    31.6220    33.7820   -20.3050 
  154.7500     2.3160    76.6790    24.7680    31.9050    32.9280    34.5880   -20.3320 
  154.8750     2.3190    83.1750    24.6080    29.1580    33.0680    34.0500   -20.3500 
  155.0000     2.3190    85.5030    24.4320    28.8190    32.3410    32.6570   -20.3600 
  155.1250     2.3190    81.4090    24.3600    29.1340    31.3860    31.2570   -20.3500 
  155.2500     2.3190    75.6770    24.3410    27.2420    30.7780    30.4590   -20.3290 
  155.3750     2.3180    76.6840    24.3410    23.4670    30.6620    30.3910   -20.2990 
  155.5000     2.3120    81.2500    24.3410    22.6400    30.7700    30.7350   -20.2800 
  155.6250     2.3150    81.6250    24.3410    26.0240    30.3000    30.5550   -20.2860 
  155.7500     2.3350    80.1030    24.3420    28.7830    28.8170    29.1820   -20.3290 
  155.8750     2.3670    80.0170    24.3620    26.6720    26.5880    26.7880   -20.4180 
  156.0000     2.3930    80.3570    24.4510    20.7480    24.3830    24.2560   -20.5670 
  156.1250     2.3900    76.5160    24.6690    15.8940    23.1530    23.0230   -20.8000 
  156.2500     2.3610    71.8340    24.8780    16.4960    23.3380    23.8070   -21.1100 
  156.3750     2.3220    70.8590    24.9850    22.9300    26.0050    26.3430   -21.4930 
  156.5000     2.2910    70.6280    25.0100    32.3680    31.0610    31.2610   -21.9270 
  156.6250     2.2780    67.6830    25.0100    39.4550    38.7340    38.9460   -22.3820 
  156.7500     2.2750    66.0350    25.0100    44.7760    47.6300    48.0150   -22.8210 
  156.8750     2.2760    68.1250    25.0100    49.6730    55.9410    56.6820   -23.2420 
  157.0000     2.2770    69.1770    25.0100    54.1800    62.1200    63.4800   -23.6230 
  157.1250     2.2720    66.0930    25.0100    60.1200    65.9670    68.1420   -23.9330 
  157.2500     2.2650    62.9170    25.0100    66.9830    69.0550    71.9540   -24.1750 
  157.3750     2.2620    63.9390    25.0100    70.0730    72.1610    75.5840   -24.3400 
  157.5000     2.2690    67.3830    25.0100    69.0710    75.6370    79.3640   -24.4160 
  157.6250     2.2780    68.3900    25.0100    70.9310    79.3760    83.1240   -24.4250 
  157.7500     2.2820    66.4710    25.0100    76.4150    82.4580    86.0360   -24.3800 
  157.8750     2.2810    64.0330    25.0100    81.4240    83.7550    87.1310   -24.2560 
  158.0000     2.2790    63.4300    25.0100    82.8840    82.4560    85.7600   -24.0930 
  158.1250     2.2810    64.8410    24.9980    78.9570    78.2860    81.6770   -23.8950 
  158.2500     2.2850    67.4830    24.9570    71.2150    72.9230    76.3820   -23.6930 
  158.3750     2.2920    71.7260    24.8940    63.3050    67.9240    71.3350   -23.4970 
  158.5000     2.3000    78.9660    24.8720    57.8540    64.5800    67.8450   -23.3610 
  158.6250     2.3120    82.4240    24.9270    55.1160    64.1660    67.2920   -23.3140 
