~V
VERS. 2.00: Ver 2.00
~W
STRT.M 110.0000:
STOP.M 266.0000:
STEP.M 0.1250:
NULL. -999.2500:
UWI. DF309:
~C
DEPT.M :
DEN.GM/CC :
SP.MV :
AC.US/MT :
GR.API :
CALI.CM :
RXO.OHMM :
RI. :
RML.OHMM :
~A
# ...
  120.0000     2.2280   -35.1530   438.4660    78.7480    23.7000     7.6350     6.6450     8.1800 
  120.1250     2.2020   -34.9620   441.3570    81.4180    23.7340     7.6950     6.6110     8.1580 
  120.2500     2.1850   -34.7740   443.0120    78.6210    23.8110     8.0010     6.5710     8.1360 
  120.3750     2.1820   -34.5940   441.3390    76.2260    23.8870     8.2510     6.5120     8.0860 
  120.5000     2.1910   -34.4390   437.3740    78.8370    23.9580     8.2860     6.4320     7.9890 
  120.6250     2.2020   -34.3150   434.1800    81.2700    24.0270     8.1650     6.3420     7.8540 
  120.7500     2.2060   -34.2250   433.1930    79.0450    24.0570     8.1040     6.2660     7.7350 
  120.8750     2.2060   -34.1430   434.1670    76.3820    24.0630     8.0680     6.2230     7.6680 
  121.0000     2.2030   -34.0440   436.6150    77.3600    24.0630     7.9890     6.2180     7.6620 
  121.1250     2.1960   -33.9300   439.2460    81.5230    24.0650     7.8930     6.2450     7.7000 
  121.2500     2.1850   -33.7880   440.4530    82.3280    24.0680     7.8320     6.2860     7.7400 
  121.3750     2.1720   -33.6020   441.2700    77.7460    24.0700     7.8420     6.3230     7.7550 
  121.5000     2.1670   -33.3410   446.1840    73.4700    24.0670     7.8520     6.3360     7.7240 
  121.6250     2.1760   -32.9860   460.7220    75.4360    24.0640     7.7180     6.3100     7.6400 
  121.7500     2.1990   -32.5670   478.1880    78.5970    24.0630     7.5040     6.2660     7.5330 
  121.8750     2.2260   -32.1150   485.9940    78.9800    24.0630     7.3090     6.2320     7.4400 
  122.0000     2.2470   -31.6450   475.6300    77.3700    24.0630     7.1460     6.2440     7.4030 
  122.1250     2.2490   -31.1630   450.4030    76.9520    24.0630     6.9860     6.3520     7.4810 
  122.2500     2.2390   -30.6650   425.9570    75.3830    24.0630     7.2120     6.5450     7.6660 
  122.3750     2.2240   -30.1170   409.8950    71.8680    24.0630     7.6360     6.7790     7.9000 
  122.5000     2.2130   -29.4820   403.6280    69.1870    24.0630     7.8510     6.9690     8.0730 
  122.6250     2.2060   -28.7200   405.6950    69.3500    24.0630     7.7200     6.9820     8.0100 
  122.7500     2.2080   -27.8370   410.4800    72.9740    24.0640     7.5450     6.7810     7.6740 
  122.8750     2.2220   -26.8560   415.2880    77.8940    24.0760     7.2630     6.3940     7.1110 
  123.0000     2.2490   -25.8250   420.0630    81.3800    24.1140     6.7560     5.9060     6.4500 
  123.1250     2.2770   -24.7900   425.3120    81.1730    24.1990     6.1470     5.4340     5.8600 
  123.2500     2.2950   -23.7800   429.8530    82.8650    24.2700     5.7920     5.0490     5.4210 
  123.3750     2.3030   -22.8440   432.6280    89.6900    24.3150     5.6720     4.7720     5.1430 
  123.5000     2.3050   -22.0320   433.7290    95.0520    24.3330     5.6210     4.6010     5.0030 
  123.6250     2.3010   -21.3910   433.5680    92.1420    24.3220     5.6040     4.5540     5.0090 
  123.7500     2.2880   -20.8870   432.8580    86.3400    24.2910     5.6980     4.6440     5.1750 
  123.8750     2.2720   -20.4740   431.9840    82.5920    24.2610     5.9030     4.9070     5.5530 
  124.0000     2.2680   -20.1100   429.6630    84.6030    24.2480     6.2690     5.3420     6.1470 
  124.1250     2.3080   -19.7790   419.5370    88.1220    24.2500     7.2400     5.8800     6.8520 
  124.2500     2.3850   -19.4840   397.6730    85.6440    24.2620     8.8190     6.3580     7.4340 
  124.3750     2.4690   -19.2260   367.2420    77.7460    24.2930    10.1460     6.6870     7.7590 
  124.5000     2.5240   -18.9900   339.6780    75.9780    24.3220     9.9310     6.9160     7.9100 
  124.6250     2.5340   -18.7710   328.4520    80.4820    24.3390     8.6690     7.2830     8.2530 
  124.7500     2.5250   -18.5650   327.4230    74.4090    24.3820     8.7160     8.0320     9.1490 
  124.8750     2.5270   -18.4120   323.3630    59.7470    24.4860    11.5550     9.3610    10.8510 
  125.0000     2.5510   -18.3090   307.4960    50.7930    24.6170    16.5730    11.3930    13.4880 
  125.1250     2.5890   -18.2300   283.1160    50.7220    24.6830    21.7450    14.1450    17.0390 
  125.2500     2.6150   -18.1610   262.4990    49.2210    24.7090    24.8090    17.0190    20.6760 
  125.3750     2.6210   -18.0970   250.7420    47.0000    24.7210    26.0670    19.3310    23.4210 
  125.5000     2.6200   -18.0510   246.9050    47.2340    24.7260    26.0470    20.6350    24.6600 
  125.6250     2.6270   -18.0310   248.0030    48.2910    24.7260    25.0410    20.9290    24.5420 
  125.7500     2.6350   -18.0380   250.8120    48.1880    24.7260    23.6890    20.7900    23.9970 
  125.8750     2.6360   -18.0400   254.3330    48.3940    24.7260    22.4170    20.4850    23.3970 
  126.0000     2.6320   -18.0460   258.0990    49.5730    24.7260    21.1940    20.1400    22.8590 
  126.1250     2.6250   -18.0620   261.7380    51.5850    24.7260    19.7630    19.8440    22.4560 
  126.2500     2.6130   -18.0900   264.8830    53.0030    24.7260    18.5260    19.6480    22.2050 
  126.3750     2.5970   -18.1170   267.3040    53.4610    24.7260    18.0810    19.5850    22.1260 
  126.5000     2.5870   -18.1390   268.8950    54.1600    24.7310    18.3520    19.6620    22.2250 
  126.6250     2.5870   -18.1580   269.2630    55.0170    24.7390    18.4960    19.7610    22.3500 
  126.7500     2.5910   -18.1750   268.3970    56.1870    24.7530    18.7390    19.9190    22.5490 
  126.8750     2.5930   -18.2040   266.6510    57.0640    24.7680    19.1260    20.1510    22.8310 
  127.0000     2.5920   -18.2440   264.8770    55.8420    24.7600    19.7390    20.2900    22.9670 
  127.1250     2.5890   -18.2850   264.1870    54.3610    24.7590    20.0840    20.2250    22.7790 
  127.2500     2.5840   -18.3290   264.9650    54.1680    24.7750    19.8940    20.0190    22.3450 
  127.3750     2.5740   -18.3770   267.1940    53.9020    24.7940    19.1300    19.7840    21.8280 
  127.5000     2.5600   -18.4360   270.0180    52.5610    24.8020    18.2500    19.6210    21.4000 
  127.6250     2.5520   -18.5080   271.0730    51.2910    24.8020    18.3130    19.5820    21.1690 
  127.7500     2.5630   -18.5980   269.3060    50.8210    24.7900    19.5010    19.5890    21.0500 
  127.8750     2.5870   -18.6830   266.4060    52.0240    24.7590    20.8550    19.5420    20.9090 
  128.0000     2.6060   -18.7710   265.7610    53.9250    24.7380    20.8470    19.3590    20.6240 
  128.1250     2.6000   -18.8840   269.8400    55.1390    24.7390    18.9250    19.0240    20.1770 
  128.2500     2.5780   -19.0180   276.0170    53.9410    24.7520    17.4090    18.6560    19.7340 
  128.3750     2.5570   -19.1670   282.0440    50.7730    24.7550    17.0360    18.3350    19.4220 
  128.5000     2.5380   -19.3250   287.3910    48.5850    24.7490    17.3790    18.0330    19.2140 
  128.6250     2.5130   -19.4870   292.1290    49.3590    24.7260    17.1930    17.5210    18.7940 
  128.7500     2.4830   -19.6350   295.7850    52.5830    24.6950    16.6620    16.6680    17.9130 
  128.8750     2.4520   -19.7750   298.7090    57.2880    24.6560    16.3700    15.5660    16.6430 
  129.0000     2.4260   -19.8850   302.5340    61.2270    24.6210    16.0790    14.5030    15.3590 
  129.1250     2.4170   -19.9550   306.7240    62.4950    24.5390    15.1430    13.8850    14.6150 
  129.2500     2.4380   -20.0000   306.4670    60.6050    24.4200    15.0660    13.8450    14.6090 
  129.3750     2.4940   -20.0460   298.5270    55.8200    24.3880    17.4110    14.3910    15.3560 
  129.5000     2.5590   -20.0990   285.4730    50.3070    24.5160    20.6020    15.3900    16.6720 
  129.6250     2.5850   -20.1720   275.9040    47.7910    24.6010    21.1500    16.5580    18.1620 
  129.7500     2.5680   -20.2690   274.6360    51.8030    24.6200    20.3450    17.5070    19.3060 
  129.8750     2.5340   -20.3910   280.1610    59.7740    24.5860    19.7460    18.0130    19.8250 
