~V
VERS. 2.00: Ver 2.00
~W
STRT.M 60.0000:
STOP.M 232.0000:
STEP.M 0.1250:
NULL. -999.2500:
UWI. DF3065:
~C
DEPT.M :
GR.API :
CALI.CM :
RXO.OHMM :
RI. :
RML.OHMM :
DEN.GM/CC :
SP.MV :
~A
# ...
  183.7500    78.9680    22.4740     6.6570     6.7560    11.2070     2.4490    -9.2570 
  183.8750    82.8980    22.5000     7.0650     6.7670    11.2730     2.4340    -9.1900 
  184.0000    85.1910    22.4250     8.2030     6.7980    11.3320     2.4270    -9.1680 
  184.1250    83.6150    22.8940     8.8690     6.8240    11.3670     2.4330    -9.2230 
  184.2500    82.8960    23.1790     8.7930     6.8400    11.3710     2.4540    -9.3560 
  184.3750    85.8000    23.4410     8.0320     6.8380    11.3480     2.4720    -9.5590 
  184.5000    88.8880    23.4600     7.3760     6.7970    11.2540     2.4660    -9.8300 
  184.6250    87.5550    23.2800     6.6550     6.7100    11.0940     2.4290   -10.1380 
  184.7500    84.8450    23.3490     6.1450     6.6200    10.9510     2.3860   -10.4570 
  184.8750    84.1920    23.4820     6.1400     6.5520    10.8680     2.3630   -10.7150 
  185.0000    85.4140    23.5330     6.3250     6.5260    10.8720     2.3610   -10.8990 
  185.1250    85.4470    23.5780     6.4590     6.6150    11.0880     2.3640   -11.0230 
  185.2500    83.3950    23.7690     7.1170     6.8570    11.5680     2.3660   -11.1450 
  185.3750    81.7850    23.9790     8.2000     7.2370    12.2660     2.3710   -11.2820 
  185.5000    82.6980    24.0960     8.6680     7.7500    13.1390     2.3780   -11.4830 
  185.6250    82.7820    24.0640     8.4330     8.4490    14.2790     2.3840   -11.7420 
  185.7500    78.8170    23.9790     8.2830     9.3240    15.6600     2.3860   -12.0380 
  185.8750    73.6680    23.8050     9.1660    10.3870    17.3010     2.3850   -12.3770 
  186.0000    71.8570    23.5390    10.6880    11.7070    19.3860     2.3810   -12.7520 
  186.1250    74.3580    23.5260    13.0110    13.4620    22.2350     2.3740   -13.1270 
  186.2500    76.0280    23.5990    16.7750    15.6990    25.8560     2.3600   -13.4570 
  186.3750    74.8340    23.6810    20.2550    18.5550    30.3780     2.3370   -13.7490 
  186.5000    73.1620    23.7880    22.3390    22.1770    35.9030     2.3080   -13.9960 
  186.6250    72.6520    23.9060    26.0360    26.6570    42.4190     2.2820   -14.2370 
  186.7500    70.6540    24.1240    31.6870    31.6910    49.4660     2.2580   -14.5390 
  186.8750    65.5830    24.1570    35.9720    37.1560    56.8650     2.2300   -14.8570 
  187.0000    60.8060    24.1190    36.7600    42.8200    64.2790     2.2020   -15.1550 
  187.1250    61.6170    24.1670    38.6880    48.0510    70.9470     2.1840   -15.4330 
  187.2500    64.6700    24.2670    41.8110    52.5090    76.3430     2.1800   -15.6710 
  187.3750    66.4910    24.2020    44.0650    55.6500    79.6890     2.1860   -15.8690 
  187.5000    67.3560    24.1190    45.0780    56.8570    80.2300     2.1950   -16.0260 
  187.6250    69.4470    24.1730    44.4340    55.8660    77.7100     2.2040   -16.1530 
  187.7500    71.7020    24.3120    41.5580    53.4810    73.3620     2.2120   -16.2260 
  187.8750    71.1040    24.3260    36.0160    50.1670    67.9510     2.2180   -16.3020 
  188.0000    67.6190    24.1340    27.8640    46.6030    62.5810     2.2250   -16.4520 
  188.1250    63.9410    24.1110    24.3630    43.6160    58.3260     2.2340   -16.6650 
  188.2500    64.0990    24.1110    29.4980    41.3190    55.1620     2.2480   -16.9000 
  188.3750    67.9590    24.0880    34.4290    39.7210    53.0680     2.2590   -17.1560 
  188.5000    71.4990    24.0680    29.9040    38.8480    51.9540     2.2590   -17.3760 
  188.6250    73.0550    23.8610    23.7040    38.7740    52.0470     2.2480   -17.5250 
  188.7500    72.5400    23.8050    21.0020    39.7230    53.6820     2.2370   -17.6120 
  188.8750    70.1170    23.5980    20.4230    42.1650    57.4600     2.2360   -17.6810 
  189.0000    66.3830    23.5280    21.4280    46.6950    63.9670     2.2360   -17.7540 
  189.1250    63.6440    23.6270    26.2190    54.2940    74.3150     2.2270   -17.8360 
  189.2500    63.3580    23.9480    36.2180    65.0600    88.6020     2.2070   -17.9720 
  189.3750    63.8660    24.1800    50.7240    78.9740   106.6610     2.1860   -18.1380 
  189.5000    65.1960    24.3830    66.2550    94.8740   127.0020     2.1670   -18.3370 
  189.6250    66.3900    24.4050    74.6120   110.3100   146.5870     2.1530   -18.5500 
  189.7500    65.7520    24.4220    78.1790   122.5950   161.5940     2.1470   -18.7290 
  189.8750    65.7490    24.3820    79.5070   129.5840   169.0140     2.1540   -18.8640 
  190.0000    67.0330    24.1780    81.1130   130.4030   167.8080     2.1630   -18.9180 
  190.1250    66.7500    24.2130    81.4100   124.9390   158.7450     2.1680   -18.9160 
  190.2500    64.5300    24.3110    78.2670   116.4300   146.5490     2.1700   -18.9280 
  190.3750    63.3010    24.2870    69.7300   106.6510   133.7000     2.1710   -18.9710 
  190.5000    64.9560    24.1520    57.3760    97.0930   121.8890     2.1700   -19.0550 
  190.6250    67.5360    24.1590    49.1880    89.2350   112.8110     2.1660   -19.1840 
  190.7500    67.9120    24.1670    46.3440    83.6620   106.7650     2.1640   -19.3780 
  190.8750    64.4000    24.2260    46.2340    80.7210   103.9300     2.1700   -19.5840 
  191.0000    59.3230    24.1150    47.4540    80.4140   104.1870     2.1730   -19.7760 
  191.1250    59.6040    24.1000    49.7740    82.9490   107.9320     2.1670   -19.9160 
  191.2500    64.6290    24.0900    53.2800    87.6130   114.1180     2.1560   -19.9560 
  191.3750    67.9960    24.1030    59.6600    93.5220   121.7770     2.1570   -19.9320 
  191.5000    67.7040    24.1150    67.2570    99.7550   129.8050     2.1700   -19.9070 
  191.6250    65.9800    24.0530    76.7990   105.3010   136.9530     2.2000   -19.9350 
  191.7500    65.3710    23.7960    84.2230   109.8580   142.7890     2.2530   -20.0160 
  191.8750    64.6350    23.5600    79.4870   113.2460   147.1950     2.3310   -20.1090 
  192.0000    62.4950    23.5210    60.7930   115.8020   150.6890     2.3960   -20.1700 
  192.1250    59.8340    23.6910    53.8940   118.3560   154.4720     2.4120   -20.2150 
  192.2500    59.9640    24.1540    57.0100   121.6490   159.3460     2.3710   -20.2760 
  192.3750    62.0850    24.3160    65.5670   126.1660   165.4570     2.2990   -20.3430 
  192.5000    63.6380    24.1510    72.2390   131.4910   171.8220     2.2320   -20.4240 
  192.6250    62.8170    24.1200    72.8560   135.8090   176.2620     2.1790   -20.4840 
  192.7500    61.7540    24.0980    72.6170   137.6850   176.9200     2.1450   -20.4320 
  192.8750    61.8380    24.0550    79.5600   136.1330   172.5300     2.1390   -20.3040 
  193.0000    63.0130    24.1280    90.0560   130.9210   163.3760     2.1440   -20.2720 
  193.1250    65.8320    23.9310    91.0390   122.2610   150.5630     2.1430   -20.3310 
  193.2500    68.5270    23.9800    78.2850   112.7450   137.8400     2.1300   -20.3160 
  193.3750    68.5110    23.8910    64.4250   104.4880   127.7750     2.1170   -20.2730 
  193.5000    66.5050    23.6640    60.0650    98.8090   121.4530     2.1260   -20.2080 
  193.6250    64.8710    23.7260    63.7200    96.8280   119.8110     2.1570   -20.0510 
  193.7500    63.1660    23.6310    66.2560    97.8510   121.6930     2.1920   -19.8650 
  193.8750    60.6920    23.3360    66.3650   101.4280   126.6560     2.2010   -19.8220 
  194.0000    58.9630    23.2960    69.5030   106.8210   133.6500     2.1880   -19.7750 
  194.1250    61.4990    23.5620    75.1690   112.8990   141.4600     2.1680   -19.6360 
  194.2500    65.3570    23.7700    77.4720   118.3930   148.5360     2.1570   -19.5220 
  194.3750    66.6560    23.9710    77.4460   122.5900   153.9170     2.1630   -19.4380 
  194.5000    64.0450    24.0790    76.6750   125.5230   157.8340     2.1810   -19.3450 
  194.6250    59.1460    24.1450    77.5020   127.4240   160.6240     2.2020   -19.2760 
  194.7500    55.7540    24.2410    78.7070   128.7340   163.0630     2.2160   -19.3420 
  194.8750    56.1340    24.2610    77.2610   129.8780   165.5420     2.2150   -19.3280 
