~V
VERS. 2.00: Ver 2.00
~W
STRT.M 135.0000:
STOP.M 270.0000:
STEP.M 0.1250:
NULL. -999.2500:
UWI. DF3063:
~C
DEPT.M :
SP.MV :
GR.API :
CALI.CM :
RXO.OHMM :
RI. :
RML.OHMM :
DEN.GM/CC :
~A
# ...
  146.2500   -22.2530    73.2500    22.9730    10.8700     9.8550    12.0030     2.2000 
  146.3750   -22.1340    73.5280    23.0770    10.8020     9.9610    12.1510     2.1880 
  146.5000   -22.0480    71.4690    23.1450    10.8250    10.0990    12.3040     2.1920 
  146.6250   -21.9860    68.0390    23.2820    11.1690    10.2460    12.4590     2.2040 
  146.7500   -21.8260    66.5470    23.3350    11.8570    10.3750    12.5870     2.2040 
  146.8750   -21.5970    67.1440    22.7590    12.8950    10.4830    12.6540     2.1990 
  147.0000   -21.4230    67.6070    22.0800    13.6600    10.5520    12.6550     2.2040 
  147.1250   -21.2720    67.8530    22.0910    12.9300    10.5900    12.6070     2.2190 
  147.2500   -21.0330    69.9380    22.5170    11.8280    10.6290    12.5880     2.2240 
  147.3750   -20.7380    71.0560    22.8450    11.4370    10.6810    12.6410     2.2130 
  147.5000   -20.4500    68.2580    23.1340    11.5990    10.7220    12.7110     2.2030 
  147.6250   -20.1160    63.5310    23.1340    11.9980    10.7180    12.6980     2.2170 
  147.7500   -19.7270    64.4770    23.1510    12.0280    10.6530    12.5900     2.2410 
  147.8750   -19.3260    71.3690    23.2050    11.9970    10.4760    12.3840     2.2560 
  148.0000   -18.9310    77.8260    23.4670    12.1560    10.1730    12.0430     2.2540 
  148.1250   -18.4720    80.4450    23.7460    11.7880     9.8330    11.6300     2.2450 
  148.2500   -17.9520    82.9930    23.9020    10.5500     9.5890    11.3620     2.2440 
  148.3750   -17.5280    86.6370    23.9700     9.8410     9.5590    11.3830     2.2540 
  148.5000   -17.1650    87.3240    23.9700    10.0300     9.7770    11.7140     2.2680 
  148.6250   -16.7340    82.7190    24.0250    10.3460    10.2020    12.2800     2.2740 
  148.7500   -16.2750    78.1670    24.0400    10.8100    10.6960    12.8570     2.2710 
  148.8750   -15.9230    74.8690    24.0440    13.1490    11.1710    13.2850     2.2650 
  149.0000   -15.6130    72.0450    23.8690    17.3760    11.5260    13.5080     2.2670 
  149.1250   -15.2670    71.6670    24.0290    19.2570    11.7100    13.5840     2.2810 
  149.2500   -14.9150    74.5260    24.0040    16.0810    11.9130    13.7740     2.2910 
  149.3750   -14.5760    78.4000    23.8770    12.4980    12.3210    14.2980     2.2850 
  149.5000   -14.2620    78.7790    23.9200    13.6970    13.0550    15.2620     2.2700 
  149.6250   -13.9570    73.9460    23.8540    19.8990    14.2700    16.7230     2.2920 
  149.7500   -13.6520    67.8700    23.7880    28.3530    15.8040    18.3720     2.3780 
  149.8750   -13.3420    63.1460    23.5950    37.3860    17.4090    19.9480     2.5110 
  150.0000   -13.0080    60.6390    23.5340    42.3110    18.7810    21.1820     2.6380 
  150.1250   -12.6650    60.0810    23.7880    33.9120    19.5030    21.7280     2.7000 
  150.2500   -12.3460    59.3630    24.1050    25.0420    19.5380    21.6050     2.7060 
  150.3750   -12.1120    57.7500    24.5110    22.0800    19.0530    20.9900     2.6850 
  150.5000   -11.8710    55.7460    24.6000    23.2010    18.3490    20.2320     2.6570 
  150.6250   -11.6210    54.6640    24.4860    23.4090    17.6720    19.6070     2.6360 
  150.7500   -11.4310    52.1380    24.1950    21.4690    17.1480    19.1840     2.6270 
  150.8750   -11.3260    47.7590    23.7020    18.6310    16.8280    18.9380     2.6310 
  151.0000   -11.2180    45.6360    23.5620    17.0940    16.7050    18.8620     2.6470 
  151.1250   -11.1100    48.6510    23.8660    16.0740    16.8120    18.9880     2.6730 
  151.2500   -11.0900    51.9940    24.2320    16.1120    17.0880    19.2690     2.6940 
  151.3750   -11.1070    52.0480    24.5620    17.8910    17.4840    19.6340     2.6970 
  151.5000   -11.0500    49.6400    24.6800    21.1440    17.9570    20.0420     2.6860 
  151.6250   -11.0030    48.8360    24.6720    21.7600    18.4470    20.4000     2.6780 
  151.7500   -11.0530    50.1260    24.7370    20.4970    18.8700    20.7130     2.6750 
  151.8750   -11.0820    50.0260    24.7250    19.8020    19.2390    21.0220     2.6650 
  152.0000   -11.0410    46.4610    24.7090    20.9810    19.5870    21.3740     2.6430 
  152.1250   -11.0550    43.7790    24.7050    22.1010    19.9160    21.7810     2.6230 
  152.2500   -11.1450    43.8080    24.7050    22.2550    20.2130    22.1940     2.6140 
  152.3750   -11.1830    43.5090    24.7020    22.1340    20.4740    22.5890     2.6170 
  152.5000   -11.1970    41.9970    24.6900    21.4300    20.6780    22.9040     2.6270 
  152.6250   -11.2420    42.5160    24.6220    21.1220    20.8160    23.0750     2.6400 
  152.7500   -11.3090    43.3730    24.5930    20.6570    20.9420    23.2050     2.6480 
  152.8750   -11.3630    43.1730    24.5410    20.5670    21.1060    23.3620     2.6450 
  153.0000   -11.4190    45.0800    24.4220    20.6090    21.3700    23.6440     2.6350 
  153.1250   -11.4890    50.4150    24.4010    21.0550    21.7770    24.0860     2.6340 
  153.2500   -11.5720    54.8550    24.3990    22.3080    22.2590    24.6060     2.6410 
  153.3750   -11.6220    55.2140    24.4140    24.0140    22.7430    25.0760     2.6470 
  153.5000   -11.6780    51.8610    24.5100    24.9930    23.0970    25.3460     2.6440 
  153.6250   -11.7990    49.3160    24.5200    26.0470    23.1820    25.3030     2.6360 
  153.7500   -11.9320    51.1360    24.4790    25.8170    22.9870    24.9540     2.6250 
  153.8750   -11.9990    55.2450    24.4660    24.7990    22.5580    24.3430     2.6050 
  154.0000   -12.0840    56.8720    24.6780    23.6920    21.9550    23.5860     2.5740 
  154.1250   -12.2240    55.2440    24.9200    20.8330    21.3150    22.8690     2.5470 
  154.2500   -12.3520    54.2910    24.8490    19.9830    20.7940    22.3480     2.5330 
  154.3750   -12.4680    54.3030    24.7640    20.4780    20.4650    22.0800     2.5280 
  154.5000   -12.6000    54.1320    24.8810    21.7700    20.3280    22.0370     2.5270 
  154.6250   -12.7440    54.9160    24.8090    21.6790    20.3300    22.1070     2.5300 
  154.7500   -12.8400    57.3050    24.7710    20.4970    20.4120    22.2320     2.5300 
  154.8750   -12.8940    60.4280    24.7670    19.8840    20.5440    22.3490     2.5200 
  155.0000   -12.9990    62.1320    24.7590    20.3140    20.6170    22.3470     2.5070 
  155.1250   -13.1180    58.7460    24.9280    20.7400    20.5430    22.2030     2.5120 
  155.2500   -13.1390    53.1620    24.8000    21.0530    20.3890    22.0250     2.5380 
  155.3750   -13.1100    50.3280    24.5090    20.5370    20.1710    21.8140     2.5670 
  155.5000   -13.1730    52.0400    24.3380    20.2360    19.8860    21.5420     2.5720 
  155.6250   -13.2310    55.9190    24.3320    19.8540    19.5090    21.2090     2.5470 
  155.7500   -13.2220    58.0280    24.2440    19.1650    19.0660    20.8390     2.5200 
  155.8750   -13.2030    59.3630    24.2350    19.5410    18.5800    20.4270     2.5150 
  156.0000   -13.2000    61.3960    24.7200    20.4250    18.1380    20.0480     2.5350 
  156.1250   -13.2160    63.2650    24.7020    20.7440    17.7960    19.7560     2.5620 
  156.2500   -13.2250    65.0880    24.7430    19.4400    17.4930    19.4880     2.5790 
  156.3750   -13.2230    66.2010    24.9140    17.9500    17.2140    19.2430     2.5900 
  156.5000   -13.2130    66.0450    24.9600    17.5670    16.9590    19.0330     2.6020 
  156.6250   -13.1970    64.7600    24.8060    17.8860    16.6620    18.7260     2.6050 
  156.7500   -13.1820    65.1400    24.8540    18.5700    16.2580    18.2930     2.5820 
  156.8750   -13.1710    68.3340    24.9420    17.7950    15.7850    17.8250     2.5380 
  157.0000   -13.1970    71.1760    24.9620    15.2470    15.3630    17.4540     2.4980 
  157.1250   -13.2460    70.6420    24.7690    13.5350    15.0740    17.2180     2.4820 
  157.2500   -13.2370    66.8630    24.7400    13.9280    14.9370    17.1470     2.4820 
  157.3750   -13.2130    62.4540    24.7200    14.9820    14.9240    17.1930     2.4910 
