~V
VERS. 2.00: Ver 2.00
~W
STRT.M 54.0000:
STOP.M 250.0000:
STEP.M 0.1250:
NULL. -999.2500:
UWI. DF3016:
~C
DEPT.M :
GR.API :
RML.OHMM :
RI. :
RXO.OHMM :
CALI.CM :
DEN.GM/CC :
SP.MV :
~A
# ...
  121.5000    84.5930     7.7180     6.9660     6.7110    22.8350     2.2680   -19.5560 
  121.6250    85.4600     7.6380     6.8390     6.8890    22.9780     2.2750   -19.1240 
  121.7500    88.9130     7.5450     6.7370     7.1500    23.0860     2.2840   -18.7440 
  121.8750    90.3610     7.4260     6.6340     6.8740    23.2150     2.2990   -18.3960 
  122.0000    91.1030     7.3010     6.5320     6.3910    23.3410     2.3160   -18.1150 
  122.1250    92.9810     7.2130     6.4540     6.2080    23.4160     2.3300   -17.8410 
  122.2500    92.9680     7.1710     6.4090     6.3180    23.4580     2.3350   -17.6450 
  122.3750    90.6690     7.1590     6.3930     6.2720    23.4260     2.3340   -17.4640 
  122.5000    88.5940     7.1480     6.3890     6.2030    23.3390     2.3290   -17.3580 
  122.6250    89.3870     7.1120     6.3780     6.2910    23.1670     2.3250   -17.2290 
  122.7500    91.9040     7.0630     6.3570     6.3000    23.0540     2.3230   -17.1230 
  122.8750    95.3060     7.0350     6.3460     6.1600    23.0070     2.3230   -17.0180 
  123.0000    97.5830     7.0680     6.3680     6.0950    22.9770     2.3220   -16.9430 
  123.1250    95.0430     7.1980     6.4520     6.3060    22.8110     2.3230   -16.8530 
  123.2500    89.8380     7.3890     6.5820     6.4230    22.6260     2.3260   -16.8210 
  123.3750    86.9560     7.5880     6.7250     6.4340    22.4760     2.3310   -16.7890 
  123.5000    88.6250     7.7220     6.8270     6.5420    22.5310     2.3340   -16.7850 
  123.6250    93.6650     7.7020     6.8160     6.7890    22.8010     2.3300   -16.8140 
  123.7500    97.6520     7.5370     6.6850     6.7540    23.2290     2.3230   -16.9340 
  123.8750    98.1890     7.2700     6.4540     6.8260    23.4920     2.3160   -17.1140 
  124.0000    96.9860     6.9670     6.1720     6.9670    23.5720     2.3160   -17.3400 
  124.1250    96.2680     6.7130     5.9100     6.6960    23.5860     2.3220   -17.6300 
  124.2500    95.6050     6.5660     5.7290     6.3320    23.6080     2.3290   -17.9080 
  124.3750    93.6840     6.5800     5.6860     6.1550    23.5780     2.3290   -18.3140 
  124.5000    90.5040     6.8040     5.8330     6.2430    23.4450     2.3200   -18.7990 
  124.6250    87.3700     7.3040     6.2490     6.5850    23.2270     2.3100   -19.4340 
  124.7500    83.8930     8.0020     6.8870     6.9520    23.0820     2.3140   -20.0900 
  124.8750    80.5960     8.7890     7.6710     7.4290    23.0430     2.3370   -20.8050 
  125.0000    78.7470     9.5170     8.4740     8.0900    22.9990     2.3690   -21.5510 
  125.1250    78.1290     9.9860     9.1020     9.0620    22.8670     2.3840   -22.2880 
  125.2500    78.6480    10.1620     9.4650     9.7600    22.7770     2.3680   -22.9980 
  125.3750    79.5700    10.0950     9.5660    10.3030    22.7530     2.3260   -23.5610 
  125.5000    78.7230     9.9130     9.4890    10.8090    22.7660     2.2760   -23.9810 
  125.6250    74.4380     9.7900     9.3670    11.2400    22.7480     2.2370   -24.1450 
  125.7500    71.1420     9.8290     9.3170    11.4100    22.7200     2.2090   -24.1090 
  125.8750    72.4350    10.0340     9.3700    11.3850    22.6740     2.1910   -23.8390 
  126.0000    74.5760    10.3000     9.4720    11.0920    22.6420     2.1840   -23.3830 
  126.1250    73.2880    10.4010     9.4730    10.7650    22.6630     2.1980   -22.7720 
  126.2500    72.6580    10.1790     9.2500    10.8850    22.8220     2.2360   -22.0950 
  126.3750    77.1690     9.5980     8.7610    11.4860    23.1980     2.2900   -21.4220 
  126.5000    83.9940     8.7770     8.0770    12.4660    23.6910     2.3420   -20.8130 
  126.6250    87.6910     7.9910     7.3900    11.9480    24.0170     2.3670   -20.3930 
  126.7500    89.3140     7.5030     6.9100     9.6160    24.0340     2.3610   -20.1260 
  126.8750    89.3660     7.4190     6.7500     7.8860    23.8340     2.3310   -19.9870 
  127.0000    86.5770     7.7060     6.9230     8.2170    23.6070     2.2930   -19.9400 
  127.1250    81.8560     8.2310     7.3760     8.9490    23.5930     2.2580   -19.9390 
  127.2500    79.8290     8.7500     7.8990     9.3000    23.6010     2.2340   -19.9980 
  127.3750    82.0830     9.1020     8.3200     9.8460    23.5790     2.2210   -20.0210 
  127.5000    84.4060     9.1940     8.5060    10.1050    23.5550     2.2190   -20.0190 
  127.6250    82.8530     8.9710     8.3580     9.5200    23.5320     2.2260   -19.8670 
  127.7500    81.2470     8.5310     7.9600     9.0060    23.4890     2.2350   -19.6620 
  127.8750    83.4010     7.9390     7.3870     8.7320    23.4780     2.2460   -19.4440 
  128.0000    90.8430     7.2800     6.7290     8.1550    23.6070     2.2590   -19.2930 
  128.1250    99.5440     6.6900     6.1120     7.0780    23.8940     2.2760   -19.2930 
  128.2500   104.4530     6.2990     5.6540     5.8960    24.1510     2.2920   -19.4460 
  128.3750   104.1030     6.2060     5.4420     5.5450    24.2190     2.3010   -19.7770 
  128.5000   100.9110     6.4660     5.5350     5.7090    24.1330     2.2970   -20.2390 
  128.6250    97.1770     7.0960     5.9860     6.1870    23.9190     2.2750   -20.8310 
  128.7500    90.5770     7.9150     6.6700     7.0180    23.6450     2.2470   -21.4660 
  128.8750    82.7680     8.7540     7.4610     8.2680    23.4120     2.2200   -22.0960 
  129.0000    77.5000     9.4440     8.1970     9.3290    23.3090     2.1990   -22.6560 
  129.1250    77.8870     9.8020     8.6760     9.8880    23.3290     2.1870   -23.0240 
  129.2500    80.6020     9.8370     8.8440     9.9340    23.4160     2.1800   -23.1630 
  129.3750    83.9470     9.5900     8.7110     9.5840    23.4940     2.1770   -23.0860 
  129.5000    86.1100     9.1520     8.3520     9.1490    23.4800     2.1780   -22.8210 
  129.6250    85.6790     8.6640     7.8950     8.7990    23.3150     2.1890   -22.4350 
  129.7500    85.5160     8.3150     7.5160     8.4980    23.0930     2.2080   -21.9760 
  129.8750    86.0050     8.2610     7.3490     8.2300    22.9970     2.2300   -21.4800 
  130.0000    86.1890     8.5860     7.4790     7.9680    23.1610     2.2500   -20.9900 
  130.1250    83.2470     9.2660     7.9210     7.7160    23.4360     2.2650   -20.5400 
  130.2500    79.0650     9.9910     8.4570     8.3110    23.5150     2.2840   -20.1230 
  130.3750    77.7660    10.4570     8.8590     9.4790    23.4730     2.3140   -19.6750 
  130.5000    79.6180    10.4280     8.9180    10.6710    23.5040     2.3550   -19.2440 
  130.6250    83.5640     9.7950     8.4900    10.8680    23.5810     2.3930   -18.8110 
  130.7500    87.8710     8.8900     7.7900     9.2320    23.6520     2.4110   -18.4080 
  130.8750    92.3440     8.0330     7.0570     7.0820    23.6780     2.4030   -18.0420 
  131.0000    96.7880     7.4550     6.4910     6.2750    23.6740     2.3760   -17.6570 
  131.1250   100.3410     7.2780     6.2300     6.4440    23.7770     2.3460   -17.3350 
  131.2500   102.4050     7.3550     6.2070     6.6430    23.9890     2.3250   -17.0440 
  131.3750   101.8300     7.5610     6.3500     6.5770    24.1480     2.3180   -16.9040 
  131.5000    99.7930     7.7850     6.5720     6.4360    24.1990     2.3230   -16.8210 
  131.6250    98.9650     7.9560     6.7920     6.5050    24.1350     2.3360   -16.8240 
  131.7500   100.3370     8.0650     6.9660     6.5650    24.0620     2.3470   -16.8330 
  131.8750   102.4040     8.1100     7.0770     6.5950    23.9790     2.3500   -16.8650 
  132.0000   101.3410     8.0880     7.1160     6.6360    23.8930     2.3450   -16.9130 
  132.1250    96.6740     7.9900     7.0700     6.6850    23.8670     2.3340   -16.9190 
  132.2500    94.6330     7.8450     6.9630     6.7530    23.9320     2.3230   -16.9620 
  132.3750    97.2430     7.6790     6.8180     6.8120    24.0690     2.3130   -16.9720 
  132.5000   100.2180     7.5240     6.6610     6.8280    24.2040     2.3060   -16.9740 
  132.6250   103.0340     7.4090     6.5220     6.7720    24.2900     2.3010   -16.9430 
