~V
VERS. 2.00: Ver 2.00
~W
STRT.M 140.0000:
STOP.M 272.0000:
STEP.M 0.1250:
NULL. -999.2500:
UWI. DF3077:
~C
DEPT.M :
GR.API :
CALI.CM :
RXO.OHMM :
RI. :
RML.OHMM :
DEN.GM/CC :
SP.MV :
~A
  140.0000    66.1320    23.9650    13.1780    15.6500    17.5040     2.1630   -12.5900 
  140.1250    65.1440    24.0920    17.0410    17.2110    19.3490     2.1640   -12.6480 
  140.2500    64.8800    24.0050    21.7310    18.5760    20.7880     2.1500   -12.6760 
  140.3750    64.7790    23.9060    24.4150    19.3700    21.4020     2.1390   -12.6580 
  140.5000    65.4740    23.8870    24.1150    19.3210    20.9790     2.1440   -12.6030 
  140.6250    67.5490    23.8680    20.8110    18.2790    19.4100     2.1630   -12.5110 
  140.7500    69.4420    23.7510    17.7910    16.6730    17.3090     2.1730   -12.4260 
  140.8750    70.0560    23.5940    16.0090    14.8580    15.1140     2.1690   -12.3450 
  141.0000    70.8110    23.2360    15.2970    13.1020    13.1980     2.1590   -12.2490 
  141.1250    73.0460    23.2450    15.2040    11.5890    11.7650     2.1550   -12.1300 
  141.2500    74.8240    23.3680    13.2160    10.3180    10.6800     2.1590   -11.9870 
  141.3750    74.2970    23.4010    10.4530     9.3040     9.8720     2.1720   -11.8340 
  141.5000    73.5260    23.4650     9.2200     8.5580     9.3140     2.1870   -11.6760 
  141.6250    77.5640    23.6060     8.6930     8.2210     9.1850     2.2060   -11.5490 
  141.7500    83.8660    23.8760     7.8870     8.3510     9.5960     2.2180   -11.4830 
  141.8750    86.5340    24.2370     7.1930     8.9790    10.5620     2.2080   -11.4730 
  142.0000    82.1490    24.4020     7.8070    10.0660    11.9530     2.1680   -11.5170 
  142.1250    73.7460    24.4230    10.4890    11.5360    13.5870     2.1210   -11.6220 
  142.2500    67.1540    24.4090    12.5240    13.1180    15.1640     2.0920   -11.7520 
  142.3750    64.3100    24.3040    13.3380    14.5220    16.3730     2.0820   -11.8720 
  142.5000    65.2000    24.4380    14.6620    15.4520    16.9380     2.0800   -11.9870 
  142.6250    66.6170    24.5550    15.9380    15.5710    16.7760     2.0790   -12.0600 
  142.7500    66.0920    24.2240    15.7820    15.0170    16.5180     2.0840   -12.0660 
  142.8750    65.2540    23.7770    14.4970    14.1000    15.5100     2.0980   -12.0030 
  143.0000    65.7530    23.4880    13.2110    13.1690    14.4860     2.1220   -11.8460 
  143.1250    66.0120    23.4490    11.9210    12.4050    13.6460     2.1460   -11.5470 
  143.2500    65.8680    23.4450    11.2480    11.7950    12.9750     2.1580   -11.2090 
  143.3750    68.0780    23.5180    10.9430    11.3110    12.4420     2.1580   -10.8840 
  143.5000    71.2210    23.5550    10.6650    10.9340    12.0270     2.1500   -10.5960 
  143.6250    70.2100    23.5520    10.4800    10.6220    11.6840     2.1350   -10.3030 
  143.7500    67.6150    23.4900    10.5430    10.3170    11.3490     2.1230    -9.9370 
  143.8750    68.2030    23.3570    10.7030     9.9830    10.9810     2.1310    -9.4660 
  144.0000    72.2110    23.3510    10.5780     9.5840    10.5420     2.1680    -8.9180 
  144.1250    76.6260    23.7170    10.0830     9.0960    10.0050     2.2260    -8.3770 
  144.2500    80.0880    24.2030     9.7410     8.5790     9.4360     2.2750    -7.8870 
  144.3750    83.6320    24.5400     9.0060     8.0890     8.8980     2.2940    -7.4210 
  144.5000    85.8470    24.8940     8.2080     7.6540     8.4200     2.2760    -6.9360 
  144.6250    85.1090    25.0010     7.6760     7.3110     8.0420     2.2360    -6.4400 
  144.7500    82.8850    25.1700     7.5130     7.0610     7.7670     2.2120    -6.0240 
  144.8750    81.6130    25.3270     7.2740     6.9040     7.5940     2.2220    -5.7590 
  145.0000    80.8680    25.3830     6.9810     6.8300     7.5130     2.2550    -5.6300 
  145.1250    82.1670    25.4100     6.9030     6.8300     7.5130     2.2780    -5.5660 
  145.2500    88.0330    25.4070     6.6190     6.8560     7.5420     2.2770    -5.4320 
  145.3750    95.6030    25.4260     6.5060     6.8880     7.5770     2.2660    -5.2520 
  145.5000    98.2330    25.5970     6.7260     6.9320     7.6250     2.2580    -5.0880 
  145.6250    92.8510    25.6870     7.0940     6.9790     7.6770     2.2570    -5.0400 
  145.7500    86.1930    25.7040     7.3860     7.0560     7.7620     2.2630    -5.0810 
  145.8750    82.7430    25.7190     7.2550     7.1720     7.8890     2.2790    -5.1130 
  146.0000    83.4060    25.7170     6.8310     7.3220     8.0540     2.2970    -5.1240 
  146.1250    85.3640    25.7410     6.7960     7.4940     8.2430     2.2960    -5.0810 
  146.2500    83.4260    25.7990     6.9490     7.6320     8.3950     2.2750    -5.0200 
  146.3750    81.0930    25.7910     7.4100     7.6730     8.4400     2.2480    -4.9690 
  146.5000    84.2050    25.6640     8.2140     7.5890     8.3480     2.2360    -4.9410 
  146.6250    88.4100    25.5380     8.6030     7.4190     8.1610     2.2500    -4.9180 
  146.7500    87.4350    25.6480     7.7800     7.2550     7.9810     2.2730    -4.8590 
  146.8750    85.4140    25.7540     6.6670     7.1930     7.9130     2.2900    -4.8130 
  147.0000    87.7370    25.6710     6.2780     7.3100     8.0410     2.2900    -4.8130 
  147.1250    92.3990    25.6100     6.6870     7.6400     8.4040     2.2690    -4.8790 
  147.2500    93.6880    25.5650     8.2060     8.1000     8.9100     2.2380    -5.0140 
  147.3750    91.7160    25.6340     9.7600     8.6280     9.4910     2.2050    -5.1960 
  147.5000    88.5280    25.6230    10.0980     9.1340    10.0480     2.1810    -5.3740 
  147.6250    84.5420    25.6290     9.5220     9.5320    10.4850     2.1690    -5.4840 
  147.7500    79.6540    25.7340     9.0450     9.8350    10.8180     2.1680    -5.5660 
  147.8750    73.5740    25.8980     9.0420    10.0860    11.0950     2.1720    -5.5980 
  148.0000    70.3640    26.0040     9.9230    10.3520    11.3870     2.1740    -5.5820 
  148.1250    75.1390    25.8800    10.7780    10.6770    11.7450     2.1690    -5.5560 
  148.2500    81.0800    25.5950    11.1890    10.9890    12.0880     2.1630    -5.5540 
  148.3750    83.2870    25.4420    11.4930    11.1410    12.2550     2.1590    -5.5480 
  148.5000    82.7720    25.4050    12.0220    11.0050    12.1050     2.1580    -5.5210 
  148.6250    81.8400    25.4040    12.2390    10.5120    11.5630     2.1620    -5.4950 
  148.7500    81.2290    25.4100    11.6960     9.8620    10.8480     2.1720    -5.4570 
  148.8750    81.3410    25.4520    10.1840     9.2650    10.1920     2.1920    -5.4370 
  149.0000    82.7230    25.3690     8.5260     8.8770     9.7650     2.2180    -5.4230 
  149.1250    83.2860    25.3450     8.0070     8.8680     9.7550     2.2340    -5.3730 
  149.2500    80.3170    25.4370     8.3800     9.2200    10.1420     2.2300    -5.3160 
  149.3750    76.6800    25.5200     9.3250     9.9030    10.8930     2.2060    -5.3060 
  149.5000    76.0440    25.4360    10.6140    10.8240    11.9060     2.1750    -5.3310 
  149.6250    76.7250    25.4050    11.8520    11.7900    12.9680     2.1520    -5.3880 
  149.7500    75.1860    25.3890    12.6880    12.5510    13.8060     2.1430    -5.4230 
  149.8750    72.3450    25.3970    13.1960    12.9310    14.2250     2.1470    -5.4350 
  150.0000    72.9440    25.4220    13.4390    12.8730    14.1600     2.1600    -5.3740 
  150.1250    77.7980    25.5570    13.3370    12.3780    13.6150     2.1730    -5.2830 
  150.2500    80.8510    25.4170    13.1260    11.6580    12.8240     2.1840    -5.1330 
  150.3750    79.5110    25.3180    12.4390    10.8980    11.9880     2.1950    -4.9290 
  150.5000    77.3060    25.1260    11.2100    10.2260    11.2490     2.2160    -4.7280 
  150.6250    80.1360    25.0150     9.8280     9.7400    10.7140     2.2470    -4.5930 
  150.7500    83.5350    24.9970     9.3420     9.4180    10.3600     2.2660    -4.5450 
  150.8750    83.5180    25.0100     9.2850     9.2440    10.1680     2.2650    -4.5230 
  151.0000    81.1130    24.9290     9.3720     9.1890    10.1070     2.2490    -4.5450 
  151.1250    81.7250    24.9250     9.3310     9.2170    10.1380     2.2370    -4.5610 
