~V
VERS. 2.00: Ver 2.00
~W
STRT.M 120.0000:
STOP.M 233.0000:
STEP.M 0.1250:
NULL. -999.2500:
UWI. DF3066:
~C
DEPT.M :
GR.API :
RML.OHMM :
RI. :
RXO.OHMM :
CALI.CM :
DEN.GM/CC :
SP.MV :
~A
# ...
  198.7500    65.4680   154.5270   140.0830    89.9990    24.2960     2.1930   -24.9080 
  198.8750    62.6990   166.5850   150.4450    91.6250    24.1470     2.2080   -24.8840 
  199.0000    64.9510   178.5410   161.1550    93.8550    24.0310     2.2170   -24.7500 
  199.1250    68.5350   187.9720   170.1730    97.3690    23.8640     2.2170   -24.7630 
  199.2500    68.8120   193.6790   176.2560    99.9220    23.8660     2.2080   -24.8110 
  199.3750    66.8550   195.1030   178.7270   100.9250    23.8850     2.1940   -24.6150 
  199.5000    66.1100   191.9700   177.4780   100.9810    23.8930     2.1810   -24.4140 
  199.6250    67.9280   184.4110   172.2360   102.1810    23.8870     2.1730   -24.2780 
  199.7500    67.9160   173.8270   164.0700   104.5330    23.8550     2.1700   -24.0330 
  199.8750    64.7520   161.8660   153.5310   106.0750    23.8110     2.1680   -23.8920 
  200.0000    61.7470   148.5270   141.1770   102.3230    23.8660     2.1650   -23.7910 
  200.1250    62.3500   136.2280   127.4270    93.2110    24.1100     2.1590   -23.5410 
  200.2500    63.9070   124.0820   113.3890    82.7650    24.3510     2.1510   -23.3830 
  200.3750    63.6990   110.4540   100.3190    74.7170    24.3980     2.1400   -23.2970 
  200.5000    62.7460    97.9240    89.6630    69.1120    24.2320     2.1340   -23.1990 
  200.6250    63.6260    91.0550    83.3290    62.1450    24.1080     2.1380   -23.1830 
  200.7500    64.9820    88.9150    81.1700    54.8940    24.0620     2.1500   -23.1870 
  200.8750    66.2550    90.5110    82.6860    54.0850    24.0580     2.1650   -23.1730 
  201.0000    68.3980    94.3060    86.6190    61.1370    24.0700     2.1740   -23.1140 
  201.1250    69.8690    98.2570    91.0350    69.3210    24.0910     2.1690   -23.0710 
  201.2500    67.7430   100.4720    93.9110    72.4940    24.1270     2.1560   -23.0470 
  201.3750    63.5910   100.0090    94.1690    72.5390    24.1880     2.1400   -23.0270 
  201.5000    62.2650    96.9080    91.6890    70.3720    24.1910     2.1270   -22.9610 
  201.6250    65.8710    92.1390    87.2520    66.3540    23.9910     2.1190   -22.9340 
  201.7500    69.3430    87.7040    82.8180    63.3600    23.6620     2.1150   -22.9060 
  201.8750    69.2410    85.1670    79.8800    61.4290    23.5800     2.1120   -22.8190 
  202.0000    67.9240    85.8640    79.6780    58.0200    23.5520     2.1140   -22.8700 
  202.1250    68.8960    91.2080    83.4840    55.3640    23.4970     2.1340   -22.8880 
  202.2500    70.1770    99.9670    90.2510    57.3620    23.3370     2.1840   -22.8270 
  202.3750    69.4100   110.3900    98.4630    64.9930    23.5140     2.2680   -22.9080 
  202.5000    67.1510   120.0860   106.1120    79.6160    23.7650     2.3710   -22.9860 
  202.6250    64.2450   126.4260   111.1520   102.8340    23.8060     2.4480   -22.9640 
  202.7500    61.6450   129.7530   113.9700   113.2950    23.7920     2.4660   -23.0560 
  202.8750    60.5770   131.7760   115.9770    90.9710    23.7680     2.4320   -23.0650 
  203.0000    60.2530   134.3300   118.6500    70.4110    23.7110     2.3830   -23.0160 
  203.1250    59.4280   137.6960   122.2740    68.5370    23.6330     2.3690   -23.1510 
  203.2500    59.7660   139.6040   124.9520    78.7310    23.7240     2.3980   -23.1960 
  203.3750    62.6090   137.4050   124.3700    98.5260    23.8390     2.4520   -23.1320 
  203.5000    64.5450   129.6290   118.9940   111.6800    24.0240     2.4950   -23.1690 
  203.6250    63.1910   116.9850   108.8190    96.9250    24.2180     2.4850   -23.1510 
  203.7500    61.9780   103.8090    97.3370    73.8540    24.2890     2.4270   -23.0900 
  203.8750    64.5120    92.9770    87.2320    61.4340    24.1790     2.3410   -23.0380 
  204.0000    69.6770    85.7680    80.0830    56.6420    24.1510     2.2570   -23.0040 
  204.1250    72.2870    82.4930    76.5620    56.6940    24.2080     2.1930   -22.8380 
  204.2500    73.3310    81.5820    75.2960    57.9330    24.2140     2.1550   -22.6810 
  204.3750    75.0710    82.0380    75.2830    59.1340    24.2140     2.1420   -22.6470 
  204.5000    75.7660    82.9060    75.5960    60.8080    24.2140     2.1470   -22.5590 
  204.6250    71.9740    83.1350    75.2890    62.1110    24.2140     2.1640   -22.4560 
  204.7500    67.9310    82.2500    73.9990    63.0940    24.2140     2.1800   -22.3910 
  204.8750    68.2460    80.6170    71.9060    61.9850    24.2140     2.1900   -22.3620 
  205.0000    70.3510    78.9520    69.7010    58.6600    24.2140     2.1930   -22.2840 
  205.1250    72.1990    78.4700    68.6260    54.7660    24.2140     2.1890   -22.3280 
  205.2500    73.1840    79.7050    69.4610    53.6460    24.2140     2.1830   -22.4240 
  205.3750    71.7890    82.9130    72.6250    54.7790    24.2140     2.1770   -22.3330 
  205.5000    68.6340    87.3200    78.0210    58.3880    24.2140     2.1740   -22.2960 
  205.6250    65.7680    93.1560    85.0730    65.2130    24.2120     2.1720   -22.3400 
  205.7500    64.8820    99.9310    92.1950    72.3740    24.2050     2.1720   -22.2720 
  205.8750    64.3510   107.6520    98.0380    78.8450    24.1980     2.1730   -22.2850 
  206.0000    64.6490   112.4230   101.4690    83.6930    24.1850     2.1740   -22.2230 
  206.1250    67.5470   112.7360   101.3770    82.1370    24.2020     2.1760   -22.0120 
  206.2500    69.6460   109.4830    98.4440    77.8990    24.2110     2.1760   -21.8780 
  206.3750    68.3610   103.6170    93.3360    77.0820    24.2140     2.1770   -21.7800 
  206.5000    64.7600    96.3950    86.9800    76.7270    24.2170     2.1830   -21.6250 
  206.6250    64.2110    89.3370    80.5830    71.8540    24.2820     2.1970   -21.5640 
  206.7500    67.4840    83.6570    75.2620    66.5120    24.3820     2.2130   -21.5390 
  206.8750    70.7040    80.0090    71.6720    62.7400    24.3970     2.2270   -21.5190 
  207.0000    72.3000    78.6130    70.0800    57.3540    24.3740     2.2310   -21.5880 
  207.1250    73.6730    79.5160    70.5770    57.1490    24.3510     2.2250   -21.6250 
  207.2500    73.0370    81.6850    72.2290    60.6710    24.3590     2.2150   -21.6640 
  207.3750    69.5140    84.2850    74.2730    65.0440    24.3610     2.2070   -21.6990 
  207.5000    64.8400    86.4400    75.9300    67.0520    24.3610     2.2000   -21.7350 
  207.6250    63.8410    87.0960    76.2880    66.9920    24.3610     2.1950   -21.7120 
  207.7500    67.4120    86.0300    75.1800    65.2840    24.3610     2.1910   -21.6120 
  207.8750    71.1190    83.4060    72.7670    63.6080    24.3640     2.1910   -21.4720 
  208.0000    72.0510    79.8950    69.6320    63.4130    24.3810     2.1950   -21.3200 
  208.1250    69.1370    76.7230    66.7910    63.3140    24.4200     2.2020   -21.1140 
  208.2500    65.4290    75.0110    65.1780    61.1170    24.4490     2.2050   -20.8680 
  208.3750    63.9470    75.3840    65.3480    55.8780    24.4630     2.2040   -20.7000 
  208.5000    66.3360    77.8410    67.3760    51.6780    24.4690     2.2010   -20.4470 
  208.6250    70.7160    81.6490    70.8020    52.6190    24.4260     2.2030   -20.1750 
  208.7500    71.9240    84.9890    74.1490    58.4850    24.2230     2.2110   -20.0190 
  208.8750    70.6230    86.3770    76.1470    65.4840    23.9310     2.2200   -19.7220 
  209.0000    71.6740    84.9760    75.9200    64.9800    23.6960     2.2250   -19.4460 
  209.1250    74.1410    80.8450    73.1210    61.9310    23.7900     2.2190   -19.3300 
  209.2500    74.9360    75.8990    69.1050    57.4590    24.0780     2.2080   -19.0520 
  209.3750    75.5690    71.3820    64.9530    51.0660    24.1690     2.1990   -18.7150 
  209.5000    77.7250    67.4710    61.1330    44.9720    24.0610     2.2010   -18.4880 
  209.6250    79.7500    62.7300    56.8970    41.9170    24.0790     2.2300   -18.1090 
  209.7500    79.4610    55.6000    51.0010    41.7670    24.0370     2.2880   -17.6880 
  209.8750    77.0310    45.7170    42.8930    42.9160    23.8900     2.3670   -17.3350 
