~V
VERS. 2.00: Ver 2.00
~W
STRT.M 64.0000:
STOP.M 278.0000:
STEP.M 0.1250:
NULL. -999.2500:
UWI. DF3056:
~C
DEPT.M :
SP.MV :
GR.API :
CALI.CM :
RXO.OHMM :
RI. :
RML.OHMM :
DEN.GM/CC :
~A
# ...
  142.7500   -24.5310    60.1920    23.9630    23.8450    14.5000    16.4970     2.3170 
  142.8750   -24.8010    64.0100    23.8860    19.6370    13.2320    14.8120     2.2250 
  143.0000   -25.0280    67.4270    23.8890    15.7400    11.7940    13.0480     2.1800 
  143.1250   -25.2140    69.6310    23.8810    14.1960    10.6330    11.7880     2.1820 
  143.2500   -25.3730    72.7270    23.8180    13.6300     9.8630    11.0950     2.1970 
  143.3750   -25.5130    75.9720    23.7150    13.9280     9.4430    10.8500     2.2050 
  143.5000   -25.6320    75.8400    23.5250    14.1750     9.2990    10.9010     2.2020 
  143.6250   -25.6830    72.7470    23.2450    13.2950     9.3680    11.1210     2.1950 
  143.7500   -25.6810    71.1130    23.0760    12.5580     9.5140    11.3560     2.1890 
  143.8750   -25.6380    71.1250    22.8820    13.2470     9.6850    11.5720     2.1840 
  144.0000   -25.5290    70.7210    22.6570    14.5150     9.8630    11.7700     2.1790 
  144.1250   -25.3610    70.2460    22.6390    16.6620    10.0290    11.9570     2.1820 
  144.2500   -25.1500    70.2120    22.6580    17.5290    10.1810    12.1420     2.1900 
  144.3750   -24.8940    68.7140    22.8350    16.8430    10.3100    12.3130     2.1970 
  144.5000   -24.6010    66.7680    22.9660    15.6810    10.3700    12.4240     2.1950 
  144.6250   -24.3280    65.0280    23.2330    15.0380    10.3080    12.4180     2.1850 
  144.7500   -24.1160    64.8170    23.3540    15.0840    10.1570    12.3270     2.1720 
  144.8750   -23.9680    66.4850    23.4280    15.8430     9.9480    12.1580     2.1600 
  145.0000   -23.8570    68.0440    23.5490    16.1040     9.7080    11.9350     2.1520 
  145.1250   -23.7310    67.6620    23.7240    14.9650     9.5020    11.7210     2.1530 
  145.2500   -23.5670    68.0770    23.8730    13.6070     9.3650    11.5670     2.1570 
  145.3750   -23.3400    70.5630    24.0960    12.8060     9.3200    11.5010     2.1550 
  145.5000   -23.0640    72.2300    24.4210    12.7630     9.3790    11.5370     2.1450 
  145.6250   -22.7260    70.6490    24.5530    13.0680     9.5640    11.7110     2.1420 
  145.7500   -22.2770    67.8220    24.7460    13.2100     9.8250    11.9830     2.1510 
  145.8750   -21.7510    65.2390    24.8210    13.2700    10.1540    12.3400     2.1610 
  146.0000   -21.1730    63.0620    24.8120    13.2780    10.5170    12.7220     2.1590 
  146.1250   -20.5550    62.5880    24.6530    13.1750    10.8420    13.0180     2.1490 
  146.2500   -19.9440    64.2130    24.3760    13.5730    11.0160    13.1060     2.1500 
  146.3750   -19.3550    67.6850    24.2140    14.3690    10.9310    12.8970     2.1700 
  146.5000   -18.7640    72.9580    24.1970    14.5020    10.5270    12.3490     2.2020 
  146.6250   -18.1640    77.2840    24.4590    14.2890     9.8240    11.4990     2.2300 
  146.7500   -17.5830    80.6990    24.6160    14.2010     9.0250    10.5810     2.2480 
  146.8750   -17.0160    84.6340    24.7500    13.4570     8.2620     9.7380     2.2660 
  147.0000   -16.4760    87.7050    24.8040    11.6240     7.6220     9.1040     2.2900 
  147.1250   -16.0090    89.0520    24.8070     9.6450     7.2390     8.8110     2.3210 
  147.2500   -15.6250    88.1060    24.8020     9.3150     7.1300     8.8400     2.3430 
  147.3750   -15.3230    83.3710    24.7970    10.0580     7.2670     9.1130     2.3460 
  147.5000   -15.1160    77.7350    24.7560    10.5750     7.5450     9.4840     2.3270 
  147.6250   -15.0140    77.5970    24.6490    10.7360     7.8620     9.8350     2.2980 
  147.7500   -15.0180    83.3120    24.3590    10.6310     8.2020    10.1770     2.2760 
  147.8750   -15.0730    86.7020    24.2040    11.8040     8.5840    10.5650     2.2740 
  148.0000   -15.1520    83.4350    24.1950    14.8430     9.0430    11.0870     2.3010 
  148.1250   -15.2090    80.5640    24.1910    17.1010     9.7330    12.0220     2.3690 
  148.2500   -15.1950    80.7980    24.2230    15.5820    10.7150    13.4390     2.4590 
  148.3750   -15.1220    77.7100    24.2550    14.2490    12.0350    15.2580     2.5440 
  148.5000   -14.9940    67.9840    24.2560    18.1460    13.6610    17.3110     2.5980 
  148.6250   -14.8320    59.2050    24.2290    23.0880    15.3800    19.2570     2.6170 
  148.7500   -14.6190    56.4180    24.1680    25.0100    16.7850    20.7160     2.6210 
  148.8750   -14.3910    54.8640    24.1920    23.6080    17.6520    21.5020     2.6210 
  149.0000   -14.2070    51.8580    24.2000    21.8170    17.9850    21.6380     2.6240 
  149.1250   -14.1140    51.3110    24.2370    20.9670    17.7590    21.1200     2.6350 
  149.2500   -14.1030    53.5780    24.3030    21.1020    17.2800    20.3540     2.6450 
  149.3750   -14.1660    56.5740    24.2970    20.7880    16.8620    19.7570     2.6490 
  149.5000   -14.2680    60.0490    24.2990    19.3350    16.6580    19.5140     2.6530 
  149.6250   -14.3730    60.8770    24.3120    18.5400    16.6980    19.5840     2.6560 
  149.7500   -14.4690    56.2730    24.3780    18.8380    16.9010    19.8280     2.6490 
  149.8750   -14.5380    50.3220    24.4490    19.8320    17.2020    20.1580     2.6290 
  150.0000   -14.5420    49.0630    24.4700    21.0160    17.5370    20.4990     2.6100 
  150.1250   -14.4740    52.7340    24.4650    20.9390    17.8290    20.7730     2.6080 
  150.2500   -14.3750    54.8820    24.4630    20.8400    18.0610    20.9460     2.6160 
  150.3750   -14.2850    53.4730    24.4550    20.9930    18.2040    20.9840     2.6250 
  150.5000   -14.2250    50.6690    24.4440    21.0530    18.2610    20.8630     2.6330 
  150.6250   -14.2220    48.1670    24.3990    20.6790    18.2290    20.6150     2.6370 
  150.7500   -14.2470    47.7880    24.4160    20.4050    18.1830    20.3470     2.6310 
  150.8750   -14.3170    50.6500    24.4750    20.5810    18.1760    20.1300     2.6160 
  151.0000   -14.4390    54.5200    24.5090    20.8430    18.2610    20.0300     2.6010 
  151.1250   -14.6020    54.7560    24.4570    20.5520    18.5000    20.1350     2.5960 
  151.2500   -14.7680    51.8320    24.4630    20.8420    18.8690    20.4020     2.6020 
  151.3750   -14.8840    48.9560    24.4720    22.5170    19.3370    20.7960     2.6150 
  151.5000   -14.9150    48.3530    24.4200    24.0660    19.8710    21.2730     2.6280 
  151.6250   -14.8600    49.9460    24.3040    25.1020    20.4070    21.7460     2.6260 
  151.7500   -14.8050    51.3810    24.5320    27.4570    20.8700    22.1230     2.6140 
  151.8750   -14.7540    51.5190    24.6480    27.9070    21.2040    22.3550     2.6040 
  152.0000   -14.7010    50.4850    24.6630    24.4450    21.4050    22.4310     2.6030 
  152.1250   -14.6520    49.7700    24.6610    23.7110    21.4440    22.3170     2.5960 
  152.2500   -14.6280    51.6920    24.5810    24.0820    21.3890    22.0890     2.5770 
  152.3750   -14.6400    55.7970    24.5200    24.5950    21.2790    21.7950     2.5460 
  152.5000   -14.7190    58.6050    24.5060    23.3780    21.0990    21.4680     2.5150 
  152.6250   -14.8210    56.4480    24.7610    22.1900    20.8890    21.1760     2.5030 
  152.7500   -14.8870    52.0990    24.9360    22.0020    20.6670    20.9280     2.5150 
  152.8750   -14.8980    49.5480    25.0530    23.6610    20.4630    20.7550     2.5350 
  153.0000   -14.8600    49.2010    25.0690    24.9100    20.3060    20.6550     2.5410 
  153.1250   -14.7790    50.5200    25.0310    25.5980    20.2180    20.6190     2.5280 
  153.2500   -14.6800    53.2780    24.8970    23.9950    20.1550    20.5780     2.5170 
  153.3750   -14.6030    56.9490    24.7980    22.2910    20.0350    20.4330     2.5190 
  153.5000   -14.5730    60.9560    24.7660    23.0160    19.7920    20.1080     2.5290 
  153.6250   -14.5930    62.3320    24.7650    25.4000    19.3330    19.5360     2.5320 
  153.7500   -14.6860    59.6160    24.7800    24.6670    18.7350    18.8590     2.5280 
  153.8750   -14.8340    56.0550    24.7880    21.7100    18.1020    18.1860     2.5260 
