~V
VERS. 2.00: Ver 2.00
~W
STRT.M 60.0000:
STOP.M 282.0000:
STEP.M 0.1250:
NULL. -999.2500:
UWI. DF3058:
~C
DEPT.M :
GR.API :
RML.OHMM :
RI. :
RXO.OHMM :
CALI.CM :
DEN.GM/CC :
SP.MV :
~A
# ...
  217.5000    59.6360   129.7610   118.5910   121.6110    24.4450     2.2940   -12.6220 
  217.6250    58.1760   139.1850   127.7310   134.2410    24.4590     2.2730   -12.5370 
  217.7500    60.7270   150.2610   138.5660   144.6040    24.4510     2.2450   -12.4390 
  217.8750    63.5120   163.7570   151.7750   155.1570    24.4450     2.2220   -12.3550 
  218.0000    62.1360   180.2180   167.9220   169.7450    24.5000     2.2080   -12.2860 
  218.1250    57.8150   199.1450   186.8710   197.8240    24.6570     2.2040   -12.2210 
  218.2500    55.9100   216.9570   205.5370   234.2270    24.7590     2.2050   -12.1310 
  218.3750    56.5330   229.0090   219.7130   267.8460    24.7930     2.2070   -12.0500 
  218.5000    57.1760   230.6100   224.8020   286.1450    24.7320     2.2110   -11.9750 
  218.6250    55.8090   217.4140   215.8870   275.9380    24.5770     2.2180   -11.9190 
  218.7500    54.3160   194.4730   196.5210   243.7220    24.5270     2.2250   -11.8470 
  218.8750    54.0420   167.6970   171.5810   193.2620    24.5720     2.2250   -11.7710 
  219.0000    56.4550   142.8020   146.6850   141.7840    24.6020     2.2130   -11.6760 
  219.1250    60.8370   124.2880   126.9860   106.2600    24.5520     2.1930   -11.5740 
  219.2500    64.9870   112.2420   113.5560    88.9640    24.4420     2.1830   -11.4840 
  219.3750    65.6950   106.6560   106.7110    78.8750    24.3520     2.1950   -11.3620 
  219.5000    62.1640   107.6050   106.6010    76.4870    24.3140     2.2290   -11.2000 
  219.6250    59.9780   116.8810   114.9630    84.4670    24.1700     2.2680   -11.0150 
  219.7500    61.5160   134.1900   131.2900   106.8150    24.1310     2.2900   -10.8150 
  219.8750    64.0820   159.7240   155.5380   145.7130    24.0540     2.2840   -10.6060 
  220.0000    64.7820   192.0330   186.0210   194.3100    23.8700     2.2590   -10.4190 
  220.1250    64.2110   226.7050   218.1970   241.7660    23.7500     2.2320   -10.2620 
  220.2500    63.8890   256.1140   244.9720   261.4840    23.8260     2.2180   -10.0980 
  220.3750    61.9060   273.9130   260.7430   250.2540    24.0740     2.2200    -9.9670 
  220.5000    58.9270   276.6790   262.6840   233.0140    24.2670     2.2360    -9.8820 
  220.6250    57.8660   263.8780   250.3610   218.4950    24.3780     2.2540    -9.8690 
  220.7500    60.5530   243.4520   230.7970   208.9340    24.3160     2.2600    -9.8660 
  220.8750    65.1340   221.3450   209.2180   196.5090    24.2690     2.2520    -9.9000 
  221.0000    68.4110   202.6470   190.2580   176.3310    24.2260     2.2360    -9.9430 
  221.1250    68.5410   192.0410   178.4710   158.7080    24.0470     2.2330   -10.0620 
  221.2500    66.5820   189.1870   174.0540   153.7910    23.9480     2.2490   -10.2260 
  221.3750    62.7490   192.6920   176.0560   160.6330    23.9600     2.2770   -10.4550 
  221.5000    58.0750   199.7960   182.0840   178.0280    23.9740     2.2990   -10.7600 
  221.6250    55.6150   206.5760   188.5630   199.5910    24.0020     2.2950   -11.1430 
  221.7500    55.9020   209.9410   192.2850   204.1750    24.1580     2.2650   -11.6150 
  221.8750    58.2860   208.9110   192.0110   186.7420    24.3210     2.2210   -12.1280 
  222.0000    60.8150   204.2550   188.1050   168.0420    24.4390     2.1800   -12.6530 
  222.1250    61.1930   197.8560   182.0130   152.4670    24.4930     2.1610   -13.1000 
  222.2500    59.9720   192.0960   176.0710   137.0110    24.5050     2.1680   -13.5500 
  222.3750    59.4050   188.3040   171.6580   120.8760    24.3970     2.1990   -13.9310 
  222.5000    60.4780   187.4770   169.7790   107.4070    24.1890     2.2390   -14.2390 
  222.6250    60.8450   191.2920   171.9410   106.4260    24.1640     2.2660   -14.4390 
  222.7500    59.0480   199.6020   178.1130   120.6710    24.2260     2.2700   -14.5690 
  222.8750    55.9130   211.4510   187.7820   143.6460    24.4080     2.2530   -14.6440 
  223.0000    53.8190   224.1210   198.9940   167.5090    24.5200     2.2280   -14.6790 
  223.1250    53.2030   232.0230   207.4240   187.0650    24.4940     2.2060   -14.7110 
  223.2500    51.8750   231.0390   209.1630   198.2090    24.4050     2.1880   -14.6850 
  223.3750    51.0600   219.3800   201.9080   203.0320    24.3730     2.1730   -14.6450 
  223.5000    51.9630   198.9080   185.9900   202.2260    24.4950     2.1640   -14.5750 
  223.6250    54.0840   174.2760   164.1760   180.9000    24.5550     2.1610   -14.4730 
  223.7500    55.4570   150.8950   142.1180   139.1310    24.5760     2.1660   -14.3400 
  223.8750    56.8680   130.5910   122.9640   110.6490    24.5710     2.1770   -14.1850 
  224.0000    59.7890   114.7320   108.0020    95.5780    24.5630     2.1920   -14.0320 
  224.1250    63.1380   103.3270    97.2420    83.5090    24.5480     2.2110   -13.8550 
  224.2500    64.9410    93.8560    88.3070    74.8970    24.5410     2.2300   -13.6810 
  224.3750    64.2280    84.4820    79.4640    68.8870    24.5450     2.2480   -13.4980 
  224.5000    62.5890    74.0010    69.5760    63.0390    24.5640     2.2610   -13.3300 
  224.6250    61.9790    62.3870    58.6190    56.1360    24.5890     2.2700   -13.1700 
  224.7500    62.1750    51.2860    48.1470    47.8610    24.6010     2.2750   -13.0430 
  224.8750    63.9290    42.2100    39.5850    38.5390    24.5940     2.2780   -12.9530 
  225.0000    66.8880    36.0030    33.7290    31.1730    24.5910     2.2790   -12.8840 
  225.1250    69.0580    33.1170    31.0070    27.9570    24.5970     2.2790   -12.8140 
  225.2500    69.2020    32.4730    30.3990    28.5810    24.5660     2.2820   -12.7810 
  225.3750    68.9680    33.3700    31.2460    30.7200    24.5110     2.2870   -12.7610 
  225.5000    69.3510    35.1490    32.9240    31.8030    24.4460     2.2950   -12.7380 
  225.6250    68.2970    37.3670    35.0160    32.7530    24.4330     2.3040   -12.6910 
  225.7500    64.9240    39.8620    37.3690    34.0170    24.4720     2.3080   -12.6340 
  225.8750    61.4540    42.9080    40.2440    37.7980    24.5270     2.3060   -12.5550 
  226.0000    59.7210    46.8890    43.9990    44.6000    24.5710     2.2960   -12.4630 
  226.1250    60.5140    52.0940    48.9100    54.3830    24.6030     2.2800   -12.3780 
  226.2500    59.7400    57.8710    54.3590    61.9250    24.6370     2.2630   -12.2500 
  226.3750    56.9730    63.4030    59.5790    66.9760    24.6510     2.2450   -12.1260 
  226.5000    55.2510    67.8920    63.8020    70.3350    24.6530     2.2290   -11.9870 
  226.6250    56.6790    70.6570    66.4090    72.3620    24.6530     2.2150   -11.8790 
  226.7500    59.0080    72.1930    67.9230    72.3800    24.6530     2.2040   -11.7610 
  226.8750    59.3700    73.2740    69.0040    71.8600    24.6530     2.1970   -11.6440 
  227.0000    59.6610    74.6220    70.3290    71.2480    24.6530     2.1930   -11.4990 
  227.1250    61.7940    77.3540    72.5300    72.0760    24.6530     2.1920   -11.3710 
  227.2500    62.0010    81.4380    75.6640    75.5820    24.6530     2.1940   -11.2490 
  227.3750    60.4600    86.9570    79.6350    81.6190    24.6530     2.1970   -11.1180 
  227.5000    59.5340    93.5180    84.1490    89.5980    24.6530     2.2020   -10.9860 
  227.6250    59.7340    99.0890    88.7200    98.3220    24.6530     2.2070   -10.8760 
  227.7500    59.0710   103.9340    92.8160   104.2680    24.6520     2.2110   -10.7700 
  227.8750    58.3870   107.6180    96.0310   108.6460    24.6490     2.2120   -10.6900 
  228.0000    58.8190   109.7540    98.0080   112.7710    24.6420     2.2120   -10.6570 
  228.1250    58.6110   109.7190    98.1780   114.3480    24.6520     2.2140   -10.6830 
  228.2500    58.2730   107.8740    96.7640   112.1780    24.6760     2.2230   -10.7540 
  228.3750    58.5650   104.7370    94.1210   106.9880    24.6650     2.2370   -10.8990 
  228.5000    57.9080   101.1470    90.9000   100.3300    24.6000     2.2530   -11.1080 
  228.6250    57.2110    98.1430    87.9530    94.1360    24.5790     2.2590   -11.4360 
