~V
VERS. 2.00: Ver 2.00
~W
STRT.M 54.0000:
STOP.M 250.0000:
STEP.M 0.1250:
NULL. -999.2500:
UWI. DF3016:
~C
DEPT.M :
GR.API :
RML.OHMM :
RI. :
RXO.OHMM :
CALI.CM :
DEN.GM/CC :
SP.MV :
~A
# ...
   65.2500    80.0690     0.4030     0.5070     2.0300    24.4670  -999.2500    13.3360 
   65.3750    83.4110     1.5490     0.9750     4.5500    24.5180  -999.2500     4.8050 
   65.5000    83.7320     3.0920     1.7050     7.0480    24.4860  -999.2500    -3.6380 
   65.6250    83.0130     4.7440     2.6810     8.9340    24.2150  -999.2500   -11.3940 
   65.7500    84.9000     5.4140     3.7170     9.8170    23.7300  -999.2500   -18.1400 
   65.8750    88.1540     5.7550     4.6590    10.1820    23.2340  -999.2500   -23.5760 
   66.0000    86.9800     5.9010     5.4170    10.4050    22.8690  -999.2500   -27.4050 
   66.1250    80.7780     6.0400     5.9630    10.5770    22.8100  -999.2500   -29.5470 
   66.2500    76.4900     6.2380     6.3700    10.6630    22.8000  -999.2500   -30.7490 
   66.3750    74.5030     6.4560     6.6590    10.6700    22.8000  -999.2500   -31.3750 
   66.5000    71.3710     6.6340     6.8440    10.5640    22.8000  -999.2500   -31.7140 
   66.6250    68.8130     6.7320     6.9310    10.3280    22.8120  -999.2500   -31.9000 
   66.7500    70.1790     6.7730     6.9610    10.1090    22.8840  -999.2500   -32.1170 
   66.8750    72.2250     6.7860     6.9550     9.8910    23.0300  -999.2500   -32.1780 
   67.0000    71.6570     6.7840     6.9220     9.6330    23.1720  -999.2500   -32.1840 
   67.1250    71.0840     6.7430     6.8470     9.3290    23.1950  -999.2500   -31.9490 
   67.2500    71.8640     6.6400     6.7210     9.0460    23.2000  -999.2500   -31.4910 
   67.3750    72.7300     6.4750     6.5490     8.8790    23.2000  -999.2500   -30.8140 
   67.5000    74.5670     6.3020     6.3750     8.8480    23.2000  -999.2500   -29.9930 
   67.6250    80.2920     6.2660     6.3190     8.3200    23.2000  -999.2500   -29.0850 
   67.7500    86.6580     6.4590     6.4640     7.5740    23.2000  -999.2500   -28.0580 
   67.8750    89.9840     6.8950     6.8330     7.2330    23.1900  -999.2500   -27.1770 
   68.0000    90.3730     7.4730     7.3520     7.5830    23.1580  -999.2500   -26.3670 
   68.1250    88.3790     7.9660     7.8310     8.5300    22.9670  -999.2500   -25.7400 
   68.2500    88.1990     8.1660     8.0670     9.7470    22.9230  -999.2500   -25.3690 
   68.3750    92.5000     7.9930     7.9650    10.5270    22.8210  -999.2500   -25.3330 
   68.5000    98.5080     7.5330     7.5740     9.1600    22.7390  -999.2500   -25.5550 
   68.6250   101.0330     7.0160     7.0780     7.5110    23.8020  -999.2500   -26.0310 
   68.7500   100.5740     6.6680     6.7050     7.0580    23.6130  -999.2500   -26.6630 
   68.8750    99.3690     6.5770     6.5580     7.2840    23.4180  -999.2500   -27.3130 
   69.0000    95.5710     6.7390     6.6610     7.3420    23.2410  -999.2500   -27.9850 
   69.1250    88.6290     7.1020     6.9940     7.8100    23.0760  -999.2500   -28.5580 
   69.2500    83.4580     7.5160     7.4190     8.4530    22.9950  -999.2500   -28.9760 
   69.3750    78.7150     7.8710     7.8240     8.9290    22.9490  -999.2500   -29.1340 
   69.5000    73.8360     8.0830     8.1130     9.3840    22.8670  -999.2500   -29.0220 
   69.6250    74.8520     8.0750     8.1920     9.7100    22.8250  -999.2500   -28.6300 
   69.7500    82.3210     7.9020     8.0900     9.6370    22.8540  -999.2500   -28.0820 
   69.8750    90.1650     7.6310     7.8590     8.9110    22.9090  -999.2500   -27.4250 
   70.0000    94.9490     7.3420     7.5730     8.0310    22.9210  -999.2500   -26.7210 
   70.1250    99.2310     7.1110     7.3050     7.8300    22.8740  -999.2500   -25.9950 
   70.2500   103.7290     6.9620     7.0930     7.9940    22.7760  -999.2500   -25.3330 
   70.3750   107.5920     6.8960     6.9460     7.8420    22.6410  -999.2500   -24.7800 
   70.5000   111.9000     6.8900     6.8490     7.2760    22.4790  -999.2500   -24.4140 
   70.6250   116.8280     6.9030     6.7690     6.5150    22.4710  -999.2500   -24.1590 
   70.7500   120.0580     6.8760     6.6560     6.2430    22.6660  -999.2500   -24.0170 
   70.8750   121.8920     6.7580     6.4700     6.2160    23.0200  -999.2500   -23.9390 
   71.0000   123.2310     6.5150     6.1890     6.2930    23.2480  -999.2500   -23.9010 
   71.1250   121.6740     6.1530     5.8270     5.9440    23.3210  -999.2500   -23.9470 
   71.2500   117.8980     5.8150     5.4930     5.7030    23.3830  -999.2500   -24.0360 
   71.3750   114.3840     5.6940     5.3330     5.5870    23.4700  -999.2500   -24.1520 
   71.5000   112.7040     6.0070     5.5210     5.6910    23.4920  -999.2500   -24.3350 
   71.6250   110.2550     7.0290     6.3150     6.2350    23.4350  -999.2500   -24.6280 
   71.7500   103.1840     8.6330     7.6700     7.5160    23.4010  -999.2500   -24.9240 
   71.8750    93.4580    10.5470     9.4260     9.7390    23.4100  -999.2500   -25.3020 
   72.0000    84.2450    12.3130    11.2230    13.1340    23.5000  -999.2500   -25.7320 
   72.1250    78.2270    13.2650    12.4390    16.2350    23.7750  -999.2500   -26.2570 
   72.2500    74.3910    13.2610    12.7820    17.3860    24.1650  -999.2500   -26.8160 
   72.3750    72.4970    12.5100    12.3160    17.4030    24.5400  -999.2500   -27.4520 
   72.5000    71.5230    11.5020    11.4300    13.9760    24.8150  -999.2500   -27.9660 
   72.6250    69.8590    10.7730    10.6220    11.5340    24.9260  -999.2500   -28.4990 
   72.7500    66.8230    10.4680    10.1240    10.5660    24.8640  -999.2500   -29.0310 
   72.8750    64.3290    10.5170     9.9410    10.4140    24.8300  -999.2500   -29.5180 
   73.0000    64.1550    10.7640     9.9860    10.3990    24.9320  -999.2500   -29.9620 
   73.1250    66.1220    11.0380    10.1340    10.5750    25.0830  -999.2500   -30.3100 
   73.2500    66.3830    11.2200    10.2520    10.8550    25.1810  -999.2500   -30.6270 
   73.3750    63.7280    11.2810    10.2880    11.0360    25.2510  -999.2500   -30.8760 
   73.5000    62.0280    11.2430    10.2400    11.0820    25.3420  -999.2500   -31.1710 
   73.6250    63.1200    11.1550    10.1420    11.0210    25.4750  -999.2500   -31.4040 
   73.7500    64.7410    11.0850    10.0560    11.0280    25.4760  -999.2500   -31.6340 
   73.8750    66.8290    11.0660    10.0110    10.9890    25.1650  -999.2500   -31.8510 
   74.0000    69.8270    11.1030    10.0190    10.8930    24.4850  -999.2500   -32.0620 
   74.1250    72.1810    11.1790    10.0670    11.0960    23.8530  -999.2500   -32.2520 
   74.2500    71.6180    11.2490    10.1130    11.5930    23.5220  -999.2500   -32.4030 
   74.3750    69.2280    11.2790    10.1310    11.9350    23.4830  -999.2500   -32.5130 
   74.5000    67.0780    11.2570    10.1060    12.0500    23.5610  -999.2500   -32.6110 
   74.6250    65.9750    11.1880    10.0430    12.2440    23.6410  -999.2500   -32.6810 
   74.7500    65.3790    11.1160     9.9770    12.3660    23.6700  -999.2500   -32.7820 
   74.8750    64.1290    11.0760     9.9330    12.2820    23.6760  -999.2500   -32.8000 
   75.0000    63.4650    11.0850     9.9220    12.0250    23.6760  -999.2500   -32.7940 
   75.1250    65.3630    11.1260     9.9280    11.8440    23.6650  -999.2500   -32.6350 
   75.2500    67.7220    11.1310     9.8990    11.7180    23.6220  -999.2500   -32.3150 
   75.3750    68.6360    11.0290     9.7800    11.1890    23.5530  -999.2500   -31.8760 
   75.5000    69.9080    10.7720     9.5330    10.5100    23.5420  -999.2500   -31.2320 
   75.6250    73.1670    10.3490     9.1420    10.0230    23.6550  -999.2500   -30.3910 
   75.7500    78.0000     9.8720     8.6930     9.5300    23.8310  -999.2500   -29.3980 
   75.8750    83.3900     9.4450     8.2700     8.7970    23.9780  -999.2500   -28.4220 
   76.0000    88.2510     9.1600     7.9500     7.9950    24.0470  -999.2500   -27.4840 
   76.1250    89.5330     9.0930     7.8100     7.8840    23.9720  -999.2500   -26.6950 
   76.2500    87.7290     9.1900     7.8280     8.2300    23.8040  -999.2500   -26.0800 
   76.3750    86.4510     9.3800     7.9640     8.6950    23.6630  -999.2500   -25.6030 
