~V
VERS. 2.00: Ver 2.00
~W
STRT.M 60.0000:
STOP.M 277.0000:
STEP.M 0.1250:
NULL. -999.2500:
UWI. DF3048:
~C
DEPT.M :
SP.MV :
GR.API :
RML.OHMM :
RI. :
RXO.OHMM :
CALI.CM :
DEN.GM/CC :
~A
   60.0000    81.6040  -999.2500  -999.2500  -999.2500  -999.2500  -999.2500  -999.2500 
   60.1250    81.1400  -999.2500  -999.2500  -999.2500  -999.2500  -999.2500  -999.2500 
   60.2500    80.6790  -999.2500  -999.2500  -999.2500  -999.2500  -999.2500  -999.2500 
   60.3750    80.1630  -999.2500  -999.2500  -999.2500  -999.2500  -999.2500  -999.2500 
   60.5000    79.6140  -999.2500  -999.2500  -999.2500  -999.2500  -999.2500  -999.2500 
   60.6250    79.1070  -999.2500  -999.2500  -999.2500  -999.2500  -999.2500  -999.2500 
   60.7500    78.6530  -999.2500  -999.2500  -999.2500  -999.2500  -999.2500  -999.2500 
   60.8750    78.1980  -999.2500  -999.2500  -999.2500  -999.2500  -999.2500  -999.2500 
   61.0000    77.9170  -999.2500  -999.2500  -999.2500  -999.2500  -999.2500  -999.2500 
   61.1250    77.8070  -999.2500  -999.2500  -999.2500  -999.2500  -999.2500  -999.2500 
   61.2500    77.6550  -999.2500  -999.2500  -999.2500  -999.2500  -999.2500  -999.2500 
   61.3750    77.5710  -999.2500  -999.2500  -999.2500  -999.2500  -999.2500  -999.2500 
   61.5000    77.2830  -999.2500  -999.2500  -999.2500  -999.2500  -999.2500  -999.2500 
   61.6250    76.8050  -999.2500  -999.2500  -999.2500  -999.2500  -999.2500  -999.2500 
   61.7500    76.2540  -999.2500  -999.2500  -999.2500  -999.2500  -999.2500  -999.2500 
   61.8750    75.5840  -999.2500  -999.2500  -999.2500  -999.2500  -999.2500  -999.2500 
   62.0000    74.8410  -999.2500  -999.2500  -999.2500  -999.2500  -999.2500  -999.2500 
   62.1250    73.9820  -999.2500  -999.2500  -999.2500  -999.2500  -999.2500  -999.2500 
   62.2500    73.0380  -999.2500  -999.2500  -999.2500  -999.2500  -999.2500  -999.2500 
   62.3750    72.0520  -999.2500  -999.2500  -999.2500  -999.2500  -999.2500  -999.2500 
   62.5000    71.1850  -999.2500  -999.2500  -999.2500  -999.2500  -999.2500  -999.2500 
   62.6250    70.4270  -999.2500  -999.2500  -999.2500  -999.2500  -999.2500  -999.2500 
   62.7500    69.8150  -999.2500  -999.2500  -999.2500  -999.2500  -999.2500  -999.2500 
   62.8750    69.3450  -999.2500  -999.2500  -999.2500  -999.2500  -999.2500  -999.2500 
   63.0000    68.9270     0.0000     0.0000     0.0000     0.0000     0.0000  -999.2500 
   63.1250    68.5700     0.0000     0.0000     0.0000     0.0000     0.0000  -999.2500 
   63.2500    68.2580     0.0000     0.0000     0.0000     0.0000     0.0000  -999.2500 
   63.3750    67.9750     0.0000     0.0000     0.0000     0.0000     0.0000  -999.2500 
   63.5000    67.7550     0.0000     0.0000     0.0000     0.0000     0.0000  -999.2500 
   63.6250    67.5780     0.0000     0.0000     0.0000     0.0000     0.0000  -999.2500 
   63.7500    67.3980    23.7790     2.3580     0.4920     1.9340    12.6670  -999.2500 
   63.8750    67.2130    44.6960     4.7590     0.9770     4.0410    25.3330  -999.2500 
   64.0000    66.9860    40.9910     4.6950     0.9530     2.1540    25.3330  -999.2500 
   64.1250    66.6060    40.7520     4.2240     0.8870     1.4640    25.3330  -999.2500 
   64.2500    66.0860    41.2070     3.3100     0.7720     1.7060    25.3330  -999.2500 
   64.3750    65.3680    41.0200     2.0880     0.6140     2.1970    25.3330  -999.2500 
   64.5000    64.2270    41.2950     0.9760     0.4370    10.6760    25.3330  -999.2500 
   64.6250    62.6020    42.2400     0.4160     0.2830    14.8370    25.3330  -999.2500 
   64.7500    60.1650    43.1140     0.1880     0.1740    24.6960    25.1090  -999.2500 
   64.8750    56.8170    45.0380     0.1100     0.1090   101.4330    24.8410  -999.2500 
   65.0000    52.3500    48.6280     0.1110     0.0910    15.7550    24.8000  -999.2500 
   65.1250    46.2140    54.0610     0.2230     0.1750     4.6340    24.8000  -999.2500 
   65.2500    38.8880    61.1130     0.4930     0.4340     5.6670    24.7970  -999.2500 
   65.3750    30.4920    67.7720     0.9760     0.9540     7.6430    24.7820  -999.2500 
   65.5000    21.5150    70.7930     1.6770     1.7810     9.9540    24.6880  -999.2500 
   65.6250    12.5780    70.8650     2.5150     2.8990    11.6730    24.6600  -999.2500 
   65.7500     4.1050    71.9680     3.2790     4.0810    12.5120    24.5860  -999.2500 
   65.8750    -3.6410    73.6880     3.8310     5.1300    12.7980    24.4440  -999.2500 
   66.0000   -10.2970    72.4620     4.1800     5.9390    12.8740    24.3640  -999.2500 
   66.1250   -15.3530    67.7700     4.4150     6.4790    12.9320    24.1650  -999.2500 
   66.2500   -19.0370    64.4450     4.5830     6.8240    13.0130    24.1090  -999.2500 
   66.3750   -21.4800    64.1500     4.6430     6.9750    13.1000    23.9370  -999.2500 
   66.5000   -23.0100    64.9420     4.5600     6.9290    13.1160    23.7610  -999.2500 
   66.6250   -23.8690    64.9290     4.3520     6.7230    12.9250    23.6820  -999.2500 
   66.7500   -24.3440    65.2740     4.1600     6.5510    12.6030    23.5330  -999.2500 
   66.8750   -24.4200    66.1530     4.1610     6.6710    12.2280    23.3840  -999.2500 
   67.0000   -24.1580    65.7950     4.5600     7.3890    12.2430    23.3190  -999.2500 
   67.1250   -23.5180    65.6240     5.6030     9.0490    13.7730    23.2160  -999.2500 
   67.2500   -22.5220    67.1200     7.1420    11.3590    18.0180    23.1890  -999.2500 
   67.3750   -21.2780    68.3360     8.8470    13.7560    25.2300    23.1060  -999.2500 
   67.5000   -19.7690    68.0180    10.1610    15.4050    35.6780    23.0790  -999.2500 
   67.6250   -18.1690    70.0440    10.2600    15.2340    48.3690    23.4670  -999.2500 
   67.7500   -16.5440    79.7190     9.2340    13.5210    49.6320    23.4670  -999.2500 
   67.8750   -14.9920    93.7480     7.7550    11.1350    27.2880    23.4670  -999.2500 
   68.0000   -13.7330   105.3330     6.5430     9.0190    11.2690    23.4670  -999.2500 
   68.1250   -12.6570   108.5880     5.9280     7.7420     7.9940    23.4670  -999.2500 
   68.2500   -11.9480   107.2330     5.7340     7.1490     7.2780    23.4670  -999.2500 
   68.3750   -11.5720   105.9910     5.8210     7.0620     7.4070    23.4670  -999.2500 
   68.5000   -11.4070   106.9110     6.0550     7.2850     7.5550    23.4670  -999.2500 
   68.6250   -11.4990   109.7750     6.3160     7.6400     7.5280    23.4670  -999.2500 
   68.7500   -11.6390   112.2140     6.5330     7.9730     7.2840    23.4670  -999.2500 
   68.8750   -11.8710   112.1080     6.6890     8.2290     7.1370    23.4670  -999.2500 
   69.0000   -12.1760   108.7020     6.7710     8.3810     7.3510    23.4670  -999.2500 
   69.1250   -12.4950   102.0170     6.7510     8.4000     7.7930    23.4910  -999.2500 
   69.2500   -12.7960    97.2010     6.6610     8.3180     8.0500    23.6280  -999.2500 
   69.3750   -13.0420    99.3090     6.5410     8.1680     8.2180    23.8920  -999.2500 
   69.5000   -13.1840   107.5590     6.4390     7.9900     8.0560    23.9870  -999.2500 
   69.6250   -13.2570   114.4390     6.4010     7.8260     7.6020    24.0000  -999.2500 
   69.7500   -13.3910   117.6030     6.4190     7.7000     7.4270    24.0000  -999.2500 
   69.8750   -13.5070   117.6580     6.4790     7.6210     7.6660    24.0000  -999.2500 
   70.0000   -13.5920   113.2260     6.5620     7.5880     7.7670    24.0000  -999.2500 
   70.1250   -13.7040   106.3670     6.6550     7.5960     7.6730    23.9880  -999.2500 
   70.2500   -13.8580   103.2060     6.7300     7.6120     7.7270    23.9160  -999.2500 
   70.3750   -14.0810   104.8890     6.7690     7.6070     7.9440    23.7650  -999.2500 
   70.5000   -14.4650   107.3000     6.7730     7.5720     8.4830    23.6180  -999.2500 
   70.6250   -15.0830   107.3600     6.7850     7.5310     9.0290    23.6480  -999.2500 
   70.7500   -15.7620   104.4170     6.8610     7.5290     8.8940    23.4900  -999.2500 
   70.8750   -16.6060    99.2540     7.0230     7.5950     8.5120    23.4620  -999.2500 
   71.0000   -17.4930    94.3740     7.2460     7.7220     8.6860    23.4640  -999.2500 
   71.1250   -18.6750    90.4170     7.4520     7.8590     9.8080    23.4660  -999.2500 
