~V
VERS. 2.00: Ver 2.00
~W
STRT.M 65.0000:
STOP.M 270.0000:
STEP.M 0.1250:
NULL. -999.2500:
UWI. DF3062:
~C
DEPT.M :
SP.MV :
GR.API :
CALI.CM :
RXO.OHMM :
RI. :
RML.OHMM :
DEN.GM/CC :
~A
# ...
  177.5000   -42.3100    59.5520    24.6820   125.2070   173.1020   224.1640     2.2000 
  177.6250   -42.2290    58.1000    24.6650   134.6440   179.9420   234.7800     2.2160 
  177.7500   -42.2060    56.0070    24.6220   141.0630   188.0170   246.5230     2.2220 
  177.8750   -42.2330    57.1610    24.6170   150.0920   195.3300   256.0790     2.2080 
  178.0000   -42.3100    58.6130    24.6310   160.7710   198.4370   258.6650     2.1910 
  178.1250   -42.3870    55.8860    24.7450   171.7340   193.6300   248.7500     2.1820 
  178.2500   -42.4250    53.5330    24.7650   177.5410   182.1050   229.0560     2.1840 
  178.3750   -42.4090    54.8550    24.7780   170.6560   165.6950   203.2030     2.1930 
  178.5000   -42.3220    59.4850    24.6280   152.5630   147.2090   176.2580     2.2110 
  178.6250   -42.1510    66.3930    24.5130   116.0230   130.6980   154.2800     2.2400 
  178.7500   -41.9310    70.6780    24.3370    76.1950   118.4520   138.9900     2.2670 
  178.8750   -41.7160    68.4400    24.3270    55.6250   111.3700   130.5080     2.2750 
  179.0000   -41.5470    61.9450    24.4520    67.4620   109.4190   128.1660     2.2660 
  179.1250   -41.4600    59.0230    24.4760    93.0420   112.1940   131.3990     2.2560 
  179.2500   -41.4370    59.0780    24.4650   108.5900   117.4650   137.7060     2.2520 
  179.3750   -41.4510    60.1280    24.3600   113.3080   123.9670   145.4490     2.2550 
  179.5000   -41.4860    61.9040    24.3120   112.0650   130.2810   152.7820     2.2560 
  179.6250   -41.5300    63.9800    24.3280   110.4350   134.4080   157.0960     2.2520 
  179.7500   -41.5620    64.4290    24.5010   112.1330   135.9100   158.2390     2.2420 
  179.8750   -41.5490    65.0430    24.6820   117.5110   135.4480   157.0800     2.2290 
  180.0000   -41.4620    66.6000    24.7070   119.8530   133.6770   154.4660     2.2200 
  180.1250   -41.2950    65.9390    24.6770   108.7020   130.8910   151.0650     2.2170 
  180.2500   -41.0680    65.7420    24.6160    95.3670   127.8990   147.7670     2.2150 
  180.3750   -40.8590    67.4870    24.6060    88.8730   125.2460   145.0740     2.2070 
  180.5000   -40.7170    67.2920    24.6100    94.8310   122.9410   142.8330     2.1950 
  180.6250   -40.6610    62.4390    24.6340   106.8740   120.7050   140.6570     2.1860 
  180.7500   -40.6690    58.5810    24.6580   112.9660   118.4230   138.4780     2.1880 
  180.8750   -40.7220    58.7680    24.5860   106.9380   116.1970   136.4630     2.2000 
  181.0000   -40.8030    60.7560    24.5280    98.4080   114.3430   134.7950     2.2110 
  181.1250   -40.8900    62.5030    24.3410    93.1410   113.1490   133.8520     2.2190 
  181.2500   -40.9800    61.9890    24.3420    92.2110   112.8580   133.8870     2.2230 
  181.3750   -41.0240    57.7300    24.5210    93.8060   113.3880   134.7120     2.2200 
  181.5000   -41.0100    53.0280    24.6840    98.9250   114.4020   135.9270     2.2130 
  181.6250   -40.9080    53.8670    24.6720   103.6520   115.5040   137.0820     2.2120 
  181.7500   -40.7540    57.7450    24.5410   105.4960   116.2720   137.4760     2.2190 
  181.8750   -40.5770    59.0310    24.7180   102.8420   116.0890   136.5090     2.2270 
  182.0000   -40.4130    57.1020    24.8170   102.9310   114.5440   133.9160     2.2270 
  182.1250   -40.3160    57.8900    24.6490   103.3370   111.4000   129.3310     2.2220 
  182.2500   -40.2840    60.2860    24.7360   101.7970   106.6000   122.7920     2.2160 
  182.3750   -40.3070    60.1650    24.7030    98.8810   100.3490   114.8860     2.2080 
  182.5000   -40.3640    58.4370    24.6530    97.9880    93.4050   106.5970     2.1970 
  182.6250   -40.4340    58.8540    24.6050    84.3590    86.4710    98.5920     2.1920 
  182.7500   -40.4670    59.6240    24.4710    71.4090    80.0840    91.5210     2.2030 
  182.8750   -40.4690    58.4150    24.3950    64.0560    74.8450    85.9130     2.2290 
  183.0000   -40.4190    58.3080    24.5370    58.7730    71.0540    81.9070     2.2510 
  183.1250   -40.2970    61.9590    24.4900    55.9760    68.5370    79.3160     2.2620 
  183.2500   -40.1380    66.0270    24.5910    59.1120    66.8110    77.5550     2.2630 
  183.3750   -39.9660    67.8870    24.5660    61.0430    65.4250    76.0780     2.2610 
  183.5000   -39.7840    67.0880    24.4730    58.1720    63.9270    74.4730     2.2600 
  183.6250   -39.6580    63.4150    24.3490    52.9310    62.3700    73.0350     2.2590 
  183.7500   -39.6380    60.4870    24.3280    48.7760    61.2640    72.3640     2.2630 
  183.8750   -39.7090    61.3430    24.3530    47.9290    61.0640    72.9560     2.2610 
  184.0000   -39.8570    64.4780    24.5790    47.9060    62.2290    75.2690     2.2410 
  184.1250   -40.0510    65.9410    24.5560    48.4420    65.5040    80.1840     2.2100 
  184.2500   -40.2600    65.0780    24.4810    50.6780    70.6400    87.1870     2.1880 
  184.3750   -40.4640    64.6730    24.4180    59.5220    76.9960    95.3630     2.1920 
  184.5000   -40.6260    66.0280    24.2010    75.4470    83.7030   103.6140     2.2030 
  184.6250   -40.7240    68.6080    23.8400    75.6540    89.1810   110.0440     2.2110 
  184.7500   -40.7570    71.7900    23.4470    64.2270    92.2370   113.4810     2.2190 
  184.8750   -40.7180    73.0870    23.2390    55.9150    92.2770   113.3820     2.2290 
  185.0000   -40.6440    70.5090    23.2050    53.5420    89.3870   110.0710     2.2350 
  185.1250   -40.5820    66.1170    23.2160    52.3850    84.4170   104.5150     2.2340 
  185.2500   -40.5560    63.8820    23.2530    50.0510    79.1260    98.9550     2.2340 
  185.3750   -40.5710    63.9180    23.1750    47.1260    74.7900    94.9690     2.2340 
  185.5000   -40.6500    65.3570    23.1640    44.4740    72.3060    93.4750     2.2310 
  185.6250   -40.7710    67.7590    23.4280    44.1290    72.7040    95.8340     2.2270 
  185.7500   -40.8850    69.0310    23.6560    46.2570    76.2310   102.2850     2.2320 
  185.8750   -40.9860    66.2560    24.0590    54.9200    83.2630   113.1410     2.2450 
  186.0000   -41.0350    59.6870    24.7400    71.5770    93.8210   128.2340     2.2490 
  186.1250   -40.9970    55.5420    24.8480    86.9930   107.2350   146.4350     2.2300 
  186.2500   -40.8790    55.1740    24.8770    94.8200   120.8380   164.2990     2.1900 
  186.3750   -40.7160    56.0000    24.8620    89.5360   132.6350   179.0030     2.1530 
  186.5000   -40.5160    56.9310    24.8730    85.0590   141.1000   188.5090     2.1440 
  186.6250   -40.3100    57.2360    24.8730    99.4090   144.3450   190.5440     2.1640 
  186.7500   -40.1170    58.0540    24.8650   122.8870   143.9560   187.8330     2.1940 
  186.8750   -39.9730    60.1910    24.8710   126.5790   142.0220   183.4290     2.2140 
  187.0000   -39.8880    61.3740    24.8960   106.1460   139.6510   178.6690     2.2240 
  187.1250   -39.8800    58.5460    24.8850   105.4790   137.4130   173.9530     2.2240 
  187.2500   -39.8970    56.0510    24.8660   137.9650   135.8230   169.6920     2.2150 
  187.3750   -39.8860    59.9380    24.7590   166.5940   134.4050   165.3720     2.2070 
  187.5000   -39.8270    66.9140    24.6690   163.4350   132.5560   160.6720     2.2120 
  187.6250   -39.6930    67.6540    24.7030   143.9000   131.1780   157.0320     2.2260 
  187.7500   -39.5280    64.3500    24.7040   115.7530   130.9200   154.9570     2.2380 
  187.8750   -39.3310    61.2690    24.5620    95.6610   131.1640   153.8220     2.2380 
  188.0000   -39.1070    59.1700    24.4520    93.6300   131.8860   153.4950     2.2330 
  188.1250   -38.8600    57.7570    23.8560   112.3820   132.8550   153.1790     2.2280 
  188.2500   -38.6400    56.6390    23.3590   120.3080   132.3300   151.0190     2.2280 
  188.3750   -38.4710    58.6890    23.1180   118.9980   129.2610   145.9940     2.2310 
  188.5000   -38.4060    62.7150    23.0970   110.5680   123.7360   138.6470     2.2310 
  188.6250   -38.4270    64.5050    23.2930   104.1960   116.5310   130.0390     2.2240 
