~V
VERS. 2.00: Ver 2.00
~W
STRT.M 120.0000:
STOP.M 271.0000:
STEP.M 0.1250:
NULL. -999.2500:
UWI. DF3037:
~C
DEPT.M :
GR.API :
RML.OHMM :
RI. :
RXO.OHMM :
CALI.CM :
SP.MV :
DEN.GM/CC :
AC.US/MT :
~A
# ...
  160.0000    70.2400    17.6060    15.6210    15.0560    24.3430   -19.5120     2.4730   298.6890 
  160.1250    69.5720    17.9790    15.9790    15.2560    24.3940   -19.5040     2.4720   297.9800 
  160.2500    70.5530    18.2060    16.2160    15.0610    24.4220   -19.5020     2.4720   297.3180 
  160.3750    73.8790    18.2820    16.3180    14.7220    24.4400   -19.5970     2.4710   296.9440 
  160.5000    75.9110    18.2010    16.2650    14.3690    24.4300   -19.6400     2.4710   297.1610 
  160.6250    74.7020    17.9060    16.0000    14.1630    24.3450   -19.7680     2.4760   298.1490 
  160.7500    73.3840    17.4220    15.5480    14.3730    24.1880   -19.8140     2.4860   299.4280 
  160.8750    73.4940    16.8050    14.9590    14.4050    24.0640   -19.9100     2.5010   300.5000 
  161.0000    72.5760    16.1690    14.3330    13.8650    24.0110   -19.9570     2.5160   300.9120 
  161.1250    67.4390    15.6960    13.8270    12.8060    24.0040   -20.0110     2.5240   300.2930 
  161.2500    64.5670    15.4750    13.5270    12.0310    24.0210   -20.0760     2.5260   298.8000 
  161.3750    66.2670    15.5180    13.4590    12.1040    24.0690   -20.0910     2.5210   296.5000 
  161.5000    68.0990    15.7580    13.5860    12.7950    24.1370   -20.1530     2.5160   293.5130 
  161.6250    65.7980    16.0850    13.8310    13.4120    24.2170   -20.1910     2.5180   290.0280 
  161.7500    62.4220    16.3740    14.0760    13.8020    24.2420   -20.2470     2.5280   286.5850 
  161.8750    61.5260    16.5780    14.2590    14.3340    24.2010   -20.3170     2.5440   283.6170 
  162.0000    61.8830    16.7050    14.3680    14.5460    24.1290   -20.3230     2.5610   281.3580 
  162.1250    61.1980    16.8080    14.4330    14.4000    24.0980   -20.3650     2.5730   279.8960 
  162.2500    60.5440    16.9500    14.5130    14.3570    24.0900   -20.4030     2.5810   278.8430 
  162.3750    60.3490    17.1610    14.6380    14.3560    24.0840   -20.4000     2.5840   277.9550 
  162.5000    61.2490    17.4460    14.8160    14.2970    24.0950   -20.4330     2.5830   277.1130 
  162.6250    62.5170    17.7830    15.0310    14.3790    24.2280   -20.4070     2.5800   276.3370 
  162.7500    63.9300    18.1170    15.2410    14.7960    24.5120   -20.4000     2.5770   275.6580 
  162.8750    64.4750    18.3950    15.4120    15.2410    24.7220   -20.4610     2.5760   275.0930 
  163.0000    62.6260    18.5740    15.5110    15.6150    24.7720   -20.5610     2.5770   274.7240 
  163.1250    59.9870    18.6010    15.5020    15.9460    24.7790   -20.6160     2.5820   274.8090 
  163.2500    58.8890    18.5000    15.4020    16.2110    24.8080   -20.6770     2.5880   275.3960 
  163.3750    58.3500    18.3070    15.2310    15.8390    24.8200   -20.7750     2.5910   276.3730 
  163.5000    57.7040    18.0740    15.0290    15.1640    24.8270   -20.7690     2.5900   277.4640 
  163.6250    57.8900    17.8740    14.8430    14.7460    24.7770   -20.8570     2.5800   278.3770 
  163.7500    58.5410    17.7450    14.7070    14.4340    24.6530   -21.0220     2.5660   279.1190 
  163.8750    59.3580    17.6940    14.6290    14.2420    24.4970   -21.0540     2.5510   279.8710 
  164.0000    60.5580    17.7010    14.6000    14.1400    24.3610   -21.1410     2.5370   280.7970 
  164.1250    61.0410    17.7290    14.5970    14.2030    24.2680   -21.2130     2.5290   281.9470 
  164.2500    59.8830    17.7340    14.5900    14.2460    24.1870   -21.3120     2.5300   283.2140 
  164.3750    59.8030    17.6900    14.5580    13.9740    24.0520   -21.4480     2.5370   284.6100 
  164.5000    61.7150    17.5810    14.4860    13.6270    23.8110   -21.6480     2.5470   286.2670 
  164.6250    61.5890    17.3800    14.3490    13.6270    23.6370   -21.9000     2.5470   288.4200 
  164.7500    58.6830    17.1020    14.1510    13.5410    23.6680   -22.0870     2.5320   291.0110 
  164.8750    56.0130    16.7670    13.8990    13.3080    23.8620   -22.3480     2.5000   293.8760 
  165.0000    56.3860    16.4140    13.6220    13.1210    24.2510   -22.6240     2.4570   296.7870 
  165.1250    58.5830    16.1160    13.3750    12.9070    24.9630   -22.8660     2.4120   299.5600 
  165.2500    60.2730    15.9290    13.2080    12.7510    26.0130   -23.1010     2.3770   302.1500 
  165.3750    60.9530    15.8810    13.1480    12.8310    27.2380   -23.2670     2.3520   304.5030 
  165.5000    60.3460    15.9580    13.1910    13.0370    28.2450   -23.3930     2.3360   306.4920 
  165.6250    59.1170    16.0990    13.3030    13.3940    28.7830   -23.4090     2.3180   307.8570 
  165.7500    57.9520    16.2040    13.4060    13.5280    29.1330   -23.3630     2.2870   308.5280 
  165.8750    58.5360    16.2050    13.4470    13.6990    29.2780   -23.2940     2.2390   308.3830 
  166.0000    60.7470    16.0760    13.3950    13.0850    28.7520   -23.1130     2.1810   307.3700 
  166.1250    62.9220    15.8290    13.2370    11.6820    27.0530   -22.9430     2.1340   305.5140 
  166.2500    63.8790    15.5410    13.0250     9.8390    25.1910   -22.6580     2.1190   303.3070 
  166.3750    63.5760    15.2690    12.8020     8.0620    23.8060   -22.3770     2.1430   301.1750 
  166.5000    62.4730    15.0620    12.6080     6.7700    23.0210   -22.0690     2.2010   299.4550 
  166.6250    61.5930    14.9670    12.4830     6.2320    22.6460   -21.7880     2.2720   298.3300 
  166.7500    60.8720    14.9730    12.4270     6.0730    22.4420   -21.5960     2.3290   297.4760 
  166.8750    61.0970    15.0570    12.4290     6.1660    22.6190   -21.4040     2.3570   296.5020 
  167.0000    61.6970    15.1790    12.4710     6.4450    23.3130   -21.2820     2.3630   295.0080 
  167.1250    60.7130    15.2970    12.5360     7.1080    24.2160   -21.1520     2.3630   292.7390 
  167.2500    58.5460    15.3940    12.6160     8.1950    24.6220   -21.1260     2.3750   290.1600 
  167.3750    58.9230    15.4880    12.7220     9.4300    24.3380   -21.1280     2.4010   287.9040 
  167.5000    62.5840    15.6080    12.8710    10.4820    23.9390   -21.1840     2.4390   286.4750 
  167.6250    64.6200    15.7770    13.0780    10.7240    23.7830   -21.1960     2.4760   285.9580 
  167.7500    64.4020    15.9600    13.3160    10.7390    23.8310   -21.1440     2.5000   285.6470 
  167.8750    64.4010    16.1040    13.5440    10.9090    23.8290   -21.1200     2.5120   285.0950 
  168.0000    65.5650    16.1500    13.7200    11.4990    23.6910   -21.0680     2.5130   284.3230 
  168.1250    64.2970    16.0430    13.7970    12.1110    23.5850   -21.0730     2.5080   283.9820 
  168.2500    60.4550    15.8140    13.7800    12.2210    23.4990   -21.0740     2.5010   284.6130 
  168.3750    57.7490    15.4960    13.6770    11.4840    23.4260   -21.0620     2.4920   286.4500 
  168.5000    57.9220    15.1300    13.5060    10.5580    23.3780   -21.0250     2.4820   289.4880 
  168.6250    60.0340    14.7590    13.2850     9.9530    23.3610   -21.0120     2.4720   293.7510 
  168.7500    61.3770    14.4190    13.0550     9.4420    23.3780   -20.9860     2.4600   298.8310 
  168.8750    62.3970    14.1310    12.8400     8.6570    23.4630   -20.9370     2.4430   304.3980 
  169.0000    64.3970    13.9000    12.6500     7.8550    23.6240   -20.8850     2.4170   310.1090 
  169.1250    66.3880    13.6930    12.4670     7.5390    23.8020   -20.7420     2.3810   315.8460 
  169.2500    66.1430    13.4380    12.2380     7.5720    23.9700   -20.5370     2.3410   322.0010 
  169.3750    63.8580    13.0810    11.9250     7.7400    24.0400   -20.2550     2.3020   329.2340 
  169.5000    60.9890    12.6230    11.5230     7.6060    23.9110   -19.9760     2.2640   337.9320 
  169.6250    61.1330    12.1850    11.1100     7.0810    23.5360   -19.6340     2.2200   347.5940 
  169.7500    64.9840    12.0190    10.8700     6.6320    23.1310   -19.2550     2.1710   356.2240 
  169.8750    69.5790    12.4310    11.0410     6.4910    22.7610   -18.8040     2.1210   362.0570 
