~V
VERS. 2.00: Ver 2.00
~W
STRT.M 60.0000:
STOP.M 280.0000:
STEP.M 0.1250:
NULL. -999.2500:
UWI. DF3041:
~C
DEPT.M :
SP.MV :
GR.API :
RML.OHMM :
RI. :
RXO.OHMM :
CALI.CM :
DEN.GM/CC :
~A
   60.0000    60.9920  -999.2500  -999.2500  -999.2500  -999.2500  -999.2500  -999.2500 
   60.1250    61.1430  -999.2500  -999.2500  -999.2500  -999.2500  -999.2500  -999.2500 
   60.2500    61.5810  -999.2500  -999.2500  -999.2500  -999.2500  -999.2500  -999.2500 
   60.3750    62.1520  -999.2500  -999.2500  -999.2500  -999.2500  -999.2500  -999.2500 
   60.5000    62.9150  -999.2500  -999.2500  -999.2500  -999.2500  -999.2500  -999.2500 
   60.6250    63.6870  -999.2500  -999.2500  -999.2500  -999.2500  -999.2500  -999.2500 
   60.7500    64.4040  -999.2500  -999.2500  -999.2500  -999.2500  -999.2500  -999.2500 
   60.8750    65.2360  -999.2500  -999.2500  -999.2500  -999.2500  -999.2500  -999.2500 
   61.0000    66.0220  -999.2500  -999.2500  -999.2500  -999.2500  -999.2500  -999.2500 
   61.1250    66.5310    48.8630    11.6570     0.9210     0.9880    25.2000  -999.2500 
   61.2500    66.9340    48.8630    11.6570     0.9210     0.9880    25.2000  -999.2500 
   61.3750    67.0260    50.1960    11.2580     0.9900     1.0220    25.2000  -999.2500 
   61.5000    66.5160    49.9520    10.6740     1.0680     1.1320    25.2000  -999.2500 
   61.6250    65.5880    46.9380    10.3490     1.0690     1.2130    25.2000  -999.2500 
   61.7500    64.5050    44.5760    10.2930     1.0090  1259.9680    25.2000  -999.2500 
   61.8750    63.1560    43.5570    10.4450     0.9220  4406.8030    25.2000  -999.2500 
   62.0000    61.7190    43.5720    10.6790     0.8490  7979.1120    25.2000  -999.2500 
   62.1250    60.5060    44.2080    10.8190     0.8380 18156.9670    25.2000  -999.2500 
   62.2500    59.4150    44.5380    10.7880     0.8860 37136.0310    25.2000  -999.2500 
   62.3750    58.6350    44.0420    10.6120     0.9710  8631.2450    25.1990  -999.2500 
   62.5000    58.2520    43.7760    10.4070     1.0590    21.1700    25.1930  -999.2500 
   62.6250    58.1820    45.0690    10.3520     1.1190     0.8560    25.1800  -999.2500 
   62.7500    58.2400    45.8700    10.5150     1.1420     0.8960    25.1530  -999.2500 
   62.8750    58.3570    45.8110    10.8650     1.1330     1.2350    25.0850  -999.2500 
   63.0000    58.4040    44.9070    11.2700     1.1070     1.3560    25.0400  -999.2500 
   63.1250    58.0560    43.4490    11.4860     1.0870     1.1780    25.0000  -999.2500 
   63.2500    57.4980    42.4880    11.3920     1.0890     1.2440    24.9540  -999.2500 
   63.3750    56.6470    43.1490    11.0250     1.1170     1.5200    24.9620  -999.2500 
   63.5000    55.5720    44.3250    10.6000     1.1580     2.5340    24.9870  -999.2500 
   63.6250    54.2690    44.6800    10.4530     1.1800  3149.8940    25.0540  -999.2500 
   63.7500    52.7010    44.8820    10.6420     1.1620  7768.2190    25.0640  -999.2500 
   63.8750    50.9860    45.2850    10.9440     1.0850 14594.9220    25.0670  -999.2500 
   64.0000    49.0290    44.4120    10.8880     0.9480 50349.7460    25.0660  -999.2500 
   64.1250    47.0850    42.1870     9.7470     0.7590 50349.7660    25.0610  -999.2500 
   64.2500    45.0010    42.8540     7.4540     0.5570 50349.7660    25.0370  -999.2500 
   64.3750    42.6420    46.7480     4.5810     0.3810 48463.9060    24.9830  -999.2500 
   64.5000    39.8740    48.3360     2.1950     0.2580 45318.0160    24.8610  -999.2500 
   64.6250    36.3890    45.8680     0.9140     0.1960 38499.4300    24.5970  -999.2500 
   64.7500    32.2050    44.5380     0.2730     0.1650 17224.3850    24.2770  -999.2500 
   64.8750    27.2200    46.5680     0.0800     0.1710    13.8650    24.0080  -999.2500 
   65.0000    21.6250    51.3490     0.2900     0.2610     4.2130    23.7680  -999.2500 
   65.1250    15.5730    57.7870     1.1660     0.5770     5.1680    23.5410  -999.2500 
   65.2500     9.4360    64.8440     2.5690     1.2020     7.3820    23.2600  -999.2500 
   65.3750     3.4270    69.2700     4.3760     2.1800    10.0020    22.6700  -999.2500 
   65.5000    -2.2770    69.3900     6.2150     3.4440    11.9590    22.2540  -999.2500 
   65.6250    -7.3560    67.4340     7.0880     4.7690    12.3120    22.1400  -999.2500 
   65.7500   -11.6910    68.0000     7.3420     5.8740    12.2920    22.1720  -999.2500 
   65.8750   -15.1570    72.1880     7.3050     6.6470    12.0920    22.2850  -999.2500 
   66.0000   -17.7120    74.8230     7.3260     7.1190    12.0380    22.4460  -999.2500 
   66.1250   -19.5620    71.7010     7.5500     7.3580    12.0670    22.7350  -999.2500 
   66.2500   -20.9780    69.3110     7.8910     7.4950    12.0790    23.2400  -999.2500 
   66.3750   -22.0960    72.0060     8.2850     7.6100    12.0530    23.9670  -999.2500 
   66.5000   -22.9610    76.7740     8.6960     7.7710    12.0650    24.6570  -999.2500 
   66.6250   -23.6050    76.2470     9.1190     8.0160    11.9620    24.6370  -999.2500 
   66.7500   -24.0970    72.7130     9.5350     8.3000    12.1830    24.7680  -999.2500 
   66.8750   -24.4690    70.8730     9.8910     8.5550    12.4680    24.6050  -999.2500 
   67.0000   -24.8110    72.3700    10.1090     8.7140    12.5060    24.1160  -999.2500 
   67.1250   -25.0530    74.0600    10.0860     8.7220    12.5250    23.6210  -999.2500 
   67.2500   -25.2680    73.1870     9.8760     8.6270    12.6390    23.1740  -999.2500 
   67.3750   -25.4380    72.3380     9.6090     8.4830    12.8700    23.0070  -999.2500 
   67.5000   -25.5800    72.4370     9.4370     8.3440    13.1140    23.1630  -999.2500 
   67.6250   -25.6550    72.8030     9.4390     8.2410    13.3910    23.6120  -999.2500 
   67.7500   -25.6620    71.4080     9.5120     8.1600    13.4230    24.2250  -999.2500 
   67.8750   -25.5510    66.2630     9.5640     8.0880    13.3260    24.9090  -999.2500 
   68.0000   -25.3360    60.5030     9.5460     8.0300    13.2540    25.0940  -999.2500 
   68.1250   -24.9300    58.4150     9.5050     8.0420    13.1370    25.0320  -999.2500 
   68.2500   -24.3380    60.5530     9.5640     8.1680    13.0340    24.7900  -999.2500 
   68.3750   -23.5310    63.6510     9.7940     8.4210    13.0540    24.4460  -999.2500 
   68.5000   -22.4790    65.7700    10.1730     8.7490    13.3690    23.9960  -999.2500 
   68.6250   -21.2230    69.8990    10.5730     9.0260    14.0930    23.3410  -999.2500 
   68.7500   -19.8730    74.4920    10.8390     9.1470    15.4620    23.0730  -999.2500 
   68.8750   -18.5360    80.1050    10.8810     9.0830    16.5590    23.1060  -999.2500 
   69.0000   -17.2240    87.8940    10.7020     8.8800    14.2390    23.4120  -999.2500 
   69.1250   -16.0830    95.5220    10.3910     8.6440    10.8630    23.9040  -999.2500 
   69.2500   -15.0600    98.9810    10.0710     8.4640    10.9680    24.3660  -999.2500 
   69.3750   -14.2210    97.4140     9.7660     8.3430    12.8220    24.5550  -999.2500 
   69.5000   -13.5740    95.9060     9.4550     8.2320    12.0840    24.2410  -999.2500 
   69.6250   -13.1270    99.2680     9.1170     8.0570     9.6900    24.2000  -999.2500 
   69.7500   -12.8080   105.7600     8.7890     7.8090     8.1020    24.3550  -999.2500 
   69.8750   -12.5530   112.6300     8.5300     7.5360     6.9980    24.6590  -999.2500 
   70.0000   -12.3780   115.6870     8.3920     7.3270     6.4720    24.4720  -999.2500 
   70.1250   -12.2010   114.7630     8.4050     7.2830     6.4590    24.2190  -999.2500 
   70.2500   -12.1030   113.4170     8.5020     7.3890     6.7060    23.9230  -999.2500 
   70.3750   -12.0380   112.5860     8.6330     7.5880     6.8320    23.9870  -999.2500 
   70.5000   -12.0480   108.4530     8.7560     7.8010     7.0010    24.3850  -999.2500 
   70.6250   -12.1380   101.6370     8.8250     7.9360     7.1710    24.4340  -999.2500 
   70.7500   -12.2710    99.0130     8.8240     7.9660     7.4010    24.5640  -999.2500 
   70.8750   -12.4220   102.0740     8.7580     7.8970     7.5680    24.3770  -999.2500 
   71.0000   -12.5610   107.5780     8.6440     7.7610     7.7500    24.1850  -999.2500 
   71.1250   -12.7350   109.8380     8.5110     7.6030     7.5700    24.0020  -999.2500 
