~V
VERS. 2.00: Ver 2.00
~W
STRT.M 60.0000:
STOP.M 266.0000:
STEP.M 0.1250:
NULL. -999.2500:
UWI. DF3052:
~C
DEPT.M :
GR.API :
CALI.CM :
RXO.OHMM :
RI. :
RML.OHMM :
DEN.GM/CC :
SP.MV :
~A
# ...
  138.7500    71.3090    22.8380    13.2550    11.4630    12.3380     2.3970   -21.8580 
  138.8750    71.7080    22.7820    10.5430    10.9560    11.8180     2.3140   -21.7850 
  139.0000    70.1390    22.7550     9.5220    10.5120    11.3650     2.2420   -21.6580 
  139.1250    66.4600    22.7260     9.4770    10.2660    11.1430     2.2030   -21.4760 
  139.2500    62.5310    22.7380     9.6200    10.3140    11.2620     2.1880   -21.2550 
  139.3750    60.0530    22.8140     9.8240    10.8010    11.8580     2.1870   -21.0250 
  139.5000    60.1400    22.9390    10.1980    11.7590    12.9310     2.1930   -20.8080 
  139.6250    63.4160    23.0360    11.1040    13.1270    14.3850     2.2080   -20.6950 
  139.7500    67.9670    23.0960    13.0240    14.6430    15.9400     2.2400   -20.6590 
  139.8750    71.6140    23.1760    16.7580    16.0000    17.2430     2.2990   -20.6980 
  140.0000    72.6880    23.3390    21.9280    16.8230    17.9130     2.3800   -20.8270 
  140.1250    70.7080    23.5010    24.4250    16.6140    17.4340     2.4390   -21.0460 
  140.2500    67.9020    23.4890    21.7700    15.5610    16.0780     2.4400   -21.3310 
  140.3750    66.3260    23.3220    16.3530    14.0020    14.2930     2.3860   -21.6410 
  140.5000    66.7180    23.1720    12.0880    12.3290    12.5420     2.3100   -21.9310 
  140.6250    67.9800    23.1770    10.6830    10.9880    11.2760     2.2440   -22.1480 
  140.7500    68.1940    23.2660    10.5240    10.1590    10.5850     2.1940   -22.2920 
  140.8750    67.0570    23.3660    10.7920     9.8740    10.4440     2.1630   -22.3700 
  141.0000    65.6520    23.4780    11.1580    10.0480    10.7370     2.1540   -22.3880 
  141.1250    64.5760    23.6370    11.5390    10.5260    11.2870     2.1650   -22.3100 
  141.2500    63.1530    23.8220    11.8660    11.0340    11.8420     2.1740   -22.1530 
  141.3750    61.6940    23.9410    12.0540    11.4060    12.2370     2.1740   -21.9340 
  141.5000    61.6270    23.9240    11.9440    11.6110    12.4390     2.1700   -21.6770 
  141.6250    63.8050    23.8070    11.5970    11.6590    12.4880     2.1690   -21.4060 
  141.7500    66.4220    23.7110    11.3500    11.6060    12.4780     2.1750   -21.1310 
  141.8750    68.3230    23.6530    11.2680    11.5080    12.4390     2.1880   -20.8620 
  142.0000    69.4470    23.6170    11.1800    11.4080    12.3950     2.2020   -20.5730 
  142.1250    69.7870    23.6050    11.0100    11.3490    12.3810     2.2090   -20.2810 
  142.2500    69.2120    23.5840    10.8680    11.3710    12.4570     2.2170   -20.0020 
  142.3750    67.9680    23.5430    10.8170    11.5000    12.6380     2.2420   -19.7520 
  142.5000    67.5740    23.5260    10.8620    11.7500    12.9420     2.2850   -19.5330 
  142.6250    69.8410    23.5910    10.9750    12.1670    13.4130     2.3220   -19.3600 
  142.7500    72.9290    23.6680    11.2470    12.6970    13.9850     2.3290   -19.2350 
  142.8750    74.4300    23.6810    11.8080    13.2680    14.5760     2.3140   -19.1280 
  143.0000    74.4500    23.6370    12.6210    13.8020    15.1030     2.3090   -19.0320 
  143.1250    74.9680    23.6060    13.3310    14.1810    15.4050     2.3330   -18.9550 
  143.2500    75.8350    23.6030    13.5530    14.3620    15.4630     2.3620   -18.8920 
  143.3750    75.8980    23.6070    13.2960    14.4030    15.3790     2.3730   -18.8190 
  143.5000    75.2160    23.6010    12.8910    14.4050    15.2680     2.3630   -18.7210 
  143.6250    74.3520    23.5470    12.9300    14.4130    15.1640     2.3490   -18.5380 
  143.7500    73.2090    23.4610    13.2190    14.4360    15.0980     2.3480   -18.2770 
  143.8750    72.0390    23.4000    13.3690    14.4760    15.0760     2.3580   -17.9820 
  144.0000    71.5950    23.3870    13.2770    14.4930    15.0260     2.3620   -17.6680 
  144.1250    71.8970    23.3770    13.0460    14.3240    14.7630     2.3430   -17.2900 
  144.2500    71.9530    23.3560    12.7620    13.8470    14.1660     2.3180   -16.8400 
  144.3750    71.6510    23.3860    12.2840    12.9910    13.1620     2.3030   -16.3320 
  144.5000    71.8940    23.5110    11.6250    11.8110    11.8400     2.3000   -15.7770 
  144.6250    74.6330    23.6750    11.0240    10.4650    10.4090     2.2980   -15.2110 
  144.7500    79.5980    23.7740    10.2710     9.1860     9.1220     2.2970   -14.6730 
  144.8750    84.8190    23.7830     8.9570     8.1350     8.1300     2.3000   -14.1690 
  145.0000    88.3130    23.7470     7.3220     7.4290     7.5540     2.3050   -13.7220 
  145.1250    88.9980    23.7290     6.2740     7.2180     7.4970     2.3030   -13.3820 
  145.2500    87.6570    23.7260     6.1810     7.3840     7.7960     2.3040   -13.1470 
  145.3750    85.3280    23.7290     7.2950     7.7550     8.2650     2.3210   -13.0080 
  145.5000    83.6890    23.7420     9.7490     8.1250     8.6930     2.3560   -12.9540 
  145.6250    84.0350    23.6960    12.2950     8.2860     8.8520     2.3900   -12.9980 
  145.7500    84.7330    23.5740    12.9770     8.1620     8.6570     2.3970   -13.0590 
  145.8750    84.5000    23.4480    11.5710     7.7330     8.1130     2.3750   -13.1050 
  146.0000    84.5460    23.3910     9.5850     7.0710     7.3500     2.3410   -13.1190 
  146.1250    88.4510    23.4390     8.4710     6.3320     6.5570     2.3280   -13.0980 
  146.2500    95.8050    23.5670     7.6990     5.6920     5.9210     2.3350   -13.0550 
  146.3750   103.3360    23.7450     6.7360     5.2380     5.5130     2.3470   -13.0080 
  146.5000   107.7760    23.8920     5.6980     4.9770     5.3220     2.3550   -12.9670 
  146.6250   107.4450    23.9400     5.1370     4.8950     5.3120     2.3560   -12.9180 
  146.7500   104.0870    23.9430     5.0850     4.9130     5.3940     2.3460   -12.8650 
  146.8750    99.4410    23.9120     5.2880     4.9900     5.5460     2.3220   -12.8270 
  147.0000    95.3560    23.8210     5.4620     5.1120     5.7470     2.2980   -12.8140 
  147.1250    93.2910    23.6870     5.5930     5.2480     5.9290     2.3030   -12.8220 
  147.2500    92.3660    23.5790     5.7090     5.3510     6.0550     2.3250   -12.8110 
  147.3750    91.5230    23.5340     5.7040     5.3960     6.0920     2.3420   -12.7430 
  147.5000    90.8020    23.5470     5.5540     5.3660     6.0320     2.3410   -12.6370 
  147.6250    92.1590    23.5940     5.3790     5.2470     5.8750     2.3290   -12.4960 
  147.7500    95.9060    23.6330     5.2840     5.0710     5.6680     2.3220   -12.3700 
  147.8750   100.3880    23.6180     5.1620     4.8530     5.4190     2.3250   -12.2640 
  148.0000   103.6760    23.5510     4.9640     4.6080     5.1390     2.3350   -12.1670 
  148.1250   106.2010    23.4940     4.7280     4.3550     4.8860     2.3440   -12.0960 
  148.2500   108.6280    23.4680     4.4750     4.1440     4.6980     2.3550   -12.0880 
  148.3750   109.1650    23.4330     4.2410     4.0060     4.6110     2.3690   -12.1750 
  148.5000   106.3740    23.3620     4.0510     3.9730     4.6570     2.3790   -12.3450 
  148.6250   101.5910    23.2640     3.9600     4.1140     4.9180     2.3800   -12.6370 
  148.7500    97.5050    23.1030     4.0530     4.4260     5.3790     2.3800   -12.9920 
  148.8750    94.3290    22.8450     4.3710     4.8960     6.0060     2.3850   -13.3620 
  149.0000    91.9850    22.5420     4.8420     5.4990     6.7700     2.3890   -13.7470 
  149.1250    90.6940    22.3430     5.4420     6.1690     7.5500     2.3730   -14.1210 
  149.2500    88.8910    22.2640     6.1450     6.7650     8.1720     2.3340   -14.4510 
  149.3750    85.9960    22.2260     6.7520     7.1810     8.5340     2.2820   -14.7190 
  149.5000    83.8830    22.1950     6.9650     7.3710     8.5980     2.2350   -14.9020 
  149.6250    85.0930    22.2010     6.7260     7.2980     8.3690     2.2110   -14.9290 
  149.7500    88.4710    22.2350     6.3290     7.0990     8.0310     2.2120   -14.8540 
  149.8750    92.3160    22.2720     5.9240     6.9450     7.7970     2.2310   -14.7270 
