~V
VERS. 2.00: Ver 2.00
~W
STRT.M 100.0000:
STOP.M 264.0000:
STEP.M 0.1250:
NULL. -999.2500:
UWI. DF3023:
~C
DEPT.M :
GR.API :
CALI.CM :
RXO.OHMM :
RI. :
RML.OHMM :
SP.MV :
DEN.GM/CC :
AC.US/MT :
~A
# ...
  140.0000    53.8480    23.8450    13.1280    13.6390    14.3250    -9.8880     2.5110   293.1340 
  140.1250    53.2430    23.8790    13.3580    13.9730    14.6650    -9.9510     2.4940   294.4750 
  140.2500    54.9280    23.9680    13.4100    14.2640    14.9300   -10.0290     2.5140   297.7820 
  140.3750    56.8480    24.0710    13.4690    14.4890    15.1320   -10.0910     2.5400   300.3930 
  140.5000    57.3440    24.1550    13.6100    14.6950    15.3550   -10.1080     2.5470   299.8540 
  140.6250    58.0580    24.2020    13.9840    14.9820    15.7260   -10.0770     2.5340   296.5250 
  140.7500    61.0080    24.2260    14.3330    15.3870    16.2440   -10.0260     2.5280   294.7830 
  140.8750    65.1260    24.2450    15.3670    15.8630    16.8130    -9.9970     2.5380   295.6960 
  141.0000    67.2910    24.3100    16.1610    16.2730    17.2370   -10.0330     2.5510   297.3290 
  141.1250    66.1320    24.4960    16.6900    16.3570    17.1940   -10.1160     2.5410   297.6770 
  141.2500    64.2360    24.7340    16.8800    16.0290    16.6610   -10.2020     2.5130   298.6120 
  141.3750    62.2110    24.9180    16.4440    15.3530    15.7950   -10.3040     2.4930   302.2060 
  141.5000    60.5100    24.9860    14.7630    14.5390    14.8760   -10.4290     2.4750   307.2590 
  141.6250    60.6080    24.9740    13.1020    13.8480    14.2050   -10.5570     2.4460   310.3560 
  141.7500    61.9790    24.9620    12.4800    13.3820    13.8300   -10.6980     2.4380   310.7770 
  141.8750    63.1550    24.9360    13.0140    13.1310    13.6920   -10.8650     2.4550   310.9590 
  142.0000    63.2100    24.8210    13.5740    13.0260    13.6830   -11.0410     2.4690   313.9600 
  142.1250    63.3550    24.6360    12.9500    12.9950    13.7100   -11.2260     2.4510   319.6320 
  142.2500    62.8550    24.5680    12.6760    12.9810    13.7320   -11.4340     2.4160   322.4840 
  142.3750    61.7600    24.6600    12.8250    12.9920    13.7750   -11.6480     2.4150   319.2140 
  142.5000    61.3530    24.7860    13.4210    13.0570    13.8790   -11.8320     2.4460   311.5680 
  142.6250    61.5830    24.8400    14.2850    13.1870    14.0480   -11.9840     2.4770   305.2290 
  142.7500    61.8570    24.9010    14.3490    13.3310    14.2120   -12.1220     2.4860   301.6990 
  142.8750    62.8350    24.9250    14.1080    13.4470    14.3400   -12.2480     2.4780   299.1020 
  143.0000    64.3760    24.7460    13.8830    13.5260    14.4500   -12.3820     2.4730   296.7900 
  143.1250    64.1010    24.3170    13.7420    13.6170    14.6160   -12.5660     2.4810   295.3490 
  143.2500    63.4070    23.8590    13.9330    13.7750    14.8890   -12.7750     2.5020   294.5990 
  143.3750    64.9130    23.4820    14.5750    14.0060    15.2590   -12.9630     2.5140   293.3950 
  143.5000    66.9180    23.2440    15.6690    14.2610    15.6400   -13.1030     2.5180   292.0100 
  143.6250    67.6980    23.3190    16.2360    14.4260    15.8820   -13.1710     2.5110   292.2840 
  143.7500    67.5600    23.7210    15.7370    14.4380    15.9190   -13.1710     2.4900   293.6850 
  143.8750    66.6660    24.2670    14.7300    14.2790    15.7490   -13.1270     2.4710   294.8830 
  144.0000    64.7920    24.7020    14.0930    13.9830    15.4360   -13.0620     2.4710   294.7180 
  144.1250    64.9770    24.8700    13.7740    13.6400    15.1070   -12.9610     2.4920   293.1020 
  144.2500    67.3630    24.8420    13.7320    13.3520    14.8760   -12.8130     2.5130   291.0030 
  144.3750    68.7580    24.7150    13.8640    13.1670    14.7850   -12.6510     2.5260   288.4140 
  144.5000    68.0990    24.6120    14.0030    13.1090    14.8450   -12.5320     2.5340   285.5290 
  144.6250    66.6920    24.5640    14.2220    13.2020    15.0630   -12.4840     2.5390   282.0940 
  144.7500    65.2620    24.4950    14.2750    13.4050    15.3710   -12.4760     2.5390   278.6350 
  144.8750    64.1810    24.4000    14.2020    13.6720    15.7040   -12.4670     2.5360   275.4780 
  145.0000    63.2140    24.3350    14.6300    13.9420    15.9910   -12.4000     2.5340   272.9720 
  145.1250    61.8590    24.3480    16.3710    14.1370    16.1450   -12.2590     2.5330   272.3430 
  145.2500    59.2450    24.4600    17.0190    14.2370    16.1620   -12.1020     2.5430   273.4380 
  145.3750    56.6880    24.6710    16.3310    14.2510    16.0780   -11.9670     2.5530   275.0560 
  145.5000    55.9140    24.8680    15.1980    14.2150    15.9530   -11.8810     2.5530   276.2970 
  145.6250    57.5320    24.9130    15.0530    14.1480    15.8330   -11.8820     2.5400   277.5720 
  145.7500    59.1340    24.8860    15.0990    14.0460    15.6910   -11.9570     2.5390   279.6540 
  145.8750    59.0460    24.8970    15.2160    13.8460    15.4250   -12.0950     2.5620   281.9450 
  146.0000    57.6670    24.9400    15.3880    13.4520    14.8960   -12.3070     2.5860   283.3320 
  146.1250    57.5210    24.9090    14.9730    12.7500    13.9780   -12.5990     2.5940   283.8950 
  146.2500    58.7560    24.7870    14.4770    11.8290    12.8170   -12.9350     2.5980   289.6780 
  146.3750    60.4790    24.6280    13.3370    10.8360    11.6200   -13.3110     2.5920   308.5130 
  146.5000    62.3430    24.4870    11.7090     9.9500    10.6160   -13.7290     2.5610   342.5830 
  146.6250    68.4710    24.3990    10.5640     9.3700    10.0430   -14.1700     2.5180   381.1420 
  146.7500    77.9140    24.3550    10.3560     9.1200     9.8890   -14.6230     2.4870   407.3250 
  146.8750    86.2010    24.3350    10.7330     9.1860    10.0890   -15.0800     2.4550   416.9110 
  147.0000    90.7840    24.3170    11.4570     9.4990    10.5150   -15.4940     2.4180   415.9210 
  147.1250    91.0980    24.2920    12.4950     9.9240    10.9550   -15.8190     2.3990   412.5890 
  147.2500    90.0690    24.2770    12.6360    10.2520    11.2000   -16.0790     2.4050   409.6200 
  147.3750    89.8590    24.2690    12.0640    10.3610    11.1590   -16.2770     2.4100   406.1200 
  147.5000    91.6190    24.2430    11.4800    10.2280    10.8530   -16.4170     2.4080   402.7620 
  147.6250    95.1050    24.1930    11.3730     9.8990    10.3670   -16.5270     2.4070   401.5720 
  147.7500    98.0220    24.1400    10.9730     9.5010     9.8460   -16.6310     2.4040   403.3900 
  147.8750   100.2980    24.0850    10.0170     9.1040     9.3680   -16.7130     2.3920   407.8540 
  148.0000    99.5580    24.0320     9.1870     8.7590     8.9910   -16.7670     2.3780   412.9580 
  148.1250    94.7930    23.9970     8.9300     8.5490     8.8040   -16.8190     2.3780   415.6940 
  148.2500    91.6170    23.9890     8.8580     8.5290     8.8460   -16.8780     2.4000   415.4120 
  148.3750    92.2290    23.9910     9.0400     8.7420     9.1390   -16.9360     2.4230   413.0040 
  148.5000    94.7450    23.9910     9.7840     9.1860     9.6440   -16.9850     2.4180   409.6980 
  148.6250    94.6970    23.9910    10.9350     9.7900    10.2320   -17.0160     2.3990   405.8930 
  148.7500    91.9230    23.9910    11.4430    10.3540    10.6830   -17.0190     2.3910   402.6720 
  148.8750    89.2100    23.9910    10.9820    10.7110    10.8410   -17.0010     2.4000   401.5730 
  149.0000    89.0870    23.9910    10.1980    10.7540    10.6550   -16.9900     2.4150   403.0460 
  149.1250    90.9060    23.9900     9.4400    10.4570    10.1890   -16.9960     2.4220   405.2410 
  149.2500    93.0080    23.9860     9.0060    10.0100     9.6720   -16.9950     2.4280   406.7950 
  149.3750    94.0770    24.0250     9.1030     9.5500     9.2470   -17.0020     2.4340   408.1250 
  149.5000    94.7140    24.1980     9.0690     9.1690     8.9750   -17.0590     2.4370   409.5340 
  149.6250    96.4990    24.5520     8.8410     8.9290     8.8680   -17.1780     2.4420   409.6030 
  149.7500   100.7260    24.9260     8.9590     8.7980     8.8470   -17.3410     2.4480   408.0180 
  149.8750   104.7200    25.1840     9.5820     8.7440     8.8770   -17.5640     2.4450   405.1650 
