~V
VERS. 2.00: Ver 2.00
~W
STRT.M 120.0000:
STOP.M 278.0000:
STEP.M 0.1250:
NULL. -999.2500:
UWI. DF3047:
~C
DEPT.M :
DEN.GM/CC :
SP.MV :
AC.US/MT :
GR.API :
CALI.CM :
RXO.OHMM :
RI. :
RML.OHMM :
~A
# ...
  160.0000     2.5510   -11.9320   261.8390    58.0550    25.7670    20.5530    17.3490    20.5780 
  160.1250     2.5420   -11.9400   262.2990    57.8670    25.6730    19.8090    17.1900    20.2660 
  160.2500     2.5350   -11.9350   263.0730    59.4740    25.4950    18.5710    16.7870    19.6700 
  160.3750     2.5320   -11.8950   263.4390    61.5380    25.4880    17.5790    16.2110    18.9070 
  160.5000     2.5290   -11.8290   262.9460    62.7630    25.7460    17.2010    15.5470    18.0860 
  160.6250     2.5260   -11.7410   261.8750    63.5890    26.1460    17.3610    14.8450    17.2490 
  160.7500     2.5220   -11.6480   261.4480    64.1410    26.4770    17.2930    14.1180    16.3760 
  160.8750     2.5230   -11.5440   262.6400    63.3080    26.6610    16.2730    13.3600    15.4390 
  161.0000     2.5310   -11.4300   265.6450    60.7940    26.7050    14.3500    12.5930    14.4740 
  161.1250     2.5440   -11.3240   269.6000    59.5220    26.6580    12.6080    11.9170    13.6370 
  161.2500     2.5500   -11.2380   272.8750    60.1760    26.6170    11.8080    11.4200    13.0730 
  161.3750     2.5510   -11.1710   274.5560    60.5940    26.6230    11.9760    11.1710    12.8750 
  161.5000     2.5520   -11.1260   274.3730    57.9510    26.6610    12.7380    11.2070    13.0780 
  161.6250     2.5550   -11.1030   272.2490    54.8690    26.6970    13.6100    11.5510    13.6740 
  161.7500     2.5520   -11.0970   268.8490    55.3330    26.7030    14.3210    12.0650    14.4410 
  161.8750     2.5420   -11.1000   264.7460    59.0820    26.6750    14.9350    12.6130    15.1860 
  162.0000     2.5280   -11.1120   260.8390    62.6210    26.6350    15.4910    13.0660    15.7430 
  162.1250     2.5230   -11.1250   258.3750    62.7240    26.6060    15.8010    13.2990    15.9730 
  162.2500     2.5330   -11.1430   257.4690    61.7820    26.5990    16.0210    13.3320    15.9480 
  162.3750     2.5560   -11.1630   257.5860    62.7250    26.6020    16.4900    13.2230    15.7720 
  162.5000     2.5760   -11.1780   258.0020    66.0280    26.6090    17.0120    13.0550    15.5680 
  162.6250     2.5770   -11.2010   258.5460    70.9180    26.6320    16.8220    12.9210    15.4530 
  162.7500     2.5610   -11.2270   259.6610    75.0590    26.6470    16.2110    12.8820    15.4790 
  162.8750     2.5430   -11.2700   261.5470    77.1460    26.6490    15.8740    12.9850    15.6810 
  163.0000     2.5280   -11.3240   263.6060    77.6710    26.6440    16.0860    13.2520    16.0450 
  163.1250     2.5130   -11.3750   264.3760    77.7280    26.6280    17.1540    13.6680    16.4960 
  163.2500     2.4950   -11.4080   263.4090    78.1470    26.6090    19.2950    14.1410    16.9140 
  163.3750     2.4810   -11.4410   261.4230    78.4950    26.6030    21.5850    14.6250    17.2730 
  163.5000     2.4790   -11.4700   259.8380    78.5780    26.6320    21.9300    15.1120    17.6190 
  163.6250     2.4870   -11.4860   259.7890    78.0980    26.6610    19.9400    15.6290    18.0570 
  163.7500     2.4960   -11.4890   260.2530    76.7010    26.6060    18.6400    16.1680    18.5800 
  163.8750     2.5020   -11.4940   262.0670    75.4920    26.4640    19.2860    16.6050    18.9940 
  164.0000     2.5020   -11.5070   264.9610    76.0620    26.3280    20.4520    16.6340    18.8700 
  164.1250     2.4880   -11.5280   269.8460    79.6490    26.3020    19.7710    15.7110    17.5520 
  164.2500     2.4600   -11.5670   277.8120    84.4330    26.3490    17.2330    13.9280    15.2150 
  164.3750     2.4300   -11.6210   289.6130    88.7880    26.4380    13.8240    11.7000    12.3930 
  164.5000     2.4190   -11.6830   304.7750    92.2900    26.6440    12.2380     9.5630     9.7550 
  164.6250     2.4270   -11.7530   321.5590    94.8990    26.9720     8.6070     7.9790     7.8900 
  164.7500     2.4310   -11.8350   337.4220    97.6820    27.1700     6.7230     6.9720     6.8060 
  164.8750     2.4240   -11.9190   351.0090    98.5060    27.1090     6.2640     6.5160     6.4550 
  165.0000     2.4220   -12.0010   361.6790    96.8720    26.9590     6.5500     6.5930     6.8190 
  165.1250     2.4300   -12.0940   368.3190    93.9640    26.9410     7.3350     7.3410     8.0850 
  165.2500     2.4260   -12.1910   370.8770    91.0670    26.8550     8.8420     8.7330    10.1630 
  165.3750     2.4060   -12.3030   369.3160    88.7560    26.5500    11.7020    10.7530    12.9140 
  165.5000     2.3840   -12.4370   364.7210    85.7810    26.1860    16.1730    13.1350    15.8400 
  165.6250     2.3780   -12.5950   359.5150    81.7470    26.0880    20.1610    15.0390    17.7820 
  165.7500     2.3800   -12.7680   356.4220    80.6510    26.2160    20.9870    15.7680    18.1340 
  165.8750     2.3810   -12.9570   356.6990    83.7160    26.3540    19.0900    15.4370    17.3120 
  166.0000     2.3820   -13.1760   360.1380    87.6030    26.3720    17.1540    14.8140    16.4530 
  166.1250     2.3860   -13.4230   365.3920    87.4390    26.2910    17.4640    14.8490    16.8830 
  166.2500     2.3850   -13.6900   370.4220    85.3290    26.2410    20.5770    16.0150    19.0650 
  166.3750     2.3690   -13.9520   374.3080    82.4120    26.2430    27.7160    18.6250    23.2070 
  166.5000     2.3400   -14.2040   376.6890    78.4480    26.2660    38.5570    22.7650    29.1540 
  166.6250     2.3150   -14.4460   377.1290    74.7610    26.2920    47.6950    28.1190    36.1170 
  166.7500     2.3040   -14.6820   375.9000    72.4150    26.3100    50.8760    33.3950    42.3550 
  166.8750     2.3020   -14.9040   373.4120    70.6130    26.3040    49.7450    37.6720    46.8440 
  167.0000     2.2950   -15.0970   370.6140    70.3420    26.2780    48.7840    40.7950    49.7800 
  167.1250     2.2820   -15.2550   369.1410    71.4210    26.2180    52.6630    43.3280    52.2390 
  167.2500     2.2750   -15.3740   369.9140    72.8010    26.1450    60.8400    45.7210    54.6590 
  167.3750     2.2770   -15.4760   373.0160    74.9110    26.1110    68.2180    47.2950    55.8940 
  167.5000     2.2820   -15.5620   377.5570    77.5780    26.1270    68.5540    46.8360    54.2840 
  167.6250     2.2820   -15.6360   381.7120    79.3570    26.1380    59.6410    43.4190    49.0810 
  167.7500     2.2790   -15.7140   383.9780    80.6830    26.1140    47.4920    38.7120    42.9080 
  167.8750     2.2770   -15.7950   384.0650    82.9180    26.0770    36.4490    34.5280    38.0720 
  168.0000     2.2780   -15.8950   382.9570    83.6490    26.0430    29.8290    32.2280    35.9780 
  168.1250     2.2830   -16.0230   382.5860    81.7220    26.0130    31.1840    33.0490    37.7760 
  168.2500     2.2850   -16.1740   383.7830    78.9400    26.0040    41.3180    36.9380    43.0620 
  168.3750     2.2810   -16.3290   385.9240    75.7210    26.0210    58.8680    43.8380    51.5590 
  168.5000     2.2660   -16.4990   387.8260    73.4590    26.0360    75.1960    52.6860    61.8740 
  168.6250     2.2450   -16.6960   388.7840    74.5710    26.0190    80.4440    60.2990    69.8790 
  168.7500     2.2300   -16.8910   389.3710    76.3190    25.9960    79.5210    63.7480    72.2590 
  168.8750     2.2310   -17.0860   389.8910    74.7450    25.9900    74.1070    62.8460    69.6630 
  169.0000     2.2470   -17.2750   389.8970    71.8040    25.9930    62.3830    59.8750    65.6390 
  169.1250     2.2630   -17.4660   388.3170    71.6900    25.9890    55.9990    58.7620    64.5520 
  169.2500     2.2670   -17.6740   385.2860    72.5840    25.9870    50.6560    58.0840    64.1900 
  169.3750     2.2580   -17.8990   381.5180    74.6120    26.0100    54.7110    59.6470    66.7870 
  169.5000     2.2450   -18.1320   377.8350    74.9620    26.0680    72.7870    64.2310    72.8850 
  169.6250     2.2390   -18.3600   374.9390    72.6920    26.1090    91.0620    71.2200    81.7810 
  169.7500     2.2430   -18.5910   373.1380    71.1290    26.1070    97.7110    78.6820    91.1860 
  169.8750     2.2550   -18.8220   372.7760    71.8280    26.1040    96.0150    85.3900    99.5180 
