~V
VERS. 2.00: Ver 2.00
~W
STRT.M 64.0000:
STOP.M 264.0000:
STEP.M 0.1250:
NULL. -999.2500:
UWI. DF3031:
~C
DEPT.M :
DEN.GM/CC :
AC.US/MT :
GR.API :
CALI.CM :
RXO.OHMM :
RI. :
RML.OHMM :
SP.MV :
~A
# ...
  174.0000     2.3160   424.3450    72.5580    25.4580    38.2580    63.8010    65.0540   -19.5410 
  174.1250     2.3110   426.8140    74.3900    25.3970    31.4070    54.8870    55.4250   -19.4230 
  174.2500     2.2910   429.7840    77.7800    25.3590    27.1380    48.7950    49.1370   -19.3140 
  174.3750     2.2770   432.2190    81.0500    25.3530    25.6180    45.1200    45.4840   -19.2240 
  174.5000     2.2750   433.1170    82.9730    25.3560    26.1140    42.9640    43.3350   -19.1560 
  174.6250     2.2850   431.6070    83.9520    25.3430    26.7160    41.2790    41.5030   -19.1060 
  174.7500     2.3010   428.1400    82.0480    25.3150    25.7710    39.3500    39.3600   -19.0850 
  174.8750     2.3190   423.0990    77.7310    25.2870    23.8990    37.3470    37.2270   -19.0970 
  175.0000     2.3300   416.9780    74.6690    25.2750    22.7340    35.8960    35.8880   -19.1340 
  175.1250     2.3260   410.5020    75.5330    25.2750    23.2520    35.9720    36.4860   -19.2080 
  175.2500     2.3130   404.7800    77.8760    25.2760    25.0860    37.9180    39.3240   -19.3050 
  175.3750     2.3020   400.8010    78.4860    25.2760    28.4160    42.0050    44.5780   -19.4150 
  175.5000     2.2910   399.2570    76.5980    25.2760    32.7510    48.1470    51.9980   -19.5370 
  175.6250     2.2760   400.5220    72.8630    25.2760    35.4140    55.7800    60.8720   -19.6890 
  175.7500     2.2580   403.2660    69.3320    25.2770    35.8550    63.4060    69.6720   -19.8370 
  175.8750     2.2460   406.1830    67.8870    25.2890    36.7510    69.9810    77.3910   -19.9660 
  176.0000     2.2410   408.0440    68.3790    25.3150    40.2500    74.9920    83.5910   -20.1040 
  176.1250     2.2410   407.8170    68.9400    25.3410    43.7780    78.4960    88.4680   -20.2300 
  176.2500     2.2410   405.8560    69.7330    25.3540    44.4270    81.5010    93.1250   -20.3500 
  176.3750     2.2400   402.5490    71.6800    25.3550    43.8270    84.7260    98.3830   -20.4800 
  176.5000     2.2350   398.1730    74.6470    25.3540    44.7620    88.8220   104.9950   -20.6060 
  176.6250     2.2230   392.6350    76.9340    25.3570    46.5070    94.7930   114.1420   -20.7300 
  176.7500     2.2130   386.3680    78.9740    25.3500    46.2400   102.7640   125.8130   -20.8620 
  176.8750     2.2100   380.1750    79.9140    25.3110    44.1330   112.3460   139.3910   -21.0020 
  177.0000     2.2120   375.2480    78.2540    25.2480    42.7000   122.4590   153.3770   -21.1330 
  177.1250     2.2180   372.9370    75.9300    25.2160    44.3700   131.2710   165.2140   -21.2490 
  177.2500     2.2310   372.6460    76.0940    25.2550    48.6420   137.4790   173.2570   -21.3410 
  177.3750     2.2480   373.1520    76.0950    25.3670    54.8690   140.4020   176.7520   -21.4010 
  177.5000     2.2590   373.0680    74.2930    25.5110    61.4550   140.1420   176.0620   -21.4510 
  177.6250     2.2510   371.4890    73.6640    25.6210    65.2570   137.3650   172.3000   -21.4620 
  177.7500     2.2320   369.1050    75.8330    25.6650    66.4320   133.9540   167.9470   -21.4640 
  177.8750     2.2180   366.7570    78.2070    25.6690    67.3190   131.1580   164.5240   -21.4630 
  178.0000     2.2190   364.9430    79.4180    25.6680    69.0690   129.7640   162.9140   -21.4440 
  178.1250     2.2340   363.6810    79.0290    25.6670    70.4850   130.4120   163.8610   -21.4340 
  178.2500     2.2460   362.7890    76.1160    25.6230    71.0260   133.0560   167.2910   -21.4460 
  178.3750     2.2460   362.7410    72.8190    25.5240    71.4460   137.8880   173.3760   -21.4800 
  178.5000     2.2370   364.5320    73.1120    25.4130    72.1270   144.5560   181.5380   -21.5240 
  178.6250     2.2320   369.6140    75.5290    25.3590    72.7690   151.3010   189.3500   -21.6190 
  178.7500     2.2370   377.4040    74.9790    25.3440    73.9880   155.1120   192.8730   -21.7180 
  178.8750     2.2510   386.5820    71.9380    25.3310    76.8580   153.1300   188.4480   -21.8040 
  179.0000     2.2700   395.2120    69.6050    25.3210    81.2120   144.1110   175.0470   -21.8940 
  179.1250     2.2880   400.9380    70.4290    25.3510    85.9410   129.9150   156.2850   -21.9630 
  179.2500     2.3030   403.2650    72.9910    25.4340    87.6560   116.4670   139.8390   -22.0090 
  179.3750     2.3120   402.3790    74.8740    25.5470    81.4510   107.6550   130.0060   -22.0370 
  179.5000     2.3090   399.0070    73.7180    25.6440    68.2820   105.6830   128.6990   -22.0370 
  179.6250     2.2910   393.9720    70.7380    25.6170    59.4630   112.1990   136.8300   -22.0080 
  179.7500     2.2690   388.6390    70.4370    25.4440    62.3360   123.5140   149.3180   -21.9670 
  179.8750     2.2550   384.0880    72.8810    25.2170    75.1550   134.5930   159.7800   -21.9300 
  180.0000     2.2570   381.3980    75.6880    25.0620    88.7970   139.6060   161.5010   -21.9050 
  180.1250     2.2750   381.7620    76.8660    25.0330    88.4260   134.1440   150.9120   -21.8840 
  180.2500     2.2960   384.4520    75.1240    25.0390    75.3670   122.7940   135.3110   -21.8740 
  180.3750     2.3040   388.1810    71.0220    25.0450    61.1390   110.5910   120.7450   -21.8800 
  180.5000     2.3000   391.2380    69.3020    25.0740    54.9700   100.6320   109.8070   -21.9050 
  180.6250     2.2930   391.8940    73.5980    25.1320    56.6830    93.1020   101.7600   -21.9230 
  180.7500     2.2940   390.4700    76.6720    25.1920    57.5960    85.9840    94.0890   -21.9490 
  180.8750     2.3010   388.0810    74.8950    25.2330    53.2840    78.7140    86.2420   -21.9880 
  181.0000     2.3060   386.1960    73.4990    25.2530    44.6020    71.8920    79.0490   -22.0260 
  181.1250     2.3090   386.2540    78.0910    25.2570    36.9490    67.2760    74.7150   -22.1020 
  181.2500     2.3090   388.1760    83.0130    25.2570    34.6610    65.9760    74.4540   -22.1870 
  181.3750     2.3050   391.4750    81.8200    25.2570    38.6490    68.7540    79.0100   -22.2720 
  181.5000     2.2940   395.4330    76.4590    25.2610    47.0760    75.9050    88.5900   -22.3660 
  181.6250     2.2830   399.2080    75.3910    25.2810    55.7960    88.1640   103.8780   -22.4960 
  181.7500     2.2820   402.0890    79.6980    25.3310    62.8930   104.3730   123.5170   -22.6300 
  181.8750     2.2860   403.5670    84.1740    25.4050    70.1340   123.7220   146.5770   -22.7580 
  182.0000     2.2850   403.3810    82.6300    25.4900    79.4760   144.8930   171.4650   -22.8970 
  182.1250     2.2720   401.4550    76.6700    25.6660    88.2370   164.4030   193.6380   -23.0090 
  182.2500     2.2620   398.6060    73.4760    25.9330    90.9130   176.4880   205.6740   -23.1090 
  182.3750     2.2690   395.3920    73.4960    26.1760    87.1060   175.3720   200.6600   -23.2020 
  182.5000     2.2910   392.1560    74.1950    26.2860    79.8720   159.9030   178.9920   -23.2630 
  182.6250     2.3120   388.9060    73.7360    26.2780    69.5450   136.0210   150.5740   -23.2740 
  182.7500     2.3190   385.4880    74.9020    26.2710    56.9920   114.5580   127.6190   -23.2780 
  182.8750     2.3150   381.8880    76.9990    26.2720    46.1480   100.8840   114.9040   -23.2870 
  183.0000     2.3030   378.3390    76.0710    26.2720    40.7610    97.3110   113.9510   -23.2890 
  183.1250     2.2870   375.3990    71.4610    26.2720    44.8370   106.7020   127.2730   -23.3160 
  183.2500     2.2720   373.3770    67.1150    26.2720    58.6810   127.0990   152.4440   -23.3420 
  183.3750     2.2620   372.3360    65.6310    26.2720    79.6070   155.4090   185.8820   -23.3700 
  183.5000     2.2610   372.0680    67.8930    26.2720    98.0910   183.2890   217.2990   -23.4130 
  183.6250     2.2680   372.3310    71.3070    26.2720   103.6740   195.0560   226.8790   -23.4700 
  183.7500     2.2800   372.9640    71.2820    26.2720    97.7360   188.1030   214.1180   -23.5300 
  183.8750     2.2910   374.2040    68.4050    26.2720    84.9280   170.7360   192.0480   -23.5850 
