~V
VERS. 2.00: Ver 2.00
~W
STRT.M 125.0000:
STOP.M 255.0000:
STEP.M 0.1250:
NULL. -999.2500:
UWI. DF3006:
~C
DEPT.M :
GR.API :
RML.OHMM :
RI. :
RXO.OHMM :
CALI.CM :
DEN.GM/CC :
SP.MV :
~A
# ...
  147.5000    68.0050    17.0380    15.8690    13.7640    24.2770     2.5130   -19.9630 
  147.6250    66.0400    17.2380    16.1180    14.2760    24.2700     2.5160   -20.0790 
  147.7500    64.0450    17.4400    16.4030    14.3760    24.2960     2.5240   -20.0550 
  147.8750    61.5830    17.5950    16.6630    14.0350    24.3260     2.5330   -20.0400 
  148.0000    60.3680    17.7040    16.8820    13.9660    24.3440     2.5400   -20.0550 
  148.1250    60.8170    17.7660    17.0650    14.0490    24.3630     2.5420   -20.0580 
  148.2500    60.2070    17.7650    17.2030    14.1880    24.3620     2.5420   -20.1160 
  148.3750    58.6690    17.6480    17.2500    14.9780    24.3340     2.5390   -20.1740 
  148.5000    58.5650    17.3820    17.1580    16.2750    24.2980     2.5340   -20.2200 
  148.6250    61.7720    16.9810    16.9010    16.0010    24.2700     2.5280   -20.2750 
  148.7500    66.3670    16.5640    16.5720    14.8700    24.2620     2.5210   -20.3540 
  148.8750    70.7540    16.2330    16.2620    13.8830    24.2640     2.5150   -20.4880 
  149.0000    72.3880    16.0530    16.0410    13.4620    24.2660     2.5070   -20.6290 
  149.1250    69.9370    16.0250    15.9350    13.2800    24.2720     2.4940   -20.7170 
  149.2500    68.7300    16.0090    15.8450    13.2680    24.3000     2.4750   -20.8090 
  149.3750    70.3830    15.8600    15.6530    12.9840    24.3310     2.4530   -20.9410 
  149.5000    72.2390    15.4710    15.2630    13.1310    24.3510     2.4310   -21.0800 
  149.6250    70.8920    14.8490    14.6520    13.4720    24.4360     2.4150   -21.2850 
  149.7500    69.4850    14.2050    14.0260    13.8860    24.5260     2.4060   -21.4740 
  149.8750    69.8930    13.8260    13.6440    13.9570    24.5850     2.4040   -21.6270 
  150.0000    71.1790    14.1010    13.7760    14.1660    24.6530     2.4050   -21.9650 
  150.1250    71.6900    15.4870    14.7930    16.0250    24.6740     2.4010   -22.3620 
  150.2500    72.8360    18.1980    16.7170    20.2680    24.7370     2.3920   -22.6920 
  150.3750    74.8120    22.1910    19.5500    26.5930    24.8120     2.3790   -23.1260 
  150.5000    76.4070    27.1630    23.1450    32.0950    24.9370     2.3650   -23.5280 
  150.6250    76.4660    32.6140    27.2180    35.5700    25.0760     2.3520   -23.7630 
  150.7500    77.0970    36.9300    31.2670    39.0570    25.1900     2.3400   -24.0800 
  150.8750    79.1180    40.8190    34.9790    44.1470    25.2560     2.3290   -24.3240 
  151.0000    80.0300    44.1890    38.1950    49.3240    25.2670     2.3190   -24.4190 
  151.1250    79.7200    47.0100    40.8420    52.2170    25.2660     2.3120   -24.5650 
  151.2500    81.5080    49.4590    43.0820    53.7700    25.2580     2.3100   -24.6600 
  151.3750    84.9500    51.5520    44.9530    54.8660    25.2080     2.3100   -24.6860 
  151.5000    86.0180    53.2110    46.4330    55.9650    25.1260     2.3100   -24.6630 
  151.6250    82.2200    54.1730    47.3660    55.7640    25.0150     2.3060   -24.7090 
  151.7500    80.2780    54.4300    47.7700    56.6160    24.9670     2.2990   -24.7640 
  151.8750    82.6590    54.0660    47.6940    57.8340    24.9210     2.2920   -24.7960 
  152.0000    85.3810    53.3740    47.3270    57.8950    24.8180     2.2890   -24.8280 
  152.1250    85.7050    52.8450    47.0130    54.1630    24.7820     2.2910   -24.7930 
  152.2500    84.9110    52.8250    47.0570    51.6270    24.7330     2.2960   -24.8000 
  152.3750    85.1050    53.4230    47.5960    51.6590    24.6890     2.3010   -24.8770 
  152.5000    85.4940    54.5580    48.6240    54.9110    24.6670     2.3030   -24.9560 
  152.6250    85.4190    56.0650    50.0560    58.8960    24.6440     2.3020   -25.0290 
  152.7500    84.3600    57.6770    51.6440    62.4100    24.6000     2.3000   -25.0840 
  152.8750    82.8770    59.2960    53.2530    63.6770    24.5560     2.2960   -25.1440 
  153.0000    82.3640    60.9120    54.8190    62.8120    24.5330     2.2930   -25.2370 
  153.1250    81.4310    62.5250    56.2980    63.5830    24.5120     2.2910   -25.3970 
  153.2500    78.4190    64.0460    57.6360    64.8820    24.4780     2.2900   -25.5080 
  153.3750    76.7010    65.3210    58.7360    66.0740    24.4770     2.2890   -25.5420 
  153.5000    79.4030    66.2330    59.5180    66.3510    24.4700     2.2890   -25.6820 
  153.6250    82.4300    66.7710    59.9650    66.3670    24.4520     2.2900   -25.7680 
  153.7500    82.8870    67.2400    60.3190    65.9030    24.4430     2.2920   -25.7680 
  153.8750    82.7110    67.9470    60.8430    63.9780    24.4520     2.2940   -25.8590 
  154.0000    82.0360    69.1270    61.7650    64.4850    24.4700     2.2970   -25.8720 
  154.1250    80.4250    70.8880    63.2400    66.8010    24.4760     2.2980   -25.8200 
  154.2500    81.5100    72.9200    65.0350    69.6650    24.4710     2.2960   -25.8500 
  154.3750    85.8750    74.8730    66.8590    72.4840    24.4560     2.2900   -25.7570 
  154.5000    87.6660    76.3750    68.3750    73.9460    24.4090     2.2820   -25.5910 
  154.6250    83.5560    77.0150    69.2010    74.3860    24.4010     2.2740   -25.5040 
  154.7500    79.5630    76.8670    69.3590    73.4290    24.3910     2.2690   -25.4750 
  154.8750    78.8300    76.0540    68.9290    72.1890    24.3470     2.2680   -25.4090 
  155.0000    79.9930    74.7240    68.0130    70.2940    24.2810     2.2700   -25.2980 
  155.1250    80.6360    72.8680    66.5770    67.3030    24.2560     2.2740   -25.2280 
  155.2500    80.0360    70.5430    64.6730    65.3300    24.1760     2.2780   -25.0930 
  155.3750    78.5840    67.7910    62.3330    63.9630    23.9870     2.2820   -25.0640 
  155.5000    79.7780    64.8360    59.7300    62.4610    23.8100     2.2850   -25.1090 
  155.6250    84.0990    62.2290    57.3000    58.3270    23.6880     2.2880   -25.0600 
  155.7500    87.3530    60.4510    55.4850    53.0970    23.6630     2.2920   -24.9990 
  155.8750    87.9010    59.6860    54.5010    49.2920    23.6220     2.2950   -24.9510 
  156.0000    86.4440    59.7680    54.2880    47.7570    23.6030     2.2990   -24.9320 
  156.1250    85.4180    60.4130    54.6760    47.9160    23.6000     2.3020   -24.9300 
  156.2500    83.8420    61.4990    55.5360    49.2630    23.6000     2.3050   -25.0230 
  156.3750    80.9270    63.5590    57.2660    50.8780    23.6020     2.3080   -25.0430 
  156.5000    78.0410    67.5280    60.6290    48.2070    23.6110     2.3060   -25.0350 
  156.6250    76.0670    74.8660    66.9280    48.7310    23.6650     2.2900   -25.2090 
  156.7500    75.6630    85.2290    76.0090    60.4660    23.7120     2.2600   -25.2860 
  156.8750    74.9860    97.6000    87.1210    82.9890    23.8230     2.2250   -25.3340 
  157.0000    72.5770   110.0890    98.6400   112.1730    23.8840     2.1970   -25.5420 
  157.1250    69.6450   119.8910   107.9690   115.0590    24.0050     2.1900   -25.6210 
  157.2500    68.5020   125.8050   113.7520   108.8810    24.0650     2.2010   -25.7160 
  157.3750    69.4190   127.7110   115.6800   104.7020    24.1220     2.2240   -25.8840 
  157.5000    71.0940   126.2450   114.2910   104.1200    24.1970     2.2470   -25.8900 
  157.6250    71.7910   121.6970   110.0100   104.8290    24.2550     2.2630   -25.8910 
  157.7500    71.8150   115.2200   104.0370   104.8500    24.2650     2.2720   -26.0030 
  157.8750    71.6470   108.1960    97.5260    98.4300    24.2690     2.2800   -26.1190 
  158.0000    71.9510   103.0150    92.4270    88.6160    24.2770     2.2890   -26.1770 
  158.1250    73.8250   103.6890    92.2260    79.1200    24.3250     2.2970   -26.2130 
  158.2500    76.0150   111.6400    98.4510    78.4510    24.3290     2.2990   -26.2620 
  158.3750    76.3020   126.9760   111.5100    93.0990    24.2430     2.2930   -26.2930 
  158.5000    75.2860   147.5070   129.7080   124.4990    24.1760     2.2800   -26.4030 
  158.6250    74.4610   167.8250   148.4490   170.0780    24.0870     2.2670   -26.5110 
