~V
VERS. 2.00: Ver 2.00
~W
STRT.M 66.0000:
STOP.M 262.0000:
STEP.M 0.1250:
NULL. -999.2500:
UWI. DF3009:
~C
DEPT.M :
GR.API :
RML.OHMM :
RI. :
RXO.OHMM :
CALI.CM :
DEN.GM/CC :
SP.MV :
~A
# ...
  234.7500    68.9550    86.4420    79.5410    80.0730    23.7780     2.4210   -28.1740 
  234.8750    68.4630    81.5350    75.7880    77.9930    23.9870     2.4370   -27.6140 
  235.0000    68.0680    75.1860    70.8070    78.7610    24.1860     2.4340   -27.0020 
  235.1250    66.4940    68.2040    64.5100    82.1080    24.2160     2.4150   -26.5210 
  235.2500    65.3800    61.0980    57.5950    75.2900    24.2260     2.3920   -26.0470 
  235.3750    65.9700    54.9850    50.7900    61.9030    24.1420     2.3720   -25.6090 
  235.5000    66.9410    50.3690    44.7880    49.4640    24.0720     2.3580   -25.2320 
  235.6250    66.5780    45.0480    40.2420    41.8610    24.1470     2.3470   -24.8850 
  235.7500    66.3290    41.3570    36.9780    37.6340    24.1710     2.3370   -24.6580 
  235.8750    66.6770    38.8810    34.7660    36.4830    24.2220     2.3280   -24.3760 
  236.0000    68.8250    37.1520    33.2730    37.1470    24.2210     2.3210   -24.2310 
  236.1250    74.0790    35.8310    32.2230    36.9510    24.1050     2.3190   -24.0680 
  236.2500    77.6620    34.6850    31.3570    35.5530    24.0670     2.3230   -23.8710 
  236.3750    75.4350    33.7390    30.6490    33.7940    23.9180     2.3280   -23.7880 
  236.5000    70.2460    33.1010    30.1640    32.2680    23.8270     2.3310   -23.6630 
  236.6250    68.2130    32.9420    30.0400    31.5150    23.7310     2.3310   -23.6340 
  236.7500    67.1290    33.1580    30.2160    31.2370    23.6450     2.3280   -23.4920 
  236.8750    63.7190    33.5780    30.5590    31.8690    23.6870     2.3270   -23.4050 
  237.0000    59.7990    33.9650    30.8690    33.0340    23.6350     2.3310   -23.4010 
  237.1250    59.3060    34.0550    30.9020    34.4040    23.6220     2.3380   -23.3140 
  237.2500    62.1040    33.7800    30.5860    34.8720    23.6520     2.3410   -23.2180 
  237.3750    65.7320    33.1000    29.8860    33.9080    23.6700     2.3340   -23.1580 
  237.5000    67.4920    31.9780    28.7780    31.6070    23.8580     2.3210   -23.0830 
  237.6250    67.7230    30.3060    27.2020    28.6640    23.8330     2.3080   -22.9690 
  237.7500    69.7010    28.2560    25.3380    28.8810    23.7560     2.3040   -22.9430 
  237.8750    74.6210    26.0960    23.4160    29.4700    23.6870     2.3100   -22.8580 
  238.0000    81.2970    24.2240    21.7450    26.3820    23.5670     2.3190   -22.7170 
  238.1250    85.5690    23.2020    20.7290    21.9130    23.7170     2.3260   -22.6060 
  238.2500    85.0290    23.1130    20.4250    20.5250    23.8130     2.3250   -22.5650 
  238.3750    81.3160    23.8550    20.7920    21.6550    23.9520     2.3200   -22.4500 
  238.5000    77.9930    25.1240    21.6510    24.2690    23.9990     2.3140   -22.3750 
  238.6250    76.4740    26.5110    22.7350    26.5760    23.9590     2.3140   -22.2930 
  238.7500    72.8410    27.6630    23.7140    27.6080    23.9100     2.3190   -22.1590 
  238.8750    67.8930    28.4680    24.3950    28.4970    23.8660     2.3280   -22.1430 
  239.0000    66.7900    28.8190    24.6600    27.6750    23.9640     2.3340   -22.0150 
  239.1250    69.3720    28.4890    24.3760    25.7950    23.9880     2.3350   -21.9700 
  239.2500    70.5780    27.4330    23.6300    25.7610    23.9910     2.3270   -21.9240 
  239.3750    68.9660    25.6930    22.5030    27.0630    24.0020     2.3160   -21.8000 
  239.5000    68.7250    23.3580    21.1650    26.0520    23.8680     2.3060   -21.7220 
  239.6250    73.1970    21.0840    19.8670    22.7140    23.8400     2.2990   -21.5960 
  239.7500    77.1000    19.4560    18.7820    20.0560    23.8500     2.2970   -21.5510 
  239.8750    77.2850    18.8560    17.9570    18.9710    23.8580     2.2980   -21.4660 
  240.0000    75.1440    18.5240    17.3590    18.6510    23.8810     2.2990   -21.3990 
  240.1250    75.6220    18.2860    16.9190    18.8990    23.8530     2.3010   -21.4100 
  240.2500    79.2910    17.9760    16.5230    18.6270    23.9660     2.3030   -21.3840 
  240.3750    82.1150    17.5530    16.1340    17.4630    23.9840     2.3060   -21.4400 
  240.5000    82.8350    17.0660    15.7640    16.2420    23.9670     2.3110   -21.5210 
  240.6250    81.6500    16.6610    15.4790    15.7580    23.9810     2.3160   -21.5830 
  240.7500    79.2890    16.4890    15.3460    15.7600    23.9290     2.3200   -21.6430 
  240.8750    76.3770    16.6910    15.4520    15.9330    23.9780     2.3200   -21.6980 
  241.0000    74.8080    17.3740    15.8800    16.2620    24.0160     2.3170   -21.7650 
  241.1250    77.5020    18.6450    16.7380    16.9160    23.9780     2.3120   -21.8150 
  241.2500    80.8620    20.3040    17.9290    17.9600    24.0060     2.3080   -21.8510 
  241.3750    81.2600    22.1180    19.3170    19.8220    23.9580     2.3070   -21.8810 
  241.5000    78.3150    23.7750    20.6830    22.9040    24.0270     2.3090   -21.8810 
  241.6250    75.4080    24.8520    21.6880    24.5590    23.9610     2.3120   -21.9450 
  241.7500    73.5690    25.2570    22.1770    25.0460    23.9830     2.3120   -21.9970 
  241.8750    71.7050    25.0340    22.1150    24.5730    24.0200     2.3060   -21.9760 
  242.0000    71.6490    24.3810    21.6110    23.1790    23.9960     2.2960   -22.0580 
  242.1250    73.8910    23.5580    20.8500    22.0340    24.0610     2.2850   -22.0410 
  242.2500    75.2540    22.8150    20.0890    21.5700    23.9280     2.2790   -22.0610 
  242.3750    75.2970    22.2580    19.4710    21.4600    23.6750     2.2830   -22.0670 
  242.5000    75.6540    21.9410    19.0980    21.3360    23.6180     2.2980   -22.0520 
  242.6250    77.5080    21.9930    19.1110    20.4840    23.6440     2.3240   -22.0230 
  242.7500    77.6010    22.5330    19.5570    20.0750    23.8850     2.3520   -21.9330 
  242.8750    76.0200    23.8450    20.5750    20.9630    23.9360     2.3710   -21.9440 
  243.0000    73.4420    26.2380    22.3240    23.6020    23.9450     2.3770   -21.8200 
  243.1250    70.0730    29.9750    24.9150    26.9660    24.0310     2.3780   -21.7450 
  243.2500    68.3160    34.2480    27.7730    29.4510    24.0480     2.3880   -21.6460 
  243.3750    69.3330    37.7050    30.0380    30.1200    24.1480     2.4140   -21.4550 
  243.5000    70.9940    38.8100    30.6410    31.9900    24.1840     2.4460   -21.2770 
  243.6250    70.2610    35.5020    28.3540    33.9960    24.0040     2.4690   -21.0360 
  243.7500    69.3010    29.0570    23.8980    32.5450    23.7310     2.4630   -20.7700 
  243.8750    69.7810    21.2560    18.5640    25.5220    23.4240     2.4360   -20.4960 
  244.0000    70.6400    14.2260    13.7630    16.6840    23.5030     2.4040   -20.2390 
  244.1250    70.6850    10.6260    10.5140    10.3850    23.7330     2.3800   -20.0000 
  244.2500    68.6320     8.7520     8.5940     6.3800    23.8060     2.3700   -19.7690 
  244.3750    64.6750     8.2030     7.7170     5.3480    23.8170     2.3700   -19.6490 
  244.5000    60.9360     8.5230     7.5840     5.3440    23.7730     2.3730   -19.5430 
  244.6250    60.9900     9.3090     7.9870     5.4860    23.8470     2.3750   -19.5360 
  244.7500    62.8340    10.1150     8.6030     5.5710    23.7050     2.3770   -19.6410 
  244.8750    63.3280    10.7250     9.2470     5.5920    23.3670     2.3870   -19.6780 
  245.0000    62.0400    11.0560     9.7750     5.5420    23.0570     2.4070   -19.8120 
  245.1250    61.0290    11.1160    10.0660     5.5190    23.0110     2.4350   -19.8380 
  245.2500    61.2890    11.0370    10.1370     5.5320    23.3070     2.4570   -19.8610 
  245.3750    61.6550    10.8760    10.0110     5.6360    23.5890     2.4640   -19.8840 
  245.5000    61.7610    10.6660     9.7330     5.9720    23.7420     2.4530   -19.8550 
  245.6250    64.8760    10.4420     9.3580     6.4760    23.5620     2.4330   -19.8330 
  245.7500    69.4260    10.2640     8.9700     6.7920    23.4080     2.4130   -19.7390 
  245.8750    70.8040    10.1750     8.6270     6.7270    23.4830     2.3950   -19.7270 
