~V
VERS. 2.00: Ver 2.00
~W
STRT.M 60.0000:
STOP.M 254.0000:
STEP.M 0.1250:
NULL. -999.2500:
UWI. DF3029:
~C
DEPT.M :
SP.MV :
GR.API :
RML.OHMM :
RI. :
RXO.OHMM :
CALI.CM :
DEN.GM/CC :
~A
# ...
   71.2500   -45.2880    65.8560     7.1220     7.3160    10.4210    23.7690  -999.2500 
   71.3750   -45.1120    66.7670     7.1480     7.2970    10.2840    23.7100  -999.2500 
   71.5000   -44.7940    66.8530     7.2570     7.3480    10.1650    23.6940  -999.2500 
   71.6250   -44.4490    68.2850     7.5280     7.5430    10.1200    23.7140  -999.2500 
   71.7500   -44.1500    69.2970     7.9560     7.8870    10.1750    23.7850  -999.2500 
   71.8750   -43.7770    69.3980     8.5010     8.3480    10.2630    23.9190  -999.2500 
   72.0000   -43.5240    70.0890     9.0590     8.8440    10.4130    24.1130  -999.2500 
   72.1250   -43.3670    71.1800     9.4530     9.2200    10.5810    24.5750  -999.2500 
   72.2500   -43.2370    69.9880     9.5920     9.3770    10.8690    25.1980  -999.2500 
   72.3750   -43.1620    66.4050     9.4600     9.2800    11.1210    25.6490  -999.2500 
   72.5000   -43.1640    64.2280     9.1280     8.9730    10.9570    25.7890  -999.2500 
   72.6250   -43.1320    66.0480     8.7220     8.5580    10.5020    25.7540  -999.2500 
   72.7500   -43.0660    67.6290     8.3800     8.1710    10.1580    25.6970  -999.2500 
   72.8750   -42.9870    67.7300     8.1740     7.8880    10.0560    25.6420  -999.2500 
   73.0000   -42.8340    67.6560     8.1370     7.7550    10.1550    25.5930  -999.2500 
   73.1250   -42.5170    70.5420     8.2930     7.8080    10.0410    25.5170  -999.2500 
   73.2500   -42.1630    74.2460     8.5580     7.9830     9.8950    25.4310  -999.2500 
   73.3750   -41.7450    74.3080     8.8360     8.2070     9.9230    25.2880  -999.2500 
   73.5000   -41.2170    70.9880     9.0140     8.3800    10.1700    25.0540  -999.2500 
   73.6250   -40.7590    71.1220     8.9690     8.3840    10.7670    24.8850  -999.2500 
   73.7500   -40.1760    76.2360     8.7440     8.2190    11.2310    25.0510  -999.2500 
   73.8750   -39.6350    81.6730     8.4410     7.9470    10.7010    25.5030  -999.2500 
   74.0000   -39.1300    84.7750     8.2020     7.6750     9.2170    25.8720  -999.2500 
   74.1250   -38.6200    86.4610     8.1660     7.5280     8.0390    25.9300  -999.2500 
   74.2500   -38.2110    87.5990     8.2890     7.5100     8.1630    25.9100  -999.2500 
   74.3750   -37.7520    86.2210     8.4580     7.5610     8.8300    25.9190  -999.2500 
   74.5000   -37.3720    83.8990     8.5220     7.5780     9.4390    25.9430  -999.2500 
   74.6250   -36.8100    86.7190     8.3390     7.4430     9.6700    25.9370  -999.2500 
   74.7500   -36.2090    95.6260     7.9720     7.1660     9.5610    25.8960  -999.2500 
   74.8750   -35.6220   104.1220     7.5580     6.8230     8.6570    25.8350  -999.2500 
   75.0000   -34.9550   107.8750     7.2610     6.5310     7.1760    25.7980  -999.2500 
   75.1250   -34.4330   111.3520     7.2380     6.4220     6.3370    25.7500  -999.2500 
   75.2500   -33.9540   116.5360     7.4500     6.5020     6.1580    25.5690  -999.2500 
   75.3750   -33.4750   117.4950     7.8020     6.7290     6.5190    25.1710  -999.2500 
   75.5000   -33.0810   110.0320     8.1460     7.0020     7.0370    24.6590  -999.2500 
   75.6250   -32.9270   100.0070     8.2780     7.1570     7.3980    24.3580  -999.2500 
   75.7500   -32.8770    95.1280     8.1260     7.0990     7.5990    24.2130  -999.2500 
   75.8750   -32.9130    98.5510     7.7050     6.8110     7.7500    24.1620  -999.2500 
   76.0000   -33.0140   108.6120     7.1310     6.3700     7.7950    24.1480  -999.2500 
   76.1250   -33.1040   118.1360     6.6650     5.9610     6.6750    24.1480  -999.2500 
   76.2500   -33.2240   121.8050     6.5850     5.8090     6.1080    24.1480  -999.2500 
   76.3750   -33.5370   120.3180     7.0960     6.0900     6.0660    24.1480  -999.2500 
   76.5000   -33.9780   114.0400     8.2460     6.8840     7.0040    24.1480  -999.2500 
   76.6250   -34.4860   101.4770     9.8680     8.1470     9.2410    24.1420  -999.2500 
   76.7500   -35.2420    85.7050    11.3970     9.4750    12.8840    24.0950  -999.2500 
   76.8750   -36.0560    74.1490    12.3320    10.4600    19.1000    23.9780  -999.2500 
   77.0000   -37.0180    70.6190    12.3580    10.7750    22.8740    23.8820  -999.2500 
   77.1250   -38.0060    72.6760    11.4980    10.3090    16.1470    23.9250  -999.2500 
   77.2500   -38.9160    75.1320    10.4340     9.5660    11.3680    24.0450  -999.2500 
   77.3750   -39.7840    76.9790     9.6520     8.9390    10.0580    24.1120  -999.2500 
   77.5000   -40.4600    76.9500     9.3800     8.6490     9.4810    24.1610  -999.2500 
   77.6250   -41.1100    73.3110     9.6210     8.7520    10.0400    24.2640  -999.2500 
   77.7500   -41.5250    69.4480    10.0560     9.0430    10.6700    24.3370  -999.2500 
   77.8750   -41.8120    68.0810    10.4640     9.3570    10.8640    24.3160  -999.2500 
   78.0000   -41.9860    70.4160    10.7080     9.5670    10.6940    24.2070  -999.2500 
   78.1250   -42.0240    74.9250    10.7220     9.5890    10.0170    24.0410  -999.2500 
   78.2500   -42.1290    77.6640    10.5850     9.4700     9.3910    23.8630  -999.2500 
   78.3750   -42.1520    78.2230    10.3500     9.2560     8.7170    23.6710  -999.2500 
   78.5000   -42.2180    78.1480    10.0700     8.9990     8.4470    23.4820  -999.2500 
   78.6250   -42.2770    79.6830     9.8550     8.7820     8.5910    23.2950  -999.2500 
   78.7500   -42.3520    80.3530     9.8900     8.7420     9.0150    23.1840  -999.2500 
   78.8750   -42.4770    78.3170    10.4030     9.0540     9.2590    23.1510  -999.2500 
   79.0000   -42.6630    74.8340    11.5320     9.8540     9.2840    23.1500  -999.2500 
   79.1250   -42.8540    71.0470    13.1950    11.1630     9.6290    23.1390  -999.2500 
   79.2500   -43.0240    70.4800    14.8040    12.5680    10.4030    23.0490  -999.2500 
   79.3750   -43.1930    72.7390    15.7630    13.5930    11.6980    22.8380  -999.2500 
   79.5000   -43.3530    73.0600    15.6330    13.7900    14.1140    22.6610  -999.2500 
   79.6250   -43.4540    71.1220    14.2720    12.8770    16.7310    22.7140  -999.2500 
   79.7500   -43.4660    70.4710    12.4520    11.4130    14.3300    22.8850  -999.2500 
   79.8750   -43.4190    71.4340    10.8280     9.9510    10.3170    22.9800  -999.2500 
   80.0000   -43.2070    72.3530     9.7980     8.8710     8.7290    22.9470  -999.2500 
   80.1250   -43.0360    72.4040     9.5150     8.3650     8.5630    22.9090  -999.2500 
   80.2500   -42.8100    75.0910     9.6650     8.2600     8.6580    22.8970  -999.2500 
   80.3750   -42.5890    79.6230     9.9970     8.3980     8.7540    22.8970     0.0000 
   80.5000   -42.3640    81.9220    10.3000     8.6210     8.7430    22.8970     0.0000 
   80.6250   -42.1290    80.4770    10.4380     8.8040     8.6900    22.9130     0.0000 
   80.7500   -42.0990    78.9240    10.4520     8.9200     8.7580    22.9700     1.0860 
   80.8750   -42.0820    81.9520    10.4270     9.0000     8.8820    23.0810     2.1720 
   81.0000   -42.2360    85.8990    10.4610     9.1000     9.0440    23.2330     2.1670 
   81.1250   -42.4330    84.1920    10.6320     9.2690     9.2210    23.4360     2.1600 
   81.2500   -42.6510    80.3080    10.8930     9.4870     9.3330    23.6300     2.1610 
   81.3750   -42.9200    77.2900    11.1530     9.6980     9.3270    23.6950     2.1780 
   81.5000   -43.1760    75.0560    11.3030     9.8220     9.2980    23.5490     2.2060 
   81.6250   -43.4970    72.8670    11.2280     9.7650     9.3220    23.3130     2.2320 
   81.7500   -43.6130    71.1580    10.9670     9.5450     9.3390    23.1830     2.2430 
   81.8750   -43.6830    70.0450    10.6020     9.2150     9.1430    23.1500     2.2350 
   82.0000   -43.7500    68.7030    10.2390     8.8550     8.8570    23.1630     2.2140 
   82.1250   -43.7330    68.9120     9.9710     8.5550     8.6880    23.2180     2.1920 
   82.2500   -43.7070    68.9830     9.8020     8.3460     8.6340    23.3140     2.1740 
   82.3750   -43.6630    68.0710     9.7040     8.2250     8.7420    23.3960     2.1610 
