~V
VERS. 2.00: Ver 2.00
~W
STRT.M 65.0000:
STOP.M 267.0000:
STEP.M 0.1250:
NULL. -999.2500:
UWI. DF3007:
~C
DEPT.M :
GR.API :
RML.OHMM :
RI. :
RXO.OHMM :
CALI.CM :
DEN.GM/CC :
SP.MV :
~A
# ...
  132.5000    89.1860     8.3280     6.8120     6.5920    24.4140     2.2730   -20.3670 
  132.6250    83.0410     9.0410     7.3850     7.0550    24.0980     2.2580   -20.5470 
  132.7500    81.4210     9.5000     7.8330     7.8180    23.7980     2.2530   -20.8280 
  132.8750    84.6840     9.5560     7.9970     8.4340    23.6970     2.2590   -20.9530 
  133.0000    87.6550     9.2120     7.8260     8.5300    23.8040     2.2770   -21.0080 
  133.1250    88.0930     8.6090     7.3820     8.0490    24.0780     2.3000   -20.9530 
  133.2500    90.1430     8.0270     6.8820     7.2190    24.3530     2.3200   -20.9010 
  133.3750    95.8080     7.6170     6.4580     6.4340    24.4330     2.3270   -20.8180 
  133.5000   102.8980     7.4240     6.1700     6.0970    24.2090     2.3210   -20.7820 
  133.6250   103.8990     7.4230     6.0380     6.2630    23.7530     2.3070   -20.8110 
  133.7500    98.2450     7.5090     6.0080     6.7140    23.4440     2.2960   -20.8560 
  133.8750    90.8210     7.6500     6.0650     7.1120    23.4870     2.2900   -21.1060 
  134.0000    88.3650     7.8570     6.2130     7.1820    23.7080     2.2840   -21.4350 
  134.1250    90.6600     8.1930     6.4920     7.2070    23.8300     2.2670   -21.9220 
  134.2500    91.5110     8.6630     6.8920     7.6040    23.7800     2.2400   -22.4150 
  134.3750    89.2820     9.2360     7.3920     8.3680    23.6010     2.2070   -22.8620 
  134.5000    84.1280     9.8250     7.9330     9.4740    23.3710     2.1770   -23.2300 
  134.6250    77.1480    10.2760     8.3990    10.1600    23.2520     2.1580   -23.4370 
  134.7500    73.9190    10.4930     8.6950    10.4670    23.2470     2.1490   -23.5560 
  134.8750    75.7940    10.4400     8.7690    10.6170    23.2940     2.1500   -23.5200 
  135.0000    79.9400    10.1560     8.6250    10.6630    23.3290     2.1620   -23.3580 
  135.1250    82.6780     9.7470     8.3190    10.4150    23.3850     2.1880   -23.0800 
  135.2500    85.4120     9.3660     7.9820     9.9250    23.5340     2.2250   -22.5830 
  135.3750    89.3680     9.0900     7.6900     9.1040    23.7410     2.2650   -22.0900 
  135.5000    92.6400     8.9320     7.4710     8.0010    23.7710     2.3000   -21.5330 
  135.6250    93.8470     8.8520     7.3200     7.6970    23.5890     2.3200   -21.0370 
  135.7500    94.2760     8.7570     7.1790     7.7600    23.5710     2.3270   -20.5810 
  135.8750    96.1440     8.5850     7.0040     7.6200    23.9280     2.3230   -20.0840 
  136.0000    99.9360     8.3110     6.7700     7.3060    24.4010     2.3160   -19.6960 
  136.1250   101.8420     7.9440     6.4780     6.7260    24.6840     2.3120   -19.2670 
  136.2500   100.9860     7.5560     6.1710     6.3100    24.7890     2.3150   -18.9450 
  136.3750    99.9310     7.2090     5.8920     6.0510    24.8070     2.3220   -18.6140 
  136.5000   103.2860     6.9510     5.6790     5.6940    24.7910     2.3320   -18.3470 
  136.6250   108.5620     6.8290     5.5670     5.4020    24.7470     2.3390   -18.1400 
  136.7500   110.2340     6.8200     5.5440     5.3720    24.7180     2.3450   -18.0140 
  136.8750   107.5810     6.9030     5.6010     5.5350    24.7130     2.3510   -17.9530 
  137.0000   103.9120     7.0460     5.7170     5.7840    24.7150     2.3550   -17.8770 
  137.1250   103.5130     7.2140     5.8720     5.9790    24.7070     2.3530   -17.9460 
  137.2500   104.9590     7.3630     6.0310     6.1250    24.6860     2.3430   -17.9990 
  137.3750   107.0550     7.4670     6.1740     6.3390    24.6580     2.3260   -18.1670 
  137.5000   106.7950     7.5030     6.2810     6.4180    24.6210     2.3060   -18.3470 
  137.6250   101.7580     7.4520     6.3290     6.5520    24.5840     2.2930   -18.5450 
  137.7500    97.4180     7.3540     6.3340     6.6760    24.5600     2.2870   -18.7800 
  137.8750    96.6650     7.2680     6.3290     6.7340    24.5520     2.2860   -18.9830 
  138.0000    99.0330     7.2810     6.3710     6.6350    24.5350     2.2880   -19.2500 
  138.1250    99.8810     7.5010     6.5440     6.4790    24.4670     2.2860   -19.5390 
  138.2500    97.6140     7.9070     6.8560     6.5210    24.3390     2.2780   -19.8360 
  138.3750    94.2050     8.4180     7.2590     6.8280    24.2060     2.2660   -20.1160 
  138.5000    91.0240     8.8790     7.6460     7.1550    24.0910     2.2540   -20.2940 
  138.6250    90.2210     9.0620     7.8260     7.3850    24.0430     2.2470   -20.3960 
  138.7500    91.7790     8.8920     7.7100     7.4250    24.0280     2.2490   -20.3160 
  138.8750    96.0550     8.3840     7.2850     7.2580    24.0430     2.2610   -20.1980 
  139.0000   102.8440     7.6470     6.6330     6.6940    24.1140     2.2790   -19.9580 
  139.1250   108.6540     6.8430     5.8950     5.9860    24.3200     2.2970   -19.5660 
  139.2500   112.6940     6.1160     5.2260     5.5650    24.6080     2.3120   -19.1830 
  139.3750   115.0190     5.5680     4.7240     5.3150    24.8790     2.3220   -18.7500 
  139.5000   114.8810     5.3540     4.4890     5.1540    25.0370     2.3320   -18.4390 
  139.6250   109.1400     5.7710     4.7350     5.3430    25.0130     2.3530   -18.2750 
  139.7500   100.3580     6.9840     5.5490     6.1560    24.8910     2.3930   -18.2950 
  139.8750    93.4630     8.9920     6.9850     7.9250    24.7590     2.4520   -18.4020 
  140.0000    88.5080    11.5150     8.9230    11.0360    24.5940     2.5190   -18.6890 
  140.1250    83.5360    13.8730    10.9390    15.7530    24.4380     2.5640   -19.0580 
  140.2500    78.8450    15.0220    12.3880    20.6390    24.3440     2.5650   -19.4790 
  140.3750    77.4070    14.9340    12.8150    21.5570    24.2850     2.5210   -19.9600 
  140.5000    79.7510    13.7780    12.1680    16.7950    24.2120     2.4480   -20.3730 
  140.6250    83.4530    12.1510    10.8460    12.1060    24.0470     2.3700   -20.8080 
  140.7500    85.0390    10.7430     9.5340     9.8170    23.8100     2.3040   -21.1060 
  140.8750    84.9950     9.7650     8.4990     8.7400    23.6390     2.2570   -21.3900 
  141.0000    86.0010     9.1810     7.7930     8.4240    23.5520     2.2280   -21.5090 
  141.1250    88.2030     8.9190     7.4220     8.5920    23.5100     2.2220   -21.4260 
  141.2500    92.1240     8.8940     7.3140     8.8570    23.4960     2.2390   -21.2460 
  141.3750    94.8770     9.1730     7.4950     9.1350    23.5230     2.2770   -20.8690 
  141.5000    92.8210     9.8630     8.0250     9.7800    23.6230     2.3320   -20.4040 
  141.6250    85.5360    11.1380     9.0550    11.5880    23.8600     2.3940   -19.7780 
  141.7500    78.6570    12.9010    10.5500    15.3730    24.1870     2.4520   -19.1280 
  141.8750    74.7950    15.0200    12.4510    19.4770    24.4780     2.4980   -18.5330 
  142.0000    71.9520    17.2640    14.5950    21.5080    24.6320     2.5340   -17.9140 
  142.1250    68.7400    19.2870    16.6810    21.2000    24.6990     2.5630   -17.4530 
  142.2500    63.8070    20.8690    18.4220    22.9520    24.7100     2.5870   -17.0560 
  142.3750    57.1510    21.9400    19.6770    24.1920    24.6820     2.6050   -16.7970 
  142.5000    52.6500    22.5800    20.4660    24.7670    24.6410     2.6130   -16.5830 
  142.6250    51.0750    22.9500    20.9020    24.8800    24.6230     2.6120   -16.4200 
  142.7500    49.8060    23.2930    21.2250    24.9190    24.6180     2.6060   -16.3330 
  142.8750    47.7000    23.7290    21.5700    25.5350    24.6140     2.6030   -16.2050 
  143.0000    46.2410    24.3030    22.0080    26.4160    24.6070     2.6060   -16.1250 
  143.1250    46.8900    24.9840    22.5530    27.2770    24.6130     2.6140   -16.0190 
  143.2500    48.3570    25.6580    23.1230    25.9690    24.6120     2.6230   -15.9270 
  143.3750    49.9600    26.2420    23.6490    25.0990    24.6040     2.6300   -15.7810 
  143.5000    50.7890    26.6790    24.0770    25.8240    24.6020     2.6320   -15.7410 
  143.6250    51.6070    26.9310    24.3720    27.2210    24.6150     2.6260   -15.6620 
