~V
VERS. 2.00: Ver 2.00
~W
STRT.M 61.0000:
STOP.M 276.0000:
STEP.M 0.1250:
NULL. -999.2500:
UWI. DF3051:
~C
DEPT.M :
SP.MV :
GR.API :
CALI.CM :
RXO.OHMM :
RI. :
RML.OHMM :
DEN.GM/CC :
~A
# ...
   72.2500   -21.3110    79.7560    25.8170    12.9040     7.1480     9.2160  -999.2500 
   72.3750   -21.2970    74.4800    25.7690    17.6390     7.8330    10.4900  -999.2500 
   72.5000   -21.3420    68.0700    25.6980    24.2900     8.6840    11.8720  -999.2500 
   72.6250   -21.4630    65.1090    25.6250    31.0460     9.4480    12.8250  -999.2500 
   72.7500   -21.5720    65.8210    25.5220    31.0660     9.8650    13.0530  -999.2500 
   72.8750   -21.6360    66.3260    25.3560    23.0940     9.8430    12.6220  -999.2500 
   73.0000   -21.6710    64.8650    25.1740    13.7740     9.4860    11.8860  -999.2500 
   73.1250   -21.6480    66.0140    25.1460     9.9260     9.0110    11.2360  -999.2500 
   73.2500   -21.6110    70.5710    25.3520     9.1060     8.5920    10.8100  -999.2500 
   73.3750   -21.5760    73.3460    25.6510     9.1220     8.2650    10.5650  -999.2500 
   73.5000   -21.5470    72.2080    25.7710     9.0320     8.0100    10.3950  -999.2500 
   73.6250   -21.5670    70.2440    25.5610     8.7970     7.7880    10.1810  -999.2500 
   73.7500   -21.6380    68.0150    25.2710     8.6380     7.5780     9.9120  -999.2500 
   73.8750   -21.8060    64.1360    25.0650     8.5390     7.4020     9.6660  -999.2500 
   74.0000   -22.0810    60.1920    24.9180     8.4340     7.2920     9.5380  -999.2500 
   74.1250   -22.4900    59.2960    24.7450     8.3200     7.2610     9.5710  -999.2500 
   74.2500   -23.0290    60.0740    24.5780     8.2300     7.2660     9.6800  -999.2500 
   74.3750   -23.7080    62.7370    24.4600     8.1580     7.2830     9.7980  -999.2500 
   74.5000   -24.4570    67.8180    24.3920     8.1040     7.3110     9.8970  -999.2500 
   74.6250   -25.1630    69.9890    24.3640     8.0980     7.3740     9.9800  -999.2500 
   74.7500   -25.7810    66.2610    24.3700     8.1370     7.4780    10.0730  -999.2500 
   74.8750   -26.2380    61.9210    24.4040     8.1890     7.6140    10.1830  -999.2500 
   75.0000   -26.4840    60.9440    24.4550     8.2270     7.7550    10.2960  -999.2500 
   75.1250   -26.5100    62.0800    24.4900     8.3000     7.8560    10.3730  -999.2500 
   75.2500   -26.3690    63.6240    24.4780     8.4780     7.8930    10.3940  -999.2500 
   75.3750   -26.1150    64.7210    24.4070     8.7100     7.8670    10.3610  -999.2500 
   75.5000   -25.8510    65.2190    24.2950     8.8400     7.7970    10.2990  -999.2500 
   75.6250   -25.6880    64.7150    24.2180     8.7600     7.7120    10.2380  -999.2500 
   75.7500   -25.6130    63.8240    24.2510     8.6010     7.6310    10.1830  -999.2500 
   75.8750   -25.6070    63.0590    24.4270     8.4650     7.5600    10.1160  -999.2500 
   76.0000   -25.6610    63.7160    24.7170     8.3400     7.4900    10.0130  -999.2500 
   76.1250   -25.7960    67.5230    25.0160     8.1820     7.4030     9.8500  -999.2500 
   76.2500   -25.9610    71.2150    25.2250     8.0490     7.3010     9.6560  -999.2500 
   76.3750   -26.1170    74.0490    25.3270     8.0030     7.2020     9.4750  -999.2500 
   76.5000   -26.2350    76.6620    25.3540     7.9980     7.1280     9.3600  -999.2500 
   76.6250   -26.2650    79.4190    25.3280     7.9420     7.1130     9.3860  -999.2500 
   76.7500   -26.2480    80.7890    25.2660     7.9080     7.1620     9.5590  -999.2500 
   76.8750   -26.1900    79.1000    25.1980     8.0060     7.2700     9.8450  -999.2500 
   77.0000   -26.1330    75.4710    25.1660     8.2040     7.4210    10.1680  -999.2500 
   77.1250   -26.1070    71.8250    25.1970     8.3370     7.5880    10.4110  -999.2500 
   77.2500   -26.1550    70.8070    25.2450     8.3650     7.7370    10.5120  -999.2500 
   77.3750   -26.2630    70.4010    25.2680     8.3530     7.8410    10.4620  -999.2500 
   77.5000   -26.3740    68.6190    25.2540     8.3420     7.8750    10.2980  -999.2500 
   77.6250   -26.4950    68.2020    25.2220     8.2910     7.8140    10.0750  -999.2500 
   77.7500   -26.6030    70.0010    25.2080     8.1830     7.6860     9.8530  -999.2500 
   77.8750   -26.7330    73.0190    25.2290     8.0200     7.5330     9.6720  -999.2500 
   78.0000   -26.9200    75.0340    25.2780     7.8460     7.4030     9.5720  -999.2500 
   78.1250   -27.1980    73.4810    25.3160     7.8400     7.3470     9.5770  -999.2500 
   78.2500   -27.5360    69.4210    25.2990     8.0950     7.3640     9.6470  -999.2500 
   78.3750   -27.8970    65.9880    25.2160     8.4430     7.4300     9.7310  -999.2500 
   78.5000   -28.2670    66.0910    25.0810     8.5920     7.4920     9.7540  -999.2500 
   78.6250   -28.5670    66.4720    24.9400     8.4830     7.4750     9.6110  -999.2500 
   78.7500   -28.7530    62.9800    24.8630     8.4540     7.4000     9.4110  -999.2500 
   78.8750   -28.7560    60.6010    24.9080     8.6990     7.4050     9.4440  -999.2500 
   79.0000   -28.5340    62.7100    25.0770     9.2750     7.6880    10.0620  -999.2500 
   79.1250   -28.0560    64.7860    25.3200    10.8510     8.4930    11.6400  -999.2500 
   79.2500   -27.4250    63.7850    25.5800    15.2560     9.7290    13.9140  -999.2500 
   79.3750   -26.7080    64.4600    25.8500    25.8180    11.0550    16.1150  -999.2500 
   79.5000   -25.9570    71.3290    26.1050    36.0550    11.7380    16.8000  -999.2500 
   79.6250   -25.2550    82.3600    26.2440    30.8390    10.8860    14.6430  -999.2500 
   79.7500   -24.6760    94.0240    26.2180    16.9190     9.1180    11.3210  -999.2500 
   79.8750   -24.2730   103.7600    26.0680     8.0200     7.2900     8.4130  -999.2500 
   80.0000   -24.0610   107.1320    25.8920     5.4880     5.9080     6.5420  -999.2500 
   80.1250   -24.0910   105.4040    25.7550     5.3380     5.1800     5.7950  -999.2500 
   80.2500   -24.2460   103.7370    25.6270     5.6390     4.9370     5.7380  -999.2500 
   80.3750   -24.4680    98.8900    25.4940     6.0490     5.0700     6.1430  -999.2500 
   80.5000   -24.7270    88.4120    25.3860     6.4490     5.4720     6.8350  -999.2500 
   80.6250   -24.9850    79.7870    25.3370     6.8660     6.0780     7.7290  -999.2500 
   80.7500   -25.1920    78.6100    25.3320     7.7670     6.7880     8.7320  -999.2500 
   80.8750   -25.3660    79.5920    25.3500     9.7540     7.5240     9.7520  -999.2500 
   81.0000   -25.5470    76.2120    25.3530    12.5260     8.1660    10.6170  -999.2500 
   81.1250   -25.7000    71.7340    25.2720    13.4690     8.5020    11.0030  -999.2500 
   81.2500   -25.8620    72.1450    25.1150    11.7500     8.4650    10.8430  -999.2500 
   81.3750   -26.0070    77.5030    24.9410     9.1790     8.0920    10.2340  -999.2500 
   81.5000   -26.1180    82.6860    24.8130     7.6660     7.5290     9.4260  -999.2500 
   81.6250   -26.2060    82.2350    24.7580     7.2460     6.9740     8.7320  -999.2500 
   81.7500   -26.3090    81.4260    24.7390     7.0030     6.5640     8.3220  -999.2500 
   81.8750   -26.4300    81.9520    24.7300     6.7710     6.3440     8.2400  -999.2500 
   82.0000   -26.5540    80.9570    24.7130     6.7280     6.3120     8.4500  -999.2500 
   82.1250   -26.7490    77.1740    24.6870     7.1690     6.4500     8.8870  -999.2500 
   82.2500   -27.0110    73.5310    24.6650     8.0470     6.6710     9.3820  -999.2500 
   82.3750   -27.3260    73.0080    24.6520     8.9850     6.9080     9.8060  -999.2500 
   82.5000   -27.6190    73.4140    24.6440     9.3610     7.0950    10.0620  -999.2500 
   82.6250   -27.7720    71.4290    24.6300     8.8900     7.1770    10.0950  -999.2500 
   82.7500   -27.8070    68.1940    24.6090     8.2700     7.1720    10.0090  -999.2500 
   82.8750   -27.7520    67.2030    24.5860     7.9440     7.1190     9.8930  -999.2500 
   83.0000   -27.6480    70.4760    24.5720     7.8860     7.0560     9.8210  -999.2500 
   83.1250   -27.5050    74.7560    24.5690     7.9030     7.0120     9.8170  -999.2500 
   83.2500   -27.2990    76.6760    24.5700     7.9180     6.9800     9.8260  -999.2500 
   83.3750   -27.0180    75.5420    24.5710     7.9360     6.9370     9.7900  -999.2500 
