~V
VERS. 2.00: Ver 2.00
~W
STRT.M 125.0000:
STOP.M 269.0000:
STEP.M 0.1250:
NULL. -999.2500:
UWI. DF3036:
~C
DEPT.M :
GR.API :
RML.OHMM :
RI. :
RXO.OHMM :
CALI.CM :
DEN.GM/CC :
SP.MV :
~A
# ...
  226.2500    76.5570     8.2020     7.0510     6.6100    21.7330     2.3010   -23.3730 
  226.3750    85.8350     9.2990     7.7590     7.6100    21.7060     2.3110   -23.9380 
  226.5000    91.8160    10.7670     9.0160     9.5910    21.8340     2.3460   -24.5730 
  226.6250    92.9670    12.0350    10.3570    12.7630    22.0380     2.3880   -25.1310 
  226.7500    92.8620    12.7240    11.3170    14.7340    22.2060     2.4170   -25.6590 
  226.8750    95.7640    12.7440    11.6900    12.8600    22.3500     2.4230   -26.0820 
  227.0000   101.2250    12.2750    11.5330    10.6850    22.5040     2.4170   -26.4160 
  227.1250   107.3420    11.6650    11.0960     9.8220    22.6060     2.4080   -26.5820 
  227.2500   114.7910    11.2330    10.6950     9.5440    22.6160     2.4020   -26.6910 
  227.3750   121.2560    11.0720    10.4360     9.4080    22.5820     2.3970   -26.7300 
  227.5000   121.4420    11.1450    10.3170     9.4850    22.5220     2.3910   -26.6970 
  227.6250   116.5170    11.3560    10.2860     9.8060    22.4680     2.3820   -26.6540 
  227.7500   116.4110    11.5870    10.2750    10.1590    22.4140     2.3720   -26.6170 
  227.8750   122.2000    11.7940    10.2640    10.3110    22.3940     2.3600   -26.5900 
  228.0000   126.5720    11.9620    10.2510    10.2720    22.3810     2.3490   -26.5870 
  228.1250   125.1310    12.0840    10.2380    10.2010    22.3400     2.3390   -26.5520 
  228.2500   121.5500    12.1670    10.2280    10.1660    22.2680     2.3340   -26.5290 
  228.3750   118.1890    12.2110    10.2200    10.2340    22.1970     2.3380   -26.4970 
  228.5000   116.4530    12.2210    10.2100    10.3340    22.1250     2.3510   -26.5140 
  228.6250   117.2250    12.2200    10.2050    10.4180    22.0670     2.3680   -26.4880 
  228.7500   116.9260    12.2350    10.2150    10.4110    22.0400     2.3870   -26.4710 
  228.8750   113.4230    12.2650    10.2430    10.4320    21.9910     2.3980   -26.4130 
  229.0000   108.1580    12.2880    10.2780    10.5900    21.8710     2.3980   -26.3430 
  229.1250   105.9200    12.2590    10.3030    10.9890    21.7330     2.3870   -26.2420 
  229.2500   107.7770    12.1690    10.3060    11.2930    21.7830     2.3720   -26.1200 
  229.3750   110.7790    12.0360    10.2930    11.1030    21.9210     2.3600   -26.0250 
  229.5000   111.7540    11.8960    10.2790    10.5060    21.9960     2.3560   -25.8850 
  229.6250   109.9080    11.8050    10.2900    10.2970    22.0050     2.3620   -25.8150 
  229.7500   110.4760    11.7910    10.3430    10.2770    22.0300     2.3720   -25.7110 
  229.8750   114.2410    11.8770    10.4470    10.2130    22.2120     2.3800   -25.6440 
  230.0000   116.4450    12.0740    10.6050     9.9950    22.7680     2.3830   -25.5680 
  230.1250   114.4180    12.3760    10.8040     9.9380    23.6980     2.3790   -25.5570 
  230.2500   113.1180    12.6990    10.9860    10.0540    24.2130     2.3730   -25.5550 
  230.3750   114.1860    12.9430    11.0780    10.3090    24.3740     2.3670   -25.5400 
  230.5000   113.3680    12.9860    11.0020    10.8190    24.3760     2.3640   -25.5740 
  230.6250   110.6880    12.6740    10.6560    11.2130    24.3070     2.3650   -25.5780 
  230.7500   111.2330    12.0820    10.0900    11.1830    24.1830     2.3680   -25.5920 
  230.8750   111.8210    11.2950     9.4060    10.9070    24.0710     2.3730   -25.5690 
  231.0000   109.2490    10.6580     8.7960    10.8420    24.0190     2.3770   -25.5310 
  231.1250   108.1540    11.0610     8.7480    11.1190    23.9950     2.3760   -25.4060 
  231.2500   109.6400    13.6750    10.0650    12.6970    23.9250     2.3660   -25.2530 
  231.3750   106.5770    20.3560    14.2600    18.0550    23.7570     2.3460   -25.0180 
  231.5000    95.9440    33.6660    23.4160    30.3980    23.4650     2.3240   -24.7680 
  231.6250    84.2450    56.6770    40.7220    53.9010    23.1140     2.3040   -24.5380 
  231.7500    74.8360    87.2420    65.0430    91.8450    22.8160     2.2900   -24.3930 
  231.8750    67.8930   121.1220    93.5820   127.7720    22.6780     2.2770   -24.3030 
  232.0000    65.1420   153.6370   121.3480   133.1940    22.7760     2.2610   -24.2800 
  232.1250    67.8330   177.1900   141.8820   135.0100    23.2210     2.2440   -24.3120 
  232.2500    70.6980   191.2820   154.6660   132.0550    23.7400     2.2280   -24.4290 
  232.3750    71.2480   198.7970   161.6580   127.6790    24.0380     2.2190   -24.6060 
  232.5000    70.8830   202.5300   164.8970   123.8860    24.1110     2.2150   -24.8530 
  232.6250    70.4600   201.9770   164.3590   123.9310    24.1350     2.2120   -25.0410 
  232.7500    68.6670   196.7530   160.3040   126.2490    24.2020     2.2090   -25.1460 
  232.8750    66.2160   187.2320   153.1280   128.0870    24.2680     2.2070   -25.1920 
  233.0000    65.2540   175.2950   144.1390   122.7710    24.2960     2.2080   -25.2070 
  233.1250    65.3170   163.7570   135.3370   111.2360    24.2960     2.2130   -25.2140 
  233.2500    64.9410   154.3750   128.1660   103.4700    24.3040     2.2200   -25.1770 
  233.3750    65.7360   147.4090   123.0070   102.1560    24.3370     2.2250   -25.1400 
  233.5000    67.7630   142.2180   119.4780   106.6840    24.4120     2.2270   -25.0670 
  233.6250    68.2640   137.6700   116.7140   115.2580    24.4490     2.2270   -25.0370 
  233.7500    67.2430   132.5300   113.5770   117.6390    24.4620     2.2290   -25.0300 
  233.8750    68.2730   126.2910   109.5040   113.4870    24.4620     2.2340   -25.0610 
  234.0000    70.9430   119.1330   104.4850   107.1750    24.4620     2.2420   -25.0730 
  234.1250    71.2930   112.1400    99.2260   104.9960    24.4620     2.2520   -25.1330 
  234.2500    70.7990   106.7540    94.9610   102.0100    24.4660     2.2600   -25.2110 
  234.3750    72.0040   104.1000    92.7290    95.9070    24.4820     2.2630   -25.3660 
  234.5000    73.7270   104.8120    93.2220    88.7960    24.5180     2.2600   -25.4760 
  234.6250    72.7220   109.2700    96.9580    87.6730    24.5380     2.2510   -25.5980 
  234.7500    71.0710   115.7880   102.6460    97.2550    24.5410     2.2400   -25.6650 
  234.8750    71.0280   122.6280   108.8670   112.4360    24.5400     2.2290   -25.7140 
  235.0000    70.0860   127.8480   113.9530   123.9870    24.5410     2.2220   -25.7380 
  235.1250    68.1090   129.4690   116.1200   127.7790    24.5440     2.2180   -25.7770 
  235.2500    69.2110   128.2000   115.7610   129.4710    24.5460     2.2170   -25.7660 
  235.3750    72.1740   125.6740   114.1430   128.3470    24.5440     2.2150   -25.7420 
  235.5000    73.3540   123.8760   112.9920   123.2400    24.5410     2.2120   -25.6770 
  235.6250    72.3690   124.3010   113.8030   113.2150    24.5400     2.2060   -25.6210 
  235.7500    72.2930   125.7790   115.9610   109.2680    24.5400     2.1970   -25.5340 
  235.8750    71.9930   126.4340   117.9550   120.4320    24.5400     2.1900   -25.4470 
  236.0000    69.9470   124.6260   117.9800   136.7240    24.5400     2.1880   -25.3420 
  236.1250    68.0200   119.1480   114.3970   146.4170    24.5400     2.1930   -25.2170 
  236.2500    67.4460   112.3770   108.1890   134.5240    24.5400     2.2020   -25.1160 
  236.3750    68.4550   105.9610   100.6890   111.5000    24.5400     2.2130   -25.0060 
  236.5000    71.0350   100.5150    93.0480    88.8150    24.5400     2.2200   -24.9390 
  236.6250    75.4330    95.3300    85.6460    78.2850    24.5400     2.2240   -24.8810 
  236.7500    78.7300    86.3360    78.1430    78.3620    24.5400     2.2270   -24.8900 
  236.8750    79.6570    77.1990    70.4820    83.1510    24.5400     2.2340   -24.9130 
  237.0000    82.2030    68.8280    63.3020    79.0070    24.5400     2.2450   -24.9690 
  237.1250    86.9300    63.4250    58.3860    64.5390    24.5530     2.2580   -25.0440 
  237.2500    87.1760    62.1950    56.9250    50.6090    24.5850     2.2670   -25.1430 
  237.3750    81.2520    65.7760    59.6960    45.6010    24.6180     2.2640   -25.2430 
