~V
VERS. 2.00: Ver 2.00
~W
STRT.M 67.0000:
STOP.M 279.0000:
STEP.M 0.1250:
NULL. -999.2500:
UWI. DF3057:
~C
DEPT.M :
GR.API :
CALI.CM :
RXO.OHMM :
RI. :
RML.OHMM :
DEN.GM/CC :
SP.MV :
~A
# ...
   89.5000    63.6910    24.3250    11.0090     8.5940    13.1330  -999.2500   -29.5540 
   89.6250    66.7870    24.2350    11.0240     8.5660    13.0340  -999.2500   -29.5160 
   89.7500    68.7500    24.2250    11.0030     8.5230    12.9190  -999.2500   -29.3930 
   89.8750    67.2930    24.2370    11.0000     8.4950    12.8190  -999.2500   -29.2140 
   90.0000    63.5340    24.3520    11.0150     8.5040    12.7610  -999.2500   -29.0300 
   90.1250    61.7850    24.2530    10.9670     8.5680    12.7640  -999.2500   -28.8640 
   90.2500    63.0620    24.1770    11.0800     8.6870    12.8230  -999.2500   -28.7070 
   90.3750    65.8120    24.1820    11.2590     8.8490    12.9450  -999.2500   -28.5500 
   90.5000    66.9370    24.2010    11.3910     9.0480    13.0900  -999.2500   -28.3770 
   90.6250    65.5850    24.2290    11.4110     9.2400    13.2080  -999.2500   -28.1300 
   90.7500    64.0040    24.1560    11.4670     9.3580    13.2280  -999.2500   -27.7730 
   90.8750    63.2990    24.1840    11.3990     9.3400    13.0790  -999.2500   -27.3200 
   91.0000    63.2630    24.1150    11.1570     9.1570    12.7180  -999.2500   -26.7970 
   91.1250    64.6990    23.6730    10.8770     8.7730    12.0790  -999.2500   -26.2410 
   91.2500    70.4910    23.6530    10.6020     8.2560    11.2640  -999.2500   -25.6810 
   91.3750    79.1410    23.8560     9.9050     7.6760    10.3860  -999.2500   -25.1260 
   91.5000    86.2670    24.2220     8.6970     7.1170     9.5880  -999.2500   -24.6010 
   91.6250    90.0650    24.3930     7.6830     6.7140     9.0690  -999.2500   -24.1640 
   91.7500    90.8180    24.5300     7.2630     6.4960     8.8400  -999.2500   -23.8330 
   91.8750    88.6920    24.7630     7.1210     6.4460     8.8610  -999.2500   -23.5610 
   92.0000    86.0760    25.0530     6.9820     6.5300     9.0560  -999.2500   -23.3260 
   92.1250    86.9230    25.1170     6.7550     6.6790     9.2880  -999.2500   -23.0900 
   92.2500    88.3290    25.0130     7.1470     6.7860     9.3870  -999.2500   -22.8660 
   92.3750    87.8410    24.9090     7.8440     6.7780     9.2560  -999.2500   -22.6870 
   92.5000    88.9620    25.0960     8.0680     6.6470     8.9190  -999.2500   -22.5700 
   92.6250    93.6980    25.1350     7.2390     6.4200     8.4610  -999.2500   -22.4980 
   92.7500    95.3540    25.1980     6.3290     6.1850     8.0290  -999.2500   -22.4510 
   92.8750    92.0910    25.3130     5.8210     5.9990     7.7170  -999.2500   -22.4170 
   93.0000    89.0010    25.4260     5.8950     5.8800     7.5360  -999.2500   -22.4050 
   93.1250    88.5460    25.3430     6.0320     5.8410     7.4740  -999.2500   -22.4270 
   93.2500    89.2840    25.1700     6.2660     5.8570     7.4840  -999.2500   -22.4420 
   93.3750    92.0100    25.1530     6.4620     5.9040     7.5200  -999.2500   -22.4570 
   93.5000    98.0750    25.2400     6.3530     5.9540     7.5530  -999.2500   -22.4790 
   93.6250   100.6380    25.2470     6.0190     5.9740     7.5370  -999.2500   -22.5750 
   93.7500    97.1920    25.1340     5.9030     5.9720     7.4960  -999.2500   -22.7500 
   93.8750    91.9050    24.9620     6.0310     5.9600     7.4500  -999.2500   -23.0080 
   94.0000    88.6780    25.0880     6.3230     5.9350     7.4230  -999.2500   -23.2960 
   94.1250    90.6120    25.0900     6.5840     5.9040     7.4240  -999.2500   -23.5840 
   94.2500    95.4770    25.0450     6.6690     5.8690     7.4590  -999.2500   -23.8630 
   94.3750    98.7290    25.0410     6.5030     5.8110     7.4900  -999.2500   -24.1420 
   94.5000    95.7090    24.8880     6.2360     5.7130     7.4480  -999.2500   -24.4430 
   94.6250    91.2850    24.9970     6.0470     5.5350     7.2490  -999.2500   -24.7490 
   94.7500    92.7410    24.8540     6.1650     5.2880     6.9100  -999.2500   -25.0740 
   94.8750    95.9180    24.8620     6.3220     5.0650     6.5830  -999.2500   -25.4490 
   95.0000    96.1660    24.9330     6.4600     4.9880     6.5420  -999.2500   -25.8880 
   95.1250    98.2790    24.9290     6.2550     5.2790     7.2730  -999.2500   -26.4130 
   95.2500   102.4250    24.7670     6.0320     6.0110     8.8880  -999.2500   -27.0600 
   95.3750   101.5860    24.7410     6.5290     7.2850    11.3910  -999.2500   -27.7980 
   95.5000    91.7720    24.7260     8.9720     9.1160    14.5810  -999.2500   -28.5780 
   95.6250    77.7260    24.7210    25.6890    11.3450    17.8530  -999.2500   -29.3620 
   95.7500    66.9260    24.5690    49.0870    13.3310    20.2910  -999.2500   -30.1280 
   95.8750    63.0550    24.2540    56.1320    14.3780    21.1170  -999.2500   -30.8610 
   96.0000    63.8780    24.0900    37.9180    14.1610    20.0810  -999.2500   -31.5670 
   96.1250    64.1490    23.8550    19.9850    12.9160    17.6580  -999.2500   -32.2670 
   96.2500    62.6350    23.8530    12.5040    11.4640    15.1310  -999.2500   -32.9430 
   96.3750    62.0190    23.8900    11.1560    10.2410    13.2140  -999.2500   -33.5360 
   96.5000    62.2340    23.9930    10.9940     9.4190    12.1630  -999.2500   -34.0010 
   96.6250    63.8160    23.8360    10.9860     9.0700    11.9630  -999.2500   -34.2990 
   96.7500    68.0240    23.8200    10.8550     9.0240    12.1600  -999.2500   -34.4710 
   96.8750    72.8820    23.8360    10.7560     9.1430    12.4730  -999.2500   -34.5470 
   97.0000    74.8740    23.9660    10.8290     9.3110    12.7170  -999.2500   -34.5690 
   97.1250    71.8180    24.0740    11.1160     9.4550    12.8450  -999.2500   -34.5560 
   97.2500    66.9060    23.9680    11.4390     9.5550    12.8880  -999.2500   -34.5380 
   97.3750    63.5260    23.8350    11.5980     9.6050    12.8650  -999.2500   -34.5750 
   97.5000    62.7920    23.8230    11.5380     9.5960    12.7780  -999.2500   -34.6850 
   97.6250    65.1130    23.8920    11.4910     9.5300    12.6480  -999.2500   -34.8810 
   97.7500    68.6120    24.0020    11.4190     9.4340    12.4970  -999.2500   -35.0960 
   97.8750    70.4840    23.9280    11.3240     9.3170    12.3470  -999.2500   -35.2750 
   98.0000    70.0840    23.9090    11.2350     9.2000    12.2340  -999.2500   -35.3860 
   98.1250    67.5800    23.9730    11.3170     9.1120    12.1850  -999.2500   -35.4120 
   98.2500    66.3500    24.0380    11.3600     9.0500    12.1820  -999.2500   -35.3740 
   98.3750    66.9740    24.0010    11.3460     9.0190    12.2110  -999.2500   -35.3170 
   98.5000    66.7650    24.0510    11.4400     9.0210    12.2710  -999.2500   -35.2880 
   98.6250    65.4090    24.1540    11.6490     9.0390    12.3020  -999.2500   -35.2960 
   98.7500    65.8890    24.1960    11.6620     9.0530    12.2850  -999.2500   -35.3430 
   98.8750    68.0330    24.2280    11.6680     9.0520    12.2190  -999.2500   -35.4090 
   99.0000    67.4170    24.4690    11.8480     9.0320    12.1140  -999.2500   -35.4780 
   99.1250    62.5010    24.5740    11.8860     8.9970    11.9870  -999.2500   -35.5170 
   99.2500    60.6860    24.6460    11.7710     8.9680    11.8740  -999.2500   -35.5140 
   99.3750    61.9470    24.5690    11.6950     8.9640    11.7990  -999.2500   -35.4470 
   99.5000    62.3080    24.2790    11.7080     8.9900    11.7780  -999.2500   -35.3130 
   99.6250    59.9590    24.3110    11.7210     9.0760    11.8290  -999.2500   -35.1380 
   99.7500    57.2060    24.4540    11.5970     9.1900    11.9270  -999.2500   -34.9680 
   99.8750    56.0730    24.4330    11.4210     9.3200    12.0380  -999.2500   -34.8170 
  100.0000    56.5880    24.3420    11.4130     9.4270    12.0940  -999.2500   -34.6720 
  100.1250    58.2510    24.4960    11.5180     9.4080    11.9660  -999.2500   -34.4940 
  100.2500    59.9070    24.5100    11.5320     9.2260    11.6250  -999.2500   -34.2420 
  100.3750    61.1690    24.2970    11.3390     8.8890    11.0970  -999.2500   -33.9080 
  100.5000    63.3420    24.2160    10.4860     8.4600    10.4800  -999.2500   -33.5260 
  100.6250    67.0940    24.3750     9.2260     8.0290     9.8980  -999.2500   -33.1410 
