~V
VERS. 2.00: Ver 2.00
~W
STRT.M 58.0000:
STOP.M 259.0000:
STEP.M 0.1250:
NULL. -999.2500:
UWI. DF3010:
~C
DEPT.M :
GR.API :
RML.OHMM :
RI. :
RXO.OHMM :
CALI.CM :
DEN.GM/CC :
SP.MV :
~A
# ...
  148.0000    67.2450    22.3430    21.0060    22.0150    24.3740     2.5740   -17.9380 
  148.1250    63.0010    23.6130    22.2000    23.1680    24.3590     2.5690   -18.0130 
  148.2500    58.2440    24.9550    23.5440    25.7510    24.3510     2.5730   -18.0110 
  148.3750    55.3940    26.0770    24.7550    28.3390    24.3500     2.5850   -17.9550 
  148.5000    56.6140    26.7860    25.6180    29.3450    24.3550     2.5990   -17.9140 
  148.6250    61.1440    26.9480    25.9600    29.1510    24.3680     2.6080   -17.8660 
  148.7500    63.8900    26.6880    25.8700    28.1370    24.3840     2.6100   -17.8070 
  148.8750    62.8020    26.0710    25.3950    27.6420    24.3820     2.6070   -17.7430 
  149.0000    61.2330    25.1450    24.5820    27.6080    24.3490     2.6050   -17.6820 
  149.1250    61.7420    23.9330    23.4390    25.8470    24.3050     2.6070   -17.6710 
  149.2500    61.6680    22.5820    22.1180    22.7510    24.3240     2.6100   -17.6760 
  149.3750    60.9790    21.2350    20.7600    20.1920    24.3800     2.6090   -17.5890 
  149.5000    60.3270    20.0330    19.5120    18.9300    24.4120     2.5960   -17.5660 
  149.6250    59.2360    19.1240    18.5370    18.8640    24.4130     2.5680   -17.5310 
  149.7500    57.8550    18.5040    17.8500    18.5450    24.4100     2.5320   -17.4190 
  149.8750    57.2840    18.1830    17.4620    17.8130    24.4000     2.4980   -17.4540 
  150.0000    57.8380    18.1810    17.3840    16.8650    24.3890     2.4740   -17.4990 
  150.1250    57.4350    18.5990    17.6960    16.6220    24.3630     2.4670   -17.3920 
  150.2500    57.4840    19.3690    18.3340    17.0950    24.3060     2.4730   -17.4250 
  150.3750    58.9680    20.3780    19.2180    17.9850    24.2220     2.4840   -17.5730 
  150.5000    58.6160    21.4120    20.1840    19.6820    24.1310     2.4970   -17.5960 
  150.6250    56.6530    22.1420    20.9600    22.2150    24.0090     2.5140   -17.6740 
  150.7500    55.8250    22.4160    21.3710    23.8500    23.8800     2.5370   -17.8530 
  150.8750    56.5460    22.2380    21.3680    23.0760    23.7950     2.5630   -17.8940 
  151.0000    58.3830    21.7710    21.0450    20.6740    23.7990     2.5880   -17.9320 
  151.1250    60.4650    21.2870    20.6000    19.5220    23.8460     2.5990   -18.1230 
  151.2500    61.1590    21.0050    20.2580    18.7830    23.8440     2.5960   -18.1850 
  151.3750    59.3600    20.9950    20.1180    18.3270    23.7570     2.5810   -18.1560 
  151.5000    57.2570    21.2180    20.1900    17.9820    23.5780     2.5580   -18.2490 
  151.6250    58.8420    21.5770    20.4290    18.0570    23.3940     2.5360   -18.2740 
  151.7500    60.3570    21.9290    20.7100    18.2300    23.2690     2.5200   -18.2190 
  151.8750    59.2260    22.1910    20.9490    18.4690    23.1990     2.5130   -18.2690 
  152.0000    56.5940    22.2970    21.0740    18.7400    23.1650     2.5150   -18.2620 
  152.1250    55.4450    22.1690    20.9960    18.4930    23.1370     2.5250   -18.2080 
  152.2500    56.3900    21.8290    20.7180    18.1990    23.0910     2.5390   -18.2130 
  152.3750    58.2050    21.3130    20.2610    17.8200    23.0420     2.5530   -18.1850 
  152.5000    59.7530    20.7070    19.6940    17.1990    23.0210     2.5630   -18.1460 
  152.6250    61.7790    20.1800    19.1570    16.5710    23.0810     2.5650   -18.1260 
  152.7500    66.0630    19.8950    18.8060    16.3300    23.2710     2.5590   -18.0850 
  152.8750    70.9890    19.9550    18.7420    16.6640    23.5940     2.5490   -18.0760 
  153.0000    72.2280    20.3630    18.9900    17.2470    23.9840     2.5390   -18.0970 
  153.1250    68.5290    21.0080    19.4830    18.5170    24.2950     2.5350   -18.0220 
  153.2500    64.5980    21.6030    19.9870    20.3570    24.4130     2.5350   -18.0180 
  153.3750    63.4750    21.9280    20.3090    22.1180    24.4240     2.5350   -18.1090 
  153.5000    66.1200    21.8660    20.3230    22.7410    24.4170     2.5320   -18.0850 
  153.6250    70.2930    21.4290    19.9950    21.9950    24.4180     2.5240   -18.1550 
  153.7500    71.5310    20.8850    19.5210    20.9040    24.4160     2.5170   -18.3070 
  153.8750    69.8510    20.4400    19.0690    19.9130    24.4030     2.5150   -18.3090 
  154.0000    69.0210    20.2190    18.7610    19.5540    24.3930     2.5200   -18.3230 
  154.1250    71.3850    20.2620    18.6600    19.8230    24.3860     2.5330   -18.4980 
  154.2500    74.3350    20.4170    18.6710    19.7900    24.3720     2.5470   -18.5880 
  154.3750    75.6270    20.5520    18.6960    19.3580    24.3530     2.5550   -18.6550 
  154.5000    75.7860    20.5620    18.6420    18.9890    24.3320     2.5540   -18.8660 
  154.6250    75.1630    20.3720    18.4370    18.7870    24.3020     2.5410   -18.9670 
  154.7500    73.2660    20.0450    18.1250    18.5990    24.2940     2.5250   -19.0580 
  154.8750    71.6510    19.6730    17.7720    18.3270    24.3110     2.5110   -19.2500 
  155.0000    72.1530    19.3700    17.4660    17.5910    24.3440     2.5000   -19.4210 
  155.1250    74.3870    19.2760    17.3170    17.2670    24.3610     2.4940   -19.5340 
  155.2500    74.1800    19.4200    17.3510    17.3690    24.3470     2.4880   -19.6620 
  155.3750    71.1070    19.7870    17.5710    17.7610    24.3180     2.4840   -19.7080 
  155.5000    66.9770    20.3030    17.9340    18.0970    24.2800     2.4840   -19.7390 
  155.6250    64.3860    20.8300    18.3520    18.7900    24.2390     2.4910   -19.8210 
  155.7500    64.4630    21.2280    18.7030    19.5400    24.2050     2.5010   -19.7780 
  155.8750    65.3770    21.4310    18.9150    19.9830    24.1950     2.5090   -19.7490 
  156.0000    65.6570    21.4410    18.9690    20.1030    24.2000     2.5110   -19.7570 
  156.1250    67.5410    21.3330    18.8990    20.0230    24.2250     2.5060   -19.6690 
  156.2500    70.8700    21.2480    18.8140    19.0350    24.2900     2.5010   -19.6290 
  156.3750    72.1960    21.2760    18.7900    18.3560    24.3860     2.4980   -19.6170 
  156.5000    69.1830    21.4580    18.8760    18.3520    24.4660     2.4990   -19.5370 
  156.6250    64.3140    21.7840    19.0940    18.6070    24.4790     2.5000   -19.5300 
  156.7500    62.4740    22.1470    19.3790    18.6540    24.3940     2.5000   -19.5250 
  156.8750    63.8350    22.4480    19.6590    18.7690    24.1910     2.4980   -19.4750 
  157.0000    65.8960    22.6060    19.8640    19.0210    23.9860     2.4980   -19.5010 
  157.1250    64.7780    22.5380    19.9130    20.0040    23.9490     2.4990   -19.4850 
  157.2500    62.5060    22.2680    19.8090    20.2810    23.9150     2.5020   -19.3760 
  157.3750    61.6580    21.8350    19.5730    19.4260    23.8510     2.5040   -19.3800 
  157.5000    62.7140    21.3090    19.2570    18.4590    23.7840     2.5050   -19.3300 
  157.6250    65.3500    20.8030    18.9420    17.9570    23.7090     2.5070   -19.2440 
  157.7500    66.2380    20.4060    18.6950    17.5840    23.5610     2.5110   -19.2290 
  157.8750    63.7050    20.1490    18.5450    16.6090    23.4570     2.5210   -19.1730 
  158.0000    60.3060    19.9850    18.4700    15.7800    23.3420     2.5370   -19.0920 
  158.1250    60.9100    19.7620    18.3680    15.6310    23.1730     2.5570   -19.0440 
  158.2500    64.3430    19.3160    18.1080    15.4400    23.0820     2.5750   -19.0610 
  158.3750    65.9570    18.5490    17.5950    14.8140    23.0380     2.5900   -18.9770 
  158.5000    64.1490    17.4630    16.8000    14.4430    23.0020     2.5980   -18.9450 
  158.6250    62.0630    16.1620    15.7660    13.4830    22.9450     2.6000   -18.8950 
  158.7500    62.9740    14.9030    14.6940    12.2720    22.8950     2.5940   -18.8320 
  158.8750    64.6850    13.8710    13.7480    11.2740    22.8920     2.5810   -18.8660 
  159.0000    64.6650    13.1790    13.0500    10.8200    22.9300     2.5610   -18.8170 
  159.1250    62.8910    12.9140    12.7090    10.5900    23.0170     2.5380   -18.9040 
