~V
VERS. 2.00: Ver 2.00
~W
STRT.M 60.0000:
STOP.M 268.0000:
STEP.M 0.1250:
NULL. -999.2500:
UWI. DF3035:
~C
DEPT.M :
GR.API :
CALI.CM :
RXO.OHMM :
RI. :
RML.OHMM :
SP.MV :
DEN.GM/CC :
AC.US/MT :
~A
# ...
  130.0000    77.9350    24.4830     6.1190     5.3740     6.5620   -20.6320     2.3340   355.4290 
  130.1250    79.5190    24.4590     6.0410     5.3380     6.4640   -20.7940     2.3220   358.7810 
  130.2500    85.5650    24.4690     5.9360     5.2120     6.2310   -20.7770     2.3020   363.7210 
  130.3750    93.1150    24.4700     5.7550     5.0160     5.8970   -20.5900     2.2960   369.9160 
  130.5000    97.0000    24.5260     5.4650     4.7810     5.5150   -20.2730     2.3140   376.3160 
  130.6250    97.1410    24.6960     5.1890     4.5580     5.1710   -19.8600     2.3420   380.8850 
  130.7500    97.7040    24.8600     5.0550     4.4030     4.9630   -19.4250     2.3600   381.8330 
  130.8750    96.6790    24.8870     5.0310     4.3730     4.9900   -19.0450     2.3650   377.7640 
  131.0000    92.2120    24.7810     5.0320     4.5230     5.3390   -18.7570     2.3650   368.4510 
  131.1250    88.4180    24.6540     5.5070     4.9320     6.1230   -18.6250     2.3720   355.5060 
  131.2500    87.4230    24.5380     7.1660     5.5400     7.2030   -18.6550     2.3900   344.0170 
  131.3750    86.2560    24.4290     9.8990     6.2130     8.2960   -18.8060     2.4120   338.4720 
  131.5000    82.5620    24.3600    12.2120     6.7110     8.9430   -19.0260     2.4290   341.4510 
  131.6250    81.5410    24.3760    12.0540     6.7230     8.6430   -19.2960     2.4330   352.9560 
  131.7500    84.3890    24.4730    10.0660     6.3440     7.7420   -19.5410     2.4300   366.7930 
  131.8750    86.2600    24.6470     7.7170     5.8250     6.7850   -19.7400     2.4200   377.0770 
  132.0000    84.4540    24.8320     6.1590     5.4340     6.2240   -19.9270     2.4010   378.7870 
  132.1250    80.6310    24.8900     6.1470     5.3930     6.3500   -20.1060     2.3670   368.0750 
  132.2500    77.9510    24.8530     7.4790     5.6790     7.0190   -20.2840     2.3370   349.5040 
  132.3750    77.7010    24.8390     9.7670     6.2200     8.0470   -20.5020     2.3380   329.3900 
  132.5000    78.6250    24.8980    12.1430     6.8650     9.1240   -20.7980     2.3840   315.5000 
  132.6250    77.3550    24.9470    13.0560     7.3660     9.7720   -21.2220     2.4480   316.1530 
  132.7500    72.3870    24.8890    12.2690     7.5980     9.8700   -21.7800     2.4660   329.3470 
  132.8750    67.1920    24.7350    10.7050     7.5940     9.6010   -22.4280     2.4130   349.8770 
  133.0000    64.4720    24.5680     9.4790     7.4860     9.2630   -23.1040     2.3170   370.7190 
  133.1250    63.1190    24.4720     9.1210     7.4110     9.0950   -23.7630     2.2390   384.9340 
  133.2500    63.1460    24.4250     9.1540     7.4100     9.0870   -24.3550     2.2040   391.8160 
  133.3750    66.2250    24.3820     9.1630     7.4480     9.1430   -24.8450     2.2030   393.1280 
  133.5000    71.8550    24.3410     8.9970     7.4600     9.1460   -25.2300     2.2150   391.6380 
  133.6250    75.2850    24.3240     8.7440     7.3830     9.0080   -25.4490     2.2230   390.0620 
  133.7500    75.7590    24.3200     8.4870     7.2270     8.7670   -25.5190     2.2260   389.8500 
  133.8750    75.6530    24.3210     8.2530     7.0290     8.4880   -25.4890     2.2260   390.7220 
  134.0000    76.1800    24.3210     8.0520     6.8360     8.2380   -25.3930     2.2230   391.1910 
  134.1250    75.3620    24.3210     7.8840     6.6890     8.0720   -25.2370     2.2170   389.0140 
  134.2500    74.2860    24.3210     7.7640     6.5920     7.9800   -25.0830     2.2120   384.2140 
  134.3750    74.1360    24.3210     7.7330     6.5370     7.9390   -24.9490     2.2120   378.3930 
  134.5000    73.0560    24.3200     7.7720     6.5130     7.9240   -24.8080     2.2150   373.9640 
  134.6250    70.8550    24.3210     7.7650     6.5160     7.9280   -24.6670     2.2170   372.8750 
  134.7500    71.3670    24.3160     7.6770     6.5530     7.9770   -24.5410     2.2180   373.3200 
  134.8750    74.3470    24.3050     7.5850     6.6520     8.1230   -24.4080     2.2200   372.3730 
  135.0000    76.0880    24.3010     7.6200     6.8440     8.4190   -24.2740     2.2220   367.5760 
  135.1250    76.3420    24.3160     8.3610     7.1690     8.9180   -24.1610     2.2260   358.2240 
  135.2500    77.0020    24.3310    10.5010     7.5870     9.5390   -24.0390     2.2370   347.8750 
  135.3750    76.7550    24.3300    13.7190     8.0280    10.1540   -23.9110     2.2560   340.1600 
  135.5000    76.4800    24.3230    15.7520     8.3770    10.5580   -23.7910     2.2750   337.7590 
  135.6250    79.1550    24.3190    14.3330     8.4370    10.4470   -23.6670     2.2800   341.8910 
  135.7500    81.9520    24.3020    11.5460     8.1710     9.8290   -23.5270     2.2710   349.4990 
  135.8750    80.9070    24.2710     9.4130     7.6430     8.8830   -23.3680     2.2560   357.9680 
  136.0000    77.1030    24.2510     8.1050     7.0100     7.9000   -23.1940     2.2480   365.0160 
  136.1250    74.2290    24.2990     7.0680     6.4760     7.1930   -23.0140     2.2600   368.9660 
  136.2500    71.9810    24.4110     6.3680     6.1390     6.8340   -22.8560     2.2820   370.8280 
  136.3750    69.7710    24.5070     6.3890     6.0110     6.7930   -22.7400     2.2960   372.0940 
  136.5000    69.1810    24.5010     7.0720     6.0470     6.9570   -22.6730     2.2890   374.1040 
  136.6250    71.1640    24.4140     7.6470     6.1550     7.1520   -22.6350     2.2720   377.5110 
  136.7500    73.4920    24.3770     7.5290     6.2260     7.2210   -22.6040     2.2700   381.5470 
  136.8750    75.2820    24.4200     6.9500     6.2110     7.1270   -22.6120     2.2850   385.4560 
  137.0000    77.8910    24.4870     6.5220     6.1200     6.9260   -22.6600     2.3020   388.9870 
  137.1250    80.6190    24.5200     6.6710     6.0060     6.7380   -22.7420     2.3010   392.3890 
  137.2500    80.3090    24.5060     7.1050     5.9260     6.6390   -22.8610     2.2910   395.3260 
  137.3750    76.9460    24.4650     7.4560     5.8940     6.6230   -22.9920     2.2780   396.6370 
  137.5000    73.2340    24.4410     7.5210     5.8970     6.6520   -23.1300     2.2670   395.3190 
  137.6250    70.0250    24.4580     7.3740     5.9190     6.6970   -23.3210     2.2610   391.2520 
  137.7500    66.7450    24.4820     7.2390     5.9530     6.7600   -23.5590     2.2600   386.4150 
  137.8750    65.1770    24.5020     7.1930     6.0060     6.8610   -23.8060     2.2590   382.3180 
  138.0000    68.1060    24.5280     7.2880     6.0930     7.0260   -24.0480     2.2560   379.6480 
  138.1250    74.6220    24.5340     7.6190     6.2450     7.2970   -24.2290     2.2520   377.9100 
  138.2500    78.4020    24.4990     8.0580     6.4680     7.6740   -24.3170     2.2500   375.5090 
  138.3750    76.6110    24.4430     8.4800     6.7580     8.1490   -24.3020     2.2470   371.1150 
  138.5000    70.3250    24.4040     8.9800     7.1040     8.6960   -24.1500     2.2490   363.8150 
  138.6250    66.9430    24.4080     9.8490     7.4760     9.2580   -23.8160     2.2780   353.1140 
  138.7500    67.2240    24.4320    10.8440     7.8390     9.7740   -23.3390     2.3320   340.7930 
  138.8750    67.4400    24.4540    11.5590     8.1890    10.2460   -22.7270     2.3820   328.5360 
  139.0000    66.5900    24.4700    11.8610     8.5710    10.7630   -21.9980     2.4080   317.3430 
  139.1250    67.1630    24.5000    12.0600     9.1010    11.5390   -21.2050     2.4190   306.5070 
  139.2500    66.9790    24.5710    12.8580     9.8650    12.7150   -20.3990     2.4470   293.8010 
  139.3750    62.6100    24.6490    14.8910    10.9270    14.3880   -19.6190     2.4980   277.8960 
  139.5000    55.1930    24.6780    18.0470    12.2920    16.5310   -18.9410     2.5580   259.5570 
  139.6250    51.1610    24.6320    20.4090    13.8250    18.8410   -18.4330     2.6110   242.4630 
  139.7500    49.9300    24.6060    20.9080    15.1280    20.6100   -18.0910     2.6490   230.5690 
  139.8750    49.5760    24.6600    20.7790    15.7910    21.1590   -17.9580     2.6700   225.9910 
