~V
VERS. 2.00: Ver 2.00
~W
STRT.M 135.0000:
STOP.M 270.0000:
STEP.M 0.1250:
NULL. -999.2500:
UWI. DF3063:
~C
DEPT.M :
SP.MV :
GR.API :
CALI.CM :
RXO.OHMM :
RI. :
RML.OHMM :
DEN.GM/CC :
~A
# ...
  180.0000   -33.8030    62.3590    25.3560   166.9440   209.7610   228.5320     2.2100 
  180.1250   -33.7090    62.4720    25.3270   174.2440   191.7280   203.9040     2.2160 
  180.2500   -33.7450    63.7640    25.3130   182.8180   169.3610   175.7170     2.2330 
  180.3750   -33.6290    63.4490    25.2900   178.0960   145.0490   147.1270     2.2620 
  180.5000   -33.3490    61.0140    25.2100   151.5630   121.7240   121.4460     2.2940 
  180.6250   -33.1410    60.0260    25.0510   107.1420   102.4890   101.6920     2.3170 
  180.7500   -33.0920    63.0970    24.8840    74.8300    87.8810    87.2300     2.3270 
  180.8750   -33.0440    68.1190    24.6950    62.5140    78.0900    77.6060     2.3270 
  181.0000   -32.9520    72.3680    24.4840    59.1560    72.1890    71.8000     2.3260 
  181.1250   -32.8700    73.8180    23.5470    57.3960    69.2300    68.9280     2.3280 
  181.2500   -32.8180    72.9140    23.3580    57.6180    67.8160    67.5810     2.3290 
  181.3750   -32.8580    72.6890    23.3850    59.3870    67.1970    67.1150     2.3250 
  181.5000   -32.9130    73.0370    23.6020    59.6710    67.0320    67.2650     2.3190 
  181.6250   -32.9130    71.5320    24.1220    58.2510    67.5070    68.4180     2.3150 
  181.7500   -32.9460    68.8110    24.5650    55.5960    69.0640    71.0300     2.3110 
  181.8750   -33.1350    65.5960    24.6870    53.4400    72.2200    75.7090     2.3070 
  182.0000   -33.3060    64.2020    24.7180    53.6130    77.4290    82.8420     2.3010 
  182.1250   -33.3810    65.2770    24.7830    59.6970    85.1980    92.9830     2.2960 
  182.2500   -33.4710    66.4740    24.8990    77.0470    94.8510   105.4300     2.2910 
  182.3750   -33.6130    65.4190    24.8350   108.1790   105.7030   119.4300     2.2880 
  182.5000   -33.7330    63.8090    24.8920   137.4800   116.9050   134.3420     2.2860 
  182.6250   -33.8440    64.4160    24.8760   133.6180   127.8720   149.6650     2.2820 
  182.7500   -33.9400    63.5550    24.8830   113.8240   139.3420   165.6920     2.2760 
  182.8750   -33.9620    59.9570    24.9960    99.4260   151.8510   182.7840     2.2710 
  183.0000   -33.9430    55.9380    25.0280   113.7840   165.0700   200.4840     2.2650 
  183.1250   -33.9250    53.2030    25.0880   142.5780   177.8800   217.9910     2.2600 
  183.2500   -33.8920    51.1370    25.1070   165.4500   188.8980   233.6370     2.2570 
  183.3750   -33.8610    50.7040    25.1070   171.9060   196.6660   245.1480     2.2550 
  183.5000   -33.8430    53.5100    25.1100   165.1920   199.7510   250.1200     2.2490 
  183.6250   -33.7380    57.4720    25.1200   160.5020   196.7750   246.4230     2.2370 
  183.7500   -33.5740    57.8880    25.2540   158.0470   190.2810   238.2690     2.2240 
  183.8750   -33.4680    54.2780    25.1550   148.2500   182.8630   229.3160     2.2180 
  184.0000   -33.3790    50.8360    25.0870   144.9270   177.1120   222.6500     2.2170 
  184.1250   -33.2360    52.0860    25.0050   155.7930   173.9150   218.8080     2.2170 
  184.2500   -33.0620    55.5800    24.9610   163.5990   171.3370   215.2590     2.2120 
  184.3750   -32.9170    58.2070    24.9920   160.7990   167.8700   210.0630     2.2070 
  184.5000   -32.7720    58.8230    25.0540   159.9200   162.5040   202.0890     2.2130 
  184.6250   -32.6180    58.6220    25.2270   154.8810   154.3130   190.3510     2.2340 
  184.7500   -32.4400    59.0880    25.0420   150.0830   143.9960   176.3050     2.2590 
  184.8750   -32.3030    59.0170    24.7240   148.6260   132.8310   161.7400     2.2770 
  185.0000   -32.2390    57.0910    24.5240   141.6530   122.1360   148.2830     2.2820 
  185.1250   -32.1470    57.1600    24.3910   119.4090   113.0530   137.3480     2.2760 
  185.2500   -31.9700    60.9940    24.2690   102.1210   105.8240   128.9340     2.2680 
  185.3750   -31.8220    63.9560    24.3240    94.0460   100.4600   122.7980     2.2650 
  185.5000   -31.7350    61.9020    24.4200    94.0840    96.7100   118.6000     2.2670 
  185.6250   -31.6530    59.8790    24.6280    99.0300    94.2710   115.8330     2.2710 
  185.7500   -31.5550    62.2640    24.7870   103.8030    92.4080   113.6420     2.2710 
  185.8750   -31.4670    66.1400    24.8760   100.6430    90.5370   111.2450     2.2680 
  186.0000   -31.3540    66.9690    24.8800    92.3740    88.3700   108.0550     2.2710 
  186.1250   -31.2410    65.8170    24.7370    89.3180    85.6900   103.8350     2.2830 
  186.2500   -31.1340    67.4680    24.7350    97.5100    82.5730    98.7930     2.2950 
  186.3750   -31.0170    69.1620    24.8750    97.1790    79.3040    93.5910     2.3000 
  186.5000   -30.9300    68.2980    24.8110    82.1530    76.4240    89.0210     2.2970 
  186.6250   -30.8520    67.5740    24.9120    66.6730    74.7660    86.0730     2.2920 
  186.7500   -30.7070    68.8960    24.9250    61.8360    74.4660    84.7490     2.2910 
  186.8750   -30.5180    69.9490    24.9060    63.1070    75.1340    84.4630     2.2890 
  187.0000   -30.3810    67.6370    24.7260    65.8860    75.5190    83.8150     2.2810 
  187.1250   -30.2530    65.5520    24.6120    68.3000    72.8360    80.2520     2.2690 
  187.2500   -30.0730    65.3580    24.4290    70.7280    66.6550    73.3340     2.2660 
  187.3750   -29.8720    66.2980    24.4030    70.1890    57.3920    63.5380     2.2830 
  187.5000   -29.6980    68.7790    24.3630    61.0920    46.7300    52.2400     2.3160 
  187.6250   -29.5470    72.6040    24.2830    40.8990    37.1830    41.8580     2.3530 
  187.7500   -29.4140    77.6150    24.3080    23.0930    30.0470    34.1170     2.3810 
  187.8750   -29.2850    83.8010    24.3950    14.1590    25.5660    29.6430     2.3980 
  188.0000   -29.2280    87.2540    24.6030    12.7900    23.6550    28.4880     2.4010 
  188.1250   -29.2860    83.4030    24.4540    15.4870    24.5190    30.9120     2.3870 
  188.2500   -29.3900    77.1040    24.5930    23.2130    27.5460    35.8570     2.3610 
  188.3750   -29.4450    74.6750    24.7690    35.9690    32.6220    42.8430     2.3290 
  188.5000   -29.5480    75.6860    24.8020    45.1190    39.5180    51.3100     2.3010 
  188.6250   -29.7800    74.6550    24.7290    46.9170    47.4890    60.1600     2.2870 
  188.7500   -30.0610    70.9830    24.7140    47.5710    54.8550    67.9110     2.2850 
  188.8750   -30.2410    66.1460    24.6830    49.1890    60.5020    73.7510     2.2850 
  189.0000   -30.3870    61.6600    24.6590    53.7070    63.9640    77.4100     2.2770 
  189.1250   -30.5520    59.2780    24.5540    59.0510    65.2400    79.0710     2.2670 
  189.2500   -30.7200    58.4500    24.6210    59.4650    65.1800    79.6670     2.2710 
  189.3750   -30.8540    58.7740    24.7450    59.9960    64.3760    79.7850     2.2880 
  189.5000   -30.9390    61.4660    24.8690    63.1840    63.2100    79.7140     2.3030 
  189.6250   -31.0150    66.1400    25.0110    62.4650    62.0870    79.8320     2.2980 
  189.7500   -31.1040    67.6540    25.0210    63.5140    61.3970    80.3320     2.2820 
  189.8750   -31.1730    64.2640    25.0440    70.6430    61.5320    81.4470     2.2690 
  190.0000   -31.1650    59.9150    25.2210    74.6340    63.0220    83.9560     2.2710 
  190.1250   -31.1800    59.6380    25.0880    70.9880    66.6560    88.9500     2.2860 
  190.2500   -31.2870    61.9090    25.0780    66.2160    72.6270    96.6160     2.3010 
  190.3750   -31.3740    63.8590    25.0790    68.7190    81.3890   107.2410     2.3050 
  190.5000   -31.3540    64.2160    25.0270    90.6830    92.8760   120.5040     2.2980 
  190.6250   -31.3110    63.2410    25.0360   123.4150   106.0380   134.7940     2.2890 
  190.7500   -31.3170    62.7630    25.1310   150.5300   118.1700   146.9140     2.2810 
  190.8750   -31.3570    62.4100    25.1010   160.7500   126.0920   152.9640     2.2690 
  191.0000   -31.3360    61.1780    25.1110   154.1560   125.3310   147.7150     2.2530 
  191.1250   -31.2500    60.7730    25.1800   158.7180   111.9810   128.6650     2.2470 
