~V
VERS. 2.00: Ver 2.00
~W
STRT.M 60.0000:
STOP.M 238.0000:
STEP.M 0.1250:
NULL. -999.2500:
UWI. DF308:
~C
DEPT.M :
DEN.GM/CC :
SP.MV :
AC.US/MT :
GR.API :
CALI.CM :
RXO.OHMM :
RI. :
RML.OHMM :
~A
   60.0000  -999.2500    33.9950  -999.2500    40.6040    25.4530     5.0770     0.8230    12.9850 
   60.1250  -999.2500    34.8290  -999.2500    40.4850    25.4510     5.3840     0.8350    12.7530 
   60.2500  -999.2500    36.0450  -999.2500    38.7120    25.4510     5.7130     0.8450    12.6140 
   60.3750  -999.2500    37.4480  -999.2500    39.8900    25.4530     6.1340     0.8510    12.5500 
   60.5000  -999.2500    38.8810  -999.2500    41.9910    25.4540     6.5570     0.8540    12.5480 
   60.6250  -999.2500    40.3470  -999.2500    38.5300    25.4540     6.7290     0.8530    12.5550 
   60.7500  -999.2500    41.9370  -999.2500    33.4210    25.4540     6.5980     0.8510    12.5020 
   60.8750  -999.2500    43.7060  -999.2500    32.2840    25.4530     6.3240     0.8490    12.3550 
   61.0000  -999.2500    45.6100  -999.2500    36.0220    25.4440     6.0810     0.8500    12.1040 
   61.1250  -999.2500    47.5190  -999.2500    39.0530    25.4200     5.9190     0.8550    11.7900 
   61.2500  -999.2500    49.3430  -999.2500    38.7800    25.3890     5.7930     0.8620    11.5110 
   61.3750  -999.2500    51.0710  -999.2500    36.8880    25.3650     5.6550     0.8680    11.3130 
   61.5000  -999.2500    52.7340  -999.2500    34.9910    25.3310     5.5250     0.8680    11.1810 
   61.6250  -999.2500    54.3020  -999.2500    35.4970    25.2850     5.5610     0.8560    10.9980 
   61.7500  -999.2500    55.6840  -999.2500    37.9560    25.2430     5.8650     0.8300    10.6170 
   61.8750  -999.2500    56.8230  -999.2500    40.7970    25.2110     6.4400     0.7930     9.9390 
   62.0000  -999.2500    57.7550  -999.2500    41.2770    25.1840     7.1470     0.7480     8.9960 
   62.1250  -999.2500    58.5130  -999.2500    40.0110    25.1520     6.9240     0.7000     7.9700 
   62.2500  -999.2500    59.1120  -999.2500    37.8860    25.1290     5.2560     0.6600     7.0810 
   62.3750  -999.2500    59.4050  -999.2500    36.6220    25.0870     3.0690     0.6340     6.4340 
   62.5000  -999.2500    59.2860  -999.2500    39.0040    24.9550     1.6680     0.6250     6.0330 
   62.6250  -999.2500    58.6560  -999.2500    44.3300    24.6520     1.3350     0.6340     5.8290 
   62.7500  -999.2500    57.6690  -999.2500    47.1650    24.1530     1.3780     0.6490     5.6720 
   62.8750  -999.2500    56.4080  -999.2500    47.0210    23.6410     1.5570     0.6630     5.4570 
   63.0000  -999.2500    54.8940  -999.2500    47.2450    23.2760     1.7420     0.6680     5.1290 
   63.1250  -999.2500    53.1100  -999.2500    49.0060    23.1080     1.8920     0.6670     4.7280 
   63.2500  -999.2500    51.1580  -999.2500    48.5330    22.9930     2.0120     0.6640     4.4020 
   63.3750  -999.2500    49.2190  -999.2500    47.5600    22.8960     2.0900     0.6640     4.2840 
   63.5000  -999.2500    47.3480  -999.2500    49.1360    22.8260     2.0940     0.6650     4.4500 
   63.6250  -999.2500    45.5120  -999.2500    52.6420    22.8510     2.0330     0.6530     4.8440 
   63.7500  -999.2500    43.5510  -999.2500    54.4620    22.9300     1.9890     0.6080     4.8680 
   63.8750  -999.2500    41.3290  -999.2500    52.7170    22.9970     1.9690     0.5070     3.6990 
   64.0000  -999.2500    38.7230  -999.2500    49.9900    23.0300     1.9470     0.3580     1.5260 
   64.1250  -999.2500    35.5600  -999.2500    51.9590    23.0690     1.9110     0.2170    -0.2680 
   64.2500  -999.2500    31.8300  -999.2500    57.3810    23.1430     1.8800     0.1210    -1.3020 
   64.3750  -999.2500    27.4500  -999.2500    64.2680    23.2260     1.9200     0.0710    -1.7880 
   64.5000  -999.2500    22.3810  -999.2500    70.8800    23.2810     2.2090     0.0670    -1.9180 
   64.6250  -999.2500    16.5260  -999.2500    77.8820    23.3900     3.3760     0.1470    -1.7220 
   64.7500  -999.2500    10.2510  -999.2500    83.1030    23.7100     5.9230     0.3680    -1.1820 
   64.8750  -999.2500     3.7700  -999.2500    83.0510    24.1720     9.9920     0.8580    -0.1000 
   65.0000  -999.2500    -2.7270  -999.2500    77.4970    24.0850    13.9740     1.7860     1.8020 
   65.1250  -999.2500    -8.9840  -999.2500    69.8030    23.6030    14.1340     3.2110     4.2350 
   65.2500  -999.2500   -14.7440  -999.2500    65.9470    23.1090    11.7020     4.5720     5.4910 
   65.3750  -999.2500   -19.7720  -999.2500    66.4300    22.8150     9.7390     5.4350     5.2660 
   65.5000  -999.2500   -23.8570  -999.2500    68.5070    22.6570     9.3270     5.8390     4.6840 
   65.6250  -999.2500   -26.7940  -999.2500    69.5140    22.5750     9.7810     6.0490     4.4920 
   65.7500  -999.2500   -28.9320  -999.2500    69.4370    22.5800    10.2240     6.2870     4.6830 
   65.8750  -999.2500   -30.4620  -999.2500    71.0810    22.7490    10.3400     6.6000     5.1390 
   66.0000  -999.2500   -31.5250  -999.2500    74.8590    22.9050    10.1060     6.9410     5.6660 
   66.1250  -999.2500   -32.2130  -999.2500    77.3600    22.8150     9.8370     7.1740     6.0020 
   66.2500  -999.2500   -32.7630  -999.2500    74.7840    22.7980     9.6960     7.2480     6.1020 
   66.3750  -999.2500   -33.2860  -999.2500    69.0810    22.8530     9.7300     7.2180     6.0950 
   66.5000  -999.2500   -33.8310  -999.2500    66.4490    22.9320     9.9470     7.2190     6.1770 
   66.6250  -999.2500   -34.3510  -999.2500    68.5890    23.1850    10.3040     7.4180     6.5630 
   66.7500  -999.2500   -34.8430  -999.2500    69.5490    23.6270    10.7830     7.8260     7.2460 
   66.8750  -999.2500   -35.3310  -999.2500    67.9650    23.8730    11.4900     8.3580     8.0910 
   67.0000  -999.2500   -35.8250  -999.2500    68.5620    23.4240    12.1970     8.8180     8.7890 
   67.1250  -999.2500   -36.3260  -999.2500    74.3000    22.4370    11.7880     8.8850     8.8540 
   67.2500  -999.2500   -36.7920  -999.2500    78.6890    21.7570    10.8890     8.5270     8.3150 
   67.3750  -999.2500   -37.2040  -999.2500    79.2140    21.4170    10.3980     7.8870     7.4720 
   67.5000  -999.2500   -37.5880  -999.2500    75.2960    21.0770    10.3570     7.1860     6.6630 
   67.6250  -999.2500   -37.9190  -999.2500    68.1840    20.5850    10.2560     6.6390     6.1450 
   67.7500  -999.2500   -38.2200  -999.2500    63.2120    20.1550     9.9130     6.3220     5.9400 
   67.8750  -999.2500   -38.4470  -999.2500    60.9610    19.8300     9.5030     6.2400     6.0210 
   68.0000  -999.2500   -38.5700  -999.2500    59.7500    19.5370     9.3150     6.3560     6.3340 
   68.1250  -999.2500   -38.5960  -999.2500    60.4380    19.2890     9.7770     6.6160     6.8190 
   68.2500  -999.2500   -38.5550  -999.2500    63.6400    19.0670    10.4200     6.8930     7.3110 
   68.3750  -999.2500   -38.4540  -999.2500    67.7410    18.7910    10.5490     7.0620     7.6110 
   68.5000  -999.2500   -38.2960  -999.2500    70.2200    18.4740    10.0820     7.0200     7.5480 
   68.6250  -999.2500   -38.0960  -999.2500    70.6380    18.4520     9.4610     6.7420     7.0930 
   68.7500  -999.2500   -37.8380  -999.2500    69.4700    18.8960     8.9430     6.3800     6.5250 
   68.8750  -999.2500   -37.5440  -999.2500    68.6610    19.8090     8.5590     6.0570     6.0500 
   69.0000  -999.2500   -37.2590  -999.2500    70.0280    20.9260     8.5650     5.8530     5.7820 
   69.1250  -999.2500   -36.9640  -999.2500    72.4680    21.5380     8.9420     5.8090     5.7540 
   69.2500  -999.2500   -36.5940  -999.2500    72.7160    21.6910     9.1490     5.8610     5.8450 
   69.3750  -999.2500   -36.1410  -999.2500    71.1220    21.6520     9.0480     5.9540     5.9650 
   69.5000  -999.2500   -35.5630  -999.2500    70.5960    21.6230     8.8390     6.0390     6.0470 
   69.6250  -999.2500   -34.8280  -999.2500    70.6730    21.6270     8.7560     6.0680     6.0360 
   69.7500  -999.2500   -33.9830  -999.2500    71.0030    21.6300     8.7620     6.0360     5.9430 
   69.8750  -999.2500   -33.0420  -999.2500    74.0140    21.6660     8.5870     5.9530     5.7890 
