~V
VERS. 2.00: Ver 2.00
~W
STRT.M 64.0000:
STOP.M 262.0000:
STEP.M 0.1250:
NULL. -999.2500:
UWI. DF3019:
~C
DEPT.M :
GR.API :
RML.OHMM :
RI. :
RXO.OHMM :
CALI.CM :
DEN.GM/CC :
SP.MV :
~A
# ...
  221.5000    73.6520    35.9530    30.2040    36.3690    24.5810     2.3130   -35.9840 
  221.6250    74.3180    37.1180    30.9770    36.1330    24.6030     2.3150   -36.0150 
  221.7500    76.1040    38.5800    32.0150    36.4160    24.6310     2.3150   -35.9780 
  221.8750    78.1900    40.3230    33.3130    36.7050    24.6550     2.3130   -35.9600 
  222.0000    79.7850    42.1910    34.7710    37.0360    24.6730     2.3070   -35.8310 
  222.1250    79.9590    43.7590    36.0900    38.0810    24.7000     2.3030   -35.7770 
  222.2500    80.0960    44.6020    36.9220    40.1210    24.7390     2.3020   -35.6540 
  222.3750    79.3360    44.4680    37.0300    41.2500    24.7710     2.3050   -35.5920 
  222.5000    79.1360    43.4520    36.4240    42.0230    24.8160     2.3090   -35.4900 
  222.6250    78.9390    42.1020    35.4500    41.9850    24.8200     2.3100   -35.4510 
  222.7500    75.9910    41.3300    34.8080    40.0730    24.7700     2.3070   -35.4350 
  222.8750    71.9120    41.8120    35.0600    37.1550    24.6980     2.3010   -35.4270 
  223.0000    69.4230    43.9190    36.5790    35.8880    24.6650     2.2960   -35.5080 
  223.1250    69.6160    47.8640    39.6760    40.3970    24.6650     2.2940   -35.5020 
  223.2500    70.9900    52.9290    43.8590    47.3630    24.6650     2.2960   -35.6030 
  223.3750    72.7660    58.4890    48.6390    54.8250    24.6590     2.2990   -35.6570 
  223.5000    73.4790    63.8580    53.4090    60.1410    24.6300     2.3020   -35.7520 
  223.6250    71.5840    68.1850    57.3880    61.8470    24.5580     2.3020   -35.8590 
  223.7500    68.7700    71.0900    60.1850    62.7740    24.5010     2.2940   -35.9200 
  223.8750    66.1280    72.2800    61.5340    64.9980    24.5050     2.2760   -35.9540 
  224.0000    65.7080    71.6330    61.3260    67.0820    24.4820     2.2490   -35.8680 
  224.1250    69.2890    69.0410    59.4360    65.8660    24.1880     2.2230   -35.8360 
  224.2500    73.8860    65.3150    56.5090    61.4050    23.7020     2.2060   -35.7000 
  224.3750    76.7390    61.1580    53.1070    54.2700    23.3970     2.2060   -35.5920 
  224.5000    78.5730    57.3500    49.8760    47.7120    23.3340     2.2190   -35.4590 
  224.6250    78.5990    54.8740    47.6290    43.2270    23.3890     2.2320   -35.2320 
  224.7500    76.6950    54.0930    46.7130    42.0050    23.4520     2.2360   -35.0140 
  224.8750    75.8480    55.1700    47.3120    41.9100    23.5360     2.2330   -34.7770 
  225.0000    76.9180    57.8940    49.3150    42.6580    23.6740     2.2290   -34.5620 
  225.1250    75.6570    61.6720    52.3300    47.5480    23.9570     2.2310   -34.2810 
  225.2500    72.2650    65.2860    55.3610    56.3540    24.3310     2.2380   -34.0100 
  225.3750    70.2490    67.8610    57.6490    67.1490    24.6100     2.2440   -33.6280 
  225.5000    71.0290    68.9290    58.7260    77.7090    24.7090     2.2480   -33.2560 
  225.6250    72.4300    68.5090    58.4840    77.2360    24.6870     2.2530   -32.7870 
  225.7500    74.1120    67.6400    57.7360    71.2280    24.6690     2.2650   -32.3280 
  225.8750    76.5590    67.1530    57.1930    65.3010    24.6650     2.2890   -31.7910 
  226.0000    78.8990    67.5890    57.3770    61.6460    24.6650     2.3300   -31.2230 
  226.1250    78.4820    69.0330    58.4730    65.5820    24.6480     2.3800   -30.6560 
  226.2500    75.3880    70.5700    59.7900    70.7110    24.6050     2.4290   -29.9930 
  226.3750    71.6860    71.1290    60.4740    71.5160    24.5370     2.4620   -29.4230 
  226.5000    70.5480    69.7080    59.6800    70.9340    24.4310     2.4660   -28.7640 
  226.6250    70.5220    65.4450    56.6200    73.0030    24.3390     2.4480   -28.1760 
  226.7500    68.9590    59.3010    51.9360    74.0840    24.3050     2.4180   -27.5920 
  226.8750    67.5540    52.4100    46.4580    64.0540    24.2730     2.3890   -27.0760 
  227.0000    68.3290    45.9080    41.0970    48.6960    24.1560     2.3680   -26.6400 
  227.1250    69.6180    40.7020    36.6410    37.7980    23.9420     2.3550   -26.2080 
  227.2500    68.8930    36.7010    33.1330    31.9590    23.6330     2.3470   -25.9290 
  227.3750    68.9210    33.6670    30.4320    28.5360    23.2220     2.3410   -25.6310 
  227.5000    70.6110    31.3020    28.3210    27.1940    22.9310     2.3340   -25.5100 
  227.6250    71.3400    29.4330    26.6590    26.0340    22.9820     2.3240   -25.3910 
  227.7500    70.1760    27.8780    25.2800    23.8190    23.2480     2.3120   -25.2940 
  227.8750    69.9340    26.6060    24.1510    21.8820    23.3690     2.2960   -25.1820 
  228.0000    71.9750    25.5940    23.2480    20.8690    23.3220     2.2820   -25.0650 
  228.1250    75.2620    24.8560    22.5730    20.3110    23.2870     2.2730   -24.9920 
  228.2500    77.5820    24.3650    22.0840    20.1650    23.3310     2.2700   -24.8880 
  228.3750    77.7150    24.1870    21.8140    20.1920    23.5100     2.2700   -24.8250 
  228.5000    75.7370    24.4310    21.8470    20.5220    23.8640     2.2680   -24.6680 
  228.6250    74.3360    25.2970    22.3590    21.6610    24.2870     2.2620   -24.5520 
  228.7500    74.6160    26.7010    23.3300    23.4200    24.5630     2.2530   -24.4180 
  228.8750    74.6190    28.5090    24.6900    25.2580    24.6550     2.2450   -24.3340 
  229.0000    73.2670    30.4760    26.2610    27.7480    24.6650     2.2430   -24.1800 
  229.1250    73.0100    32.2220    27.7370    32.3660    24.6650     2.2430   -24.0470 
  229.2500    73.4520    33.4910    28.8610    35.8510    24.6650     2.2460   -23.8380 
  229.3750    71.7010    34.1950    29.5240    36.5050    24.6650     2.2470   -23.6020 
  229.5000    68.1430    34.4260    29.7750    35.4590    24.6650     2.2490   -23.4350 
  229.6250    68.6080    34.3950    29.7780    35.6330    24.6530     2.2520   -23.1820 
  229.7500    72.1670    34.3530    29.7580    34.8780    24.6250     2.2530   -22.9710 
  229.8750    74.6180    34.3170    29.7550    33.6860    24.5900     2.2530   -22.7100 
  230.0000    75.3420    34.1260    29.6630    33.3540    24.5180     2.2530   -22.4650 
  230.1250    75.8150    33.4010    29.2010    33.5940    24.4040     2.2550   -22.2220 
  230.2500    74.8150    31.9880    28.2180    33.6700    24.3620     2.2620   -21.9830 
  230.3750    72.0870    29.8930    26.6820    30.8530    24.4620     2.2750   -21.7520 
  230.5000    71.0390    27.3340    24.7220    27.0100    24.5270     2.2890   -21.4030 
  230.6250    72.9440    24.6700    22.5820    24.4380    24.4730     2.3000   -21.1460 
  230.7500    76.0200    22.2320    20.5350    21.5000    24.3780     2.3060   -20.8470 
  230.8750    79.3160    20.1440    18.6980    18.3880    24.2740     2.3090   -20.6030 
  231.0000    82.4590    18.4160    17.1090    15.9240    24.2040     2.3160   -20.3710 
  231.1250    83.4260    17.0730    15.8170    14.6390    24.1600     2.3350   -20.0780 
  231.2500    82.1130    16.0570    14.7990    13.4260    24.1340     2.3660   -19.8740 
  231.3750    80.4790    15.3540    14.0590    12.0530    24.1040     2.4020   -19.6280 
  231.5000    80.7180    14.8880    13.5540    11.0980    24.0640     2.4240   -19.5170 
  231.6250    84.2570    14.5270    13.1940    11.0990    24.0460     2.4210   -19.3900 
  231.7500    88.1840    14.1650    12.8710    11.5640    24.0410     2.3940   -19.3490 
  231.8750    91.0540    13.8840    12.6170    12.4680    24.0430     2.3510   -19.2890 
  232.0000    93.1830    13.9380    12.5950    13.2590    24.0340     2.3040   -19.2600 
  232.1250    91.8490    14.8340    13.1820    13.2120    24.0070     2.2640   -19.2990 
  232.2500    85.9350    16.7010    14.5340    13.2170    23.9650     2.2340   -19.3000 
  232.3750    78.4220    19.4460    16.6670    15.3250    23.9710     2.2160   -19.4210 
  232.5000    73.0810    22.6420    19.3330    19.9430    24.0960     2.2140   -19.4440 
  232.6250    70.8650    25.4680    21.9270    26.8100    24.3480     2.2210   -19.5120 
