~V
VERS. 2.00: Ver 2.00
~W
STRT.M 64.0000:
STOP.M 268.0000:
STEP.M 0.1250:
NULL. -999.2500:
UWI. DF3002:
~C
DEPT.M :
GR.API :
RML.OHMM :
RI. :
RXO.OHMM :
DEN.GM/CC :
SP.MV :
~A
# ...
  141.2500   106.4850     6.5310     5.1160     5.7140     2.3610   -26.4530 
  141.3750   104.1960     6.6300     5.1610     5.8280     2.3530   -26.5470 
  141.5000   107.4240     6.7530     5.2510     5.9300     2.3320   -26.8190 
  141.6250   108.0650     6.9130     5.3950     5.9400     2.3050   -27.1620 
  141.7500   104.6260     7.1260     5.5960     6.1730     2.2810   -27.3860 
  141.8750   102.3180     7.4090     5.8600     6.4700     2.2640   -27.7160 
  142.0000   103.5620     7.7580     6.1770     6.5770     2.2540   -28.0940 
  142.1250   104.3630     8.1320     6.5170     6.8110     2.2480   -28.3070 
  142.2500   101.3510     8.4590     6.8210     6.9640     2.2420   -28.5030 
  142.3750    96.8860     8.6830     7.0430     7.1670     2.2380   -28.6860 
  142.5000    94.7560     8.7670     7.1460     7.3710     2.2380   -28.6440 
  142.6250    96.2750     8.6790     7.0920     7.1800     2.2430   -28.4730 
  142.7500    98.2920     8.4560     6.9100     6.9280     2.2530   -28.3540 
  142.8750    99.5950     8.1170     6.6200     6.7810     2.2690   -28.0790 
  143.0000   102.0730     7.6900     6.2490     6.5720     2.2900   -27.7280 
  143.1250   106.6680     7.2120     5.8360     6.3450     2.3130   -27.4350 
  143.2500   111.7550     6.7550     5.4410     5.8420     2.3340   -27.1300 
  143.3750   114.2550     6.3900     5.1150     5.4970     2.3470   -26.8750 
  143.5000   113.3030     6.1850     4.9130     5.2640     2.3500   -26.7270 
  143.6250   111.7430     6.2300     4.9090     5.2350     2.3510   -26.6420 
  143.7500   112.2530     6.4900     5.0900     5.3380     2.3570   -26.6510 
  143.8750   112.7940     6.9160     5.4320     5.5660     2.3680   -26.7470 
  144.0000   107.5550     7.4200     5.8800     5.9900     2.3740   -26.8800 
  144.1250    98.3750     7.8730     6.3380     6.7230     2.3640   -27.1160 
  144.2500    94.2210     8.1720     6.7050     7.2880     2.3390   -27.3680 
  144.3750    96.0880     8.2640     6.9130     7.2020     2.3110   -27.5830 
  144.5000   100.0980     8.1470     6.9390     7.0040     2.2900   -27.7590 
  144.6250   101.8980     7.8610     6.7920     7.0020     2.2850   -27.8810 
  144.7500   103.3180     7.5450     6.5750     7.0980     2.2880   -27.9780 
  144.8750   105.5370     7.3220     6.3860     7.1080     2.2920   -28.0620 
  145.0000   107.8730     7.3260     6.3280     7.1860     2.2920   -28.0460 
  145.1250   105.5210     7.7240     6.5420     7.0050     2.2930   -28.0440 
  145.2500    96.6090     8.4450     7.0130     7.1700     2.3030   -28.1010 
  145.3750    87.9340     9.3090     7.6420     7.8470     2.3290   -28.0010 
  145.5000    86.2170    10.0170     8.2310     8.9120     2.3690   -27.8620 
  145.6250    88.4100    10.1790     8.4750    10.5350     2.4080   -27.8380 
  145.7500    88.8820     9.7550     8.2910    11.9200     2.4280   -27.6640 
  145.8750    87.9270     8.9520     7.7890    11.1180     2.4270   -27.4900 
  146.0000    88.7600     8.2370     7.2580     8.4430     2.4160   -27.4110 
  146.1250    90.6440     8.2390     7.1450     7.7570     2.4180   -27.1480 
  146.2500    87.9410     9.3370     7.6900     8.6020     2.4430   -26.8950 
  146.3750    80.3240    11.6440     9.0430    10.2980     2.4870   -26.7520 
  146.5000    71.8470    15.0180    11.2220    13.2960     2.5390   -26.6230 
  146.6250    64.9450    19.0480    14.0910    17.4680     2.5780   -26.5010 
  146.7500    59.4520    22.3760    17.0530    20.6640     2.5980   -26.3820 
  146.8750    57.1240    24.8940    19.5560    21.9250     2.6000   -26.2730 
  147.0000    58.5380    26.2270    21.1680    22.2140     2.5900   -26.1600 
  147.1250    58.0600    26.2230    21.6140    22.0980     2.5810   -26.0590 
  147.2500    55.1240    25.5460    21.3660    21.9480     2.5760   -25.9890 
  147.3750    54.5740    24.7760    20.8710    21.7210     2.5770   -25.9320 
  147.5000    57.3410    24.4080    20.5420    20.4740     2.5820   -25.8360 
  147.6250    58.5760    24.8220    20.7290    19.1960     2.5900   -25.7320 
  147.7500    56.5050    25.8500    21.4040    19.3050     2.5990   -25.6990 
  147.8750    53.3280    27.2130    22.4330    20.7410     2.6060   -25.6190 
  148.0000    51.3260    28.5550    23.5740    22.9560     2.6100   -25.5740 
  148.1250    50.9420    29.4770    24.5160    25.1940     2.6070   -25.6120 
  148.2500    51.6660    29.9000    25.1020    25.2950     2.6020   -25.5190 
  148.3750    52.5900    29.8810    25.3180    24.1570     2.5950   -25.4530 
  148.5000    53.2040    29.5680    25.2510    23.9180     2.5850   -25.5370 
  148.6250    54.3760    29.1200    25.0300    24.5760     2.5680   -25.4840 
  148.7500    55.2200    28.7120    24.8200    25.2440     2.5440   -25.4360 
  148.8750    56.0270    28.4560    24.7150    24.6030     2.5200   -25.4990 
  149.0000    58.0220    28.4300    24.7700    23.2930     2.5050   -25.4210 
  149.1250    62.6910    28.6570    25.0070    22.1160     2.5080   -25.3620 
  149.2500    65.7570    28.9610    25.3010    22.7630     2.5250   -25.4150 
  149.3750    64.4450    29.1550    25.5110    24.0740     2.5480   -25.3400 
  149.5000    63.3040    29.0900    25.5050    25.0330     2.5690   -25.2070 
  149.6250    64.5820    28.6850    25.1840    24.9110     2.5770   -25.2060 
  149.7500    64.9090    28.0860    24.6530    24.1550     2.5760   -25.1370 
  149.8750    63.1950    27.4180    24.0190    22.8200     2.5690   -25.0550 
  150.0000    62.7910    26.7730    23.3780    21.8210     2.5560   -25.0120 
  150.1250    66.3470    26.2030    22.8070    21.8140     2.5400   -24.8900 
  150.2500    68.8030    25.7290    22.3350    21.9410     2.5250   -24.7920 
  150.3750    67.0420    25.4130    22.0070    21.9170     2.5160   -24.7410 
  150.5000    62.7070    25.3450    21.8830    21.5850     2.5180   -24.7130 
  150.6250    61.4210    25.6670    22.0690    21.0180     2.5330   -24.6830 
  150.7500    63.9350    26.3310    22.5330    20.9000     2.5510   -24.6580 
  150.8750    65.8440    27.2290    23.2050    22.0280     2.5640   -24.6430 
  151.0000    65.5430    28.1390    23.9170    23.8610     2.5670   -24.6340 
  151.1250    66.6390    28.6510    24.3500    23.9970     2.5650   -24.6600 
  151.2500    69.5610    28.5010    24.2650    23.9530     2.5660   -24.7130 
  151.3750    71.7110    27.5750    23.5500    23.9910     2.5730   -24.7890 
  151.5000    69.6180    26.0030    22.2850    23.3660     2.5820   -24.7620 
  151.6250    64.1340    24.1390    20.7400    21.6200     2.5830   -24.7570 
  151.7500    60.9490    22.4820    19.3210    19.2760     2.5740   -24.8570 
  151.8750    62.3680    21.3120    18.2590    17.0060     2.5570   -24.8280 
  152.0000    64.2640    20.7280    17.6530    16.0930     2.5380   -24.8410 
  152.1250    62.0800    20.7480    17.5550    16.3070     2.5280   -24.9340 
  152.2500    59.9360    21.1260    17.7930    16.8450     2.5280   -24.8750 
  152.3750    60.5870    21.6960    18.2440    17.2590     2.5360   -24.8380 
  152.5000    61.4400    22.3100    18.7840    17.2120     2.5460   -24.8900 
  152.6250    59.8350    22.8120    19.2780    17.3620     2.5510   -24.8080 
  152.7500    58.4930    23.1130    19.6330    18.0560     2.5510   -24.7410 
  152.8750    58.5650    23.1590    19.7940    18.6420     2.5470   -24.7280 
  153.0000    58.4160    22.9490    19.7410    18.6080     2.5420   -24.6700 
  153.1250    58.4900    22.5170    19.4690    17.6480     2.5390   -24.6180 
  153.2500    61.2290    21.9820    19.0620    17.1960     2.5370   -24.5790 
  153.3750    64.3930    21.3830    18.5510    16.6970     2.5360   -24.5570 
  153.5000    64.3620    20.7080    17.9370    15.9900     2.5350   -24.5850 
  153.6250    62.6550    19.8880    17.1870    15.6630     2.5360   -24.6170 
  153.7500    61.1550    18.9440    16.3400    15.4750     2.5390   -24.6060 
  153.8750    59.2600    17.9690    15.4770    14.9640     2.5440   -24.6410 
  154.0000    59.3300    17.1300    14.7320    14.0020     2.5510   -24.6580 
