~V
VERS. 2.00: Ver 2.00
~W
STRT.M 100.0000:
STOP.M 264.0000:
STEP.M 0.1250:
NULL. -999.2500:
UWI. DF3023:
~C
DEPT.M :
GR.API :
CALI.CM :
RXO.OHMM :
RI. :
RML.OHMM :
SP.MV :
DEN.GM/CC :
AC.US/MT :
~A
# ...
  210.0000    62.1130    24.5650   104.1600    69.9160    73.4720   -25.9890     2.5740   240.0130 
  210.1250    59.6580    24.7240   117.6850    71.6250    77.3900   -25.9420     2.6110   226.6660 
  210.2500    59.2150    24.8580   109.0330    61.9310    70.2100   -25.9170     2.5870   220.3410 
  210.3750    60.9400    24.9470    86.7510    45.3430    54.2840   -25.9190     2.5390   223.8570 
  210.5000    65.6910    24.9620    59.5520    29.3210    36.4970   -25.9500     2.5240   241.7240 
  210.6250    71.8900    24.8580    40.5190    18.4330    23.1450   -25.9920     2.5400   277.8160 
  210.7500    75.6460    24.6500    22.2870    11.7180    14.6170   -26.0510     2.5340   326.4620 
  210.8750    74.1710    24.4110    10.4400     7.9690     9.7340   -26.1690     2.4710   375.9140 
  211.0000    69.8070    24.2810     6.0310     6.1300     7.1770   -26.3650     2.3990   411.5210 
  211.1250    67.3880    24.3530     5.5150     5.6110     6.1810   -26.6500     2.3660   422.1490 
  211.2500    69.5530    24.4980     6.0180     5.7750     6.0310   -26.9990     2.3610   416.4110 
  211.3750    75.3050    24.6300     7.4510     6.3560     6.4840   -27.3510     2.3820   406.0450 
  211.5000    82.2190    24.7450     8.7170     7.1090     7.3000   -27.6290     2.4130   398.8840 
  211.6250    88.3970    24.8260     8.7340     7.7580     8.1620   -27.8190     2.4330   396.0360 
  211.7500    94.2900    24.8480     8.8620     8.1300     8.7710   -27.9810     2.4310   393.7080 
  211.8750    97.8490    24.8320     9.4580     8.1710     8.9960   -28.1510     2.4220   391.5670 
  212.0000    98.2940    24.8190     9.8660     7.9460     8.8600   -28.3650     2.4170   392.7990 
  212.1250    99.9080    24.8150     9.4360     7.6280     8.5190   -28.6550     2.4110   398.6290 
  212.2500   103.3730    24.8000     8.7390     7.4640     8.2290   -28.9620     2.4000   403.5350 
  212.3750   108.2920    24.7780     8.4770     7.6350     8.1600   -29.2220     2.3960   403.5460 
  212.5000   114.1600    24.7340     8.4560     8.4420     8.2700   -29.4280     2.4050   396.7190 
  212.6250   115.5480    24.6020     9.5830     9.2510     9.5270   -29.5920     2.4150   384.1390 
  212.7500   108.5370    24.4010    12.1150    10.5450    11.2750   -29.7330     2.4150   371.5170 
  212.8750    96.6460    24.1960    15.1070    12.2460    13.3610   -29.8780     2.4130   363.5220 
  213.0000    90.3400    24.0420    17.3350    14.1590    15.5340   -30.0400     2.4100   362.0810 
  213.1250    93.2730    23.9430    17.7990    15.9360    17.4420   -30.1540     2.4020   364.8440 
  213.2500    97.6250    23.8740    17.9870    17.3430    18.9440   -30.1680     2.3940   367.0440 
  213.3750    99.0130    23.8500    19.3580    18.3710    20.1090   -30.0970     2.3930   366.6140 
  213.5000    96.2140    23.8860    21.4600    19.1720    21.1300   -29.9740     2.3890   363.8720 
  213.6250    90.2570    23.9680    22.3520    19.9520    22.2120   -29.8080     2.3740   362.6940 
  213.7500    84.1690    24.0340    22.5720    20.8490    23.4360   -29.6390     2.3580   365.7660 
  213.8750    79.9920    24.0590    23.4050    21.9140    24.8260   -29.4850     2.3490   372.1710 
  214.0000    77.7810    24.0580    25.0780    23.1650    26.4060   -29.3130     2.3410   378.3920 
  214.1250    76.3120    24.0620    26.2490    24.6410    28.2270   -29.0730     2.3260   381.6650 
  214.2500    75.4520    24.0840    26.9470    26.2870    30.2080   -28.7780     2.3250   384.0000 
  214.3750    74.6390    24.1490    28.5990    27.9970    32.1860   -28.4250     2.3430   386.9610 
  214.5000    73.2540    24.2790    31.3950    29.5680    33.8850   -28.0050     2.3440   389.5220 
  214.6250    71.8320    24.3860    33.3870    30.6710    34.8500   -27.5190     2.3150   388.5670 
  214.7500    72.2990    24.3480    32.8930    31.1920    34.9950   -26.9580     2.2930   384.2340 
  214.8750    73.6690    24.1870    30.9770    31.1050    34.4020   -26.2820     2.3130   379.5020 
  215.0000    74.1840    24.0720    30.3570    30.5510    33.3830   -25.4990     2.3600   376.7200 
  215.1250    74.8770    24.1790    31.7980    29.7800    32.3370   -24.6590     2.3930   373.5850 
  215.2500    76.1290    24.4000    32.1080    29.0450    31.4780   -23.8000     2.4050   364.2030 
  215.3750    76.4310    24.5860    32.1660    28.4060    30.7900   -22.9350     2.4110   346.4510 
  215.5000    75.6530    24.6700    33.0610    27.8380    30.1740   -22.0790     2.4310   324.8340 
  215.6250    77.4060    24.6770    32.4020    27.3080    29.5580   -21.2460     2.4610   308.0830 
  215.7500    81.2710    24.6410    28.9890    26.8090    28.9420   -20.4790     2.4840   298.4170 
  215.8750    83.1960    24.5420    25.5560    26.2850    28.2090   -19.8350     2.4940   293.8780 
  216.0000    80.6370    24.3820    24.6890    25.5550    27.1000   -19.3390     2.4790   291.9930 
  216.1250    74.8460    24.2270    25.1760    24.2740    25.2920   -19.0010     2.4480   292.8940 
  216.2500    71.7680    24.1360    24.8110    22.4550    22.9870   -18.7700     2.4520   299.9800 
  216.3750    73.1180    24.1080    21.9910    20.3390    20.5620   -18.6100     2.4780   316.6780 
  216.5000    77.5840    24.1040    17.6540    18.3230    18.4620   -18.4840     2.4770   342.2180 
  216.6250    81.5310    24.0630    14.3900    16.8850    17.1600   -18.3920     2.4220   368.9490 
  216.7500    81.3200    23.9650    13.7670    16.0990    16.6080   -18.3280     2.3580   385.0990 
  216.8750    78.1590    23.8450    14.8310    15.8780    16.6220   -18.2830     2.3470   387.0710 
  217.0000    76.0690    23.7780    16.7310    15.9950    16.8990   -18.2560     2.3610   379.9820 
  217.1250    76.0660    23.8820    20.6300    16.1640    17.0820   -18.2070     2.3680   376.2900 
  217.2500    74.7250    24.1840    20.7580    16.2180    17.0610   -18.1060     2.3670   382.2780 
  217.3750    72.5400    24.5920    17.7490    16.2210    16.9880   -17.9810     2.3550   393.6100 
  217.5000    72.6050    24.9150    15.3580    16.3240    17.0820   -17.8720     2.3350   402.7290 
  217.6250    75.6450    24.9660    16.0950    16.6100    17.4250   -17.7860     2.3180   403.3570 
  217.7500    77.5800    24.8760    18.9530    16.8950    17.7510   -17.7170     2.3190   398.8140 
  217.8750    76.7910    24.8170    20.8220    16.9370    17.7640   -17.6600     2.3250   393.7630 
  218.0000    75.0330    24.8490    19.6660    16.5850    17.3200   -17.5810     2.3280   390.9500 
  218.1250    74.1540    24.9170    16.6720    15.8950    16.5700   -17.4730     2.3190   391.8190 
  218.2500    74.4960    24.9520    14.7960    15.2000    15.9300   -17.3860     2.2980   394.2620 
  218.3750    74.8140    24.9320    14.2570    14.7040    15.6040   -17.3310     2.2920   396.1500 
  218.5000    75.1460    24.8510    14.9980    14.4630    15.5670   -17.2930     2.3120   395.7930 
  218.6250    74.9410    24.7150    16.6410    14.4040    15.6420   -17.2630     2.3330   392.0170 
  218.7500    73.4620    24.5680    17.7550    14.3820    15.6680   -17.2040     2.3280   387.0330 
  218.8750    72.8530    24.4140    17.6070    14.4030    15.7170   -17.0860     2.3260   383.4180 
  219.0000    73.8920    24.2480    16.3960    14.5940    16.0160   -16.9430     2.3480   382.0360 
  219.1250    72.9320    24.1220    15.4680    15.2360    16.9270   -16.8320     2.3740   381.0420 
  219.2500    70.4100    24.1060    17.5190    16.4300    18.4870   -16.7440     2.3750   378.8650 
  219.3750    68.9660    24.1840    21.6600    18.1690    20.5840   -16.6630     2.3490   377.5440 
  219.5000    68.8340    24.3200    24.9390    20.2090    22.8400   -16.5900     2.3120   380.2830 
  219.6250    68.1920    24.5020    26.8130    21.9150    24.4460   -16.5100     2.2940   387.3210 
  219.7500    66.2780    24.6590    26.6490    22.6780    24.8320   -16.4330     2.2990   393.6030 
  219.8750    65.4230    24.6960    26.2000    22.2580    23.9040   -16.3820     2.3050   396.0240 
