~V
VERS. 2.00: Ver 2.00
~W
STRT.M 60.0000:
STOP.M 264.0000:
STEP.M 0.1250:
NULL. -999.2500:
UWI. DF303:
~C
DEPT.M :
DEN.GM/CC :
SP.MV :
AC.US/MT :
GR.API :
CALI.CM :
RXO.OHMM :
RI. :
RML.OHMM :
~A
# ...
   70.0000  -999.2500   -33.3850  -999.2500    62.2260    24.3180     8.7170     8.0710     7.0650 
   70.1250  -999.2500   -33.8370  -999.2500    65.6960    24.3490     8.6560     8.0170     7.0980 
   70.2500  -999.2500   -34.2940  -999.2500    65.8170    24.3210     8.4860     7.9490     7.0790 
   70.3750  -999.2500   -34.7330  -999.2500    62.5270    24.2840     8.3550     7.8780     7.0270 
   70.5000  -999.2500   -35.1480  -999.2500    59.7220    24.3150     8.3560     7.8150     6.9720 
   70.6250  -999.2500   -35.5110  -999.2500    59.6380    24.3000     8.4040     7.7720     6.9430 
   70.7500  -999.2500   -35.8070  -999.2500    61.5700    24.1470     8.3970     7.7510     6.9560 
   70.8750  -999.2500   -36.0430  -999.2500    65.1690    23.9820     8.3750     7.7490     7.0160 
   71.0000  -999.2500   -36.2340  -999.2500    69.2810    23.8490     8.3910     7.7600     7.1130 
   71.1250  -999.2500   -36.3680  -999.2500    69.2690    23.8330     8.4310     7.7720     7.2240 
   71.2500  -999.2500   -36.4470  -999.2500    67.0330    23.9090     8.5030     7.7770     7.3240 
   71.3750  -999.2500   -36.4990  -999.2500    66.2060    23.9350     8.5820     7.7770     7.4140 
   71.5000  -999.2500   -36.5150  -999.2500    66.7490    23.9150     8.6250     7.7830     7.4970 
   71.6250  -999.2500   -36.5220  -999.2500    65.0280    23.9400     8.6430     7.8160     7.5890 
   71.7500  -999.2500   -36.5820  -999.2500    60.9240    23.9500     8.6890     7.8770     7.7120 
   71.8750  -999.2500   -36.6820  -999.2500    57.9050    23.8990     8.7540     7.9530     7.8560 
   72.0000  -999.2500   -36.7950  -999.2500    58.9660    23.8220     8.8200     8.0150     7.9810 
   72.1250  -999.2500   -36.9200  -999.2500    65.0640    23.8390     8.8540     8.0110     8.0050 
   72.2500  -999.2500   -37.0540  -999.2500    69.2460    24.0940     8.8260     7.9250     7.9010 
   72.3750  -999.2500   -37.1890  -999.2500    66.4610    24.6350     8.6750     7.7600     7.6770 
   72.5000  -999.2500   -37.3380  -999.2500    60.3040    25.3720     8.3990     7.5470     7.3840 
   72.6250  -999.2500   -37.4420  -999.2500    58.9560    25.9440     8.1040     7.3360     7.1090 
   72.7500  -999.2500   -37.4810  -999.2500    64.7750    26.1160     7.9370     7.1680     6.9060 
   72.8750  -999.2500   -37.4570  -999.2500    71.2190    26.0040     7.9250     7.0570     6.7790 
   73.0000  -999.2500   -37.3810  -999.2500    73.8110    25.8030     7.9410     6.9930     6.7060 
   73.1250  -999.2500   -37.2660  -999.2500    71.2410    25.7080     7.8650     6.9530     6.6550 
   73.2500  -999.2500   -37.1060  -999.2500    68.6750    25.7030     7.7320     6.9110     6.5980 
   73.3750  -999.2500   -36.8820  -999.2500    69.4760    25.6020     7.5570     6.8650     6.5380 
   73.5000  -999.2500   -36.5690  -999.2500    72.3130    25.2090     7.3010     6.8300     6.5040 
   73.6250  -999.2500   -36.1910  -999.2500    72.2890    24.5520     7.0460     6.8360     6.5430 
   73.7500  -999.2500   -35.7280  -999.2500    69.8300    24.2020     6.9320     6.8960     6.6680 
   73.8750  -999.2500   -35.1630  -999.2500    69.6270    24.1130     6.9350     7.0040     6.8730 
   74.0000  -999.2500   -34.5020  -999.2500    72.8620    24.2260     6.9610     7.0970     7.0770 
   74.1250  -999.2500   -33.7060  -999.2500    75.7910    24.1710     7.0150     6.9970     7.0170 
   74.2500  -999.2500   -32.8210  -999.2500    78.7550    24.1310     7.3060     6.5750     6.5110 
   74.3750  -999.2500   -31.9500  -999.2500    84.4020    24.1470     7.9080     5.8450     5.6210 
   74.5000  -999.2500   -31.2080  -999.2500    93.5190    24.2830     8.1030     5.0040     4.6680 
   74.6250  -999.2500   -30.7000  -999.2500   102.5530    24.4090     6.8780     4.3940     4.0890 
   74.7500  -999.2500   -30.4510  -999.2500   106.7680    24.3300     5.4060     4.1980     4.0520 
   74.8750  -999.2500   -30.5000  -999.2500   102.6300    24.1570     5.3860     4.5080     4.6440 
   75.0000  -999.2500   -30.8480  -999.2500    90.8660    24.0450     8.4150     5.3530     5.9140 
   75.1250  -999.2500   -31.5060  -999.2500    78.6310    24.0020    13.3130     6.6770     7.8250 
   75.2500  -999.2500   -32.3820  -999.2500    72.5230    23.9440    15.6550     7.9700     9.6410 
   75.3750  -999.2500   -33.3490  -999.2500    73.5650    23.8440    13.7740     8.6720    10.4250 
   75.5000  -999.2500   -34.2700  -999.2500    76.4750    23.7840    10.4860     8.5620     9.8680 
   75.6250  -999.2500   -35.0290  -999.2500    75.6410    23.7460     8.3570     7.9490     8.7040 
   75.7500  -999.2500   -35.6270  -999.2500    73.5850    23.7190     7.7520     7.3790     7.8150 
   75.8750  -999.2500   -36.0420  -999.2500    72.4780    23.7080     7.5930     7.0370     7.3860 
   76.0000  -999.2500   -36.2710  -999.2500    72.0890    23.6990     7.5450     6.9250     7.3400 
   76.1250  -999.2500   -36.3040  -999.2500    72.4780    23.6600     7.5750     6.9710     7.5250 
   76.2500  -999.2500   -36.2280  -999.2500    73.2120    23.5420     7.6580     7.0470     7.7400 
   76.3750  -999.2500   -36.0560  -999.2500    72.7300    23.3620     7.7260     7.0920     7.8970 
   76.5000  -999.2500   -35.8130  -999.2500    69.9620    23.2280     7.7630     7.0850     7.9720 
   76.6250  -999.2500   -35.5550  -999.2500    68.2090    23.1000     7.6870     7.0270     7.9640 
   76.7500  -999.2500   -35.3160  -999.2500    70.0320    22.9220     7.5610     6.9500     7.9200 
   76.8750  -999.2500   -35.1040  -999.2500    73.6490    22.7900     7.4860     6.8810     7.8790 
   77.0000  -999.2500   -34.8800  -999.2500    76.7240    22.7440     7.5150     6.8390     7.8740 
   77.1250  -999.2500   -34.8800  -999.2500    75.8520    22.7440     7.5610     6.8380     7.9280 
   77.2500  -999.2500   -34.8890  -999.2500    72.7840    22.7440     7.4700     6.8730     8.0280 
   77.3750  -999.2500   -34.9580  -999.2500    70.0620    22.7520     7.4780     6.9360     8.1570 
   77.5000  -999.2500   -35.1360  -999.2500    69.1150    22.7740     7.7030     7.0090     8.2900 
   77.6250  -999.2500   -35.4390  -999.2500    71.5130    22.8350     7.9540     7.0680     8.3920 
   77.7500  -999.2500   -35.8040  -999.2500    72.7300    22.9200     8.0940     7.1020     8.4530 
   77.8750  -999.2500   -36.1680  -999.2500    70.0770    23.0930     8.1410     7.1060     8.4740 
   78.0000  -999.2500   -36.5150  -999.2500    66.5570    23.4210     8.1420     7.0880     8.4640 
   78.1250  -999.2500   -36.7890  -999.2500    68.0160    23.8110     8.0850     7.0570     8.4380 
   78.2500  -999.2500   -36.9750  -999.2500    71.3390    24.0400     8.0810     7.0230     8.4040 
   78.3750  -999.2500   -37.0610  -999.2500    72.5990    24.1140     8.1520     6.9830     8.3570 
   78.5000  -999.2500   -37.0390  -999.2500    71.6950    24.1090     8.1910     6.9340     8.2900 
   78.6250  -999.2500   -36.9340  -999.2500    72.6600    24.0460     8.1050     6.8760     8.2110 
   78.7500  -999.2500   -36.7490  -999.2500    76.7950    23.9820     8.0010     6.8160     8.1420 
   78.8750  -999.2500   -36.5010  -999.2500    81.3530    24.0020     7.9330     6.7530     8.0840 
   79.0000  -999.2500   -36.2280  -999.2500    83.9020    24.0740     7.8690     6.6770     8.0210 
   79.1250  -999.2500   -35.9580  -999.2500    83.9810    24.0920     7.7530     6.5760     7.9220 
   79.2500  -999.2500   -35.6820  -999.2500    83.8040    24.0770     7.5740     6.4600     7.7950 
   79.3750  -999.2500   -35.4520  -999.2500    83.7880    24.0890     7.3050     6.3520     7.6650 
   79.5000  -999.2500   -35.2820  -999.2500    83.1420    24.1470     7.0200     6.2830     7.5720 
   79.6250  -999.2500   -35.1620  -999.2500    83.2710    24.1840     6.8900     6.2840     7.5470 
   79.7500  -999.2500   -35.0900  -999.2500    80.8690    24.2010     7.0120     6.3450     7.5740 
   79.8750  -999.2500   -35.0550  -999.2500    74.8100    24.2010     7.2510     6.4480     7.6260 
