~V
VERS. 2.00: Ver 2.00
~W
STRT.M 60.0000:
STOP.M 277.0000:
STEP.M 0.1250:
NULL. -999.2500:
UWI. DF3048:
~C
DEPT.M :
SP.MV :
GR.API :
RML.OHMM :
RI. :
RXO.OHMM :
CALI.CM :
DEN.GM/CC :
~A
# ...
  251.2500   -11.6730    63.0610     9.0540     8.9550     9.9210    22.6890     2.3960 
  251.3750   -11.5230    64.2000     8.5740     8.6450     9.7000    22.3450     2.3800 
  251.5000   -11.3100    65.5720     8.3580     8.3550     9.4640    22.2770     2.3660 
  251.6250   -11.0560    66.8880     8.2490     8.1130     9.3450    22.4280     2.3580 
  251.7500   -10.7510    65.2380     8.1730     7.9190     9.1800    22.6160     2.3560 
  251.8750   -10.4420    61.3190     8.1240     7.7700     9.0250    22.6480     2.3570 
  252.0000   -10.1680    59.0870     8.0950     7.6570     8.9830    22.6750     2.3570 
  252.1250    -9.9330    59.3270     8.0870     7.5710     8.8660    22.8040     2.3560 
  252.2500    -9.7230    60.2910     8.1010     7.5040     8.4150    23.0360     2.3530 
  252.3750    -9.5440    61.1080     8.1470     7.4610     7.6160    23.4040     2.3490 
  252.5000    -9.4300    63.1520     8.2330     7.4550     6.8900    23.8430     2.3470 
  252.6250    -9.3050    65.5930     8.3550     7.5030     6.6550    24.4230     2.3470 
  252.7500    -9.2280    65.5870     8.4850     7.5900     6.6370    24.4090     2.3490 
  252.8750    -9.1890    62.8300     8.5950     7.6950     6.8530    24.4850     2.3550 
  253.0000    -9.1370    59.6690     8.6670     7.7830     7.1590    24.5660     2.3610 
  253.1250    -9.0730    58.2320     8.6900     7.8090     7.1960    24.6080     2.3620 
  253.2500    -9.0180    57.4550     8.6840     7.7670     6.9250    24.6120     2.3560 
  253.3750    -8.9630    57.1720     8.6620     7.6630     6.5700    24.6160     2.3440 
  253.5000    -8.9050    58.1160     8.6350     7.5240     6.3300    24.6250     2.3300 
  253.6250    -8.8760    60.1370     8.6170     7.3880     6.2240    24.6500     2.3230 
  253.7500    -8.8500    61.4520     8.6230     7.2930     6.2080    24.6830     2.3250 
  253.8750    -8.8150    61.1660     8.6660     7.2560     6.2590    24.6990     2.3370 
  254.0000    -8.8320    60.3570     8.7410     7.2820     6.3590    24.7030     2.3560 
  254.1250    -8.8930    59.3220     8.8250     7.3630     6.4460    24.6910     2.3740 
  254.2500    -8.9870    58.4380     8.8910     7.4650     6.5870    24.6590     2.3880 
  254.3750    -9.1050    59.3720     8.9370     7.5690     6.8070    24.6230     2.3930 
  254.5000    -9.2100    61.9470     8.9850     7.6670     6.9510    24.5930     2.3920 
  254.6250    -9.3510    60.6990     9.0840     7.7670     7.0760    24.5810     2.3870 
  254.7500    -9.4820    55.7440     9.2520     7.8840     7.6340    24.5790     2.3810 
  254.8750    -9.6540    54.1570     9.4740     8.0300     8.7450    24.5740     2.3770 
  255.0000    -9.7900    59.3130     9.7110     8.2020    10.1490    24.5550     2.3780 
  255.1250    -9.9040    65.4220     9.9050     8.3740    10.8000    24.5460     2.3810 
  255.2500    -9.9580    66.3230    10.0320     8.5140    10.9000    24.5480     2.3870 
  255.3750    -9.9790    62.1870    10.0850     8.6000    10.8200    24.5580     2.3910 
  255.5000    -9.9790    59.1480    10.0780     8.6220    11.4100    24.5820     2.3910 
  255.6250    -9.9180    62.2440    10.0250     8.5750    11.5890    24.5890     2.3880 
  255.7500    -9.8390    67.1530     9.9420     8.4730    11.2770    24.6230     2.3850 
  255.8750    -9.6770    68.6600     9.8330     8.3270    11.5220    24.6620     2.3820 
  256.0000    -9.5340    66.6250     9.7130     8.1550    11.7120    24.6730     2.3790 
  256.1250    -9.3770    63.4780     9.6240     7.9970    10.9960    24.6470     2.3730 
  256.2500    -9.2590    60.3970     9.6030     7.8970     9.5850    24.6410     2.3640 
  256.3750    -9.1640    58.3290     9.6660     7.8800     8.3080    24.6690     2.3560 
  256.5000    -9.0760    59.1890     9.8050     7.9510     7.8150    24.7030     2.3530 
  256.6250    -9.0150    61.3540     9.9730     8.0920     7.9110    24.7230     2.3590 
  256.7500    -8.9970    61.7240    10.1040     8.2430     8.3360    24.7290     2.3700 
  256.8750    -9.0150    60.4620    10.1770     8.3720     8.8390    24.7160     2.3830 
  257.0000    -9.0390    60.6160    10.2380     8.4930     9.3470    24.6990     2.3920 
  257.1250    -9.0770    63.8130    10.4680     8.7220    10.0450    24.6480     2.3980 
  257.2500    -9.1250    65.7370    11.0560     9.2070    11.2850    24.5900     2.4060 
  257.3750    -9.1770    63.6270    12.1370    10.0740    12.8640    24.5530     2.4200 
  257.5000    -9.2710    60.4580    13.6860    11.3380    15.2360    24.5710     2.4400 
  257.6250    -9.3460    60.1970    15.4090    12.8160    18.1860    24.5830     2.4580 
  257.7500    -9.4360    61.6960    16.7360    14.0580    21.9240    24.4890     2.4690 
  257.8750    -9.5210    61.9930    17.1980    14.6610    24.7240    24.2740     2.4630 
  258.0000    -9.5580    62.2530    16.6110    14.4060    24.8610    24.1580     2.4450 
  258.1250    -9.5670    63.9130    15.1960    13.3540    19.4510    24.1960     2.4200 
  258.2500    -9.5700    65.9750    13.7370    12.0990    13.9650    24.2270     2.3950 
  258.3750    -9.5600    65.9030    12.6770    11.0360    11.4120    24.2350     2.3730 
  258.5000    -9.4850    63.4310    12.1480    10.3580    11.3920    24.2350     2.3560 
  258.6250    -9.4130    60.7760    12.0850    10.1160    12.7790    24.2350     2.3450 
  258.7500    -9.2990    59.6120    12.2030    10.1170    14.2870    24.2350     2.3390 
  258.8750    -9.1800    61.2690    12.3400    10.2230    15.6630    24.2350     2.3400 
  259.0000    -9.1370    64.3880    12.4040    10.3270    16.9840    24.2350     2.3450 
  259.1250    -9.1290    65.1290    12.3700    10.3640    18.1350    24.2350     2.3550 
  259.2500    -9.1340    63.3570    12.2930    10.3460    18.2710    24.2360     2.3680 
  259.3750    -9.1480    62.9460    12.2100    10.2980    17.8170    24.2420     2.3800 
  259.5000    -9.2100    64.8010    12.1350    10.2360    17.1340    24.2580     2.3850 
  259.6250    -9.2970    66.7930    12.0570    10.1630    15.7940    24.2640     2.3770 
  259.7500    -9.4090    68.2890    11.9490    10.0690    14.7720    24.2520     2.3570 
  259.8750    -9.5340    69.1040    11.7960     9.9460    13.8290    24.2480     2.3350 
  260.0000    -9.6130    68.5240    11.6030     9.7960    13.0410    24.2730     2.3230 
  260.1250    -9.6370    67.5110    11.3970     9.6280    11.7160    23.9970     2.3250 
  260.2500    -9.5820    67.0130    11.2080     9.4610    10.9540    23.8830     2.3380 
  260.3750    -9.4770    66.0300    11.0470     9.3050    10.7120    23.9360     2.3520 
  260.5000    -9.3510    64.7540    10.9090     9.1620    10.3910    24.1460     2.3570 
  260.6250    -9.2060    64.3470    10.7740     9.0260     9.2620    24.3050     2.3520 
  260.7500    -9.0510    64.2460    10.6340     8.8970     8.6320    24.4090     2.3400 
  260.8750    -8.9110    64.2580    10.4990     8.7820     9.1400    24.4540     2.3260 
  261.0000    -8.7400    65.3260    10.3910     8.6950     9.9550    24.4650     2.3170 
  261.1250    -8.6290    68.2930    10.3320     8.6510     9.9650    24.4620     2.3180 
  261.2500    -8.5880    69.6890    10.3090     8.6430     8.9540    24.4620     2.3290 
  261.3750    -8.6110    67.9930    10.3030     8.6570     8.3550    24.4650     2.3490 
  261.5000    -8.6490    63.8220    10.3030     8.6790     8.0430    24.4680     2.3700 
  261.6250    -8.6850    61.3980    10.3120     8.7010     8.0470    24.4690     2.3860 
  261.7500    -8.7190    62.1780    10.3320     8.7180     8.1700    24.4730     2.3920 
  261.8750    -8.7390    63.8730    10.3540     8.7260     8.1310    24.4810     2.3860 
  262.0000    -8.8200    65.6780    10.3480     8.7150     8.3820    24.4970     2.3760 
  262.1250    -8.8910    66.7090    10.2600     8.6610     8.7140    24.4820     2.3670 
  262.2500    -8.9720    66.4220    10.0720     8.5520     8.9220    24.4740     2.3610 
  262.3750    -9.0390    64.5610     9.7990     8.3890     8.9240    24.4740     2.3580 
