~V
VERS. 2.00: Ver 2.00
~W
STRT.M 64.0000:
STOP.M 268.0000:
STEP.M 0.1250:
NULL. -999.2500:
UWI. DF3073:
~C
DEPT.M :
SP.MV :
GR.API :
CALI.CM :
RXO.OHMM :
RI. :
RML.OHMM :
DEN.GM/CC :
~A
   64.0000    -8.6560    64.9850    23.5360     4.9010     0.5550    -1.1890  -999.2500 
   64.1250    -9.8030    67.4280    23.4300     4.8000     0.4890    -1.5140  -999.2500 
   64.2500   -11.3220    68.1440    23.4320     4.6850     0.4840    -1.6340  -999.2500 
   64.3750   -13.2290    67.1960    23.4170     4.7030     0.5630    -1.5580  -999.2500 
   64.5000   -15.5610    69.0490    23.7950     5.3270     0.7580    -1.2650  -999.2500 
   64.6250   -18.1370    76.4910    23.7530     6.5410     1.1460    -0.6430  -999.2500 
   64.7500   -20.6060    81.6610    23.7930     7.5330     1.7640     0.3380  -999.2500 
   64.8750   -22.8050    79.8480    24.0360     7.9650     2.5940     1.5950  -999.2500 
   65.0000   -24.6500    73.9120    25.0130     8.0830     3.5360     2.8730  -999.2500 
   65.1250   -26.1110    70.9990    26.8510     8.1350     4.3990     3.9010  -999.2500 
   65.2500   -27.2490    71.6480    30.0770     8.3490     5.0420     4.6010  -999.2500 
   65.3750   -28.0750    72.4760    33.5430     8.3710     5.4280     5.0030  -999.2500 
   65.5000   -28.5850    73.6270    34.6890     7.8840     5.6400     5.2560  -999.2500 
   65.6250   -28.8350    76.6290    34.9400     7.1520     5.7450     5.4780  -999.2500 
   65.7500   -28.9600    82.0190    34.4780     6.8930     5.7910     5.6950  -999.2500 
   65.8750   -29.0210    87.8190    32.8750     6.8430     5.8060     5.9120  -999.2500 
   66.0000   -29.0670    92.3460    29.4670     6.8230     5.8200     6.1230  -999.2500 
   66.1250   -29.1050    95.8580    25.8250     6.8520     5.8790     6.3370  -999.2500 
   66.2500   -29.2010    96.6020    24.3140     6.7600     5.9860     6.5790  -999.2500 
   66.3750   -29.3560    92.4920    23.8320     6.6540     6.1330     6.8290  -999.2500 
   66.5000   -29.5300    85.2500    24.0570     6.6910     6.2970     7.0720  -999.2500 
   66.6250   -29.6930    78.9170    24.6690     7.0050     6.4290     7.2080  -999.2500 
   66.7500   -29.8350    75.0710    24.7600     7.1570     6.4850     7.2330  -999.2500 
   66.8750   -29.9630    74.4390    24.2110     7.1290     6.4380     7.1580  -999.2500 
   67.0000   -30.0550    79.4730    23.7480     7.0840     6.2990     6.9990  -999.2500 
   67.1250   -30.1450    93.5650    23.6960     7.0330     6.1030     6.8210  -999.2500 
   67.2500   -30.2650   106.3880    23.8720     6.7200     5.9120     6.6860  -999.2500 
   67.3750   -30.3990   109.4140    24.1500     6.4150     5.7670     6.6410  -999.2500 
   67.5000   -30.5790   104.1530    24.2320     6.2290     5.6970     6.6860  -999.2500 
   67.6250   -30.8540    97.1780    24.1700     6.2330     5.7070     6.7950  -999.2500 
   67.7500   -31.1980    89.8900    24.0520     6.7920     5.7450     6.8660  -999.2500 
   67.8750   -31.5710    82.1200    23.9820     7.4500     5.7810     6.8430  -999.2500 
   68.0000   -31.9950    77.4320    24.0150     7.6450     5.8270     6.7720  -999.2500 
   68.1250   -32.4310    76.8900    24.3110     7.4780     5.9900     6.8850  -999.2500 
   68.2500   -32.8210    74.4520    24.3540     7.3550     6.3940     7.3970  -999.2500 
   68.3750   -33.1570    69.5030    24.2650     7.4580     7.1250     8.3870  -999.2500 
   68.5000   -33.4340    65.2380    24.0780     7.9180     8.2050     9.8310  -999.2500 
   68.6250   -33.6580    62.8390    24.4330     9.9500     9.6160    11.5980  -999.2500 
   68.7500   -33.8610    61.7730    24.4940    14.2270    11.0660    13.2750  -999.2500 
   68.8750   -34.0730    62.7170    24.3790    19.3090    12.1140    14.4270  -999.2500 
   69.0000   -34.2700    66.6010    24.6080    20.8950    12.3670    14.6820  -999.2500 
   69.1250   -34.4410    70.7730    24.7970    17.4610    11.6560    13.8460  -999.2500 
   69.2500   -34.6300    71.6740    24.7920    12.1210    10.4840    12.4490  -999.2500 
   69.3750   -34.8330    70.7380    24.8770     9.0300     9.2780    11.0210  -999.2500 
   69.5000   -35.0380    70.8300    24.8990     8.2900     8.3080     9.9500  -999.2500 
   69.6250   -35.2090    73.1040    24.6550     8.2000     7.7090     9.4130  -999.2500 
   69.7500   -35.3130    73.9480    24.1520     8.0890     7.4070     9.2760  -999.2500 
   69.8750   -35.3620    72.7480    23.7440     7.9200     7.3400     9.3900  -999.2500 
   70.0000   -35.3980    72.3080    23.4160     7.7390     7.4150     9.5750  -999.2500 
   70.1250   -35.4410    73.6150    23.2510     7.5720     7.5160     9.6970  -999.2500 
   70.2500   -35.4380    74.0230    23.1040     7.4260     7.5920     9.7380  -999.2500 
   70.3750   -35.4440    72.3570    23.1620     7.3830     7.6400     9.7170  -999.2500 
   70.5000   -35.4470    69.3810    23.5280     7.4710     7.6630     9.6670  -999.2500 
   70.6250   -35.3920    67.6820    24.4460     7.5740     7.6670     9.6060  -999.2500 
   70.7500   -35.3430    68.5710    24.8140     7.6670     7.6560     9.5610  -999.2500 
   70.8750   -35.3040    71.6390    24.9240     7.7690     7.6420     9.5320  -999.2500 
   71.0000   -35.2340    73.9580    24.8740     7.8580     7.6200     9.5230  -999.2500 
   71.1250   -35.1160    73.2050    24.7950     7.8650     7.5980     9.5330  -999.2500 
   71.2500   -35.0260    71.6170    24.7180     7.8810     7.5830     9.5500  -999.2500 
   71.3750   -34.9270    69.8050    24.6730     7.9040     7.5650     9.5770  -999.2500 
   71.5000   -34.7820    67.8580    24.6970     7.9950     7.5330     9.6070  -999.2500 
   71.6250   -34.6160    67.8810    24.7070     8.1330     7.4570     9.5810  -999.2500 
   71.7500   -34.4440    70.0600    24.6740     8.2030     7.3290     9.4830  -999.2500 
   71.8750   -34.2300    73.5480    24.6170     8.1610     7.1460     9.3100  -999.2500 
   72.0000   -33.9770    78.2220    24.4060     8.1300     6.9210     9.0910  -999.2500 
   72.1250   -33.7480    82.5690    24.3900     8.1870     6.6980     8.8710  -999.2500 
   72.2500   -33.5160    83.3770    24.3650     8.0220     6.5110     8.7080  -999.2500 
   72.3750   -33.3080    82.1690    24.3620     7.5120     6.3990     8.6450  -999.2500 
   72.5000   -33.1600    82.3820    24.4000     6.9680     6.3850     8.7000  -999.2500 
   72.6250   -33.1210    85.1350    24.4810     6.9640     6.4920     8.8850  -999.2500 
   72.7500   -33.1260    86.7240    24.6040     7.3440     6.6880     9.1570  -999.2500 
   72.8750   -33.1720    84.2040    24.6220     7.7680     6.9490     9.4690  -999.2500 
   73.0000   -33.2450    77.5430    24.5900     8.1480     7.2400     9.7780  -999.2500 
   73.1250   -33.3240    71.7160    24.3110     8.2970     7.4910     9.9890  -999.2500 
   73.2500   -33.3670    69.9270    23.9750     8.4020     7.6300    10.0640  -999.2500 
   73.3750   -33.3550    70.4420    23.7950     8.5210     7.6150     9.9890  -999.2500 
   73.5000   -33.3000    70.1260    23.9050     8.6520     7.4510     9.7880  -999.2500 
   73.6250   -33.1870    69.9780    24.1160     8.6680     7.1680     9.5210  -999.2500 
   73.7500   -33.0470    73.1080    24.6810     8.6190     6.8490     9.2290  -999.2500 
   73.8750   -32.9250    78.8090    25.6020     8.5800     6.5660     8.9930  -999.2500 
   74.0000   -32.8480    82.9480    26.3100     8.4670     6.3850     8.8790  -999.2500 
   74.1250   -32.7780    81.7810    26.1840     8.1610     6.3700     8.9630  -999.2500 
   74.2500   -32.7540    78.6300    25.9520     8.0010     6.4940     9.1990  -999.2500 
   74.3750   -32.7750    75.4050    25.4170     8.1450     6.7260     9.5210  -999.2500 
   74.5000   -32.8180    72.5230    24.7560     8.4070     7.0050     9.8440  -999.2500 
   74.6250   -32.8810    70.1700    24.6170     8.4950     7.2630    10.0970  -999.2500 
   74.7500   -32.9520    69.1680    24.5210     8.4990     7.4620    10.2520  -999.2500 
   74.8750   -33.0150    71.0380    24.6360     8.4470     7.5730    10.2990  -999.2500 
   75.0000   -33.0440    74.4340    25.0000     8.3950     7.5940    10.2710  -999.2500 
   75.1250   -33.0470    74.9030    25.3440     8.4130     7.5640    10.2170  -999.2500 
