~V
VERS. 2.00: Ver 2.00
~W
STRT.M 110.0000:
STOP.M 242.0000:
STEP.M 0.1250:
NULL. -999.2500:
UWI. DF306:
~C
DEPT.M :
DEN.GM/CC :
AC.US/MT :
GR.API :
CALI.CM :
RXO.OHMM :
RI. :
RML.OHMM :
SP.MV :
~A
# ...
  140.0000     2.2140   392.7580    61.3720    25.2360   106.1030    64.6710    80.5030   -20.6860 
  140.1250     2.2080   399.8630    63.8040    25.2520    99.0180    69.5260    84.2940   -21.1570 
  140.2500     2.2060   403.7620    67.7780    25.2520    94.3340    70.2520    83.2790   -21.5500 
  140.3750     2.2120   404.4490    69.6570    25.2400    89.8610    68.8790    80.6220   -21.8800 
  140.5000     2.2270   402.1150    70.7140    25.2320    84.0040    66.9000    78.0480   -22.1540 
  140.6250     2.2410   397.4950    72.9890    25.2360    76.1750    65.2800    76.4210   -22.3840 
  140.7500     2.2430   392.2640    75.1570    25.2340    69.2220    64.5380    76.0220   -22.6020 
  140.8750     2.2360   387.0400    75.0140    25.2220    67.4340    65.0390    77.1480   -22.8180 
  141.0000     2.2310   381.9440    73.3760    25.1980    73.9500    67.0200    79.9970   -23.0290 
  141.1250     2.2350   377.4600    73.1770    25.1420    86.2690    70.7500    84.7910   -23.2570 
  141.2500     2.2400   374.5020    75.5120    25.0490    95.3980    75.6570    90.7890   -23.5010 
  141.3750     2.2420   373.8910    78.4820    24.9040    98.6780    81.1570    97.2380   -23.7450 
  141.5000     2.2470   375.6360    77.8980    24.7180   101.0800    86.5370   103.2590   -23.9880 
  141.6250     2.2530   378.8390    76.1000    24.5340   107.6840    90.9420   107.8250   -24.2290 
  141.7500     2.2500   381.8820    75.7580    24.3500   113.8960    94.0770   110.7510   -24.4580 
  141.8750     2.2370   383.9950    75.9290    24.1740   115.4160    95.8400   112.0650   -24.6650 
  142.0000     2.2250   384.8910    74.9440    24.1010   113.3510    96.3220   111.9980   -24.8480 
  142.1250     2.2240   384.3660    73.0520    24.2030   112.0390    95.6690   110.8670   -25.0090 
  142.2500     2.2270   383.0000    70.5230    24.3460   111.6150    94.5820   109.4810   -25.1420 
  142.3750     2.2300   381.5450    67.7080    24.4420   110.0630    93.5640   108.3350   -25.2620 
  142.5000     2.2340   380.7340    66.5010    24.5180   107.8470    92.8730   107.5760   -25.3820 
  142.6250     2.2410   380.8390    66.8580    24.5940   109.0730    92.4830   107.0650   -25.4850 
  142.7500     2.2440   381.1880    68.4850    24.6300   111.8340    92.1580   106.5560   -25.5850 
  142.8750     2.2420   381.2810    70.8730    24.6290   109.7310    91.8030   105.9730   -25.6960 
  143.0000     2.2390   381.0440    72.4420    24.6240   101.0150    91.4220   105.3480   -25.8180 
  143.1250     2.2400   380.9210    71.9000    24.6280    93.4100    91.0980   104.7980   -25.9520 
  143.2500     2.2450   381.4110    71.4200    24.6400    93.6070    90.8840   104.4000   -26.1010 
  143.3750     2.2480   382.7040    72.1350    24.6500    99.7810    90.7690   104.1680   -26.2640 
  143.5000     2.2470   384.6860    72.1620    24.6480   106.3250    90.7020   104.0690   -26.4400 
  143.6250     2.2490   386.9380    70.5150    24.6400   108.2290    90.6620   104.1100   -26.6440 
  143.7500     2.2610   388.6290    70.7670    24.6350   106.2150    90.7590   104.4160   -26.8570 
  143.8750     2.2790   388.9470    73.7600    24.6360   102.5400    91.2950   105.3550   -27.0760 
  144.0000     2.2970   387.4530    76.6860    24.6360    99.9410    92.7130   107.4470   -27.2930 
  144.1250     2.3000   384.2890    74.0250    24.6360   101.6240    95.6900   111.4780   -27.4790 
  144.2500     2.2900   380.6690    69.3760    24.6390   107.9820   100.1340   117.2890   -27.6370 
  144.3750     2.2740   377.3630    68.6180    24.6270   117.8630   105.7710   124.5230   -27.7670 
  144.5000     2.2630   374.7150    70.6400    24.6010   124.2230   109.4800   129.2250   -27.8530 
  144.6250     2.2610   372.9150    73.2440    24.5660   130.1110   113.1800   133.8800   -27.8720 
  144.7500     2.2620   372.0690    75.9200    24.5130   137.5420   118.6730   140.7000   -27.8560 
  144.8750     2.2630   372.6230    73.8470    24.5150   142.7100   122.5490   145.4780   -27.8190 
  145.0000     2.2600   374.7420    69.0000    24.5710   145.4730   124.4480   147.9460   -27.7610 
  145.1250     2.2560   377.6110    67.2550    24.6230   140.9550   124.7060   148.7760   -27.6960 
  145.2500     2.2520   379.2950    69.4610    24.6290   131.1350   124.7660   149.7280   -27.6220 
  145.3750     2.2510   378.4780    72.0180    24.6000   125.4850   125.6270   151.9110   -27.5230 
  145.5000     2.2550   375.1320    71.5430    24.5810   133.0100   127.7380   155.6840   -27.4060 
  145.6250     2.2630   370.8390    70.4550    24.5930   151.6990   130.7020   160.3010   -27.3000 
  145.7500     2.2710   367.8710    71.1610    24.5980   164.2190   133.0970   163.8110   -27.1760 
  145.8750     2.2740   366.8850    72.6500    24.5790   162.1640   133.8060   164.7040   -27.0240 
  146.0000     2.2690   366.8960    74.4660    24.5760   149.9110   132.4360   162.5870   -26.9230 
  146.1250     2.2600   365.8160    74.1040    24.5860   139.3770   129.5720   158.5290   -26.8120 
  146.2500     2.2530   363.0300    71.0290    24.5750   136.0820   127.0060   154.9800   -26.5990 
  146.3750     2.2510   359.5310    69.0590    24.5980   137.9720   125.8980   153.2560   -26.3750 
  146.5000     2.2520   356.9230    71.4140    24.7080   140.9140   126.5570   153.4840   -26.1430 
  146.6250     2.2510   356.4400    74.3850    24.8390   145.5900   128.3480   154.6170   -25.9140 
  146.7500     2.2490   357.1560    74.0580    24.8910   153.3270   129.7460   154.8120   -25.6820 
  146.8750     2.2460   357.7420    72.4420    24.8900   160.2580   129.5730   152.6930   -25.4530 
  147.0000     2.2480   357.2520    70.8560    24.8850   160.7980   126.7710   147.1030   -25.2100 
  147.1250     2.2560   356.0440    67.6460    24.8560   153.5040   119.8220   136.4780   -24.9670 
  147.2500     2.2710   356.0400    65.1090    24.7950   142.7070   108.9050   121.4960   -24.7450 
  147.3750     2.2900   358.8750    65.9410    24.7360   123.0440    94.7680   103.6220   -24.5270 
  147.5000     2.3100   365.1500    68.6140    24.7210    94.3780    79.5180    85.6800   -24.3210 
  147.6250     2.3210   374.1410    71.7660    24.7390    70.9000    66.3350    71.2360   -24.1410 
  147.7500     2.3200   383.0690    75.3160    24.7200    60.5200    56.7030    61.2250   -23.9860 
  147.8750     2.3090   389.7580    76.9180    24.6440    58.0480    50.8810    55.5900   -23.8550 
  148.0000     2.2930   392.8820    76.8850    24.5710    58.8910    48.4460    53.7040   -23.7640 
  148.1250     2.2840   391.9050    76.8020    24.5790    61.7530    48.9050    54.8810   -23.7090 
  148.2500     2.2820   388.8430    75.2780    24.6290    64.1360    50.7020    57.3010   -23.6710 
  148.3750     2.2870   385.6020    71.1790    24.6340    62.7700    52.8490    59.8040   -23.6500 
  148.5000     2.2940   383.8350    67.4040    24.5840    58.3670    54.5850    61.5770   -23.6470 
  148.6250     2.2930   384.3390    67.3400    24.5910    56.0050    55.4510    62.2870   -23.6340 
  148.7500     2.2820   385.7580    67.7000    24.7300    56.9230    55.7720    62.5130   -23.5980 
  148.8750     2.2700   386.8450    67.5860    24.9490    59.6610    55.8820    62.6910   -23.5620 
  149.0000     2.2680   387.0880    68.7430    25.1350    62.3490    55.9200    62.9210   -23.5160 
  149.1250     2.2730   387.0630    70.8870    25.2110    63.4450    55.6990    62.9270   -23.4730 
  149.2500     2.2740   387.8690    71.7750    25.2260    63.7370    55.1480    62.6200   -23.4510 
  149.3750     2.2690   390.0760    72.6640    25.2220    64.0870    54.3780    62.1570   -23.4460 
  149.5000     2.2630   393.6500    74.6660    25.2220    63.4510    53.6140    61.8170   -23.4640 
  149.6250     2.2600   397.8930    76.9040    25.2220    60.2080    53.1970    61.9890   -23.5220 
  149.7500     2.2630   401.2320    77.2420    25.2210    57.3250    53.3400    62.8580   -23.6160 
  149.8750     2.2680   402.3000    76.1560    25.2270    58.3300    54.2070    64.5680   -23.7270 
