~V
VERS. 2.00: Ver 2.00
~W
STRT.M 60.0000:
STOP.M 258.0000:
STEP.M 0.1250:
NULL. -999.2500:
UWI. DF3032:
~C
DEPT.M :
GR.API :
RML.OHMM :
RI. :
RXO.OHMM :
CALI.CM :
DEN.GM/CC :
SP.MV :
~A
# ...
  161.2500    56.6460    19.2480    16.7960    17.5080    24.9070     2.5040    -9.9270 
  161.3750    58.4040    19.3410    16.8330    17.5610    24.9140     2.5010    -9.9110 
  161.5000    63.7220    19.3930    16.8110    17.7000    24.9320     2.5120    -9.8330 
  161.6250    68.3800    19.3080    16.6730    18.1280    24.9750     2.5310    -9.9120 
  161.7500    68.0540    19.0280    16.3880    18.5880    25.0140     2.5480    -9.8850 
  161.8750    62.9330    18.5410    15.9480    18.2800    25.0480     2.5580    -9.8300 
  162.0000    57.4000    17.9200    15.4020    17.4260    25.0690     2.5580    -9.8940 
  162.1250    57.4710    17.3400    14.8740    15.6300    25.0740     2.5490    -9.8850 
  162.2500    59.4740    16.9720    14.5000    14.7080    25.0750     2.5360    -9.8660 
  162.3750    59.2020    16.9010    14.3610    14.8290    25.0650     2.5250    -9.9080 
  162.5000    57.1670    17.1150    14.4700    15.2780    25.0400     2.5210    -9.9730 
  162.6250    57.3610    17.5310    14.7900    15.9880    24.9940     2.5280   -10.0360 
  162.7500    59.9520    17.9540    15.1670    17.1870    24.9770     2.5410   -10.0860 
  162.8750    62.7810    18.2650    15.4920    17.9990    24.9650     2.5520   -10.1550 
  163.0000    64.7490    18.4190    15.7030    17.8230    24.9590     2.5570   -10.1990 
  163.1250    64.6850    18.4350    15.7820    17.4020    24.9520     2.5550   -10.2450 
  163.2500    62.9620    18.4060    15.7950    17.5130    24.9120     2.5490   -10.2690 
  163.3750    61.9280    18.3850    15.7830    17.6020    24.8530     2.5420   -10.2480 
  163.5000    62.0000    18.3830    15.7680    17.6240    24.8080     2.5340   -10.2600 
  163.6250    61.2930    18.3590    15.7340    17.0850    24.7860     2.5250   -10.2720 
  163.7500    60.1390    18.2710    15.6630    16.1270    24.7230     2.5170   -10.2690 
  163.8750    59.7290    18.1090    15.5510    15.0850    24.5630     2.5130   -10.2620 
  164.0000    59.9140    17.8910    15.4140    14.4020    24.3320     2.5150   -10.3090 
  164.1250    57.9740    17.6500    15.2750    14.1110    24.2850     2.5200   -10.3320 
  164.2500    54.7220    17.4180    15.1500    13.8510    24.2960     2.5270   -10.2780 
  164.3750    52.4910    17.2010    15.0350    13.6210    24.3740     2.5340   -10.3350 
  164.5000    52.5410    16.9850    14.9160    13.5010    24.5610     2.5410   -10.3760 
  164.6250    55.0680    16.7610    14.7860    13.6170    24.7850     2.5480   -10.3260 
  164.7500    58.2810    16.5420    14.6610    13.7510    24.9020     2.5540   -10.4310 
  164.8750    59.1680    16.3450    14.5630    13.7610    24.9110     2.5590   -10.4720 
  165.0000    57.1540    16.1780    14.5060    13.6610    24.9090     2.5650   -10.4490 
  165.1250    57.8930    16.0430    14.4980    13.5240    24.8560     2.5710   -10.5450 
  165.2500    61.6680    15.9320    14.5260    13.6810    24.7890     2.5770   -10.6140 
  165.3750    65.3260    15.8540    14.5900    13.7300    24.7170     2.5810   -10.6730 
  165.5000    68.1020    15.8260    14.7000    13.3120    24.6690     2.5800   -10.7480 
  165.6250    70.7590    15.8720    14.8650    12.6490    24.6950     2.5750   -10.8220 
  165.7500    69.8860    15.9560    15.0510    12.8040    24.7450     2.5640   -10.8670 
  165.8750    63.5370    16.0210    15.2010    13.3200    24.7750     2.5470   -10.9080 
  166.0000    58.2770    16.0100    15.2540    13.9150    24.7710     2.5240   -10.9990 
  166.1250    62.1770    15.8880    15.1500    13.8200    24.6990     2.4970   -11.1110 
  166.2500    69.6280    15.6980    14.9210    13.6030    24.5940     2.4720   -11.2670 
  166.3750    73.2820    15.4900    14.6130    12.8520    24.5300     2.4550   -11.4820 
  166.5000    71.2490    15.2880    14.2810    12.2230    24.5810     2.4460   -11.7430 
  166.6250    68.6300    15.0180    13.9870    12.2380    24.7090     2.4440   -12.0930 
  166.7500    67.9480    14.8530    13.8190    12.4870    24.7500     2.4460   -12.5210 
  166.8750    68.4550    15.0570    13.9590    12.9210    24.7710     2.4480   -13.0370 
  167.0000    69.0880    16.4540    14.7630    14.1480    24.8330     2.4490   -13.6410 
  167.1250    70.4870    20.0670    17.1260    16.8460    24.9870     2.4450   -14.4290 
  167.2500    72.1120    26.7870    21.6310    22.7720    25.0760     2.4330   -15.2920 
  167.3750    72.4160    36.6820    28.7440    34.4220    25.1310     2.4070   -16.1190 
  167.5000    71.8090    48.0880    38.2630    55.1550    25.1650     2.3670   -17.1020 
  167.6250    71.0190    59.7300    48.9350    79.2240    25.1500     2.3180   -18.0940 
  167.7500    71.1210    69.3650    58.3680    99.0240    25.0820     2.2730   -18.9510 
  167.8750    70.8310    75.5880    64.9570   108.0350    24.8500     2.2410   -19.8960 
  168.0000    70.2470    78.6760    68.5060    98.1140    24.7370     2.2310   -20.7340 
  168.1250    71.5250    80.9230    70.6260    83.0020    24.8800     2.2450   -21.3040 
  168.2500    71.9830    85.3370    74.1120    74.4300    25.0880     2.2690   -21.9050 
  168.3750    69.9280    93.4570    80.6200    77.1580    25.0810     2.2860   -22.3970 
  168.5000    67.3690   105.5350    90.7050    89.9500    24.9560     2.2850   -22.7170 
  168.6250    69.2630   120.6940   103.9160   107.5450    24.7680     2.2590   -23.0300 
  168.7500    72.6810   135.6750   117.4730   117.4220    24.7100     2.2270   -23.2790 
  168.8750    71.9980   147.1100   128.4740   119.6000    24.6620     2.2060   -23.4450 
  169.0000    69.4960   151.7310   134.0340   120.5570    24.6720     2.2020   -23.5720 
  169.1250    70.6600   146.1910   131.0660   129.1060    24.7310     2.2140   -23.7040 
  169.2500    73.5550   133.3500   121.5110   133.3240    24.7730     2.2280   -23.7940 
  169.3750    73.1290   117.1780   108.2830   125.0780    24.7780     2.2360   -23.8430 
  169.5000    70.4760   102.3080    95.2100   102.2260    24.7550     2.2380   -23.8950 
  169.6250    71.6500    93.3000    86.5440    78.5890    24.7580     2.2380   -23.9440 
  169.7500    75.1430    90.7460    83.4920    65.9550    24.8510     2.2410   -24.0200 
  169.8750    76.6190    94.3010    86.0850    67.5340    25.0620     2.2430   -24.1240 
  170.0000    74.8650   102.6300    93.2710    79.8510    25.3150     2.2420   -24.2190 
  170.1250    70.8220   113.6170   103.2300    94.5190    25.4560     2.2380   -24.3240 
  170.2500    68.1070   123.8720   112.7980   110.9840    25.5010     2.2340   -24.4840 
  170.3750    66.6210   131.1550   119.8380   121.2640    25.5140     2.2320   -24.6810 
  170.5000    65.6460   134.5680   123.3590   121.3890    25.5320     2.2330   -24.7680 
  170.6250    62.8680   134.7450   123.6930   117.8000    25.5410     2.2360   -24.8890 
  170.7500    61.1920   134.3020   123.1950   114.0970    25.5490     2.2370   -25.0340 
  170.8750    61.8250   134.6830   123.3250   108.6750    25.5610     2.2350   -24.9950 
  171.0000    61.7870   136.4110   124.7800   104.2570    25.5700     2.2300   -25.0240 
  171.1250    61.0030   139.4210   127.7140   107.1530    25.5730     2.2230   -25.1420 
  171.2500    61.8880   142.9820   131.4380   117.8000    25.5730     2.2140   -25.1220 
  171.3750    64.9280   146.5990   135.4380   127.8950    25.5020     2.2050   -25.2210 
  171.5000    68.2960   149.6650   139.0870   129.7170    25.2900     2.2000   -25.3780 
  171.6250    70.4450   150.7460   141.0680   124.6780    24.8620     2.2000   -25.4410 
  171.7500    71.0820   148.5780   140.1890   122.5190    24.6660     2.2030   -25.5580 
  171.8750    69.6640   142.1160   135.3920   123.9980    24.6180     2.2070   -25.6800 
  172.0000    67.6870   131.4890   126.5510   124.3620    24.6530     2.2090   -25.7450 
  172.1250    66.5190   118.4910   114.8660   115.5150    24.7780     2.2100   -25.7350 
  172.2500    66.6480   106.7180   103.5840    98.4570    24.9580     2.2090   -25.6740 
  172.3750    68.5580    98.6210    95.1490    81.2960    25.0700     2.2100   -25.5720 
