~V
VERS. 2.00: Ver 2.00
~W
STRT.M 57.0000:
STOP.M 272.0000:
STEP.M 0.1250:
NULL. -999.2500:
UWI. DF3055:
~C
DEPT.M :
SP.MV :
GR.API :
RML.OHMM :
RI. :
RXO.OHMM :
CALI.CM :
DEN.GM/CC :
~A
# ...
   79.5000  -999.2500    76.4030     7.5320     6.3970     8.7690    25.0970  -999.2500 
   79.6250  -999.2500    84.2490     6.7230     5.9170     7.4460    24.9900  -999.2500 
   79.7500  -999.2500    93.5140     6.0100     5.4980     6.2890    24.8580  -999.2500 
   79.8750  -999.2500   104.3290     5.5630     5.2030     5.6030    24.7450  -999.2500 
   80.0000  -999.2500   114.1120     5.4680     5.0650     5.2620    24.6170  -999.2500 
   80.1250  -999.2500   117.7830     5.7210     5.0880     5.3340    24.4610  -999.2500 
   80.2500  -999.2500   113.0930     6.2550     5.2560     5.7470    24.2960  -999.2500 
   80.3750  -999.2500   105.9570     6.8320     5.4790     6.3040    24.1470  -999.2500 
   80.5000  -999.2500   101.8750     7.2430     5.6790     6.8890    24.1080  -999.2500 
   80.6250  -999.2500   103.1420     7.3230     5.7800     7.2460    24.2720  -999.2500 
   80.7500  -999.2500   105.4960     6.9940     5.7200     7.4050    24.4890  -999.2500 
   80.8750  -999.2500   106.1960     6.4790     5.5510     7.1090    24.6260  -999.2500 
   81.0000  -999.2500   108.1730     5.9910     5.3460     6.3560    24.6650  -999.2500 
   81.1250  -999.2500   112.2020     5.6990     5.1830     5.6430    24.6640  -999.2500 
   81.2500  -999.2500   115.5040     5.7300     5.1380     5.5770    24.6490  -999.2500 
   81.3750  -999.2500   114.4010     6.0040     5.2000     5.9290    24.6150  -999.2500 
   81.5000  -999.2500   109.4100     6.4170     5.3340     6.4330    24.5490  -999.2500 
   81.6250  -999.2500   102.5160     6.8370     5.4910     6.8870    24.4600  -999.2500 
   81.7500  -999.2500    94.5170     7.0870     5.6060     7.0640    24.4230  -999.2500 
   81.8750  -999.2500    87.8850     7.0900     5.6390     7.1870    24.4370  -999.2500 
   82.0000  -999.2500    84.7920     6.8440     5.5760     7.1000    24.5000  -999.2500 
   82.1250  -999.2500    85.0030     6.4250     5.4200     6.8390    24.6310  -999.2500 
   82.2500  -999.2500    88.0070     5.9670     5.1950     6.6380    24.8360  -999.2500 
   82.3750  -999.2500    93.7010     5.6190     4.9700     6.4730    24.9970  -999.2500 
   82.5000  -999.2500   101.8960     5.4770     4.8140     5.9430    25.0400  -999.2500 
   82.6250  -999.2500   109.0390     5.5810     4.8020     5.3920    25.0340  -999.2500 
   82.7500  -999.2500   109.5380     5.9500     5.0250     5.7090    25.0290  -999.2500 
   82.8750  -999.2500   104.1360     6.4770     5.4540     6.7190    25.0270  -999.2500 
   83.0000  -999.2500    95.0660     7.0900     6.0440     8.2030    25.0160  -999.2500 
   83.1250  -999.2500    85.7660     7.7280     6.7000     9.8600    24.9880  -999.2500 
   83.2500  -999.2500    77.3840     8.3270     7.2800    11.1390    24.9130  -999.2500 
   83.3750  -999.2500    69.9310     8.8310     7.6860    11.4540    24.7760  -999.2500 
   83.5000  -999.2500    67.3810     9.1850     7.8910    11.2740    24.5920  -999.2500 
   83.6250  -999.2500    70.3240     9.3490     7.9320    11.0310    24.3930  -999.2500 
   83.7500  -999.2500    74.0990     9.2940     7.8670    10.8140    24.3370  -999.2500 
   83.8750  -999.2500    75.4010     9.1170     7.7640    10.7360    24.3930  -999.2500 
   84.0000  -999.2500    74.0770     8.9020     7.6410    10.8090    24.5540  -999.2500 
   84.1250  -999.2500    71.5860     8.7160     7.5090    10.8700    24.7920  -999.2500 
   84.2500  -999.2500    68.5870     8.6030     7.3830    10.8920    25.0620  -999.2500 
   84.3750  -999.2500    65.9060     8.5550     7.2820    10.8920    25.2780  -999.2500 
   84.5000  -999.2500    63.4650     8.5670     7.2200    10.9690    25.3890  -999.2500 
   84.6250  -999.2500    62.6430     8.6250     7.2000    10.9600    25.4450  -999.2500 
   84.7500  -999.2500    66.0180     8.7080     7.2210    10.9780    25.4950  -999.2500 
   84.8750  -999.2500    68.9850     8.7910     7.2640    11.0450    25.5210  -999.2500 
   85.0000  -999.2500    68.1850     8.8670     7.3160    11.1480    25.5370  -999.2500 
   85.1250  -999.2500    65.4490     8.9400     7.3660    11.1720    25.5650  -999.2500 
   85.2500  -999.2500    64.7120     9.0060     7.3830    11.1180    25.6230  -999.2500 
   85.3750  -999.2500    65.0840     9.0320     7.3370    11.0320    25.6950  -999.2500 
   85.5000  -999.2500    65.0220     8.9510     7.1980    10.6720    25.7460  -999.2500 
   85.6250  -999.2500    63.7660     8.6890     6.9480     9.8450    25.7730  -999.2500 
   85.7500  -999.2500    64.7460     8.1850     6.5880     8.4640    25.7430  -999.2500 
   85.8750  -999.2500    70.1650     7.5650     6.1850     6.8450    25.5950  -999.2500 
   86.0000  -999.2500    79.9590     6.9890     5.8030     5.6280    25.3720  -999.2500 
   86.1250  -999.2500    90.8680     6.6220     5.5040     5.3280    25.1650  -999.2500 
   86.2500  -999.2500    94.7900     6.6120     5.3560     5.9560    24.9980  -999.2500 
   86.3750  -999.2500    90.4700     6.8780     5.3560     6.9580    24.9120  -999.2500 
   86.5000  -999.2500    83.5790     7.2980     5.4990     8.0490    24.9390  -999.2500 
   86.6250  -999.2500    79.9410     7.7260     5.7600     9.1050    25.0690  -999.2500 
   86.7500  -999.2500    80.2580     8.0380     6.1080     9.6150    25.3000  -999.2500 
   86.8750  -999.2500    78.6870     8.2350     6.4730    10.1080    25.5210  -999.2500 
   87.0000  -999.2500    73.3920     8.4010     6.8110    10.7610    25.7050  -999.2500 
   87.1250  -999.2500    66.4060     8.5530     7.0860    11.4700    25.7770  -999.2500 
   87.2500  -999.2500    60.5290     8.6500     7.2710    11.7710    25.7190  -999.2500 
   87.3750  -999.2500    58.1680     8.7360     7.3870    11.8110    25.6390  -999.2500 
   87.5000  -999.2500    57.8540     8.8210     7.4510    11.8200    25.5690  -999.2500 
   87.6250  -999.2500    58.1080     8.8990     7.4770    11.8570    25.4770  -999.2500 
   87.7500  -999.2500    57.3690     8.9600     7.4700    11.9540    25.3620  -999.2500 
   87.8750  -999.2500    54.1210     8.9300     7.4410    11.9130    25.2170  -999.2500 
   88.0000  -999.2500    50.9680     8.8960     7.3960    11.6750    25.0620  -999.2500 
   88.1250  -999.2500    53.0320     8.8640     7.3420    11.4160    24.8950  -999.2500 
   88.2500  -999.2500    59.8760     8.8190     7.2850    11.3100    24.7570  -999.2500 
   88.3750  -999.2500    62.5990     8.7340     7.2210    11.2570    24.6940  -999.2500 
   88.5000  -999.2500    58.7910     8.5850     7.1410    11.1870    24.7200  -999.2500 
   88.6250  -999.2500    54.0770     8.3710     7.0420    10.8760    24.7860  -999.2500 
   88.7500  -999.2500    56.8510     8.1350     6.9230    10.2940    24.7840  -999.2500 
   88.8750  -999.2500    65.1810     7.9350     6.7870     9.5970    24.6010  -999.2500 
   89.0000  -999.2500    72.4490     7.7730     6.6180     8.8460    24.2320  -999.2500 
   89.1250  -999.2500    74.6300     7.5900     6.3930     8.3160    23.8320  -999.2500 
   89.2500  -999.2500    74.5460     7.2690     6.0810     8.1280    23.5990  -999.2500 
   89.3750  -999.2500    78.7400     6.7900     5.7010     7.3930    23.5030  -999.2500 
   89.5000  -999.2500    88.1760     6.2290     5.2920     6.2310    23.5200  -999.2500 
   89.6250  -999.2500    99.5540     5.7340     4.9110     5.1250    23.6000  -999.2500 
   89.7500  -999.2500   106.9470     5.5150     4.6450     4.5760    23.6530  -999.2500 
   89.8750  -999.2500   108.9660     5.6160     4.5360     4.4670    23.6620  -999.2500 
   90.0000  -999.2500   108.6780     6.0100     4.5970     4.6400    23.6390  -999.2500 
   90.1250  -999.2500   106.9220     6.5770     4.8010     5.0420    23.5980  -999.2500 
   90.2500  -999.2500   100.6090     7.0860     5.0750     5.8060    23.5610  -999.2500 
   90.3750  -999.2500    91.4810     7.3260     5.3000     6.6260    23.5470  -999.2500 
   90.5000  -999.2500    85.4070     7.2080     5.3980     7.0910    23.5410  -999.2500 
   90.6250  -999.2500    86.7770     6.8090     5.3480     6.8160    23.5320  -999.2500 
