~V
VERS. 2.00: Ver 2.00
~W
STRT.M 56.0000:
STOP.M 270.0000:
STEP.M 0.1250:
NULL. -999.2500:
UWI. DF3053:
~C
DEPT.M :
GR.API :
CALI.CM :
RXO.OHMM :
RI. :
RML.OHMM :
DEN.GM/CC :
SP.MV :
~A
# ...
  190.8750    58.5710    23.5900    57.5900    84.8960    91.5740     2.2600   -24.6110 
  191.0000    58.0120    23.5660    90.8850    96.1930   104.9930     2.2430   -24.7700 
  191.1250    55.7570    23.5710   136.6280   114.2260   125.5850     2.2380   -24.9320 
  191.2500    53.9710    23.6600   166.4330   135.3160   149.1840     2.2440   -25.0920 
  191.3750    54.5980    23.8570   168.2770   154.8900   170.1840     2.2520   -25.2520 
  191.5000    56.8670    24.1650   164.1100   168.1620   182.7440     2.2530   -25.4550 
  191.6250    58.0810    24.5410   153.8970   171.6590   183.6620     2.2510   -25.7590 
  191.7500    57.5990    24.8440   144.6210   168.8240   178.5420     2.2560   -26.0890 
  191.8750    56.0210    24.9760   132.5380   162.8860   171.6430     2.2670   -26.3730 
  192.0000    53.6100    24.9540   127.3430   156.2680   165.1220     2.2730   -26.5540 
  192.1250    50.7210    24.9040   130.5770   149.8980   158.9400     2.2710   -26.6490 
  192.2500    49.8180    24.9010   139.5490   143.3950   152.2340     2.2660   -26.7370 
  192.3750    50.5230    24.9200   140.5450   136.2680   144.6740     2.2640   -26.8640 
  192.5000    51.2720    24.9260   131.4390   128.4650   136.4060     2.2660   -27.0580 
  192.6250    53.0540    24.8970   117.4590   120.7910   128.2180     2.2720   -27.2650 
  192.7500    56.1970    24.8370   101.6910   114.7470   121.6590     2.2750   -27.4200 
  192.8750    57.6400    24.7760    94.1090   111.9040   118.5190     2.2710   -27.4910 
  193.0000    56.0190    24.7620   104.3120   113.5050   120.2220     2.2620   -27.4810 
  193.1250    54.3570    24.8090   127.5220   121.2280   128.7760     2.2550   -27.4470 
  193.2500    53.3370    24.8550   154.4480   134.3880   143.5940     2.2520   -27.4810 
  193.3750    51.8720    24.8650   171.6440   152.3210   163.9050     2.2520   -27.6290 
  193.5000    51.0800    24.8340   159.3820   172.9330   187.0980     2.2500   -27.8720 
  193.6250    51.6470    24.7460   161.8470   191.4280   207.1060     2.2410   -28.1470 
  193.7500    51.9970    24.6440   171.3710   202.7610   217.9680     2.2260   -28.3500 
  193.8750    50.6120    24.5460   174.7720   204.1310   217.0180     2.2140   -28.4280 
  194.0000    48.0710    24.4630   160.9780   196.6200   206.7880     2.2090   -28.3950 
  194.1250    47.1520    24.4560   149.1350   184.6790   193.6730     2.2130   -28.3210 
  194.2500    50.0400    24.5400   130.5020   173.9840   183.3570     2.2220   -28.2870 
  194.3750    53.8440    24.6620   123.6120   166.6100   177.1600     2.2350   -28.2880 
  194.5000    53.2220    24.7410   127.6000   162.5410   174.3140     2.2480   -28.3100 
  194.6250    49.1940    24.7700   143.2960   161.0800   173.6270     2.2590   -28.3040 
  194.7500    47.6220    24.7760   145.4440   160.9980   173.7930     2.2660   -28.2480 
  194.8750    49.0330    24.7580   140.8600   162.3410   175.1040     2.2680   -28.1930 
  195.0000    51.2800    24.7240   136.4130   165.8400   178.8830     2.2660   -28.1680 
  195.1250    53.5250    24.6830   139.5010   173.0770   187.3600     2.2590   -28.1700 
  195.2500    54.7260    24.6570   157.3460   183.6290   200.2420     2.2480   -28.1300 
  195.3750    53.6840    24.6650   190.0300   195.8230   215.8020     2.2380   -28.0080 
  195.5000    50.8160    24.7070   214.2530   206.3890   230.1230     2.2310   -27.8190 
  195.6250    48.7530    24.7450   205.1840   210.2630   236.5190     2.2250   -27.5790 
  195.7500    49.6470    24.7520   161.4260   206.8960   233.3170     2.2140   -27.3630 
  195.8750    53.2730    24.7070   116.9960   198.3950   222.6490     2.1970   -27.1850 
  196.0000    57.3480    24.5800   106.6390   188.0050   208.3360     2.1800   -26.9950 
  196.1250    59.2340    24.3840   120.0110   177.3630   192.4580     2.1690   -26.7160 
  196.2500    59.7270    24.2530   128.7980   165.4030   174.9270     2.1620   -26.3270 
  196.3750    58.6960    24.2770   141.6590   150.6530   155.0630     2.1630   -25.8800 
  196.5000    55.4300    24.3940   139.5160   133.2200   133.6830     2.1800   -25.4410 
  196.6250    54.5460    24.4120   103.5820   115.5150   113.6570     2.2090   -25.1080 
  196.7500    58.2070    24.2900    72.8180   100.6950    97.5000     2.2350   -24.8990 
  196.8750    62.6800    24.1040    61.1100    90.4740    86.5920     2.2480   -24.7290 
  197.0000    62.5320    23.9480    62.8450    85.3230    81.2200     2.2510   -24.5350 
  197.1250    58.8050    23.8700    69.3620    85.3320    81.4020     2.2490   -24.3000 
  197.2500    55.8800    23.8280    76.7380    88.2030    84.6800     2.2410   -24.0710 
  197.3750    53.9950    23.7880    85.9350    91.9350    88.9620     2.2270   -23.9010 
  197.5000    53.7600    23.7260    95.2460    94.5280    92.0790     2.2160   -23.7780 
  197.6250    55.0230    23.6680    95.0650    94.3340    92.3200     2.2210   -23.6390 
  197.7500    55.8680    23.5980    79.9140    92.1280    90.7620     2.2370   -23.4130 
  197.8750    54.6040    23.4380    58.6000    89.2690    88.9110     2.2540   -23.1310 
  198.0000    51.7400    23.1810    49.1910    87.1190    87.8880     2.2640   -22.9110 
  198.1250    51.9130    22.9560    55.7180    86.6260    88.2290     2.2650   -22.8330 
  198.2500    53.5610    22.8490    61.1430    87.2910    89.4170     2.2640   -22.8610 
  198.3750    53.9820    22.8160    59.5840    88.3890    90.8940     2.2660   -22.9050 
  198.5000    52.9720    22.7860    55.0160    89.2730    92.2290     2.2760   -22.8540 
  198.6250    53.6460    22.7350    51.1520    89.9060    93.6010     2.2840   -22.6800 
  198.7500    56.7520    22.6640    46.6440    91.1530    95.8450     2.2800   -22.4560 
  198.8750    58.1150    22.5900    43.3720    93.7840    99.6920     2.2650   -22.2510 
  199.0000    56.9910    22.5550    45.2560    97.7980   105.1420     2.2490   -22.0680 
  199.1250    55.4170    22.5890    53.6130   102.0220   110.8850     2.2430   -21.8230 
  199.2500    55.1460    22.6490    60.3310   104.8990   115.0030     2.2460   -21.4680 
  199.3750    56.2290    22.6910    59.2260   105.9530   116.9200     2.2550   -20.9970 
  199.5000    57.5970    22.7040    52.0750   105.7880   117.7630     2.2680   -20.4810 
  199.6250    58.8430    22.7050    49.0140   105.7410   119.7210     2.2810   -20.0060 
  199.7500    58.7110    22.7070    53.7660   106.8650   123.9580     2.2850   -19.6020 
  199.8750    56.6980    22.6820    56.4770   109.4500   130.4930     2.2780   -19.2560 
  200.0000    53.0800    22.6120    50.9240   113.0480   138.2410     2.2610   -18.9140 
  200.1250    49.8410    22.5200    47.4530   116.5280   145.1770     2.2400   -18.5040 
  200.2500    48.7630    22.4770    49.1210   118.7700   149.7660     2.2200   -18.0100 
  200.3750    49.5340    22.5340    56.9270   118.7760   150.7620     2.1980   -17.4570 
  200.5000    50.7600    22.6880    68.9370   115.6620   146.6070     2.1740   -16.8790 
  200.6250    51.6220    22.9150    73.9060   108.9860   136.1110     2.1530   -16.3390 
  200.7500    53.1460    23.2070    76.8680   100.5710   122.8740     2.1440   -15.8720 
  200.8750    54.9410    23.6030    83.8340    91.6090   109.4430     2.1500   -15.4610 
  201.0000    55.3860    24.0740    88.8660    82.7000    97.0410     2.1660   -15.0680 
  201.1250    54.8530    24.4430    81.7810    74.3480    86.5120     2.1850   -14.6470 
  201.2500    55.1510    24.6170    76.5610    67.0200    78.0090     2.2050   -14.2200 
  201.3750    55.6080    24.6190    69.6450    61.1920    71.6790     2.2230   -13.8130 
  201.5000    53.7750    24.5260    55.5140    57.1470    67.3930     2.2300   -13.4530 
  201.6250    49.1120    24.4560    51.9660    55.0120    65.1850     2.2190   -13.1820 
  201.7500    45.1300    24.4020    65.9550    54.0480    64.4060     2.2040   -12.9270 
  201.8750    44.0330    24.3160    85.0290    53.7610    64.5410     2.1990   -12.6250 
  202.0000    45.9650    24.2480    90.7490    53.3120    64.3440     2.2140   -12.2420 
