~V
VERS. 2.00: Ver 2.00
~W
STRT.M 125.0000:
STOP.M 269.0000:
STEP.M 0.1250:
NULL. -999.2500:
UWI. DF3036:
~C
DEPT.M :
GR.API :
RML.OHMM :
RI. :
RXO.OHMM :
CALI.CM :
DEN.GM/CC :
SP.MV :
~A
# ...
  248.7500    70.0380     9.0710     8.1740     7.4270    24.2570     2.3300    -9.8330 
  248.8750    69.5890     8.9240     8.0990     7.4830    24.2290     2.3420    -9.7950 
  249.0000    68.7020     8.7690     8.0170     7.6270    24.2390     2.3520    -9.7470 
  249.1250    68.4770     8.6580     7.9290     7.6620    24.2890     2.3560    -9.7580 
  249.2500    68.5140     8.5710     7.8480     7.5880    24.3560     2.3510    -9.7690 
  249.3750    67.3380     8.5020     7.7870     7.4340    24.4150     2.3430    -9.7470 
  249.5000    65.7080     8.4410     7.7490     7.3330    24.4920     2.3360    -9.7290 
  249.6250    66.4400     8.4250     7.7350     7.1580    24.5280     2.3320    -9.6770 
  249.7500    69.4060     8.4350     7.7290     6.8560    24.5400     2.3300    -9.6590 
  249.8750    72.4790     8.4700     7.7230     6.6390    24.5400     2.3290    -9.6270 
  250.0000    74.5360     8.4930     7.7130     6.5850    24.5400     2.3290    -9.6310 
  250.1250    74.3560     8.5110     7.7040     6.5950    24.5400     2.3310    -9.5950 
  250.2500    71.6990     8.5350     7.7040     6.5730    24.5400     2.3360    -9.5760 
  250.3750    67.9710     8.5710     7.7200     6.4790    24.5400     2.3450    -9.5580 
  250.5000    64.8090     8.6180     7.7540     6.3930    24.5400     2.3570    -9.5820 
  250.6250    63.2770     8.6660     7.7990     6.3900    24.5400     2.3690    -9.5890 
  250.7500    62.9800     8.7000     7.8420     6.4170    24.5400     2.3800    -9.6370 
  250.8750    63.5890     8.7130     7.8730     6.4410    24.5400     2.3880    -9.6950 
  251.0000    65.0500     8.7090     7.8910     6.5690    24.5400     2.3930    -9.7230 
  251.1250    66.3820     8.7040     7.8990     6.7990    24.5400     2.3950    -9.7810 
  251.2500    66.6630     8.7140     7.9110     6.9590    24.5360     2.3950    -9.8420 
  251.3750    66.2000     8.7430     7.9330     7.0250    24.5200     2.3930    -9.9260 
  251.5000    66.0700     8.7860     7.9640     7.0160    24.4850     2.3900    -9.9980 
  251.6250    66.6590     8.8270     8.0030     6.9910    24.4680     2.3860   -10.0800 
  251.7500    66.4680     8.8530     8.0400     7.0550    24.4570     2.3810   -10.1410 
  251.8750    66.2990     8.8640     8.0760     7.3000    24.4460     2.3740   -10.1880 
  252.0000    67.1690     8.8640     8.1130     7.7300    24.4270     2.3680   -10.2420 
  252.1250    67.2640     8.8660     8.1570     8.1460    24.4460     2.3650   -10.3000 
  252.2500    65.7240     8.8800     8.2120     8.0100    24.4570     2.3690   -10.3480 
  252.3750    62.7150     8.9040     8.2760     7.6790    24.4590     2.3820   -10.3840 
  252.5000    59.8560     8.9290     8.3440     7.5280    24.4540     2.3970   -10.3940 
  252.6250    59.6750     8.9370     8.4050     7.6330    24.4480     2.4100   -10.4370 
  252.7500    62.9280     8.9230     8.4520     7.8160    24.4600     2.4150   -10.4610 
  252.8750    66.5640     8.8910     8.4850     7.8900    24.4800     2.4120   -10.5040 
  253.0000    67.7420     8.8530     8.5070     7.7680    24.5140     2.4050   -10.5410 
  253.1250    66.5880     8.8310     8.5280     7.6460    24.5150     2.4000   -10.5730 
  253.2500    64.3220     8.8390     8.5600     7.6430    24.4920     2.3950   -10.6020 
  253.3750    62.6550     8.8830     8.6120     7.6820    24.4740     2.3920   -10.6220 
  253.5000    64.1800     8.9590     8.6890     7.7770    24.4700     2.3910   -10.6810 
  253.6250    67.3700     9.0640     8.7940     7.6830    24.4860     2.3950   -10.7130 
  253.7500    67.8450     9.1800     8.9140     7.6910    24.4980     2.4040   -10.7820 
  253.8750    65.6180     9.2870     9.0330     7.7810    24.5070     2.4140   -10.8550 
  254.0000    64.4790     9.3550     9.1290     7.7840    24.4830     2.4200   -10.9500 
  254.1250    65.4500     9.3430     9.1670     7.5580    24.4660     2.4190   -11.0110 
  254.2500    66.4880     9.2650     9.1550     7.3750    24.4760     2.4110   -11.1210 
  254.3750    68.5320     9.1790     9.1320     7.3100    24.5080     2.4050   -11.2670 
  254.5000    71.1660     9.1880     9.1820     7.2930    24.5320     2.4050   -11.4560 
  254.6250    73.4560     9.4550     9.4480     7.2830    24.5420     2.4090   -11.6620 
  254.7500    76.0860     9.9930     9.9720     7.3800    24.5390     2.4150   -11.8840 
  254.8750    79.5040    10.7380    10.7310     7.8000    24.5030     2.4220   -12.0820 
  255.0000    83.9480    11.5400    11.6190     8.8900    24.3920     2.4290   -12.2920 
  255.1250    88.8360    12.1810    12.4390    10.8270    24.2990     2.4380   -12.5050 
  255.2500    93.0450    12.5570    13.0340    13.9300    24.2280     2.4480   -12.7010 
  255.3750    92.6040    12.6810    13.3490    18.1600    24.1300     2.4550   -12.8430 
  255.5000    85.6050    12.6500    13.4400    20.6880    23.9970     2.4600   -12.9150 
  255.6250    77.4970    12.5290    13.4590    24.6610    23.9250     2.4610   -12.9100 
  255.7500    74.3210    12.5770    13.6000    29.3720    24.0210     2.4560   -12.8570 
  255.8750    77.3850    12.8810    13.9800    35.6520    24.2280     2.4460   -12.8080 
  256.0000    83.1530    13.8600    14.6570    32.6320    24.3820     2.4360   -12.7140 
  256.1250    85.9970    15.3500    15.6550    25.5850    24.3370     2.4310   -12.6430 
  256.2500    84.6940    17.5380    16.8120    25.3010    24.1380     2.4370   -12.5490 
  256.3750    81.4880    19.9050    17.9640    28.4500    23.8940     2.4530   -12.4950 
  256.5000    80.4150    20.9270    18.9170    31.2130    23.8670     2.4690   -12.4150 
  256.6250    79.6170    21.1300    19.4410    31.3590    24.0720     2.4780   -12.4020 
  256.7500    78.4750    20.9130    19.5570    31.2530    24.2320     2.4800   -12.3900 
  256.8750    77.7900    20.4260    19.3580    32.6070    24.2730     2.4790   -12.3960 
  257.0000    78.2320    19.8620    19.0040    36.3640    24.2640     2.4800   -12.4390 
  257.1250    80.0540    19.3990    18.6610    43.1190    24.2250     2.4880   -12.4880 
  257.2500    81.3210    19.0860    18.4170    42.1430    24.1750     2.5010   -12.5180 
  257.3750    81.0800    18.9150    18.2920    42.4220    24.1540     2.5130   -12.5170 
  257.5000    79.1210    18.8600    18.2830    43.7050    24.1820     2.5160   -12.5850 
  257.6250    77.2060    18.9060    18.3860    33.0760    24.3010     2.5070   -12.6210 
  257.7500    77.0440    19.0000    18.5470    28.8430    24.3880     2.4880   -12.6830 
  257.8750    77.3630    19.0980    18.7210    26.5980    24.4250     2.4620   -12.7460 
  258.0000    77.3630    19.1480    18.8560    27.7990    24.4270     2.4350   -12.8170 
  258.1250    77.3630    19.0670    18.8760    32.9600    24.4790     2.4100   -12.8660 
  258.2500    77.3630    18.8420    18.7580    36.8990    24.5290     2.3910   -12.9550 
  258.3750    77.3630    18.4880    18.5070    33.4150    24.5540     2.3840   -13.0660 
  258.5000    77.3630    18.0570    18.1610    27.6880    24.5300     2.3890   -13.1230 
  258.6250    77.3630    17.6300    17.7840    24.2290    24.4540     2.4060   -13.2090 
  258.7500    77.3630    17.2800    17.4520    20.7200    24.3380     2.4270   -13.2960 
  258.8750    77.3630    17.0470    17.2130    18.9610    24.2530     2.4440   -13.3740 
  259.0000    77.3630    16.9460    17.0880    19.4880    24.1820     2.4520   -13.4280 
  259.1250    77.3630    16.9820    17.0990    22.1790    24.2260     2.4530   -13.5100 
  259.2500    77.3630    17.0960    17.2030    24.5340    24.2880     2.4500   -13.5800 
  259.3750    77.3630    17.2420    17.3650    24.3860    24.2870     2.4480   -13.6600 
  259.5000    77.3630    17.3690    17.5350    21.5540    24.1900     2.4480   -13.7510 
  259.6250    77.3630    17.4270    17.6560    19.9660    24.1200     2.4530   -13.8340 
  259.7500    77.3630    17.4080    17.7000    19.1070    24.0890     2.4620   -13.8730 
  259.8750    77.3630    17.3180    17.6610    18.5650    24.0510     2.4780   -13.9080 
