~V
VERS. 2.00: Ver 2.00
~W
STRT.M 64.0000:
STOP.M 262.0000:
STEP.M 0.1250:
NULL. -999.2500:
UWI. DF3019:
~C
DEPT.M :
GR.API :
RML.OHMM :
RI. :
RXO.OHMM :
CALI.CM :
DEN.GM/CC :
SP.MV :
~A
# ...
  142.7500    61.5940    17.3930    15.9900    17.1790    24.5170     2.5300   -16.2360 
  142.8750    61.7390    16.9760    15.5870    16.2320    24.5130     2.5180   -16.2610 
  143.0000    60.9880    16.6580    15.2730    15.3160    24.4870     2.5030   -16.3430 
  143.1250    62.2560    16.5020    15.1150    14.5920    24.4280     2.4900   -16.4350 
  143.2500    63.8930    16.4900    15.1000    14.3590    24.3830     2.4820   -16.4310 
  143.3750    63.9380    16.6110    15.2190    14.2720    24.3750     2.4780   -16.4330 
  143.5000    61.6050    16.8530    15.4520    14.3040    24.3970     2.4780   -16.4890 
  143.6250    59.5970    17.1990    15.7760    14.3200    24.4260     2.4770   -16.4600 
  143.7500    59.4920    17.5580    16.1100    14.5530    24.4390     2.4770   -16.4830 
  143.8750    59.4980    17.8240    16.3640    14.8900    24.4460     2.4820   -16.4700 
  144.0000    58.4460    17.8850    16.4390    15.6560    24.4460     2.4940   -16.3980 
  144.1250    55.4360    17.6360    16.2340    16.4220    24.4110     2.5130   -16.3890 
  144.2500    53.3110    17.1950    15.8320    16.5800    24.3750     2.5340   -16.4680 
  144.3750    53.6330    16.7370    15.3690    15.6480    24.3440     2.5490   -16.5610 
  144.5000    55.5540    16.4720    15.0210    14.1300    24.2570     2.5570   -16.6180 
  144.6250    58.1890    16.6210    14.9900    13.2230    24.0310     2.5600   -16.7720 
  144.7500    62.5430    17.1310    15.2760    13.1310    23.7860     2.5630   -16.8680 
  144.8750    68.7310    17.8720    15.8090    13.7410    23.6160     2.5660   -17.0560 
  145.0000    73.1180    18.6530    16.4570    15.1450    23.5110     2.5660   -17.2520 
  145.1250    74.2960    19.2860    17.0650    16.7410    23.4450     2.5530   -17.4170 
  145.2500    75.3160    19.7970    17.5930    16.9380    23.3850     2.5260   -17.6340 
  145.3750    78.6870    20.3730    18.1480    16.4040    23.2950     2.4860   -17.7730 
  145.5000    81.8330    21.3180    18.9490    16.1510    23.2040     2.4400   -17.9480 
  145.6250    80.1150    23.0620    20.3540    17.3130    23.1810     2.3940   -18.1480 
  145.7500    75.7250    25.5760    22.4030    19.2440    23.1790     2.3520   -18.3140 
  145.8750    71.8470    28.5840    24.9330    21.8260    23.1740     2.3180   -18.4440 
  146.0000    70.9590    31.4760    27.4790    25.5100    23.1670     2.2930   -18.5950 
  146.1250    72.9610    33.1680    29.1360    28.1030    23.2330     2.2800   -18.6970 
  146.2500    73.5920    33.1430    29.3710    29.4030    23.3960     2.2740   -18.7050 
  146.3750    73.3420    31.3630    28.0680    30.0560    23.7200     2.2730   -18.8000 
  146.5000    74.0160    28.3800    25.6400    29.1570    24.1830     2.2740   -18.8580 
  146.6250    76.5950    25.1570    22.8780    25.7510    24.6050     2.2750   -18.8160 
  146.7500    78.0900    22.5420    20.5560    21.6420    24.8110     2.2750   -18.8610 
  146.8750    76.6570    20.8310    18.9700    19.1000    24.8130     2.2730   -18.8820 
  147.0000    75.2670    19.9700    18.1280    18.0930    24.7080     2.2680   -18.9190 
  147.1250    76.3750    19.7240    17.8950    17.9490    24.5530     2.2630   -18.9750 
  147.2500    79.0250    19.6190    17.8670    18.1480    24.3980     2.2630   -19.0530 
  147.3750    82.2030    19.3380    17.7730    18.7730    24.2130     2.2720   -19.1310 
  147.5000    84.9620    18.7100    17.4080    19.6930    24.1280     2.2890   -19.2180 
  147.6250    86.3500    17.6560    16.6040    19.2620    24.2120     2.3060   -19.3780 
  147.7500    84.7840    16.3880    15.4650    17.9130    24.3500     2.3190   -19.5290 
  147.8750    82.4130    15.0910    14.1230    16.7820    24.4220     2.3260   -19.6850 
  148.0000    85.6280    14.0580    12.7470    15.6320    24.4400     2.3320   -19.8460 
  148.1250    94.3830    13.3190    11.5360    13.3550    24.4380     2.3420   -20.0390 
  148.2500    99.2060    12.7130    10.5820    10.8860    24.4240     2.3560   -20.3070 
  148.3750    97.3810    12.0150     9.9170     9.4520    24.3930     2.3700   -20.5710 
  148.5000    93.5220    11.6490     9.5280     9.0690    24.3700     2.3790   -20.8470 
  148.6250    93.1670    11.5670     9.4050     9.0630    24.3620     2.3790   -21.1310 
  148.7500    93.8930    11.6320     9.4480     8.9940    24.3620     2.3730   -21.3750 
  148.8750    94.5570    11.7730     9.5960     9.0490    24.3620     2.3670   -21.6740 
  149.0000    95.9950    11.9610     9.8120     9.2940    24.3620     2.3620   -21.9280 
  149.1250    96.1960    12.2470    10.1100     9.8220    24.3620     2.3650   -22.1180 
  149.2500    95.8070    12.6840    10.5120    10.4770    24.3620     2.3710   -22.2690 
  149.3750    96.1390    13.3130    11.0440    11.2540    24.3660     2.3780   -22.4530 
  149.5000    95.3440    14.1280    11.7050    11.9180    24.3770     2.3840   -22.6360 
  149.6250    93.0610    15.0540    12.4530    13.3270    24.3990     2.3870   -22.6970 
  149.7500    92.8030    15.9310    13.1750    15.0740    24.4180     2.3880   -22.8520 
  149.8750    94.8150    16.6370    13.7750    16.1210    24.4280     2.3900   -22.9670 
  150.0000    94.6420    17.1040    14.1900    16.2010    24.4300     2.3920   -23.0320 
  150.1250    90.8000    17.3200    14.3910    15.4560    24.4300     2.3910   -23.2380 
  150.2500    90.1750    17.4200    14.4830    14.9820    24.4270     2.3830   -23.3470 
  150.3750    93.3690    17.5150    14.5560    15.0550    24.4040     2.3710   -23.4140 
  150.5000    95.2680    17.6840    14.6880    15.8020    24.3330     2.3550   -23.5080 
  150.6250    94.3920    17.9600    14.9170    15.6020    24.2180     2.3440   -23.6530 
  150.7500    92.3430    18.3020    15.2160    15.3350    24.1040     2.3400   -23.7560 
  150.8750    90.3330    18.7030    15.5690    15.5780    24.0220     2.3430   -23.8210 
  151.0000    89.1790    19.1810    15.9820    16.3080    24.0200     2.3500   -23.9480 
  151.1250    90.4890    19.7650    16.4740    17.0740    24.0380     2.3560   -23.9710 
  151.2500    94.4410    20.3750    16.9950    17.3230    24.0100     2.3590   -24.0490 
  151.3750    96.5490    20.8620    17.4520    17.9070    23.9260     2.3600   -24.0990 
  151.5000    96.5490    21.0560    17.7250    19.9740    23.8210     2.3600   -24.0640 
  151.6250    97.4010    20.8260    17.6990    21.3610    23.7090     2.3620   -24.0470 
  151.7500   100.0570    20.4100    17.5030    21.4990    23.7220     2.3660   -24.0210 
  151.8750   102.5250    20.2050    17.3900    19.2630    23.7750     2.3700   -24.0000 
  152.0000   102.0780    20.7420    17.7440    18.4500    23.8090     2.3700   -23.9910 
  152.1250    98.2620    22.7830    19.2040    18.9390    23.8190     2.3630   -23.9800 
  152.2500    94.7740    26.3120    21.9240    22.3670    23.8220     2.3510   -23.9690 
  152.3750    93.1870    30.9640    25.7840    27.7530    23.8410     2.3370   -24.0410 
  152.5000    91.3460    35.8150    30.1620    34.9070    23.8750     2.3220   -24.1860 
  152.6250    86.2700    39.1580    33.6720    43.9110    23.8780     2.3130   -24.2550 
  152.7500    83.5410    40.0150    35.2000    48.3000    23.8530     2.3110   -24.3720 
  152.8750    87.2760    38.3760    34.4510    46.7350    23.8210     2.3190   -24.5310 
  153.0000    93.3100    35.4130    32.2170    39.1290    23.7920     2.3350   -24.5830 
  153.1250    96.2750    33.3460    30.2630    38.8880    23.7600     2.3510   -24.7800 
  153.2500    95.7380    33.8090    30.1270    33.3630    23.7650     2.3590   -24.9550 
  153.3750    91.8340    37.5550    32.6310    32.3440    23.8120     2.3550   -24.9700 
  153.5000    85.8640    44.6100    38.0480    39.0030    23.8720     2.3390   -25.0470 
  153.6250    82.5630    54.6300    46.3840    52.5550    23.8990     2.3140   -25.0950 
  153.7500    83.3850    65.8110    56.1200    64.7480    23.9090     2.2870   -25.0340 
  153.8750    84.1860    76.7350    65.9260    72.5360    23.9090     2.2600   -24.9780 
