~V
VERS. 2.00: Ver 2.00
~W
STRT.M 100.0000:
STOP.M 258.0000:
STEP.M 0.1250:
NULL. -999.2500:
UWI. DF3025:
~C
DEPT.M :
AC.US/MT :
DEN.GM/CC :
GR.API :
CALI.CM :
RXO.OHMM :
RI. :
RML.OHMM :
SP.MV :
~A
# ...
  190.0000   409.2500     2.4830    98.8230    23.3990     8.5800     7.0540     9.1700   -28.5000 
  190.1250   424.5260     2.4650   103.9090    23.5960     7.4630     6.6720     8.7130   -28.0860 
  190.2500   426.7720     2.4580   107.2540    23.7380     6.5470     6.3800     8.3850   -27.6710 
  190.3750   416.1450     2.4680   106.8750    23.7950     5.9420     6.2600     8.2950   -27.2620 
  190.5000   401.3970     2.4910   103.1510    23.8190     6.0050     6.3510     8.4890   -26.8740 
  190.6250   391.8920     2.5110    97.9060    23.8450     6.6930     6.6890     8.9760   -26.5260 
  190.7500   388.5010     2.5190    93.9790    23.8380     7.3640     7.1830     9.6060   -26.2110 
  190.8750   388.0240     2.5110    93.2500    23.7580     7.8080     7.7300    10.2000   -25.9360 
  191.0000   387.3620     2.4900    96.8040    23.6200     8.2980     8.1700    10.5370   -25.7070 
  191.1250   388.9110     2.4650   101.3500    23.4930     8.7880     8.2580    10.3490   -25.5220 
  191.2500   396.4280     2.4470   102.3650    23.4410     8.8950     7.9630     9.7120   -25.3420 
  191.3750   407.9020     2.4350    99.9120    23.5490     8.5780     7.3750     8.8140   -25.1280 
  191.5000   415.5570     2.4200    93.2240    23.8840     7.5790     6.6700     7.8980   -24.8650 
  191.6250   411.8940     2.4060    80.9960    24.2860     6.1570     6.0530     7.2040   -24.5670 
  191.7500   402.8790     2.4100    67.9670    24.5070     5.5390     5.6180     6.7860   -24.2750 
  191.8750   395.6490     2.4380    59.5810    24.5470     5.7230     5.3880     6.6230   -23.9970 
  192.0000   392.5140     2.4750    58.9290    24.5490     5.7530     5.3420     6.6470   -23.7230 
  192.1250   390.8680     2.4930    62.6910    24.5860     5.6280     5.4410     6.7690   -23.4550 
  192.2500   389.4750     2.4870    66.4640    24.6170     5.7370     5.5870     6.8910   -23.2210 
  192.3750   389.0700     2.4680    69.2390    24.6300     5.9970     5.7260     6.9800   -23.0580 
  192.5000   388.4470     2.4540    72.0080    24.5800     6.0740     5.8400     7.0460   -22.9990 
  192.6250   384.9180     2.4570    77.7810    24.4420     5.7710     5.9400     7.1320   -23.0610 
  192.7500   379.5730     2.4720    84.9990    24.3280     5.6100     6.0530     7.2660   -23.1920 
  192.8750   374.7970     2.4880    88.4830    24.3050     5.7610     6.1790     7.4340   -23.3590 
  193.0000   372.0510     2.4970    87.4810    24.3160     6.0330     6.2950     7.5880   -23.5520 
  193.1250   372.8940     2.4910    86.9850    24.2530     6.3940     6.3480     7.6400   -23.7740 
  193.2500   376.5840     2.4780    88.5080    24.1360     6.5080     6.3100     7.5540   -24.0240 
  193.3750   381.9640     2.4660    87.7480    24.0520     6.2070     6.1750     7.3500   -24.3080 
  193.5000   386.8070     2.4570    84.4830    24.0420     5.7630     5.9800     7.1100   -24.6160 
  193.6250   389.0760     2.4520    85.7690    24.1040     5.7690     5.7960     6.9590   -24.9320 
  193.7500   389.4230     2.4500    91.8970    24.1890     5.8840     5.6910     6.9640   -25.2380 
  193.8750   388.3460     2.4500    98.5300    24.2580     6.0490     5.7160     7.1680   -25.5390 
  194.0000   386.8520     2.4520   102.5990    24.2850     6.8160     5.9160     7.6090   -25.8450 
  194.1250   387.1850     2.4510   102.4150    24.2820     7.5040     6.3810     8.3690   -26.1800 
  194.2500   389.4490     2.4400    97.8680    24.2790     7.9930     7.1080     9.4080   -26.5400 
  194.3750   391.0320     2.4220    91.5240    24.2780     9.0120     8.0670    10.6340   -26.9090 
  194.5000   389.6940     2.4050    87.9850    24.2740    10.6300     9.1360    11.8380   -27.2730 
  194.6250   387.0950     2.3940    87.0620    24.2540    13.1560    10.0380    12.6510   -27.6480 
  194.7500   387.2360     2.3870    85.8930    24.2160    14.4360    10.5800    12.9570   -28.0540 
  194.8750   390.5740     2.3820    84.2860    24.1760    13.1040    10.7670    12.8960   -28.4940 
  195.0000   394.6210     2.3780    83.4050    24.1500    10.5990    10.8020    12.8200   -28.9360 
  195.1250   395.8380     2.3730    83.8410    24.1300    10.8540    11.0180    13.1880   -29.3240 
  195.2500   394.0320     2.3700    85.4640    24.1010    13.1200    11.6260    14.1630   -29.6520 
  195.3750   390.5910     2.3710    87.5340    24.0670    15.1790    12.7380    15.7820   -29.9580 
  195.5000   386.8200     2.3750    88.2880    24.0470    16.7820    14.3810    17.9450   -30.2870 
  195.6250   384.3490     2.3750    87.9020    24.0440    17.9680    16.4370    20.3520   -30.6570 
  195.7500   384.6090     2.3680    88.1280    24.0450    20.3530    18.4580    22.4510   -31.0280 
  195.8750   388.2330     2.3560    86.9310    24.0460    22.3370    20.0710    23.8550   -31.3630 
  196.0000   394.4730     2.3430    83.0910    24.0600    24.1360    21.1010    24.4900   -31.6370 
  196.1250   400.3540     2.3300    80.4950    24.1190    22.1400    21.6530    24.6740   -31.8470 
  196.2500   403.5910     2.3150    81.0920    24.2170    19.9750    22.2620    25.1460   -32.0360 
  196.3750   404.3860     2.3010    82.6470    24.2880    19.1240    23.4720    26.5250   -32.2260 
  196.5000   404.8550     2.2890    84.1680    24.2810    22.8340    25.8270    29.2970   -32.4320 
  196.6250   405.3830     2.2820    85.7070    24.1910    30.2200    29.7520    33.7480   -32.6580 
  196.7500   399.9630     2.2870    86.4430    24.0610    37.0850    34.0900    38.4110   -32.9050 
  196.8750   385.3710     2.3120    84.0960    23.9330    41.6160    36.7830    40.7190   -33.1520 
  197.0000   367.4630     2.3520    78.2060    23.8670    45.1200    35.9990    38.6610   -33.3730 
  197.1250   360.6170     2.3930    72.6650    23.8900    36.9050    32.0040    33.5400   -33.5270 
  197.2500   368.1960     2.4130    73.6580    23.9260    21.4360    28.0100    29.4270   -33.6270 
  197.3750   382.4690     2.3980    79.4300    23.9340    11.5280    26.0760    28.1590   -33.7090 
  197.5000   394.1530     2.3510    82.1150    23.9330    20.3520    27.6880    30.5400   -33.8310 
  197.6250   398.8980     2.2920    78.6180    23.9320    49.1240    35.5410    38.4050   -34.0470 
  197.7500   400.2760     2.2470    76.2270    23.9340    78.5740    50.9630    53.0420   -34.3160 
  197.8750   400.1380     2.2240    74.6620    23.9490    92.6200    75.1720    76.9780   -34.5750 
  198.0000   398.2920     2.2200    69.2100    23.9780    97.0650   105.8670   110.4980   -34.7860 
  198.1250   396.9000     2.2250    62.2810    23.9970   102.5110   133.2840   143.4930   -34.9600 
  198.2500   398.1330     2.2300    59.8310    23.9870   110.1790   149.2280   161.7620   -35.1510 
  198.3750   401.7430     2.2310    61.2860    23.9550   114.6690   154.2970   165.5510   -35.3870 
  198.5000   405.7620     2.2260    62.8800    23.9270   114.7260   153.0100   162.3070   -35.6530 
  198.6250   408.1100     2.2200    63.8890    23.9190   113.7850   147.6920   155.5180   -35.8880 
  198.7500   408.8750     2.2150    65.4820    23.9180   110.6840   140.1380   147.0200   -36.0480 
  198.8750   408.1350     2.2140    67.6550    23.9180   101.8060   131.9070   138.5730   -36.1410 
  199.0000   406.6270     2.2140    68.9600    23.9200    94.3500   124.8990   132.0640   -36.2070 
  199.1250   405.9090     2.2130    67.0020    23.9260    87.4940   121.3120   129.4500   -36.2840 
  199.2500   406.5780     2.2140    64.7430    23.9300    89.1870   121.3870   130.5090   -36.3840 
  199.3750   407.5530     2.2160    65.0600    23.9340    94.3760   124.7890   134.6200   -36.5040 
  199.5000   407.2640     2.2200    66.8890    23.9420    98.3750   130.2710   140.2810   -36.6290 
  199.6250   405.3530     2.2220    67.0290    23.9490    97.6410   135.4920   144.6660   -36.7270 
  199.7500   403.7210     2.2230    65.6070    23.9520    99.3230   138.3190   145.7570   -36.7860 
  199.8750   403.9610     2.2210    64.4840    23.9530   104.5670   138.1210   143.4520   -36.7990 
