~V
VERS. 2.00: Ver 2.00
~W
STRT.M 140.0000:
STOP.M 272.0000:
STEP.M 0.1250:
NULL. -999.2500:
UWI. DF3077:
~C
DEPT.M :
GR.API :
CALI.CM :
RXO.OHMM :
RI. :
RML.OHMM :
DEN.GM/CC :
SP.MV :
~A
# ...
  151.2500    85.1880    24.9130     9.2610     9.2710    10.1980     2.2310    -4.5390 
  151.3750    88.6020    24.8980     9.0950     9.3140    10.2450     2.2300    -4.4880 
  151.5000    89.1660    24.8930     8.8840     9.3250    10.2570     2.2310    -4.4530 
  151.6250    86.6120    24.8940     8.8620     9.3160    10.2480     2.2310    -4.4360 
  151.7500    85.0620    24.9010     8.8660     9.3000    10.2300     2.2290    -4.4160 
  151.8750    84.3360    24.8800     8.8720     9.2780    10.2060     2.2260    -4.4060 
  152.0000    83.4750    24.8140     8.9000     9.2340    10.1570     2.2250    -4.3740 
  152.1250    84.0150    24.7410     9.0130     9.1630    10.0790     2.2260    -4.3190 
  152.2500    86.6070    24.6710     9.0460     9.0810     9.9890     2.2310    -4.3010 
  152.3750    88.9180    24.6490     8.9130     9.0150     9.9170     2.2370    -4.3100 
  152.5000    89.2510    24.6380     8.6180     9.0070     9.9070     2.2400    -4.3310 
  152.6250    90.0770    24.6040     8.4360     9.1030    10.0130     2.2360    -4.3360 
  152.7500    90.5950    24.6000     8.5680     9.2980    10.2280     2.2340    -4.3250 
  152.8750    88.9360    24.5920     8.9020     9.5810    10.5390     2.2360    -4.2910 
  153.0000    84.3950    24.5710     9.3590     9.9280    10.9210     2.2350    -4.2150 
  153.1250    79.6070    24.4450     9.7070    10.3310    11.3640     2.2220    -4.1590 
  153.2500    78.5560    24.4150     9.9450    10.7260    11.7990     2.2100    -4.1210 
  153.3750    81.1780    24.3920    10.2180    11.0820    12.1900     2.2070    -4.0920 
  153.5000    84.1940    24.3430    10.6830    11.3850    12.5230     2.2070    -4.0750 
  153.6250    84.2700    24.4930    10.9690    11.6130    12.7740     2.2030    -4.0410 
  153.7500    82.8280    24.9140    11.2090    11.7630    12.9390     2.2020    -3.9960 
  153.8750    82.1070    25.2630    11.3720    11.8340    13.0170     2.2140    -3.9590 
  154.0000    83.1030    25.5280    11.6180    11.8430    13.0280     2.2270    -3.9590 
  154.1250    82.9960    25.7030    11.9270    11.7810    12.9590     2.2280    -3.9480 
  154.2500    80.4260    25.8540    12.2240    11.7080    12.8790     2.2270    -3.8860 
  154.3750    78.3040    25.8790    11.9180    11.6920    12.8610     2.2350    -3.8190 
  154.5000    78.0180    25.8800    11.5540    11.7550    12.9300     2.2440    -3.7580 
  154.6250    77.0560    25.9290    11.9080    11.9330    13.1260     2.2360    -3.6910 
  154.7500    76.3130    25.9470    12.6730    12.1910    13.4100     2.2180    -3.6240 
  154.8750    77.8560    25.9730    12.8360    12.4490    13.6940     2.2060    -3.5240 
  155.0000    82.4920    26.0130    12.5680    12.5750    13.8330     2.2050    -3.3980 
  155.1250    83.6740    25.9080    13.0680    12.4050    13.6460     2.2130    -3.2970 
  155.2500    81.7250    25.9060    14.2950    11.8940    13.0840     2.2330    -3.2270 
  155.3750    80.6150    25.8990    15.4580    11.0550    12.1610     2.2720    -3.1520 
  155.5000    81.5570    25.9390    15.0300    10.0650    11.0720     2.3210    -3.0500 
  155.6250    83.6810    25.9590    12.2830     9.1340    10.0480     2.3460    -2.9270 
  155.7500    85.5680    25.9640     9.0450     8.3960     9.2360     2.3390    -2.8610 
  155.8750    88.7370    25.9950     7.4200     7.9140     8.7060     2.3210    -2.8500 
  156.0000    91.8890    25.9020     7.1750     7.6990     8.4690     2.3160    -2.8730 
  156.1250    92.4470    25.8860     7.5850     7.7510     8.5260     2.3290    -2.9770 
  156.2500    91.6720    25.9230     7.9000     7.9600     8.7560     2.3440    -3.1020 
  156.3750    89.0090    26.0160     8.1070     8.2570     9.0830     2.3500    -3.2000 
  156.5000    85.6440    26.0740     8.2300     8.5580     9.4140     2.3420    -3.2210 
  156.6250    82.7930    26.0740     8.2680     8.8130     9.6940     2.3200    -3.2060 
  156.7500    81.1070    25.9850     8.3170     9.0390     9.9430     2.2890    -3.1390 
  156.8750    79.3410    25.9350     8.5970     9.2840    10.2120     2.2590    -3.0940 
  157.0000    77.7670    26.0930     9.2230     9.6190    10.5810     2.2410    -3.1350 
  157.1250    79.7180    26.1250     9.9850    10.1730    11.1900     2.2340    -3.1520 
  157.2500    83.5330    26.0860    10.5460    11.0510    12.1570     2.2270    -3.1750 
  157.3750    85.2840    25.9570    10.6150    12.4280    13.6710     2.2240    -3.2030 
  157.5000    81.6000    25.7790    11.0330    14.4340    15.8770     2.2330    -3.2510 
  157.6250    74.1600    25.0790    13.8010    17.1940    18.9130     2.2520    -3.3000 
  157.7500    70.1850    24.5530    19.7740    20.4870    22.5360     2.2610    -3.3180 
  157.8750    69.5270    24.5460    25.2490    24.0570    26.4630     2.2490    -3.3140 
  158.0000    68.9550    24.4210    28.9450    27.4310    30.1740     2.2230    -3.3120 
  158.1250    68.3800    24.3890    31.1940    29.8640    32.8500     2.2060    -3.3110 
  158.2500    70.3030    24.3750    32.8460    31.1880    34.3070     2.2060    -3.3000 
  158.3750    73.4350    24.4070    31.4870    31.6010    34.7620     2.2220    -3.2760 
  158.5000    74.3480    24.4070    29.0050    31.6610    34.8270     2.2450    -3.2270 
  158.6250    71.8210    24.3160    29.3160    31.9500    35.1450     2.2620    -3.1720 
  158.7500    68.1820    24.1780    32.0520    32.5670    35.8240     2.2590    -3.1110 
  158.8750    63.1240    24.2020    35.1540    33.3290    36.6620     2.2380    -3.0360 
  159.0000    59.2090    24.4050    37.0600    33.9160    37.3080     2.2150    -2.9100 
  159.1250    60.1060    24.6450    37.3700    33.8840    37.2720     2.2150    -2.7590 
  159.2500    63.9450    24.7690    35.7210    33.0800    36.3880     2.2400    -2.6260 
  159.3750    67.1270    24.8870    32.9740    31.2850    34.4130     2.2830    -2.5440 
  159.5000    70.3100    25.3360    32.3630    28.4600    31.3060     2.3310    -2.5190 
  159.6250    74.0230    25.7280    31.8240    24.8930    27.3820     2.3610    -2.5040 
  159.7500    73.9290    26.0490    27.7390    21.2310    23.3540     2.3640    -2.4370 
  159.8750    71.0280    26.0190    22.2210    17.8890    19.6770     2.3480    -2.3200 
  160.0000    72.1270    25.6690    17.6850    15.1660    16.6820     2.3330    -2.1960 
  160.1250    79.5220    25.1630    14.0730    13.4930    14.8430     2.3350    -2.1370 
  160.2500    83.8340    25.1040    11.0660    12.8550    14.1410     2.3500    -2.1140 
  160.3750    80.1620    25.3530     9.8290    13.3180    14.6500     2.3740    -2.0910 
  160.5000    74.3200    25.7900    11.5680    14.9220    16.4140     2.3950    -2.0800 
  160.6250    73.3710    25.8790    16.3900    17.7530    19.5280     2.3840    -2.0940 
  160.7500    73.8030    25.9870    21.9860    21.3560    23.4920     2.3380    -2.1500 
  160.8750    72.0080    26.1320    26.6850    25.1810    27.6990     2.2770    -2.2300 
  161.0000    69.2530    26.2090    30.2580    28.3590    31.1950     2.2410    -2.2390 
  161.1250    69.1840    26.2120    30.3290    29.7070    32.6780     2.2700    -2.1030 
  161.2500    68.8950    26.1680    29.4150    29.3510    32.2860     2.3470    -1.9030 
  161.3750    65.1960    26.1210    27.4820    28.0480    30.8530     2.4420    -1.6850 
  161.5000    59.5800    26.1140    24.9350    26.5750    29.2330     2.5210    -1.4820 
  161.6250    55.5720    26.0600    23.7880    25.3790    27.9170     2.5580    -1.3190 
  161.7500    54.3950    26.0470    23.2970    24.5860    27.0440     2.5640    -1.2080 
  161.8750    56.2840    26.0030    23.1390    24.1410    26.5550     2.5590    -1.1190 
  162.0000    59.8560    26.0080    22.8260    23.9570    26.3530     2.5540    -1.1410 
  162.1250    60.7590    25.9070    23.1730    23.9440    26.3390     2.5500    -1.2510 
  162.2500    59.2490    25.8820    22.8620    23.9520    26.3480     2.5460    -1.3630 
  162.3750    59.6330    25.8850    22.9180    23.9600    26.3560     2.5480    -1.4170 
