~V
VERS. 2.00: Ver 2.00
~W
STRT.M 65.0000:
STOP.M 267.0000:
STEP.M 0.1250:
NULL. -999.2500:
UWI. DF3007:
~C
DEPT.M :
GR.API :
RML.OHMM :
RI. :
RXO.OHMM :
CALI.CM :
DEN.GM/CC :
SP.MV :
~A
# ...
   98.7500    83.6580     9.9650     7.6270     7.8990    23.8930  -999.2500   -24.4320 
   98.8750    80.2220    11.0400     8.6110     9.0560    23.7700  -999.2500   -25.1750 
   99.0000    78.4790    11.9170     9.5050    10.3330    23.6640  -999.2500   -25.7750 
   99.1250    75.2210    12.4270    10.1140    11.2670    23.3270  -999.2500   -26.1810 
   99.2500    72.3190    12.6670    10.4330    11.6280    23.1180  -999.2500   -26.5070 
   99.3750    71.3990    12.7470    10.5100    11.5660    23.0490  -999.2500   -26.5960 
   99.5000    73.1120    12.7260    10.4020    11.4270    23.0520  -999.2500   -26.5560 
   99.6250    75.3940    12.5060    10.0750    11.3340    23.0610  -999.2500   -26.2450 
   99.7500    76.3550    11.9740     9.5110    11.1660    23.0710  -999.2500   -25.8850 
   99.8750    77.4170    11.0800     8.7030    10.7420    23.0810  -999.2500   -25.4200 
  100.0000    81.6810     9.9470     7.7460    10.0760    23.0950  -999.2500   -24.9210 
  100.1250    93.1910     8.9400     6.8880     8.8970    23.1390  -999.2500   -24.6020 
  100.2500   104.4750     8.4030     6.3560     7.4580    23.2120  -999.2500   -24.3770 
  100.3750   107.8600     8.4930     6.2680     6.4570    23.2550  -999.2500   -24.4000 
  100.5000   101.7040     9.1640     6.6280     6.4470    23.2490  -999.2500   -24.5730 
  100.6250    90.9650    10.2100     7.3710     7.4850    23.1780  -999.2500   -25.0000 
  100.7500    83.2200    11.2210     8.2270     9.2530    23.0560  -999.2500   -25.4760 
  100.8750    78.0330    11.9320     8.9770    10.8000    22.9400  -999.2500   -26.0890 
  101.0000    72.9850    12.2280     9.4630    11.4620    22.8750  -999.2500   -26.7150 
  101.1250    68.9000    12.1450     9.6150    11.5510    22.8460  -999.2500   -27.2730 
  101.2500    69.6290    11.9480     9.5930    11.7250    22.8280  -999.2500   -27.7470 
  101.3750    75.3810    11.7960     9.5280    11.8190    22.8300  -999.2500   -28.0640 
  101.5000    80.9290    11.7660     9.5020    11.8400    22.8390  -999.2500   -28.3260 
  101.6250    81.5820    11.8500     9.5420    11.8700    22.8560  -999.2500   -28.3780 
  101.7500    78.8670    11.9650     9.6060    11.7970    22.8780  -999.2500   -28.4760 
  101.8750    74.7820    12.0620     9.6630    11.7070    22.8930  -999.2500   -28.4770 
  102.0000    71.9030    12.1210     9.6940    11.6850    22.8960  -999.2500   -28.4850 
  102.1250    73.9460    12.1290     9.6870    11.7840    22.8940  -999.2500   -28.4970 
  102.2500    77.3580    12.0950     9.6470    11.7240    22.8990  -999.2500   -28.4730 
  102.3750    79.2620    12.0190     9.5720    11.3370    22.9070  -999.2500   -28.5080 
  102.5000    78.8700    11.8970     9.4570    11.0180    22.9160  -999.2500   -28.4850 
  102.6250    77.1340    11.7260     9.2940    10.9070    22.9070  -999.2500   -28.5930 
  102.7500    77.0070    11.5310     9.1030    10.8960    22.9020  -999.2500   -28.6830 
  102.8750    78.2970    11.3410     8.9060    10.8860    22.8950  -999.2500   -28.8420 
  103.0000    77.8960    11.1870     8.7320    10.8870    22.8760  -999.2500   -29.0770 
  103.1250    73.6730    11.1110     8.6190    10.7470    22.8330  -999.2500   -29.2600 
  103.2500    70.4410    11.1170     8.5740    10.6460    22.8040  -999.2500   -29.4920 
  103.3750    69.6630    11.1980     8.5970    10.5350    22.7940  -999.2500   -29.6920 
  103.5000    70.0630    11.3370     8.6770    10.5620    22.7970  -999.2500   -29.8830 
  103.6250    70.9070    11.5040     8.7910    10.6420    22.8090  -999.2500   -30.0020 
  103.7500    72.3190    11.6490     8.8970    10.7960    22.8290  -999.2500   -30.0810 
  103.8750    73.7960    11.7250     8.9580    10.9000    22.8450  -999.2500   -30.0550 
  104.0000    74.5570    11.6800     8.9380    10.9550    22.8540  -999.2500   -29.9990 
  104.1250    74.4050    11.4610     8.7940    10.8670    22.8920  -999.2500   -29.8490 
  104.2500    73.8960    11.1250     8.5610    10.6500    22.9410  -999.2500   -29.6600 
  104.3750    75.2390    10.7600     8.2900    10.3350    22.9700  -999.2500   -29.4020 
  104.5000    79.3090    10.4750     8.0530     9.8680    22.9360  -999.2500   -29.1260 
  104.6250    83.6890    10.3800     7.9320     9.2360    22.8370  -999.2500   -28.8990 
  104.7500    85.6430    10.4510     7.9280     8.8020    22.7690  -999.2500   -28.6800 
  104.8750    85.2260    10.6180     8.0150     9.0510    22.7460  -999.2500   -28.5720 
  105.0000    84.4820    10.7850     8.1400     9.9820    22.7420  -999.2500   -28.4120 
  105.1250    85.2280    10.8470     8.2350    10.2440    22.7440  -999.2500   -28.4190 
  105.2500    85.3840    10.7980     8.2760    10.1240    22.7830  -999.2500   -28.3780 
  105.3750    83.0420    10.6960     8.2800     9.9010    22.8880  -999.2500   -28.3280 
  105.5000    79.2450    10.6350     8.2960     9.9560    22.9980  -999.2500   -28.2290 
  105.6250    76.4080    10.7220     8.3830     9.9130    23.0140  -999.2500   -27.9250 
  105.7500    75.2520    10.9380     8.5380     9.7640    22.9620  -999.2500   -27.5450 
  105.8750    75.0910    11.1850     8.7040     9.5880    22.9120  -999.2500   -26.9550 
  106.0000    76.4040    11.3060     8.7820     9.4670    22.9060  -999.2500   -26.3180 
  106.1250    79.7650    11.0890     8.6240     9.3630    22.9460  -999.2500   -25.4290 
  106.2500    84.0310    10.5440     8.2250     9.2160    23.0100  -999.2500   -24.5180 
  106.3750    89.8220     9.7800     7.6510     8.8730    23.1160  -999.2500   -23.6070 
  106.5000    97.3470     9.0050     7.0410     8.0440    23.2690  -999.2500   -22.8030 
  106.6250   104.3060     8.4840     6.5800     7.0310    23.4150     2.3230   -22.1770 
  106.7500   108.0810     8.2800     6.3420     6.4680    23.4880     2.3230   -21.6700 
  106.8750   107.2520     8.3440     6.3230     6.6060    23.5570     2.3200   -21.3150 
  107.0000   103.1520     8.5500     6.4610     7.1810    23.6230     2.3090   -21.0940 
  107.1250    99.9540     8.7670     6.6780     7.4070    23.5600     2.2950   -20.9930 
  107.2500   101.0750     8.9440     6.8990     7.5360    23.4390     2.2810   -20.9960 
  107.3750   103.3700     9.1050     7.1070     7.4780    23.4490     2.2720   -21.0680 
  107.5000   103.7270     9.2870     7.3080     7.0940    23.4530     2.2700   -21.0750 
  107.6250   103.9410     9.4780     7.4860     7.0100    23.2520     2.2770   -21.0750 
  107.7500   103.6770     9.5920     7.5930     7.4230    23.0490     2.2890   -20.8830 
  107.8750   102.1070     9.5390     7.5670     7.8910    23.0090     2.3000   -20.6590 
  108.0000   100.7380     9.2780     7.3700     7.6890    23.1320     2.3050   -20.3370 
  108.1250   101.9500     8.8290     7.0000     6.9050    23.3510     2.3030   -20.0500 
  108.2500   104.3680     8.3300     6.5610     6.1710    23.6600     2.2990   -19.7540 
  108.3750   107.2940     7.8780     6.1360     5.8670    24.0550     2.2970   -19.4350 
  108.5000   108.9820     7.5310     5.7870     5.6540    24.4150     2.2990   -19.2020 
  108.6250   107.3160     7.3340     5.5690     5.5200    24.5440     2.3080   -18.9770 
  108.7500   108.1960     7.2690     5.4760     5.6060    24.5790     2.3200   -19.0190 
  108.8750   113.3810     7.3440     5.5100     5.7200    24.5890     2.3340   -19.1510 
  109.0000   116.4340     7.5750     5.6790     5.7300    24.6120     2.3450   -19.4760 
  109.1250   111.6440     7.9940     6.0090     5.9070    24.5710     2.3430   -19.9750 
  109.2500   105.5490     8.5350     6.4520     6.3680    24.4000     2.3270   -20.5230 
  109.3750   102.8070     9.1190     6.9560     7.0330    24.1280     2.2990   -21.1440 
  109.5000   101.6840     9.6290     7.4340     7.6310    23.8170     2.2670   -21.6610 
  109.6250   101.5870     9.9020     7.7520     8.2610    23.5630     2.2400   -22.1530 
  109.7500   101.9810     9.8990     7.8530     8.5690    23.4900     2.2270   -22.4270 
  109.8750    99.6470     9.6550     7.7370     8.6480    23.5650     2.2260   -22.5830 
