~V
VERS. 2.00: Ver 2.00
~W
STRT.M 61.0000:
STOP.M 318.0000:
STEP.M 0.1250:
NULL. -999.2500:
UWI. DF302:
~C
DEPT.M :
DEN.GM/CC :
SP.MV :
AC.US/MT :
GR.API :
CALI.CM :
RXO.OHMM :
RI. :
RML.OHMM :
~A
# ...
  281.0000     2.2430   -31.8870   378.0480    63.5400    24.8390    68.1790    74.4340    74.1220 
  281.1250     2.2430   -31.3900   376.3170    66.7760    24.7510    60.1680    65.5450    63.8280 
  281.2500     2.2440   -30.9050   373.5380    70.2210    24.6000    49.9090    57.0440    54.6300 
  281.3750     2.2470   -30.4560   371.5610    72.0350    24.3950    41.9330    50.5820    48.1710 
  281.5000     2.2420   -30.0170   370.1260    71.5150    24.2230    39.4160    47.2940    45.3890 
  281.6250     2.2260   -29.6090   366.7090    69.4330    24.2270    43.3340    48.3060    47.1470 
  281.7500     2.2150   -29.1910   358.0050    66.8260    24.3650    53.3110    52.6790    52.1170 
  281.8750     2.2400   -28.7690   340.5490    64.2190    24.5140    70.7660    58.9050    58.4120 
  282.0000     2.3040   -28.3390   311.9060    64.2900    24.5980    89.1210    63.9390    62.6120 
  282.1250     2.3840   -27.9310   279.5300    66.8980    24.5800    84.7480    63.0610    60.0690 
  282.2500     2.4510   -27.5470   254.0060    69.1120    24.4600    60.9070    56.4960    52.2140 
  282.3750     2.4730   -27.2200   246.1500    71.4430    24.2720    37.9600    47.4020    42.8640 
  282.5000     2.4510   -26.9680   263.7360    75.8710    24.1910    28.1210    39.3480    35.3870 
  282.6250     2.4010   -26.8140   295.1330    79.0530    24.4230    28.5050    34.8620    31.9220 
  282.7500     2.3500   -26.7720   326.6430    76.8230    24.7680    32.6690    33.9300    32.1940 
  282.8750     2.3330   -26.8100   345.3240    71.0190    24.9650    39.8020    36.5340    36.0080 
  283.0000     2.3490   -26.9340   341.5380    67.8380    24.9260    51.4540    42.1650    42.5580 
  283.1250     2.3780   -27.1250   323.2320    72.2670    24.7150    68.4950    49.0060    49.5740 
  283.2500     2.4030   -27.3700   301.4250    79.9750    24.4030    82.1900    53.5940    53.6160 
  283.3750     2.4220   -27.6400   287.5400    85.2580    23.9730    80.0440    54.0300    53.1600 
  283.5000     2.4430   -27.9290   289.8030    85.9440    23.5120    62.4620    51.1990    49.7550 
  283.6250     2.4590   -28.2400   302.6570    83.6550    23.2520    48.8440    48.4450    47.3200 
  283.7500     2.4530   -28.5330   318.5390    81.4210    23.3270    53.3610    48.6910    48.4700 
  283.8750     2.4110   -28.8240   330.4290    79.8460    23.7390    73.1880    53.0670    53.9840 
  284.0000     2.3570   -29.0860   334.9450    76.2610    24.2980    93.4740    61.4890    63.5540 
  284.1250     2.3210   -29.3180   335.1230    71.7440    24.6740    97.1820    72.2680    75.2220 
  284.2500     2.3140   -29.5200   333.5920    69.3780    24.7910    90.1050    80.6070    83.7750 
  284.3750     2.3300   -29.6730   332.2990    69.4700    24.6890    81.5680    82.6610    85.0930 
  284.5000     2.3490   -29.7780   332.3700    69.3920    24.3640    73.1200    78.3450    79.6630 
  284.6250     2.3690   -29.8240   332.9140    67.7740    23.8640    64.6300    71.4190    72.3290 
  284.7500     2.3890   -29.8510   331.3640    66.4870    23.5930    57.6710    65.8930    67.1120 
  284.8750     2.4070   -29.8450   324.5920    65.1430    23.7840    55.5200    62.7410    64.6100 
  285.0000     2.4220   -29.8210   310.3990    64.6160    24.2140    62.9240    61.6520    64.1650 
  285.1250     2.4430   -29.7940   294.0290    65.7320    24.4190    80.2730    61.6840    64.5340 
  285.2500     2.4710   -29.7670   281.8930    65.5300    24.3630    89.5710    61.5610    64.4120 
  285.3750     2.4950   -29.7500   278.0800    63.4390    24.3150    81.4030    60.8330    63.4770 
  285.5000     2.5020   -29.7520   283.1270    62.1870    24.4120    65.2950    59.6830    62.1370 
  285.6250     2.4880   -29.7640   291.1910    65.2280    24.5410    56.8150    58.8570    61.3550 
  285.7500     2.4640   -29.7870   298.5100    70.3780    24.5190    54.1220    58.9370    61.6780 
  285.8750     2.4440   -29.8310   303.8800    74.2610    24.3510    54.1150    60.0420    63.1220 
  286.0000     2.4380   -29.9020   308.5570    75.4390    24.2100    56.4500    61.8280    65.2420 
  286.1250     2.4440   -29.9670   314.7220    74.7590    24.1130    61.7180    63.5170    67.1960 
  286.2500     2.4560   -30.0130   322.9730    73.3190    23.9290    67.0470    64.4250    68.2930 
  286.3750     2.4590   -30.0300   332.7810    69.8480    23.7310    69.5270    64.2810    68.2610 
  286.5000     2.4440   -30.0000   342.3540    65.0550    23.7880    67.9640    63.1250    67.1430 
  286.6250     2.4090   -29.9240   349.1870    64.1470    24.1920    62.8910    61.2270    65.2800 
  286.7500     2.3680   -29.7890   351.6940    66.1920    24.5660    57.1250    59.4930    63.7590 
  286.8750     2.3400   -29.6180   349.6390    66.7760    24.7070    53.0910    58.9410    63.7840 
  287.0000     2.3310   -29.4190   343.0020    65.5770    24.6470    52.8080    60.5900    66.4840 
  287.1250     2.3430   -29.2220   333.0680    64.8750    24.5430    59.9440    65.6960    73.1560 
  287.2500     2.3790   -29.0220   319.8010    64.8750    24.5250    75.4240    73.4180    82.7380 
  287.3750     2.4320   -28.8420   304.2930    64.2660    24.5730    95.9730    81.7280    92.7260 
  287.5000     2.4810   -28.6980   291.5590    64.4360    24.5920   113.2210    87.1210    98.5090 
  287.6250     2.5140   -28.5780   279.2800    64.9440    24.5550   117.0530    85.2040    94.5220 
  287.7500     2.5310   -28.4990   267.0210    64.0940    24.5520   107.4340    77.3890    83.8000 
  287.8750     2.5280   -28.4230   259.2440    64.5050    24.6230    90.4930    67.0480    71.3860 
  288.0000     2.5100   -28.3260   259.2780    67.6100    24.7420    76.1650    57.6700    61.2320 
  288.1250     2.4840   -28.1950   264.4210    70.7810    24.8690    71.2770    51.6840    55.4050 
  288.2500     2.4700   -28.0420   271.8430    70.9100    24.9600    71.0070    48.6570    52.8580 
  288.3750     2.4910   -27.8420   278.8030    70.2830    24.9290    73.9650    47.8030    52.5270 
  288.5000     2.5070   -27.5830   281.9780    71.3050    24.7880    80.9470    47.9890    53.0170 
  288.6250     2.4630   -27.2930   280.5500    73.8220    24.6850    84.5270    47.7120    52.5190 
  288.7500     2.3630   -26.9530   275.6630    76.2160    24.6940    74.4850    46.1020    50.2530 
  288.8750     2.2980   -26.5790   270.3960    77.3530    24.7330    54.9000    43.2510    46.5750 
  289.0000     2.3250   -26.2040   267.8730    76.6570    24.7050    38.2660    39.8470    42.4640 
  289.1250     2.4100   -25.8210   267.6230    73.8420    24.5740    31.7380    36.7650    39.0010 
  289.2500     2.4900   -25.4520   268.0470    69.7740    24.3760    30.6390    34.4360    36.5610 
  289.3750     2.5250   -25.1290   267.3100    67.1280    24.2020    31.1450    32.9170    35.1200 
  289.5000     2.5300   -24.8460   265.2840    67.2760    24.1870    31.1830    32.0400    34.4200 
  289.6250     2.5260   -24.6000   265.2280    68.7340    24.3790    30.9090    31.5390    34.1140 
  289.7500     2.5210   -24.4130   269.2110    68.8230    24.6190    31.2550    31.0700    33.8080 
  289.8750     2.5100   -24.2770   276.4110    68.3030    24.8130    32.3330    30.5090    33.3710 
  290.0000     2.4880   -24.1800   283.6790    69.7080    24.9230    34.2070    29.8610    32.8040 
  290.1250     2.4650   -24.1310   288.7340    74.6090    24.9060    35.9170    29.1900    32.1490 
  290.2500     2.4510   -24.1030   291.2360    79.3850    24.8330    35.2230    28.5780    31.4930 
  290.3750     2.4570   -24.0910   291.3930    80.9970    24.7510    31.6490    28.1270    30.9510 
  290.5000     2.4730   -24.1070   288.8350    79.4400    24.6700    27.4020    27.9600    30.6830 
  290.6250     2.4900   -24.1270   283.0280    77.7370    24.6040    25.3840    28.2870    30.9720 
  290.7500     2.4970   -24.1440   273.8950    77.5480    24.6240    26.0680    29.1620    31.9390 
  290.8750     2.4990   -24.1740   263.7860    77.2940    24.7190    29.8100    30.6220    33.6210 
