~V
VERS. 2.00: Ver 2.00
~W
STRT.M 60.0000:
STOP.M 277.0000:
STEP.M 0.1250:
NULL. -999.2500:
UWI. DF3044:
~C
DEPT.M :
GR.API :
CALI.CM :
RXO.OHMM :
RI. :
RML.OHMM :
DEN.GM/CC :
SP.MV :
~A
# ...
  172.5000    71.7520    24.0340    38.2470    67.9620    73.8940     2.2820   -27.5110 
  172.6250    62.5560    24.0480    41.2330    75.2460    83.3510     2.2620   -27.5400 
  172.7500    54.0800    24.0690    64.8020    90.6430   102.7430     2.2350   -27.5900 
  172.8750    52.7730    24.0800   114.8400   114.2810   131.0030     2.2140   -27.6310 
  173.0000    58.2360    24.0930   170.8150   140.3670   160.3610     2.2130   -27.6760 
  173.1250    63.5980    24.1240   187.7630   148.3060   170.6940     2.2370   -27.7170 
  173.2500    64.6310    24.1370   162.2820   131.6850   155.6560     2.2680   -27.7730 
  173.3750    63.8200    24.1510   119.7830   105.1070   126.7450     2.2900   -27.8340 
  173.5000    65.2400    24.1790    79.4840    83.4220   100.0340     2.2970   -27.9070 
  173.6250    66.5070    24.2030    51.7980    72.1540    84.9440     2.2920   -27.9780 
  173.7500    66.0800    24.2170    44.4970    67.8780    78.8160     2.2850   -28.0660 
  173.8750    66.3060    24.2480    54.4920    68.0360    78.2990     2.2760   -28.1870 
  174.0000    68.4830    24.3170    75.7370    70.0460    80.0290     2.2660   -28.3160 
  174.1250    69.5310    24.4040    89.7210    71.1940    80.8830     2.2600   -28.4980 
  174.2500    68.2100    24.4390    84.7850    70.5490    79.8910     2.2640   -28.7070 
  174.3750    65.1210    24.4450    67.0760    69.3310    78.3870     2.2690   -28.9380 
  174.5000    60.3350    24.4460    52.5830    69.9610    78.9840     2.2610   -29.1760 
  174.6250    53.3510    24.4630    53.5960    75.7730    85.4610     2.2400   -29.4320 
  174.7500    48.4050    24.5090    71.3460    87.6680    98.8000     2.2250   -29.7040 
  174.8750    48.8980    24.5660    99.7300   106.0110   118.8700     2.2210   -29.9750 
  175.0000    54.6040    24.5980   124.7100   129.3230   142.9920     2.2160   -30.2380 
  175.1250    61.1760    24.6030   136.7290   151.6720   164.0060     2.2000   -30.4540 
  175.2500    62.4390    24.6030   141.0730   165.2710   175.4780     2.1870   -30.6460 
  175.3750    58.6550    24.6030   143.5210   167.5270   176.2200     2.1900   -30.8200 
  175.5000    54.8680    24.6030   146.8070   161.8310   169.8020     2.2050   -30.9820 
  175.6250    55.2270    24.5920   147.1350   153.1410   160.8400     2.2160   -31.1080 
  175.7500    56.5860    24.5630   144.9760   144.9570   152.5800     2.2190   -31.1800 
  175.8750    57.1990    24.5260   138.9190   138.4050   146.0370     2.2160   -31.2240 
  176.0000    59.3690    24.4690   127.2570   134.0470   141.7000     2.2090   -31.2560 
  176.1250    63.1860    24.3390   110.6950   132.7610   140.4870     2.2010   -31.2760 
  176.2500    64.2990    24.1340    99.0580   134.5590   142.5110     2.1970   -31.2720 
  176.3750    61.6560    23.8830    98.9470   139.6680   148.0280     2.1990   -31.2490 
  176.5000    58.4810    23.6390   105.6650   147.8590   156.6320     2.2030   -31.2080 
  176.6250    57.8910    23.5610   109.9280   158.3430   167.0360     2.2070   -31.1420 
  176.7500    58.7010    23.6050   114.6520   168.7310   176.6510     2.2140   -31.0760 
  176.8750    58.4890    23.7190   116.6170   176.8070   183.4300     2.2230   -30.9930 
  177.0000    57.0140    23.8260   109.6200   181.1780   186.4080     2.2240   -30.9210 
  177.1250    56.9290    23.9310    93.9530   182.1970   186.2940     2.2040   -30.8310 
  177.2500    58.8430    24.0480    82.3170   182.8740   186.0410     2.1800   -30.7470 
  177.3750    59.1990    24.1550    80.6540   185.2950   187.6170     2.1710   -30.6450 
  177.5000    55.1820    24.3000    87.4670   190.6150   192.0720     2.1820   -30.5370 
  177.6250    50.4420    24.4330    98.5710   199.1690   199.6550     2.1950   -30.4280 
  177.7500    49.3080    24.4830   111.0530   208.7440   208.1550     2.1940   -30.3170 
  177.8750    50.7960    24.4830   124.2090   216.6160   214.9690     2.1800   -30.1970 
  178.0000    52.4400    24.4490   142.0940   220.1590   217.7340     2.1670   -30.0490 
  178.1250    53.2410    24.3460   169.0690   217.5070   214.9070     2.1710   -29.9100 
  178.2500    53.2290    24.2140   179.1920   210.9680   208.7140     2.1900   -29.7650 
  178.3750    53.6140    24.1110   162.9270   202.9130   201.3900     2.2100   -29.6290 
  178.5000    54.6340    24.0660   142.2900   195.5000   194.9130     2.2260   -29.4810 
  178.6250    55.0270    24.0450   142.7740   189.6310   189.9790     2.2370   -29.3300 
  178.7500    54.8380    24.0140   161.9230   183.0960   184.3620     2.2470   -29.1850 
  178.8750    55.5420    23.9760   180.4190   172.6250   175.0270     2.2590   -29.0590 
  179.0000    58.5230    23.9390   181.5650   156.1700   159.9790     2.2700   -28.9630 
  179.1250    61.4930    23.9000   155.8080   135.0450   139.9040     2.2810   -28.8610 
  179.2500    62.0910    23.8840   117.0280   114.6940   119.7970     2.2960   -28.7830 
  179.3750    61.0680    23.8800    83.3280    98.4330   103.2070     2.3110   -28.7100 
  179.5000    60.2510    23.8800    64.4400    87.4760    91.8230     2.3200   -28.6520 
  179.6250    61.0280    23.8800    60.8670    82.1180    86.2060     2.3150   -28.5920 
  179.7500    62.3240    23.8800    62.9250    80.2550    84.1990     2.3070   -28.5510 
  179.8750    64.0700    23.8800    66.1170    80.5650    84.4210     2.3010   -28.5100 
  180.0000    65.5490    23.8790    68.4370    81.7460    85.5650     2.2940   -28.4570 
  180.1250    64.4700    23.8760    69.4640    82.5030    86.3550     2.2820   -28.4140 
  180.2500    62.4260    23.8760    69.4830    82.2440    86.1420     2.2720   -28.3530 
  180.3750    62.0570    23.8990    69.0580    81.0320    84.9270     2.2740   -28.2920 
  180.5000    63.9950    23.9740    69.1460    79.3110    83.1100     2.2850   -28.2370 
  180.6250    65.7130    24.0870    69.2580    77.7000    81.3020     2.2880   -28.1970 
  180.7500    65.6480    24.1710    69.6540    76.6510    80.0040     2.2820   -28.1450 
  180.8750    67.0720    24.2000    70.6740    76.3810    79.4680     2.2770   -28.0940 
  181.0000    72.0440    24.2040    72.1900    76.9190    79.7460     2.2820   -28.0300 
  181.1250    76.4760    24.2040    73.5800    78.1630    80.7580     2.2880   -27.9720 
  181.2500    74.7280    24.2040    74.8220    79.6740    82.0470     2.2860   -27.9260 
  181.3750    68.0200    24.2040    76.5420    81.1590    83.2880     2.2780   -27.8940 
  181.5000    63.3990    24.2040    78.6840    82.4210    84.2540     2.2730   -27.8590 
  181.6250    66.3370    24.2020    80.6530    83.3560    84.8260     2.2770   -27.8330 
  181.7500    70.8730    24.1970    81.6860    84.1110    85.1960     2.2870   -27.8310 
  181.8750    70.4780    24.1900    82.2130    84.9140    85.6220     2.2950   -27.8430 
  182.0000    66.7420    24.1850    82.6780    86.0680    86.4180     2.2960   -27.8650 
  182.1250    64.8680    24.1850    83.5350    88.0220    88.0400     2.2900   -27.8830 
  182.2500    64.3070    24.1850    83.8300    90.9060    90.5900     2.2800   -27.9170 
  182.3750    62.9100    24.1850    85.7430    94.7730    94.1140     2.2650   -27.9500 
  182.5000    61.5530    24.1850    91.4720    99.5140    98.5190     2.2500   -27.9990 
  182.6250    62.7500    24.1850    99.1550   104.9380   103.6750     2.2440   -28.0480 
  182.7500    64.1980    24.1850   104.7280   110.5840   109.1750     2.2460   -28.0690 
  182.8750    64.1360    24.1850   108.0750   116.1150   114.7180     2.2520   -28.0720 
  183.0000    61.5640    24.1850   111.5650   121.1200   119.9100     2.2560   -28.0780 
  183.1250    58.2310    24.1850   116.4940   124.7120   123.9180     2.2580   -28.0870 
  183.2500    57.3370    24.1850   122.6160   126.2920   126.1410     2.2550   -28.0720 
  183.3750    57.4980    24.1850   128.5830   125.4260   126.1290     2.2460   -28.0570 
  183.5000    58.8340    24.1850   129.7990   122.2890   123.9740     2.2360   -28.0480 
  183.6250    62.9820    24.1900   119.6080   117.6420   120.2960     2.2320   -28.0390 
