~V
VERS. 2.00: Ver 2.00
~W
STRT.M 60.0000:
STOP.M 277.0000:
STEP.M 0.1250:
NULL. -999.2500:
UWI. DF3044:
~C
DEPT.M :
GR.API :
CALI.CM :
RXO.OHMM :
RI. :
RML.OHMM :
DEN.GM/CC :
SP.MV :
~A
# ...
   71.2500    95.5260    24.4010     6.1110     5.4710     5.8490  -999.2500   -19.5380 
   71.3750    92.9350    24.4580     6.2450     5.3020     5.7380  -999.2500   -19.5060 
   71.5000    96.2820    24.4810     6.1640     5.0900     5.5360  -999.2500   -19.6050 
   71.6250   100.7790    24.4580     5.7660     4.9030     5.3280  -999.2500   -19.8370 
   71.7500    98.1480    24.3780     5.5440     4.8710     5.2940  -999.2500   -20.1850 
   71.8750    89.2930    24.4720     5.6630     5.1390     5.6080  -999.2500   -20.6470 
   72.0000    79.5650    24.8930     6.2920     5.8460     6.4270  -999.2500   -21.2280 
   72.1250    72.8100    25.1570     8.0570     7.1740     8.0070  -999.2500   -21.9650 
   72.2500    69.2450    25.1060    11.4430     8.9330    10.2250  -999.2500   -22.7680 
   72.3750    68.2530    24.8750    15.6900    10.6860    12.5580  -999.2500   -23.6180 
   72.5000    68.4880    24.6750    17.9840    11.7080    13.8560  -999.2500   -24.4550 
   72.6250    69.9890    24.7230    15.6120    11.2910    13.0250  -999.2500   -25.2600 
   72.7500    71.0970    24.4620    11.6330    10.0210    11.1930  -999.2500   -25.9920 
   72.8750    70.9670    24.0790     8.9550     8.5790     9.4280  -999.2500   -26.6460 
   73.0000    69.4840    23.8580     7.8850     7.4130     8.2110  -999.2500   -27.2060 
   73.1250    67.7370    24.1080     7.4660     6.7370     7.6730  -999.2500   -27.6280 
   73.2500    67.1570    24.7160     7.1090     6.4190     7.5750  -999.2500   -27.9840 
   73.3750    68.0040    25.0360     6.8710     6.3590     7.7650  -999.2500   -28.2890 
   73.5000    72.1770    24.6440     6.8440     6.4700     8.1050  -999.2500   -28.5720 
   73.6250    73.8700    24.1400     6.9770     6.6880     8.4920  -999.2500   -28.8350 
   73.7500    68.0780    23.7950     7.1770     6.9310     8.8560  -999.2500   -29.1150 
   73.8750    58.6530    23.6180     7.4170     7.1510     9.1620  -999.2500   -29.3910 
   74.0000    53.8990    23.4740     7.5800     7.3150     9.3780  -999.2500   -29.6520 
   74.1250    56.2980    23.3290     7.5810     7.3850     9.4610  -999.2500   -29.8840 
   74.2500    57.6020    23.2700     7.5260     7.3710     9.4290  -999.2500   -30.0940 
   74.3750    56.0790    23.3050     7.5400     7.2930     9.3050  -999.2500   -30.2680 
   74.5000    55.5890    23.3350     7.6040     7.1830     9.1330  -999.2500   -30.3960 
   74.6250    58.5330    23.2620     7.6320     7.0650     8.9700  -999.2500   -30.5170 
   74.7500    60.3090    23.2080     7.6180     6.9610     8.8530  -999.2500   -30.5880 
   74.8750    59.8400    23.1420     7.5960     6.8850     8.7870  -999.2500   -30.6370 
   75.0000    59.2100    23.0900     7.5820     6.8380     8.7550  -999.2500   -30.6460 
   75.1250    58.8550    23.1830     7.5610     6.8110     8.7400  -999.2500   -30.6360 
   75.2500    56.6530    23.3250     7.5470     6.7910     8.7320  -999.2500   -30.5920 
   75.3750    53.6670    23.3790     7.5460     6.7780     8.7360  -999.2500   -30.5200 
   75.5000    52.5080    23.2770     7.5480     6.7650     8.7560  -999.2500   -30.4330 
   75.6250    54.4500    23.1080     7.5640     6.7410     8.7840  -999.2500   -30.2790 
   75.7500    57.4940    22.9510     7.5700     6.7110     8.8010  -999.2500   -30.1040 
   75.8750    60.6810    22.9210     7.5500     6.6840     8.7950  -999.2500   -29.8730 
   76.0000    62.6050    23.0380     7.5060     6.6590     8.7700  -999.2500   -29.6030 
   76.1250    62.3430    23.0810     7.4590     6.6290     8.7320  -999.2500   -29.2660 
   76.2500    59.7740    23.0020     7.4080     6.6010     8.6910  -999.2500   -28.8800 
   76.3750    57.8600    22.8830     7.3880     6.5870     8.6450  -999.2500   -28.4440 
   76.5000    58.8090    22.8980     7.4210     6.5850     8.5950  -999.2500   -27.9620 
   76.6250    60.5270    22.9030     7.4490     6.5860     8.5540  -999.2500   -27.4480 
   76.7500    60.4360    22.9680     7.4130     6.5790     8.5360  -999.2500   -26.9320 
   76.8750    59.0550    22.9490     7.3620     6.5660     8.5580  -999.2500   -26.4420 
   77.0000    58.2960    22.7880     7.4180     6.5560     8.6130  -999.2500   -25.9800 
   77.1250    61.0860    22.5930     7.6420     6.5520     8.6640  -999.2500   -25.5510 
   77.2500    69.5550    22.5000     7.8600     6.5360     8.6430  -999.2500   -25.1780 
   77.3750    78.8360    22.4830     7.7830     6.4800     8.5040  -999.2500   -24.8910 
   77.5000    80.3060    22.5210     7.4220     6.3590     8.2390  -999.2500   -24.6810 
   77.6250    73.2180    22.6230     6.9470     6.1770     7.8980  -999.2500   -24.5940 
   77.7500    69.5450    22.7210     6.5510     5.9990     7.5930  -999.2500   -24.5770 
   77.8750    72.1870    22.6870     6.3830     5.8830     7.4030  -999.2500   -24.6380 
   78.0000    75.0400    22.5700     6.4900     5.8730     7.3720  -999.2500   -24.7660 
   78.1250    73.4000    22.4760     6.6120     5.9990     7.5330  -999.2500   -24.9750 
   78.2500    69.5650    22.4260     6.6400     6.2180     7.8250  -999.2500   -25.2230 
   78.3750    67.2210    22.3890     6.7010     6.4880     8.1830  -999.2500   -25.4720 
   78.5000    67.6540    22.3740     6.9080     6.7540     8.5250  -999.2500   -25.7300 
   78.6250    67.1460    22.3880     7.1650     6.9460     8.7600  -999.2500   -25.9540 
   78.7500    63.7370    22.4970     7.2840     7.0340     8.8760  -999.2500   -26.1380 
   78.8750    58.9870    22.7190     7.2620     7.0180     8.8880  -999.2500   -26.2410 
   79.0000    55.5860    22.9050     7.1910     6.9240     8.8220  -999.2500   -26.2600 
   79.1250    53.9220    22.8930     7.2300     6.7640     8.6670  -999.2500   -26.1660 
   79.2500    54.4930    22.9170     7.3790     6.5340     8.4020  -999.2500   -25.9710 
   79.3750    56.4780    23.0260     7.5890     6.2470     8.0300  -999.2500   -25.6790 
   79.5000    57.2930    23.2390     7.7580     6.0020     7.6680  -999.2500   -25.2780 
   79.6250    56.3400    23.7030     7.8200     6.0560     7.6510  -999.2500   -24.7390 
   79.7500    56.2270    24.2050     7.9240     6.6290     8.2890  -999.2500   -24.0980 
   79.8750    57.6080    24.1750     8.6500     8.0130     9.9320  -999.2500   -23.4300 
   80.0000    61.1100    23.7620    11.3200    10.6180    13.0280  -999.2500   -22.7470 
   80.1250    65.1630    23.6080    20.0460    15.1970    18.5620  -999.2500   -22.0970 
   80.2500    67.1060    23.6570    34.2390    21.0720    25.9640  -999.2500   -21.4870 
   80.3750    67.0740    23.8830    48.7280    25.6040    31.6130  -999.2500   -20.9500 
   80.5000    68.7450    24.1540    56.1370    25.0210    29.6580  -999.2500   -20.5020 
   80.6250    74.1220    24.2570    47.8020    19.2610    21.1660  -999.2500   -20.1850 
   80.7500    81.8690    24.4180    31.1120    13.3480    13.7250  -999.2500   -20.0020 
   80.8750    91.1090    24.5140    15.6180     9.0540     8.9170  -999.2500   -19.9060 
   81.0000    98.1260    24.2650     7.4060     6.3730     6.2040  -999.2500   -19.9100 
   81.1250    98.1220    24.0360     5.3590     4.9720     5.0250  -999.2500   -19.9990 
   81.2500    94.4500    23.9740     4.8610     4.3040     4.6710  -999.2500   -20.1510 
   81.3750    90.5330    24.1050     4.8740     4.2020     4.8890  -999.2500   -20.3270 
   81.5000    86.7320    24.2830     5.0790     4.5250     5.4850  -999.2500   -20.5080 
   81.6250    82.0680    24.3600     5.5090     5.1040     6.2500  -999.2500   -20.6680 
   81.7500    78.0160    24.2260     6.4020     5.6520     6.9020  -999.2500   -20.7860 
   81.8750    76.5580    24.1470     7.8800     5.9650     7.2230  -999.2500   -20.8760 
   82.0000    81.0600    24.1220     8.7140     5.9310     7.0930  -999.2500   -20.9720 
   82.1250    91.1680    23.9980     7.6290     5.5600     6.5480  -999.2500   -21.1060 
   82.2500    97.3210    23.8070     5.8920     5.1020     5.9400  -999.2500   -21.2860 
   82.3750    94.0290    23.7670     4.9980     4.7320     5.5120  -999.2500   -21.5440 
