~V
VERS. 2.00: Ver 2.00
~W
STRT.M 64.0000:
STOP.M 264.0000:
STEP.M 0.1250:
NULL. -999.2500:
UWI. DF3031:
~C
DEPT.M :
DEN.GM/CC :
AC.US/MT :
GR.API :
CALI.CM :
RXO.OHMM :
RI. :
RML.OHMM :
SP.MV :
~A
# ...
   94.0000  -999.2500  -999.2500    71.7420    24.6130     8.9660    10.3490    14.6370   -24.7230 
   94.1250  -999.2500  -999.2500    72.9410    24.6680     8.9120    10.1720    14.0680   -24.9950 
   94.2500  -999.2500  -999.2500    73.0800    24.6050     8.9100     9.7150    13.1060   -25.2430 
   94.3750  -999.2500  -999.2500    73.3280    24.5480     8.9400     9.1440    12.0720   -25.4690 
   94.5000  -999.2500  -999.2500    71.9170    24.5410     8.9810     8.6170    11.2280   -25.6820 
   94.6250  -999.2500  -999.2500    69.9170    24.5350     8.9900     8.2580    10.7490   -25.8670 
   94.7500  -999.2500  -999.2500    71.1550    24.4820     8.9440     8.0580    10.5540   -26.0300 
   94.8750  -999.2500  -999.2500    74.0330    24.3810     8.8700     7.9780    10.5400   -26.1710 
   95.0000  -999.2500  -999.2500    75.8120    24.2820     8.8420     7.9600    10.5900   -26.3040 
   95.1250  -999.2500  -999.2500    76.4360    24.2780     8.8830     7.9400    10.5870   -26.4270 
   95.2500  -999.2500  -999.2500    76.7590    24.3530     8.8660     7.8760    10.4780   -26.5420 
   95.3750  -999.2500  -999.2500    76.1720    24.4250     8.7390     7.7620    10.2660   -26.6520 
   95.5000  -999.2500  -999.2500    74.7640    24.4390     8.5800     7.6130     9.9890   -26.7470 
   95.6250  -999.2500  -999.2500    72.9290    24.4030     8.4760     7.4560     9.7170   -26.8160 
   95.7500  -999.2500  -999.2500    69.9200    24.3760     8.3880     7.3240     9.5040   -26.8530 
   95.8750  -999.2500  -999.2500    67.5320    24.4260     8.3200     7.2290     9.3770   -26.8530 
   96.0000  -999.2500  -999.2500    68.1640    24.5830     8.3360     7.1760     9.3360   -26.8020 
   96.1250  -999.2500  -999.2500    70.5530    24.7350     8.4510     7.1670     9.3740   -26.6780 
   96.2500  -999.2500  -999.2500    72.1440    24.7450     8.5380     7.1930     9.4660   -26.5020 
   96.3750  -999.2500  -999.2500    73.1400    24.5940     8.5300     7.2480     9.5990   -26.2820 
   96.5000  -999.2500  -999.2500    74.8030    24.3480     8.4660     7.3220     9.7540   -26.0190 
   96.6250  -999.2500  -999.2500    76.4240    24.0970     8.4290     7.3990     9.8980   -25.7380 
   96.7500  -999.2500  -999.2500    76.8410    23.9190     8.4300     7.4610    10.0030   -25.4610 
   96.8750  -999.2500  -999.2500    76.9830    23.8220     8.4410     7.5000    10.0530   -25.2140 
   97.0000  -999.2500  -999.2500    76.8500    23.7590     8.4380     7.5130    10.0520   -25.0010 
   97.1250  -999.2500  -999.2500    73.9240    23.7090     8.4100     7.5050    10.0170   -24.8450 
   97.2500  -999.2500  -999.2500    71.4350    23.7080     8.3740     7.4870     9.9740   -24.7360 
   97.3750  -999.2500  -999.2500    72.8620    23.7620     8.3550     7.4700     9.9410   -24.6740 
   97.5000     2.2110  -999.2500    76.1500    23.8460     8.3820     7.4630     9.9250   -24.6540 
   97.6250     2.2110  -999.2500    75.9920    23.9290     8.5580     7.4670     9.9270   -24.6500 
   97.7500     2.2320  -999.2500    75.3550    24.0260     9.0810     7.4780     9.9300   -24.6720 
   97.8750     2.2360  -999.2500    77.4420    24.1640     9.9930     7.4880     9.9230   -24.6970 
   98.0000     2.2280   375.1860    79.3130    24.3380    10.8230     7.4930     9.8970   -24.7230 
   98.1250     2.2210   375.1860    77.4750    24.5290    10.7580     7.4880     9.8550   -24.7570 
   98.2500     2.2180   371.5280    75.4070    24.6980    10.0970     7.4780     9.8070   -24.8060 
   98.3750     2.2130   368.8520    75.8670    24.8120     9.5280     7.4680     9.7590   -24.8680 
   98.5000     2.2030   367.6190    76.7050    24.8530     9.3530     7.4590     9.7010   -24.9470 
   98.6250     2.1970   368.2080    75.7420    24.8480     9.3410     7.4460     9.6110   -25.0690 
   98.7500     2.1960   370.0110    72.8700    24.8460     9.2360     7.4240     9.4820   -25.2060 
   98.8750     2.1960   372.4900    69.3340    24.8460     9.0560     7.3890     9.3150   -25.3490 
   99.0000     2.1930   375.1680    66.2650    24.8460     8.8650     7.3420     9.1240   -25.4990 
   99.1250     2.1930   377.8760    65.2210    24.8460     8.7200     7.2880     8.9320   -25.6320 
   99.2500     2.1980   380.7900    65.6600    24.8460     8.6250     7.2380     8.7690   -25.7210 
   99.3750     2.2060   384.1070    67.5550    24.8460     8.5640     7.1990     8.6570   -25.7300 
   99.5000     2.2100   387.8110    70.2100    24.8460     8.5050     7.1800     8.6140   -25.6350 
   99.6250     2.2180   391.6360    71.8770    24.8460     8.4510     7.1830     8.6490   -25.3600 
   99.7500     2.2320   395.3160    72.3640    24.8460     8.4440     7.1760     8.6910   -24.9230 
   99.8750     2.2440   398.8610    72.3900    24.8470     8.4870     7.0980     8.6270   -24.3150 
  100.0000     2.2450   402.3440    74.3250    24.8450     8.4720     6.8860     8.3370   -23.5190 
  100.1250     2.2480   405.3980    78.9950    24.8330     8.1260     6.4830     7.7200   -22.5450 
  100.2500     2.2720   407.0450    84.7880    24.9430     7.3690     5.9780     6.9300   -21.4930 
  100.3750     2.3100   405.8100    89.8740    25.3730     6.3920     5.4930     6.1970   -20.4690 
  100.5000     2.3350   400.1420    90.9550    26.0850     5.5850     5.1770     5.7990   -19.5550 
  100.6250     2.3260   388.0880    86.6970    26.6780     5.3850     5.2340     6.1120   -18.8870 
  100.7500     2.3110   371.0850    81.4830    26.8990     5.8430     5.7340     7.2140   -18.4590 
  100.8750     2.3210   351.3820    78.1600    26.8250     6.8740     6.7430     9.1360   -18.2760 
  101.0000     2.3640   332.5970    74.8380    26.6160     8.1070     8.2290    11.6750   -18.3440 
  101.1250     2.4100   320.1780    71.6090    26.2480     8.8500     9.8970    14.0970   -18.6690 
  101.2500     2.4210   316.2600    72.3190    25.7650     8.9710    11.0940    15.3950   -19.1330 
  101.3750     2.3930   320.9280    76.5640    25.3150     8.8150    11.3920    15.1390   -19.6570 
  101.5000     2.3490   331.9000    80.0610    25.0480     8.7250    10.8760    13.7640   -20.1740 
  101.6250     2.3120   345.3620    80.5810    24.9950     8.7840    10.0080    12.1900   -20.5920 
  101.7500     2.2820   357.2480    80.1800    24.9490     8.9730     9.2440    11.0320   -20.9130 
  101.8750     2.2560   365.9970    78.6550    24.8280     9.2750     8.7000    10.3530   -21.1490 
  102.0000     2.2360   371.7180    76.0100    24.6790     9.4660     8.3530    10.0190   -21.3200 
  102.1250     2.2250   375.4470    74.6630    24.6220     9.2400     8.1500     9.8840   -21.4380 
  102.2500     2.2170   378.7160    74.9270    24.6720     8.8470     8.0300     9.8380   -21.5370 
  102.3750     2.2110   381.7820    75.7330    24.7730     8.7010     7.9850     9.8730   -21.6360 
  102.5000     2.2110   384.0990    75.6070    24.8630     8.9700     8.0170     9.9940   -21.7510 
  102.6250     2.2220   384.3750    75.4070    24.9230     9.4120     8.1220    10.1950   -21.8940 
  102.7500     2.2380   382.3430    76.1450    24.9810     9.6400     8.2620    10.4260   -22.0700 
  102.8750     2.2560   378.2970    77.9430    25.0530     9.5840     8.4060    10.6430   -22.2760 
  103.0000     2.2700   373.1140    79.7410    25.1190     9.4300     8.5210    10.8060   -22.4980 
  103.1250     2.2770   367.9850    78.5230    25.1470     9.5300     8.5730    10.8710   -22.7230 
  103.2500     2.2740   363.7920    74.1190    25.1490    10.0060     8.5570    10.8320   -22.9460 
  103.3750     2.2650   360.9860    70.1440    25.1430    10.6300     8.4670    10.6790   -23.1390 
  103.5000     2.2580   359.8920    70.4070    25.1510    10.8800     8.3080    10.4220   -23.2850 
  103.6250     2.2550   361.1820    72.1710    25.1820    10.3410     8.0970    10.0940   -23.3840 
  103.7500     2.2470   364.6610    71.4640    25.2130     9.5390     7.8870     9.7900   -23.4190 
  103.8750     2.2300   370.0420    70.0880    25.2280     8.9570     7.7310     9.6050   -23.4010 
