~V
VERS. 2.00: Ver 2.00
~W
STRT.M 60.0000:
STOP.M 273.0000:
STEP.M 0.1250:
NULL. -999.2500:
UWI. DF3001:
~C
DEPT.M :
DEN.GM/CC :
SP.MV :
AC.US/MT :
GR.API :
RML.OHMM :
RI. :
RXO.OHMM :
CALI.CM :
~A
# ...
  190.0000     1.9490   -11.7380   433.4630    41.9650     5.9770     5.3520     4.3830    27.2080 
  190.1250     1.8950   -11.5810   440.2170    40.6800     5.8480     5.2320     4.3580    29.3360 
  190.2500     1.8900   -11.4600   438.8750    39.1580     5.6690     5.0650     4.3210    30.3160 
  190.3750     1.9140   -11.4590   434.1300    36.6430     5.4790     4.8870     4.2550    30.2570 
  190.5000     1.9430   -11.5300   430.8180    34.0770     5.3200     4.7380     4.2000    29.8850 
  190.6250     1.9490   -11.6600   428.2430    33.7430     5.2430     4.6660     4.2430    30.1990 
  190.7500     1.9290   -11.9200   421.2000    36.4030     5.2600     4.6820     4.3970    30.8630 
  190.8750     1.9000   -12.3090   408.0710    40.9350     5.3700     4.7840     4.5980    31.2830 
  191.0000     1.8790   -12.7260   392.7520    45.7430     5.5460     4.9500     4.8190    31.6770 
  191.1250     1.8800   -13.1470   383.8350    52.0290     5.7510     5.1480     5.0590    32.2710 
  191.2500     1.9010   -13.6500   385.6490    61.3990     5.9500     5.3370     5.2580    31.9690 
  191.3750     1.9400   -14.1990   396.7720    72.7230     6.1470     5.5080     5.3680    30.3470 
  191.5000     1.9960   -14.7760   409.2350    82.7410     6.3520     5.6710     5.4070    28.8890 
  191.6250     2.0690   -15.4750   411.2400    89.1430     6.6280     5.8490     5.5160    27.6170 
  191.7500     2.1530   -16.2470   403.8380    94.4830     6.9670     6.0610     5.7780    26.0650 
  191.8750     2.2360   -16.9860   395.4570    99.1950     7.3350     6.3200     6.1870    24.7970 
  192.0000     2.3040   -17.6620   392.3820   102.5100     7.7390     6.6410     6.7060    24.3340 
  192.1250     2.3480   -18.3900   395.0570   101.8860     8.2620     7.0670     7.3080    24.5280 
  192.2500     2.3760   -19.1300   395.4430    99.4370     8.9210     7.6060     8.0930    24.6930 
  192.3750     2.3950   -19.8100   388.1970    98.3290     9.6930     8.2440     9.5260    24.4260 
  192.5000     2.4070   -20.4330   375.6400    99.1460    10.4760     8.9100    11.6650    23.9480 
  192.6250     2.4090   -20.9830   368.8890    98.2630    11.0460     9.4510    13.9120    23.7240 
  192.7500     2.4030   -21.4090   373.3560    94.3690    11.2680     9.7480    15.1010    23.6790 
  192.8750     2.3930   -21.7110   385.2410    91.9240    11.1310     9.7590    14.9850    23.6790 
  193.0000     2.3830   -22.0070   397.0850    93.9220    10.7740     9.5440    13.2980    23.6800 
  193.1250     2.3790   -22.2140   402.7380    97.1990    10.4480     9.2570    11.7290    23.6800 
  193.2500     2.3780   -22.2990   401.9130    97.6470    10.3090     9.0550    11.1510    23.6700 
  193.3750     2.3770   -22.3340   398.1850    95.0480    10.3610     8.9870    11.5220    23.6460 
  193.5000     2.3740   -22.3290   395.5680    92.7230    10.5140     9.0290    12.2390    23.6300 
  193.6250     2.3650   -22.1800   395.7190    91.9720    10.6410     9.1150    12.6030    23.6730 
  193.7500     2.3570   -21.9290   396.8110    93.3040    10.6800     9.1770    12.2520    23.7780 
  193.8750     2.3540   -21.6610   397.2190    97.5990    10.6640     9.2110    11.5320    23.8760 
  194.0000     2.3620   -21.3520   396.1490   101.7270    10.6670     9.2450    11.2530    23.9180 
  194.1250     2.3840   -20.9460   393.6260   100.9990    10.7530     9.3090    11.5040    23.9330 
  194.2500     2.4160   -20.4850   391.2750   100.3200    10.8750     9.3840    11.7900    24.0040 
  194.3750     2.4480   -19.9830   391.3160   104.7580    10.9310     9.4090    11.7660    24.1450 
  194.5000     2.4650   -19.3680   394.8070   111.6690    10.8010     9.3030    11.2490    24.2470 
  194.6250     2.4540   -18.6520   401.3510   117.0090    10.3550     8.9660    10.5210    24.2800 
  194.7500     2.3950   -17.9240   409.9360   119.4820     9.6650     8.4310     9.8240    24.2840 
  194.8750     2.2990   -17.1230   420.0600   116.7580     8.8620     7.7780     9.0790    24.3450 
  195.0000     2.1940   -16.1630   428.3550   107.8030     8.1340     7.1360     8.1350    24.6670 
  195.1250     2.1140   -15.1700   427.1490    96.8070     7.7080     6.6820     7.0660    25.5310 
  195.2500     2.0970   -14.2740   414.7600    87.7690     7.6350     6.4760     6.4120    26.5490 
  195.3750     2.1350   -13.4280   395.0390    80.1710     7.8650     6.5080     6.4600    27.0150 
  195.5000     2.1950   -12.6410   377.1070    75.8730     8.2230     6.6830     7.0260    26.7770 
  195.6250     2.2260   -11.9980   373.4850    77.1910     8.4360     6.8320     7.6300    26.0530 
  195.7500     2.1790   -11.4530   384.9610    79.3630     8.2850     6.8050     7.7560    25.7920 
  195.8750     2.0800   -10.9820   406.7580    78.1330     7.7480     6.5540     7.0850    26.3680 
  196.0000     1.9690   -10.6010   430.1810    71.3250     6.9890     6.1360     5.9100    27.8940 
  196.1250     1.8780   -10.3800   443.4340    60.4110     6.2770     5.6950     5.0470    29.4900 
  196.2500     1.8290   -10.1980   442.3800    50.9110     5.9310     5.3690     4.7670    30.5500 
  196.3750     1.8210   -10.0030   429.9240    45.1470     5.7620     5.2090     4.7650    31.5540 
  196.5000     1.8490    -9.8320   413.2880    44.1030     5.7620     5.2090     4.8990    32.1560 
  196.6250     1.9000    -9.6790   397.8480    45.6330     5.8920     5.3320     5.1900    31.1820 
  196.7500     1.9430    -9.5050   386.9080    47.3520     6.0600     5.4910     5.6200    28.7410 
  196.8750     1.9490    -9.3350   383.0880    52.0170     6.2130     5.6350     6.1360    26.2500 
  197.0000     1.9130    -9.2270   385.4980    62.0450     6.3260     5.7420     6.6120    24.9390 
  197.1250     1.8620    -9.1320   389.2730    72.6890     6.3970     5.8080     6.8240    24.5900 
  197.2500     1.8440    -9.0010   392.4060    78.3790     6.4540     5.8620     6.8500    24.2460 
  197.3750     1.8810    -8.8560   395.3510    83.3040     6.5170     5.9220     6.8390    23.9770 
  197.5000     1.9680    -8.7500   396.5600    90.6130     6.5910     5.9910     6.8660    23.9250 
  197.6250     2.0830    -8.6290   394.7670    92.6900     6.6590     6.0560     6.8040    24.0760 
  197.7500     2.1910    -8.4720   389.0800    88.0460     6.6980     6.0920     6.7530    24.2950 
  197.8750     2.2710    -8.3380   377.2320    84.7330     6.6970     6.0910     6.6390    24.5110 
  198.0000     2.3240    -8.2800   363.5230    86.9210     6.6660     6.0620     6.4910    24.7070 
  198.1250     2.3540    -8.2470   354.5800    88.8190     6.6440     6.0410     6.3670    24.9050 
  198.2500     2.3630    -8.1510   354.2960    88.0320     6.6690     6.0630     6.3800    24.9930 
  198.3750     2.3610    -8.0360   358.1580    86.2950     6.7450     6.1350     6.5570    25.0180 
  198.5000     2.3540    -7.9000   357.8040    85.2570     6.8330     6.2260     6.9670    25.0200 
  198.6250     2.3490    -7.7200   355.3410    86.7410     6.8690     6.2760     7.4130    25.0160 
  198.7500     2.3480    -7.6160   357.6510    90.9960     6.8450     6.2630     7.8130    25.0150 
  198.8750     2.3480    -7.6220   367.6360    93.3000     6.8460     6.2230     7.8580    25.0160 
  199.0000     2.3470    -7.6010   376.3390    93.6080     7.0410     6.2560     7.1990    25.0180 
  199.1250     2.3440    -7.5330   378.1380    99.5110     7.7050     6.5550     7.4380    25.0160 
  199.2500     2.3420    -7.6160   374.3380   105.3940     8.8110     7.2010     8.6640    25.0140 
  199.3750     2.3400    -7.8310   368.3630   100.9020    10.1300     8.2020    10.7390    25.0140 
  199.5000     2.3400    -8.0820   362.5300    88.1130    11.4880     9.4560    13.0500    25.0140 
  199.6250     2.3390    -8.4090   358.8280    80.6370    12.4420    10.7390    14.9660    25.0140 
  199.7500     2.3390    -8.7720   358.1560    79.6010    13.0820    11.8310    15.8720    25.0140 
  199.8750     2.3400    -9.0890   359.9910    81.7220    13.6980    12.6940    15.7340    25.0140 
