~V
VERS. 2.00: Ver 2.00
~W
STRT.M 125.0000:
STOP.M 245.0000:
STEP.M 0.1250:
NULL. -999.2500:
UWI. DF3026:
~C
DEPT.M :
SP.MV :
GR.API :
CALI.CM :
RXO.OHMM :
RI. :
RML.OHMM :
DEN.GM/CC :
~A
# ...
  215.0000   -34.3310    52.4840    25.7760    43.1100    58.1750    60.7740     2.4180 
  215.1250   -34.3140    52.6090    25.8830    32.8250    55.7840    58.0220     2.4240 
  215.2500   -34.2790    54.6900    25.8510    31.1140    54.4580    56.5030     2.4140 
  215.3750   -34.2390    57.6450    25.7930    34.7960    54.4810    56.5380     2.3990 
  215.5000   -34.2150    59.3210    25.7640    38.9390    55.7810    57.9970     2.3790 
  215.6250   -34.1490    58.6600    25.7730    41.5080    58.0330    60.4800     2.3510 
  215.7500   -34.0590    58.0840    25.9200    45.6790    60.3180    62.9740     2.3210 
  215.8750   -33.9370    59.1380    26.1360    52.0390    61.9280    64.6690     2.2980 
  216.0000   -33.7510    61.2700    26.4010    58.6220    62.5260    65.1070     2.2850 
  216.1250   -33.4920    61.9380    26.5180    60.6520    62.3170    64.4470     2.2850 
  216.2500   -33.1870    60.5570    26.5560    58.0660    62.3670    63.9760     2.2930 
  216.3750   -32.8130    60.4110    26.5610    54.4300    63.9360    65.0850     2.2980 
  216.5000   -32.3300    61.9620    26.5550    55.9110    68.2350    69.0100     2.3050 
  216.6250   -31.7630    60.3870    26.4510    66.3620    74.8820    75.5580     2.3320 
  216.7500   -31.1800    54.5620    26.1680    84.1130    78.1630    78.6690     2.3900 
  216.8750   -30.5790    49.2400    25.7740   105.4970    70.8880    70.2520     2.4570 
  217.0000   -29.9750    49.9710    25.4540   114.9820    52.7030    50.7380     2.5120 
  217.1250   -29.4290    56.8950    25.2970    85.6850    33.5840    31.7730     2.5350 
  217.2500   -28.9600    63.9920    25.1800    44.3510    20.4170    19.1840     2.5150 
  217.3750   -28.6140    68.4780    24.9940    16.9710    12.9120    11.9880     2.4760 
  217.5000   -28.4500    71.4900    24.7030     7.6220     9.1150     8.2850     2.4460 
  217.6250   -28.4780    73.1390    24.7270     7.2550     7.5640     6.8730     2.4370 
  217.7500   -28.6180    72.8500    25.0530     8.0950     7.0260     6.5330     2.4380 
  217.8750   -28.8450    74.1910    25.3970     8.5550     7.1240     6.7810     2.4340 
  218.0000   -29.1400    78.7540    25.5440     8.5340     7.5540     7.2360     2.4300 
  218.1250   -29.4610    82.3720    25.5510     8.3760     8.0010     7.5860     2.4320 
  218.2500   -29.7830    82.2480    25.5430     8.1280     8.2760     7.7380     2.4390 
  218.3750   -30.0680    80.3460    25.5170     7.8320     8.3750     7.7430     2.4380 
  218.5000   -30.2990    79.9810    25.4580     7.7260     8.3420     7.6690     2.4280 
  218.6250   -30.4880    81.2970    25.3990     7.9100     8.1770     7.5220     2.4190 
  218.7500   -30.6830    82.8560    25.3690     8.1240     7.8990     7.3120     2.4210 
  218.8750   -30.9190    84.6760    25.3570     8.1880     7.5410     7.0720     2.4260 
  219.0000   -31.1890    86.6220    25.3460     8.1250     7.2060     6.8900     2.4240 
  219.1250   -31.5190    91.2990    25.3370     8.0280     7.0960     6.9780     2.4160 
  219.2500   -31.9090    94.5990    25.3140     8.0660     7.3390     7.4920     2.4080 
  219.3750   -32.3680    90.6420    25.2510     8.6690     8.0460     8.5820     2.4010 
  219.5000   -32.8610    80.2740    25.1250    10.9140     9.3020    10.3530     2.3880 
  219.6250   -33.3850    72.0700    25.0680    14.8340    11.2070    12.8750     2.3680 
  219.7500   -33.8850    71.0690    25.1250    18.5140    13.4640    15.7340     2.3490 
  219.8750   -34.3400    72.2110    25.3300    20.2800    15.6610    18.3900     2.3370 
  220.0000   -34.7460    70.8220    25.4580    20.3750    17.3460    20.2850     2.3380 
  220.1250   -35.0890    68.1980    25.5770    20.2320    18.2350    21.1060     2.3450 
  220.2500   -35.3740    67.6840    25.6160    20.2090    18.6710    21.3870     2.3500 
  220.3750   -35.5630    67.5270    25.6320    20.3570    18.9360    21.5600     2.3470 
  220.5000   -35.6670    65.6400    25.6470    20.6430    19.1610    21.8280     2.3410 
  220.6250   -35.7000    64.2380    25.6820    20.8240    19.3160    22.1450     2.3400 
  220.7500   -35.6670    65.5720    25.7260    20.6280    19.3730    22.3870     2.3460 
  220.8750   -35.5920    67.3770    25.7770    20.0620    19.3530    22.5190     2.3560 
  221.0000   -35.4900    67.0880    25.8240    19.3630    19.3220    22.5910     2.3610 
  221.1250   -35.3480    64.8600    25.8250    18.9720    19.3660    22.7160     2.3570 
  221.2500   -35.1730    63.7360    25.7790    18.8330    19.5210    22.9640     2.3470 
  221.3750   -34.9700    64.4750    25.7430    18.9010    19.8020    23.3530     2.3410 
  221.5000   -34.7460    66.1210    25.7450    19.3480    20.2250    23.8850     2.3380 
  221.6250   -34.4540    67.7780    25.7740    20.2920    20.8530    24.6360     2.3340 
  221.7500   -34.1450    69.6270    25.8010    21.2290    21.7040    25.6720     2.3260 
  221.8750   -33.7710    69.9430    25.7900    21.8550    22.8160    27.0610     2.3200 
  222.0000   -33.3370    67.3160    25.7210    22.4400    24.2100    28.8150     2.3150 
  222.1250   -32.8230    63.6470    25.6930    23.8300    25.8900    30.8780     2.3080 
  222.2500   -32.2020    63.2610    25.7180    25.2440    27.6690    32.9750     2.3050 
  222.3750   -31.4810    65.0680    25.7900    25.6830    29.3530    34.8540     2.3180 
  222.5000   -30.6650    64.4140    25.8750    25.1630    30.7720    36.3200     2.3540 
  222.6250   -29.7800    63.2140    25.9600    24.7430    31.7080    37.1380     2.4040 
  222.7500   -28.8590    66.8420    25.9800    24.6880    32.0580    37.2390     2.4490 
  222.8750   -27.9380    70.9670    25.7280    24.7020    31.6450    36.4530     2.4810 
  223.0000   -27.0290    68.9120    25.1040    24.3040    30.3770    34.7190     2.4970 
  223.1250   -26.1720    63.7740    24.7610    22.6230    28.2960    32.1180     2.4920 
  223.2500   -25.3940    62.5000    24.6300    19.8620    25.9180    29.2210     2.4640 
  223.3750   -24.7080    66.2050    24.6010    17.1480    23.6220    26.4620     2.4330 
  223.5000   -24.1190    68.9950    24.6280    15.6710    21.6610    24.1270     2.4160 
  223.6250   -23.6300    69.8110    24.7400    15.7970    20.2200    22.4270     2.4100 
  223.7500   -23.2170    70.3620    24.8580    16.3410    19.2540    21.2820     2.3980 
  223.8750   -22.8630    70.0900    24.8880    16.4320    18.7680    20.6710     2.3760 
  224.0000   -22.5700    68.4270    24.9040    15.9940    18.7370    20.5530     2.3560 
  224.1250   -22.3180    65.8710    24.9940    15.8600    19.0760    20.8410     2.3400 
  224.2500   -22.0700    64.6610    25.1200    16.4380    19.4640    21.1940     2.3230 
  224.3750   -21.8400    66.1200    25.2470    17.5390    19.5820    21.2530     2.3120 
  224.5000   -21.6000    70.4470    25.4000    18.2330    19.1360    20.7230     2.3210 
  224.6250   -21.3450    76.2700    25.5550    17.0740    17.9150    19.4860     2.3500 
  224.7500   -21.0790    77.5680    25.6200    14.6750    16.2400    17.8540     2.3750 
  224.8750   -20.8120    73.2070    25.6380    12.1690    14.4420    16.0700     2.3780 
  225.0000   -20.5330    68.4800    25.6430    10.4400    12.8090    14.3200     2.3640 
  225.1250   -20.2900    68.8730    25.6530     9.3630    11.5560    12.7840     2.3450 
  225.2500   -20.0930    70.8070    25.6700     8.7140    10.6410    11.5640     2.3310 
  225.3750   -19.9240    70.9090    25.6850     8.3640    10.0110    10.7050     2.3230 
  225.5000   -19.8010    69.9360    25.7090     8.2990     9.6310    10.1690     2.3190 
  225.6250   -19.7400    70.8340    25.7840     8.4210     9.5740     9.9420     2.3150 
  225.7500   -19.7180    73.0020    25.8110     8.5810     9.8630    10.0210     2.3130 
  225.8750   -19.7240    72.3780    25.7400     8.8930    10.5520    10.5730     2.3160 
  226.0000   -19.7520    70.0280    25.5450     9.7640    11.6560    11.7530     2.3200 
  226.1250   -19.7790    68.3140    25.3410    12.0200    13.1170    13.5930     2.3190 
