~V
VERS. 2.00: Ver 2.00
~W
STRT.M 63.0000:
STOP.M 257.0000:
STEP.M 0.1250:
NULL. -999.2500:
UWI. DF3070:
~C
DEPT.M :
DEN.GM/CC :
GR.API :
RML.OHMM :
RI. :
RXO.OHMM :
CALI.CM :
SP.MV :
~A
# ...
   85.5000  -999.2500    99.2930     8.9100     6.1820     6.7990    24.1600   -20.6480 
   85.6250  -999.2500    97.6310     8.8160     6.1060     6.6000    24.1030   -20.1280 
   85.7500  -999.2500    97.2290     8.6280     5.9920     6.4190    24.0710   -19.6990 
   85.8750  -999.2500    99.0430     8.3780     5.8480     6.3450    24.1000   -19.4720 
   86.0000  -999.2500   102.6240     8.1300     5.7020     6.1930    24.2050   -19.2320 
   86.1250  -999.2500   105.1490     7.9790     5.6050     5.9150    24.3240   -19.1680 
   86.2500  -999.2500   108.2710     7.9630     5.5860     5.7370    24.4070   -19.1220 
   86.3750  -999.2500   109.8430     8.0880     5.6560     5.7670    24.4410   -19.1130 
   86.5000  -999.2500   105.0170     8.3260     5.8090     5.9500    24.3950   -19.2260 
   86.6250  -999.2500    93.6760     8.6250     6.0220     6.2510    24.2910   -19.3730 
   86.7500  -999.2500    85.6600     8.9060     6.2410     6.5600    24.3310   -19.5650 
   86.8750  -999.2500    85.3080     9.1220     6.4290     6.7960    24.5600   -19.7980 
   87.0000  -999.2500    87.5080     9.2510     6.5590     6.9510    24.7450   -20.0320 
   87.1250  -999.2500    89.0480     9.2930     6.6180     7.0180    24.5700   -20.2060 
   87.2500  -999.2500    89.5660     9.2900     6.6310     7.0770    24.2410   -20.3310 
   87.3750  -999.2500    87.5200     9.2640     6.6140     7.2600    24.0280   -20.4240 
   87.5000  -999.2500    84.2350     9.2150     6.5720     7.6340    24.0400   -20.3920 
   87.6250  -999.2500    84.0800     9.1130     6.4880     8.0080    24.3010   -20.2850 
   87.7500  -999.2500    87.3750     8.9480     6.3590     7.9080    24.4370   -20.1930 
   87.8750  -999.2500    89.3750     8.7380     6.1950     7.3380    24.4800   -19.9650 
   88.0000  -999.2500    89.0600     8.5420     6.0340     6.7620    24.5540   -19.7810 
   88.1250  -999.2500    89.4900     8.4700     5.9540     6.4880    24.5160   -19.5390 
   88.2500  -999.2500    90.5270     8.5590     5.9890     6.4640    24.2210   -19.3300 
   88.3750  -999.2500    90.2540     8.7810     6.1310     6.6110    23.8490   -19.1570 
   88.5000  -999.2500    89.3600     9.0420     6.3230     7.1160    23.7860   -19.0000 
   88.6250  -999.2500    89.5800     9.1870     6.4650     8.1080    23.9380   -19.0020 
   88.7500  -999.2500    92.2680     9.1410     6.4890     8.6960    24.0460   -18.9270 
   88.8750  -999.2500    96.7420     8.9160     6.3860     8.0990    24.0850   -18.9850 
   89.0000  -999.2500   100.6210     8.6060     6.2040     6.8540    24.0640   -19.1100 
   89.1250  -999.2500   100.4840     8.3400     6.0270     6.3160    24.0490   -19.3210 
   89.2500  -999.2500    95.5130     8.1760     5.9160     6.4770    24.0620   -19.6110 
   89.3750  -999.2500    89.8490     8.1080     5.8880     6.6490    24.1180   -19.8550 
   89.5000  -999.2500    87.6020     8.1080     5.9320     6.5520    24.2490   -20.1720 
   89.6250  -999.2500    88.7270     8.1690     6.0370     6.3660    24.4370   -20.4650 
   89.7500  -999.2500    88.1880     8.3070     6.1900     6.3610    24.5290   -20.8070 
   89.8750  -999.2500    84.2730     8.5490     6.4010     6.5660    24.4410   -21.2080 
   90.0000  -999.2500    81.5570     8.8880     6.6680     6.8570    24.2440   -21.5760 
   90.1250  -999.2500    82.2300     9.2520     6.9520     7.1820    24.0860   -21.8780 
   90.2500  -999.2500    83.0040     9.5110     7.1700     7.5940    24.2220   -22.1010 
   90.3750  -999.2500    82.3290     9.5600     7.2420     7.9690    24.5770   -22.2460 
   90.5000  -999.2500    82.4480     9.3450     7.1140     7.9840    24.7540   -22.2840 
   90.6250  -999.2500    86.7480     8.8700     6.7680     7.4270    24.4660   -22.1180 
   90.7500  -999.2500    92.4960     8.2990     6.3170     6.7160    24.1950   -21.9150 
   90.8750  -999.2500    95.7370     7.7750     5.8660     6.1020    24.1490   -21.6160 
   91.0000  -999.2500    95.4260     7.4270     5.5170     5.6180    24.0710   -21.3260 
   91.1250  -999.2500    94.7060     7.3740     5.3740     5.3970    23.7960   -21.2620 
   91.2500  -999.2500    95.7300     7.5660     5.4220     5.4930    23.6290   -21.3010 
   91.3750  -999.2500    94.3360     7.9230     5.6270     5.9200    23.5090   -21.6340 
   91.5000  -999.2500    88.7390     8.3300     5.9220     6.7710    23.2040   -22.1070 
   91.6250  -999.2500    83.0950     8.6610     6.2240     8.1220    22.7480   -22.8360 
   91.7500  -999.2500    81.5890     8.8970     6.4860     9.2870    22.4710   -23.6420 
   91.8750  -999.2500    82.0820     9.1060     6.7190     9.5750    22.4050   -24.4660 
   92.0000  -999.2500    81.3220     9.4000     6.9700     9.1250    22.4640   -25.3300 
   92.1250  -999.2500    78.6690     9.8710     7.2930     8.8340    22.5610   -26.0150 
   92.2500  -999.2500    76.5110    10.4420     7.6680     9.1680    22.6660   -26.6810 
   92.3750  -999.2500    75.4360    10.9770     8.0360    10.0280    22.7650   -27.1560 
   92.5000  -999.2500    73.5060    11.3180     8.3080    10.7470    22.8450   -27.5880 
   92.6250  -999.2500    70.7660    11.3200     8.3870    10.2770    22.8630   -27.9160 
   92.7500  -999.2500    70.1180    11.0860     8.3030     9.5990    22.8230   -28.1400 
   92.8750  -999.2500    70.6440    10.7610     8.1290     9.5230    22.7880   -28.3780 
   93.0000  -999.2500    71.4410    10.4990     7.9590     9.8840    22.8010   -28.5700 
   93.1250  -999.2500    73.5940    10.4290     7.8850    10.1780    22.7620   -28.7380 
   93.2500  -999.2500    77.0630    10.5190     7.9140    10.5000    22.6240   -28.9280 
   93.3750  -999.2500    78.9340    10.6950     8.0170    10.9940    22.4740   -29.1400 
   93.5000  -999.2500    77.8980    10.8700     8.1420    11.4090    22.4140   -29.3460 
   93.6250  -999.2500    75.5320    10.9680     8.2390    11.3720    22.4280   -29.5590 
   93.7500  -999.2500    75.1210    10.9880     8.2910    11.0610    22.4500   -29.8280 
   93.8750  -999.2500    76.7940    10.9660     8.3100    10.7290    22.4550   -30.0640 
   94.0000  -999.2500    76.9440    10.9510     8.3210    10.5080    22.4090   -30.2430 
   94.1250  -999.2500    73.6510    10.9930     8.3580    10.5250    22.3080   -30.5020 
   94.2500  -999.2500    70.6560    11.0830     8.4260    10.6970    22.2210   -30.6060 
   94.3750  -999.2500    70.0520    11.1890     8.5120    10.8760    22.1870   -30.6910 
   94.5000  -999.2500    69.2570    11.2560     8.5850    11.0080    22.1820   -30.6270 
   94.6250  -999.2500    66.7130    11.2150     8.6010    11.1740    22.1780   -30.4720 
   94.7500  -999.2500    65.4900    11.0540     8.5410    11.2410    22.1690   -30.2400 
   94.8750  -999.2500    67.2500    10.7900     8.4040    11.0200    22.1640   -29.8480 
   95.0000  -999.2500    71.2260    10.4720     8.2080    10.5510    22.2110   -29.4310 
   95.1250  -999.2500    75.5090    10.1780     7.9900     9.9690    22.3410   -28.7690 
   95.2500  -999.2500    78.7660     9.9660     7.7930     9.3660    22.4740   -28.1040 
   95.3750  -999.2500    80.9440     9.8470     7.6320     8.8590    22.5450   -27.3420 
   95.5000  -999.2500    80.9020     9.7740     7.4920     8.5860    22.5520   -26.6170 
   95.6250  -999.2500    79.2220     9.6290     7.3170     8.5980    22.5550   -25.8510 
   95.7500  -999.2500    78.3600     9.3150     7.0510     8.6280    22.5870   -25.0760 
   95.8750  -999.2500    80.1980     8.8010     6.6720     8.3900    22.7530   -24.3830 
   96.0000  -999.2500    84.4440     8.1530     6.2130     7.6870    23.1140   -23.6270 
   96.1250  -999.2500    89.0310     7.5430     5.7740     6.7020    23.4660   -23.0860 
   96.2500  -999.2500    90.6470     7.1480     5.4720     5.9890    23.6710   -22.6620 
   96.3750  -999.2500    88.7330     7.0710     5.3890     5.7990    23.8140   -22.4030 
   96.5000  -999.2500    84.9300     7.3380     5.5620     6.1580    23.9940   -22.3570 
   96.6250  -999.2500    80.6890     7.9280     6.0080     6.9090    24.0980   -22.4400 
