~V
VERS. 2.00: Ver 2.00
~W
STRT.M 60.0000:
STOP.M 268.0000:
STEP.M 0.1250:
NULL. -999.2500:
UWI. DF3035:
~C
DEPT.M :
GR.API :
CALI.CM :
RXO.OHMM :
RI. :
RML.OHMM :
SP.MV :
DEN.GM/CC :
AC.US/MT :
~A
# ...
   90.0000    68.8280    25.2390    10.8080     7.8560    11.7610   -30.0170  -999.2500  -999.2500 
   90.1250    72.0070    25.2350    15.3720     7.9600    11.8260   -29.7140  -999.2500  -999.2500 
   90.2500    78.5600    24.9850    18.6040     7.7780    11.3330   -29.3890  -999.2500  -999.2500 
   90.3750    81.2630    24.5880    16.6290     7.3370    10.4030   -29.0520  -999.2500  -999.2500 
   90.5000    78.5410    24.2190    11.0400     6.7880     9.3890   -28.7320  -999.2500  -999.2500 
   90.6250    77.0160    24.0470     7.4530     6.3490     8.7350   -28.5020  -999.2500  -999.2500 
   90.7500    78.9550    23.9960     6.7530     6.1250     8.5620   -28.3620  -999.2500  -999.2500 
   90.8750    80.1620    23.9710     7.4740     6.1350     8.8270   -28.3120  -999.2500  -999.2500 
   91.0000    77.2980    23.9370     8.4100     6.3320     9.3580   -28.3730  -999.2500  -999.2500 
   91.1250    73.2920    23.9080     9.0430     6.6080     9.8730   -28.5520  -999.2500  -999.2500 
   91.2500    70.4210    23.9520     9.4670     6.8280    10.1500   -28.7790  -999.2500  -999.2500 
   91.3750    68.3380    24.1510     9.6830     6.9330    10.1550   -29.0440  -999.2500  -999.2500 
   91.5000    67.9530    24.4910     9.4310     6.9300     9.9830   -29.3080  -999.2500  -999.2500 
   91.6250    69.8680    24.7000     8.6250     6.8620     9.7640   -29.5190  -999.2500  -999.2500 
   91.7500    70.9040    24.6530     7.8990     6.7870     9.5950   -29.6800  -999.2500  -999.2500 
   91.8750    70.8700    24.5160     7.6850     6.7330     9.5010   -29.7960  -999.2500  -999.2500 
   92.0000    71.0560    24.4720     7.9110     6.7090     9.4850   -29.8720  -999.2500  -999.2500 
   92.1250    72.0060    24.5110     8.2200     6.7130     9.5340   -29.9110  -999.2500  -999.2500 
   92.2500    71.9070    24.5360     8.4380     6.7250     9.6030   -29.9380  -999.2500  -999.2500 
   92.3750    71.3290    24.5720     8.6220     6.7280     9.6520   -29.9710  -999.2500  -999.2500 
   92.5000    71.9050    24.6220     8.8260     6.7120     9.6480   -30.0210  -999.2500  -999.2500 
   92.6250    72.5280    24.6420     8.9480     6.6700     9.5660   -30.0940  -999.2500  -999.2500 
   92.7500    72.4460    24.6560     8.8860     6.6260     9.4660   -30.1820  -999.2500  -999.2500 
   92.8750    71.2990    24.7030     8.7370     6.6220     9.4470   -30.2630  -999.2500  -999.2500 
   93.0000    69.6200    24.7910     8.7060     6.7060     9.6050   -30.3160  -999.2500  -999.2500 
   93.1250    68.6790    24.9230     8.8280     6.9140    10.0000   -30.3310  -999.2500  -999.2500 
   93.2500    68.0910    25.0600     8.7850     7.1940    10.5090   -30.2990  -999.2500  -999.2500 
   93.3750    67.1540    25.0300     8.4100     7.4630    10.9570   -30.2030  -999.2500  -999.2500 
   93.5000    66.5050    24.7130     7.9240     7.6110    11.1300   -30.0600  -999.2500  -999.2500 
   93.6250    66.4680    24.3350     7.7750     7.5290    10.8450   -29.8690  -999.2500  -999.2500 
   93.7500    67.9290    24.2390     7.8970     7.2820    10.2910   -29.6370  -999.2500  -999.2500 
   93.8750    71.7440    24.3870     8.0050     6.9720     9.6980   -29.4180  -999.2500  -999.2500 
   94.0000    76.6290    24.5250     8.0200     6.7010     9.2610   -29.2230  -999.2500  -999.2500 
   94.1250    77.4490    24.5290     8.1230     6.5560     9.1060   -29.0560  -999.2500  -999.2500 
   94.2500    74.6170    24.5020     8.3200     6.5260     9.1420   -28.9430  -999.2500  -999.2500 
   94.3750    72.6480    24.4910     8.4570     6.5640     9.2520   -28.8560  -999.2500  -999.2500 
   94.5000    73.0070    24.4990     8.4670     6.6120     9.3170   -28.7830  -999.2500  -999.2500 
   94.6250    73.0060    24.5090     8.4400     6.6190     9.2690   -28.7090  -999.2500  -999.2500 
   94.7500    73.0440    24.5170     8.3850     6.5790     9.1340   -28.5990  -999.2500  -999.2500 
   94.8750    75.2280    24.5190     8.1860     6.4980     8.9370   -28.4220  -999.2500  -999.2500 
   95.0000    79.9610    24.4960     7.8840     6.3800     8.6950   -28.1680  -999.2500  -999.2500 
   95.1250    85.0790    24.4360     7.7520     6.2210     8.3990   -27.8210  -999.2500  -999.2500 
   95.2500    88.4620    24.3930     7.7430     6.0170     8.0300   -27.4230  -999.2500  -999.2500 
   95.3750    89.2470    24.4060     7.6030     5.7620     7.5720   -27.0090  -999.2500  -999.2500 
   95.5000    90.5170    24.4630     7.2800     5.4720     7.0580   -26.6050  -999.2500  -999.2500 
   95.6250    95.9100    24.5130     6.9210     5.1990     6.5960   -26.2920  -999.2500  -999.2500 
   95.7500   102.1110    24.5370     6.5450     5.0060     6.2990   -26.1080  -999.2500  -999.2500 
   95.8750   103.7520    24.5590     6.2220     4.9400     6.2470   -26.0460  -999.2500  -999.2500 
   96.0000    99.3980    24.5630     6.2260     5.0310     6.4730   -26.1230  -999.2500  -999.2500 
   96.1250    92.3760    24.4910     6.6900     5.2870     6.9590   -26.3420  -999.2500  -999.2500 
   96.2500    84.2680    24.3670     7.1630     5.6200     7.5200   -26.5690  -999.2500  -999.2500 
   96.3750    77.2540    24.2480     7.3670     5.9360     7.9850   -26.7450  -999.2500  -999.2500 
   96.5000    75.5400    24.1580     7.3570     6.1380     8.1950   -26.8020  -999.2500  -999.2500 
   96.6250    81.3670    24.0890     7.2320     6.1250     8.0100   -26.6360  -999.2500  -999.2500 
   96.7500    90.4380    24.0720     7.0740     5.9310     7.5430   -26.2620  -999.2500  -999.2500 
   96.8750    99.6680    24.0990     6.9360     5.6180     6.9380   -25.7270  -999.2500  -999.2500 
   97.0000   108.2910    24.1070     6.7380     5.2690     6.3470   -25.0510  -999.2500  -999.2500 
   97.1250   112.0930    24.1070     6.1940     4.9790     5.9320   -24.2640  -999.2500  -999.2500 
   97.2500   109.0510    24.1900     5.4800     4.8020     5.7510   -23.4880  -999.2500  -999.2500 
   97.3750   102.0480    24.3900     5.1180     4.7590     5.8120   -22.7860  -999.2500  -999.2500 
   97.5000    96.1020    24.6220     5.4730     4.8310     6.0560   -22.2200  -999.2500  -999.2500 
   97.6250    93.1620    24.7150     6.2650     4.9600     6.3520   -21.8650  -999.2500  -999.2500 
   97.7500    91.6470    24.6830     6.6850     5.0540     6.5390   -21.6690  -999.2500  -999.2500 
   97.8750    91.6770    24.6650     6.4750     5.0640     6.5430   -21.5960  -999.2500  -999.2500 
   98.0000    93.2010    24.7600     5.9290     4.9920     6.4000   -21.6310  -999.2500  -999.2500 
   98.1250    93.8350    24.8900     5.5720     4.9010     6.2500   -21.7780  -999.2500  -999.2500 
   98.2500    91.0950    24.9470     5.5870     4.8690     6.2280   -22.0040  -999.2500  -999.2500 
   98.3750    88.0240    24.9510     5.9680     4.9430     6.4010   -22.2920  -999.2500  -999.2500 
   98.5000    88.9300    24.9240     6.6700     5.1660     6.8230   -22.6000  -999.2500  -999.2500 
   98.6250    91.8960    24.8840     7.4970     5.6430     7.6630   -22.8710  -999.2500  -999.2500 
   98.7500    93.9470    24.8950     8.2940     6.4420     9.0460   -23.0950  -999.2500  -999.2500 
   98.8750    95.4560    24.9730     9.4870     7.6840    11.1810   -23.2400  -999.2500  -999.2500 
   99.0000    95.6530    25.0420    12.0620     9.4970    14.2630   -23.3000  -999.2500  -999.2500 
   99.1250    94.0410    25.0150    17.2800    12.0120    18.4190   -23.3050  -999.2500  -999.2500 
   99.2500    93.6380    24.9450    23.7380    14.8050    22.7840   -23.2790  -999.2500  -999.2500 
   99.3750    94.2600    24.8890    28.5170    17.0950    25.8540   -23.2660  -999.2500  -999.2500 
   99.5000    92.3120    24.8700    29.1730    17.9070    26.0220   -23.3090  -999.2500  -999.2500 
   99.6250    88.6210    24.8800    25.3300    16.6100    22.8540   -23.4550  -999.2500  -999.2500 
   99.7500    87.2610    24.8360    19.9010    14.2970    18.6850   -23.7250  -999.2500  -999.2500 
   99.8750    86.7890    24.6510    14.7490    11.8850    14.9570   -24.1520  -999.2500  -999.2500 
