~V
VERS. 2.00: Ver 2.00
~W
STRT.M 64.0000:
STOP.M 268.0000:
STEP.M 0.1250:
NULL. -999.2500:
UWI. DF3073:
~C
DEPT.M :
SP.MV :
GR.API :
CALI.CM :
RXO.OHMM :
RI. :
RML.OHMM :
DEN.GM/CC :
~A
# ...
  165.2500   -34.0320    71.7250    25.1550    57.4810   105.3000   116.6250     2.2780 
  165.3750   -34.2870    70.9060    25.1520    59.6930   113.1580   125.1460     2.2700 
  165.5000   -34.4710    69.3720    25.1620    67.0740   124.3100   137.2100     2.2640 
  165.6250   -34.5500    67.9230    25.1620    71.8670   139.7830   153.6360     2.2550 
  165.7500   -34.5690    65.0850    25.1580    71.1810   158.1900   173.1490     2.2470 
  165.8750   -34.5640    61.0640    25.1590    76.4520   178.2240   194.3920     2.2440 
  166.0000   -34.5500    60.4390    25.1540    83.5630   197.2420   214.4540     2.2440 
  166.1250   -34.5020    65.0010    25.1700    92.1660   210.0380   227.1010     2.2370 
  166.2500   -34.4160    68.0700    25.1720   100.2830   214.2750   229.7230     2.2280 
  166.3750   -34.3720    66.5650    25.1790   105.0470   209.0110   221.3470     2.2300 
  166.5000   -34.3860    65.1490    25.1600   104.6420   195.6270   204.3800     2.2510 
  166.6250   -34.4450    67.7800    25.1880    98.0580   177.5050   183.7880     2.2790 
  166.7500   -34.4740    69.8050    25.1820    89.4570   159.8780   165.4300     2.2910 
  166.8750   -34.4440    68.7230    25.1920    79.4280   145.7210   151.8460     2.2840 
  167.0000   -34.4350    66.4150    25.1640    70.5260   136.3630   143.4350     2.2740 
  167.1250   -34.5440    66.0110    25.1920    65.0310   132.3190   140.2270     2.2700 
  167.2500   -34.6790    65.0930    25.1870    61.2110   131.7800   140.3510     2.2680 
  167.3750   -34.7440    63.6720    25.1820    64.1750   133.5080   142.5990     2.2630 
  167.5000   -34.7640    63.1180    25.2030    74.5700   136.0340   145.4390     2.2570 
  167.6250   -34.7550    65.0940    25.1960    82.6570   137.3350   146.8430     2.2560 
  167.7500   -34.7550    68.8020    25.1870    81.7740   137.5530   146.9870     2.2580 
  167.8750   -34.7780    71.5440    25.1750    69.8060   137.5920   146.8540     2.2560 
  168.0000   -34.7580    70.4980    25.1540    61.4380   137.9560   147.2710     2.2450 
  168.1250   -34.6530    66.8100    25.1550    70.7860   138.2910   147.8530     2.2370 
  168.2500   -34.5470    65.8070    25.1500    81.6530   137.7290   147.2270     2.2430 
  168.3750   -34.5200    67.5530    25.1530    79.3920   135.1370   144.0690     2.2630 
  168.5000   -34.5200    69.1090    25.1610    71.1310   129.3590   137.1840     2.2800 
  168.6250   -34.4760    70.6400    25.1490    71.8970   119.6550   125.8990     2.2850 
  168.7500   -34.4250    73.1220    25.1240    77.3370   107.6650   112.3620     2.2860 
  168.8750   -34.4670    75.2320    25.0950    72.5220    95.0130    98.5540     2.2900 
  169.0000   -34.6240    75.6490    25.0930    56.7260    83.5710    86.3980     2.3010 
  169.1250   -34.8170    75.3230    25.1210    44.2400    75.1300    77.5910     2.3200 
  169.2500   -34.9710    76.4620    25.1150    38.8860    69.5770    71.8880     2.3390 
  169.3750   -35.0660    80.1540    25.1420    37.8490    66.5300    68.9950     2.3480 
  169.5000   -35.1540    83.3480    25.0730    40.0080    65.8270    68.6510     2.3420 
  169.6250   -35.2720    80.8390    25.1240    41.6960    67.5300    70.7780     2.3280 
  169.7500   -35.3890    76.0740    25.1110    39.9430    70.7410    74.5640     2.3220 
  169.8750   -35.4470    73.7090    25.1040    41.3320    75.0440    79.5220     2.3240 
  170.0000   -35.4530    74.0650    25.1460    45.4600    79.9630    85.1570     2.3210 
  170.1250   -35.4960    74.7310    25.1100    52.3090    84.9170    90.9050     2.3030 
  170.2500   -35.6060    73.7210    25.1020    54.6610    89.4990    96.3570     2.2870 
  170.3750   -35.7430    69.9010    25.1260    55.8310    93.7210   101.5440     2.2860 
  170.5000   -35.8620    66.0550    25.1420    56.4980    97.7410   106.6550     2.2990 
  170.6250   -35.9240    69.5480    25.1380    58.0220   101.9040   112.2760     2.3070 
  170.7500   -35.9780    74.1500    25.1360    58.4790   106.7350   118.7410     2.3010 
  170.8750   -36.0770    73.2220    25.1480    60.0720   112.5400   126.3070     2.2890 
  171.0000   -36.1970    67.9680    25.1380    67.2420   119.0260   134.6310     2.2800 
  171.1250   -36.2920    65.4970    25.1440    76.6670   124.8710   142.2000     2.2780 
  171.2500   -36.3160    66.0480    25.1470    84.0960   128.7200   147.3780     2.2790 
  171.3750   -36.3090    66.5100    25.1450    85.8300   129.3480   148.3300     2.2770 
  171.5000   -36.2830    66.2190    25.1590    83.2990   125.6860   143.6770     2.2700 
  171.6250   -36.2580    66.7620    25.1500    80.0970   117.7330   133.7620     2.2680 
  171.7500   -36.2490    68.6090    25.1310    74.9390   108.2650   122.2300     2.2810 
  171.8750   -36.2080    71.0190    24.9900    65.6090    99.0770   111.3420     2.3070 
  172.0000   -36.1490    72.4670    24.9600    58.4690    91.7120   102.9450     2.3310 
  172.1250   -36.0850    73.3380    24.9290    52.6310    87.7990    98.5500     2.3340 
  172.2500   -36.0510    73.9500    24.9320    47.2420    86.6840    97.0930     2.3190 
  172.3750   -36.0310    73.2850    24.9360    47.0560    88.0530    98.2680     2.2980 
  172.5000   -36.0210    72.2800    24.9140    56.5490    91.5630   101.6700     2.2800 
  172.6250   -36.0420    70.5930    24.9470    66.4230    96.5570   106.4670     2.2710 
  172.7500   -36.0390    68.6270    24.9780    74.2300   101.6340   111.4130     2.2630 
  172.8750   -35.9810    68.2900    25.0880    72.8040   106.7280   116.3160     2.2570 
  173.0000   -35.8740    70.0780    25.0560    63.0480   110.4500   119.5100     2.2540 
  173.1250   -35.7380    70.6550    25.1220    61.4620   110.3860   118.7450     2.2580 
  173.2500   -35.6090    67.4740    25.0910    67.9600   107.6760   115.5170     2.2680 
  173.3750   -35.4930    62.5040    25.1250    69.7890   103.1870   110.7490     2.2850 
  173.5000   -35.4100    61.0460    25.0770    68.9200    97.5990   104.8940     2.3100 
  173.6250   -35.3750    64.3590    25.0470    64.2560    92.4070    99.9800     2.3300 
  173.7500   -35.3490    68.5160    25.0480    51.3800    89.8080    98.1230     2.3280 
  173.8750   -35.3330    71.8370    25.0580    35.4570    90.6310   100.0780     2.3050 
  174.0000   -35.3620    73.7970    25.0430    33.3630    95.3800   106.5710     2.2770 
  174.1250   -35.4700    72.1150    25.1010    48.9480   105.3280   118.8020     2.2600 
  174.2500   -35.5690    67.8540    25.0860    59.7180   119.0450   135.1510     2.2490 
  174.3750   -35.6040    65.0730    25.0720    60.9150   135.0080   153.8610     2.2340 
  174.5000   -35.5630    65.0480    25.1180    64.3240   150.1070   171.6410     2.2140 
  174.6250   -35.4530    62.8120    25.1040    78.5690   159.7490   182.9050     2.2070 
  174.7500   -35.3950    58.0580    25.0510    91.3620   162.5530   185.7850     2.2180 
  174.8750   -35.4200    55.6600    25.0390    97.9210   159.5950   182.0250     2.2330 
  175.0000   -35.4780    57.9050    25.0600    96.7710   153.9930   175.5910     2.2400 
  175.1250   -35.4550    61.0780    25.0420    85.4240   149.7230   171.4200     2.2450 
  175.2500   -35.3530    61.6230    25.0480    67.0050   149.7400   172.0870     2.2560 
  175.3750   -35.2230    61.4040    25.0480    61.8110   154.4990   178.0410     2.2620 
  175.5000   -35.0810    61.7800    25.0150    76.2190   162.7240   187.9290     2.2450 
  175.6250   -34.9260    61.3710    24.9600    92.8380   170.6530   197.3320     2.2120 
  175.7500   -34.7460    59.8490    25.0660    99.0340   173.6080   200.4280     2.1890 
  175.8750   -34.5200    58.6270    25.0660   103.5660   169.2700   194.4480     2.1920 
  176.0000   -34.3550    59.1430    25.1180   106.1000   157.4570   179.6340     2.2180 
  176.1250   -34.1860    63.5190    25.0540    92.2790   140.0050   159.0030     2.2480 
  176.2500   -33.9400    67.4790    25.0810    64.9830   122.3350   139.4190     2.2670 
  176.3750   -33.7640    68.0650    24.9680    47.3330   108.0810   124.3110     2.2780 
