~V
VERS. 2.00: Ver 2.00
~W
STRT.M 67.0000:
STOP.M 264.0000:
STEP.M 0.1250:
NULL. -999.2500:
UWI. DF3014:
~C
DEPT.M :
GR.API :
CALI.CM :
RXO.OHMM :
RI. :
RML.OHMM :
DEN.GM/CC :
SP.MV :
~A
# ...
  100.7500    98.2900    22.8460     5.0310     5.4730     6.9810  -999.2500   -25.9650 
  100.8750    91.2780    22.7740     5.5370     6.0000     7.6020  -999.2500   -26.3210 
  101.0000    82.9170    22.9880     6.5100     6.5230     8.1670  -999.2500   -26.7240 
  101.1250    81.0340    23.1060     7.3620     6.9480     8.6340  -999.2500   -27.2120 
  101.2500    83.3430    23.1420     7.4100     7.2350     8.9560  -999.2500   -27.6850 
  101.3750    83.2880    23.1010     7.0830     7.3710     9.1190  -999.2500   -28.1440 
  101.5000    79.9360    23.3010     6.8620     7.3770     9.1420  -999.2500   -28.5910 
  101.6250    77.5050    23.4200     6.9410     7.2540     8.9920  -999.2500   -28.9830 
  101.7500    75.2500    23.5980     7.1260     7.0090     8.6860  -999.2500   -29.2980 
  101.8750    72.2430    23.6870     7.4210     6.6930     8.2900  -999.2500   -29.5410 
  102.0000    72.9050    23.7080     7.4530     6.4150     7.9880  -999.2500   -29.6830 
  102.1250    77.5070    23.9520     6.8810     6.3690     8.1010  -999.2500   -29.7020 
  102.2500    78.7010    24.1950     6.2660     6.6630     8.8080  -999.2500   -29.7220 
  102.3750    75.8210    24.3610     6.1860     7.3530    10.1650  -999.2500   -29.7700 
  102.5000    71.0040    24.1920     6.6520     8.4600    12.0750  -999.2500   -29.8660 
  102.6250    64.9330    24.1760     9.3590     9.9220    14.2540  -999.2500   -30.0850 
  102.7500    58.4370    23.7710    18.6950    11.3550    16.1090  -999.2500   -30.4330 
  102.8750    55.8650    23.2810    30.6490    12.3040    17.0790  -999.2500   -30.9130 
  103.0000    57.9290    23.0850    31.9890    12.4260    16.8430  -999.2500   -31.5250 
  103.1250    58.6840    22.9410    20.6190    11.6620    15.4380  -999.2500   -32.2310 
  103.2500    58.9610    22.9570    12.1170    10.5560    13.6530  -999.2500   -32.9400 
  103.3750    61.7340    23.2560    10.0220     9.4970    12.0790  -999.2500   -33.5850 
  103.5000    67.1400    23.6000    10.0160     8.6960    11.0400  -999.2500   -34.1290 
  103.6250    70.6440    23.7920    10.0290     8.2770    10.6600  -999.2500   -34.5150 
  103.7500    70.8280    23.9420     9.7570     8.1400    10.6780  -999.2500   -34.7330 
  103.8750    70.1940    23.9650     9.4860     8.1920    10.8720  -999.2500   -34.7550 
  104.0000    69.5760    23.8980     9.2990     8.3020    11.0260  -999.2500   -34.5990 
  104.1250    69.3520    23.6170     9.3950     8.3500    11.0160  -999.2500   -34.2900 
  104.2500    69.8310    23.4310     9.3990     8.3520    10.9200  -999.2500   -33.9310 
  104.3750    69.4590    23.3050     9.2030     8.3430    10.8220  -999.2500   -33.5910 
  104.5000    67.1830    23.0220     8.5660     8.3450    10.7640  -999.2500   -33.3000 
  104.6250    65.8510    22.7650     8.9330     8.3670    10.7760  -999.2500   -33.0820 
  104.7500    67.7160    22.7400     9.4980     8.4070    10.8270  -999.2500   -32.9310 
  104.8750    69.4680    22.8630    10.0100     8.4560    10.8810  -999.2500   -32.8530 
  105.0000    67.4670    23.2020    10.4160     8.4930    10.9080  -999.2500   -32.8420 
  105.1250    65.0360    23.5660    10.8590     8.5020    10.8990  -999.2500   -32.8480 
  105.2500    64.7240    23.6320    11.1290     8.4960    10.8700  -999.2500   -32.7910 
  105.3750    64.9610    23.6590    10.7940     8.4870    10.8480  -999.2500   -32.6270 
  105.5000    64.9700    23.7710    10.0410     8.4910    10.8670  -999.2500   -32.3360 
  105.6250    66.1870    23.4850    10.0440     8.5050    10.9070  -999.2500   -31.8760 
  105.7500    68.2840    23.1410    10.2240     8.4900    10.9030  -999.2500   -31.2720 
  105.8750    70.1700    23.0630    10.4030     8.4060    10.7900  -999.2500   -30.5490 
  106.0000    71.6440    23.2700    10.3480     8.1990    10.5030  -999.2500   -29.7190 
  106.1250    72.7220    23.3710     9.9810     7.8430     9.9910  -999.2500   -28.8390 
  106.2500    73.6410    23.5300     9.0790     7.3910     9.3540  -999.2500   -27.9780 
  106.3750    76.0780    23.6290     7.8410     6.9030     8.6800  -999.2500   -27.1250 
  106.5000    82.2460    23.6480     6.3930     6.4420     8.0620  -999.2500   -26.3280 
  106.6250    90.4410    23.6920     5.6930     6.1030     7.6500  -999.2500   -25.6460 
  106.7500    96.6140    23.7630     5.1140     5.9050     7.4500  -999.2500   -25.0830 
  106.8750    99.0580    23.6080     5.0470     5.8350     7.4110  -999.2500   -24.6300 
  107.0000    97.4400    23.3210     5.5160     5.8720     7.4850  -999.2500   -24.2540 
  107.1250    95.1020    23.0860     5.7790     5.9850     7.5970  -999.2500   -23.9350 
  107.2500    94.6920    23.0600     5.6580     6.0960     7.6620  -999.2500   -23.6410 
  107.3750    95.0360    23.1380     5.4940     6.1860     7.6610  -999.2500   -23.4150 
  107.5000    95.5210    23.1480     5.3450     6.2490     7.6080  -999.2500   -23.2410 
  107.6250    97.7160    23.1260     5.2830     6.2950     7.5320  -999.2500   -23.1190 
  107.7500   100.8820    23.0700     5.1520     6.3250     7.4600  -999.2500   -23.0490 
  107.8750   100.7090    23.2090     5.1250     6.3520     7.4140  -999.2500   -23.0610 
  108.0000    97.3200    23.4030     5.1710     6.3740     7.4010  -999.2500   -23.1860 
  108.1250    93.7350    23.5540     5.2680     6.3770     7.4000  -999.2500   -23.4380 
  108.2500    92.0970    23.4570     5.3510     6.3350     7.3650  -999.2500   -23.7660 
  108.3750    92.7390    23.1890     5.4880     6.2450     7.2960  -999.2500   -24.1250 
  108.5000    95.2850    23.2860     5.4140     6.1170     7.2040  -999.2500   -24.5160 
  108.6250   100.1620    23.3290     5.0720     5.9660     7.0930  -999.2500   -24.9280 
  108.7500   105.6560    23.3200     4.9450     5.7860     6.9450  -999.2500   -25.3180 
  108.8750   110.7220    23.2740     5.0110     5.5780     6.7260  -999.2500   -25.6350 
  109.0000   111.0630    23.0830     4.9230     5.3640     6.4750  -999.2500   -25.9010 
  109.1250   103.4400    23.1520     4.7010     5.2480     6.3440  -999.2500   -26.1400 
  109.2500    94.9370    23.3510     5.0470     5.3320     6.5410  -999.2500   -26.4160 
  109.3750    91.5990    23.4050     5.4190     5.7240     7.2590  -999.2500   -26.7740 
  109.5000    93.1880    23.3440     5.5480     6.5130     8.6270  -999.2500   -27.2120 
  109.6250    92.2790    23.3590     6.1110     7.8220    10.6960  -999.2500   -27.7340 
  109.7500    86.3620    23.4990     9.3220     9.4990    13.0950  -999.2500   -28.3800 
  109.8750    78.7130    23.6260    17.7640    11.2880    15.3890  -999.2500   -29.1730 
  110.0000    72.3980    23.6540    28.7200    12.7360    16.9730  -999.2500   -30.0730 
  110.1250    68.2640    23.6190    33.6230    13.1910    17.1230  -999.2500   -31.0180 
  110.2500    65.1300    23.4740    31.0950    12.7230    16.0950  -999.2500   -31.9060 
  110.3750    63.1590    23.3940    22.2160    11.6700    14.3650  -999.2500   -32.7070 
  110.5000    65.1990    23.6740    12.0890    10.4710    12.5560  -999.2500   -33.3970 
  110.6250    70.6060    24.1290    10.3720     9.5130    11.2640  -999.2500   -33.9270 
  110.7500    73.5540    23.7750     9.9380     8.9020    10.5950     2.1960   -34.2940 
  110.8750    73.6960    23.4460     9.7250     8.6080    10.4230     2.1960   -34.5150 
  111.0000    72.5310    23.3660     9.5600     8.5460    10.5550     2.1910   -34.6110 
  111.1250    70.3720    23.4210     9.5950     8.5930    10.7500     2.1820   -34.6740 
  111.2500    68.2510    23.5770     9.6330     8.6230    10.8400     2.1800   -34.7790 
  111.3750    66.5380    23.7050     9.6310     8.5880    10.8070     2.1840   -34.8890 
  111.5000    64.7560    23.4610     9.6430     8.4960    10.6920     2.1860   -34.9900 
  111.6250    63.3020    23.6570     9.4340     8.3690    10.5580     2.1850   -35.0870 
  111.7500    66.2340    23.8830     9.3320     8.2520    10.4690     2.1900   -35.1700 
  111.8750    71.7380    24.0650     9.0010     8.1970    10.4690     2.1990   -35.2200 
