~V
VERS. 2.00: Ver 2.00
~W
STRT.M 63.0000:
STOP.M 257.0000:
STEP.M 0.1250:
NULL. -999.2500:
UWI. DF3070:
~C
DEPT.M :
DEN.GM/CC :
GR.API :
RML.OHMM :
RI. :
RXO.OHMM :
CALI.CM :
SP.MV :
~A
# ...
  243.0000     2.4090    74.7830    14.1900    12.4260    13.6360    23.8760   -17.9500 
  243.1250     2.4030    73.7240    14.2230    12.4340    13.2530    23.7430   -18.0360 
  243.2500     2.4020    73.0890    14.3460    12.5210    13.0110    23.6490   -18.1300 
  243.3750     2.4050    73.5170    14.5330    12.6670    13.1000    23.6210   -18.2250 
  243.5000     2.4110    73.7230    14.7370    12.8370    13.5440    23.6200   -18.3230 
  243.6250     2.4170    73.1990    14.8900    12.9810    13.7990    23.6200   -18.4040 
  243.7500     2.4230    73.2860    14.9560    13.0630    13.7260    23.6210   -18.4510 
  243.8750     2.4260    74.3710    14.9300    13.0690    13.5460    23.6210   -18.4980 
  244.0000     2.4260    75.5590    14.8380    13.0100    13.2180    23.6190   -18.5120 
  244.1250     2.4240    76.2290    14.7280    12.9130    12.7370    23.6210   -18.5470 
  244.2500     2.4210    75.5810    14.6490    12.8210    12.6220    23.6250   -18.5640 
  244.3750     2.4170    73.3790    14.6200    12.7540    13.1210    23.6260   -18.5670 
  244.5000     2.4140    70.7350    14.6350    12.7180    13.7410    23.6250   -18.5420 
  244.6250     2.4080    70.1440    14.6680    12.7040    13.4950    23.6260   -18.5070 
  244.7500     2.4000    72.0640    14.6910    12.6950    12.4790    23.6250   -18.5210 
  244.8750     2.3890    74.1260    14.7010    12.6870    11.4610    23.6210   -18.4660 
  245.0000     2.3810    74.8860    14.7080    12.6850    11.0080    23.6190   -18.4870 
  245.1250     2.3790    74.4900    14.7320    12.7020    11.1640    23.6210   -18.4190 
  245.2500     2.3850    73.4670    14.7680    12.7280    11.5560    23.6250   -18.3750 
  245.3750     2.3980    72.3270    14.7880    12.7370    11.9290    23.6240   -18.2850 
  245.5000     2.4130    72.3030    14.7570    12.7020    12.1950    23.6210   -18.2010 
  245.6250     2.4280    75.1750    14.6410    12.5960    12.5280    23.6190   -18.1150 
  245.7500     2.4370    76.6910    14.4800    12.4520    12.9110    23.6220   -18.0050 
  245.8750     2.4420    76.6910    14.3310    12.3160    13.1360    23.6250   -17.9280 
  246.0000     2.4410    76.6910    14.2600    12.2410    13.1570    23.6260   -17.7610 
  246.1250     2.4390    76.6910    14.3290    12.2830    13.2740    23.6260   -17.7030 
  246.2500     2.4340    76.6910    14.5130    12.4280    13.6020    23.6240   -17.6270 
  246.3750     2.4290    76.6910    14.7710    12.6470    13.9490    23.6080   -17.5050 
  246.5000     2.4250    76.6910    15.0440    12.8940    13.8530    23.5860   -17.3220 
  246.6250     2.4230    76.6910    15.2710    13.1150    12.9440    23.5980   -17.0750 
  246.7500     2.4250    76.6910    15.4230    13.2780    11.9300    23.6470   -16.7970 
  246.8750     2.4320    76.6910    15.4890    13.3720    11.3750    23.6960   -16.4960 
  247.0000     2.4390    76.6910    15.4690    13.3940    11.1530    23.7160   -16.1860 
  247.1250     2.4430    76.6910    15.3700    13.3450    10.8040    23.7170   -15.8100 
  247.2500     2.4420    76.6910    15.2380    13.2580    10.5220    23.7190   -15.4510 
  247.3750     2.4420    76.6910    15.1040    13.1560    10.7490    23.7190   -15.1840 
  247.5000     2.4450    76.6910    14.9990    13.0630    11.6290    23.7170   -14.9840 
  247.6250     2.4560    76.6910    14.9560    13.0120    12.7630    23.7090   -14.8650 
  247.7500     2.4700    76.6910    14.9530    12.9900    14.1330    23.6960   -14.7950 
  247.8750     2.4810    76.6910    15.0120    13.0130    15.6520    23.6400   -14.7570 
  248.0000     2.4860    76.6910    15.1270    13.0850    15.8000    23.7590   -14.7460 
  248.1250     2.4840    76.6910    15.2870    13.1990    14.2890    24.1130   -14.7460 
  248.2500     2.4740    76.6910    15.4710    13.3370    12.6310    24.1920   -14.7740 
  248.3750     2.4630    76.6910    15.6370    13.4700    12.1780    23.7080   -14.8190 
  248.5000     2.4530    76.6910    15.7460    13.5700    12.2970    23.5660   -14.9050 
  248.6250     2.4480    76.6910    15.7780    13.6180    12.2870    24.0520   -14.9830 
  248.7500     2.4550    76.6910    15.7390    13.6190    12.1040    24.4710   -15.0730 
  248.8750     2.4680    76.6910    15.6870    13.6120    12.1150    24.2100   -15.1900 
  249.0000     2.4800    76.6910    15.7110    13.6660    12.3600    23.9240   -15.3320 
  249.1250     2.4780    76.6910    15.8770    13.8330    12.7320    23.9150   -15.5060 
  249.2500     2.4500    76.6910    16.2050    14.1370    13.1720    23.9620   -15.6620 
  249.3750     2.4030    76.6910    16.6600    14.5610    13.5220    23.9580   -15.7850 
  249.5000     2.3560    76.6910    17.1080    15.0000    13.5890    23.9380   -15.8940 
  249.6250     2.3240    76.6910    17.4370    15.3590    13.4090    24.1460   -15.9850 
  249.7500     2.3190    76.6910    17.5710    15.5650    13.1680    24.4960   -16.0280 
  249.8750     2.3310    76.6910    17.4910    15.5780    13.0670    24.3820   -16.0250 
  250.0000     2.3470    76.6910    17.3130    15.4840    12.9840    24.1440   -16.0030 
  250.1250     2.3610    76.6910    17.1300    15.3580    12.6770    24.2930   -15.9090 
  250.2500     2.3700    76.6910    17.0010    15.2570    12.1860    24.6100   -15.7590 
  250.3750     2.3790    76.6910    16.9500    15.2100    11.9360    24.3610   -15.5690 
  250.5000     2.3910    76.6910    16.9360    15.1950    12.0630    23.8930   -15.3560 
  250.6250     2.4050    76.6910    16.9370    15.1940    12.3890    23.7580   -15.1550 
  250.7500     2.4170    76.6910    16.9380    15.1970    12.6790    23.8090   -14.9960 
  250.8750     2.4300    76.6910    16.9380    15.1980    12.8150    23.7990   -14.9380 
  251.0000     2.4450    76.6910    16.9380    15.1980    12.8780    23.7950   -14.9470 
  251.1250     2.4620    76.6910    16.9380    15.1960    12.8780    23.7920   -14.9600 
  251.2500     2.4750    76.6910    16.9370    15.1960    12.9150    23.8110   -14.9050 
  251.3750     2.4810    76.6910    16.9360    15.1980    13.1450    23.8920   -14.8220 
  251.5000     2.4780    76.6910    16.9350    15.2010    13.4680    24.0030   -14.7770 
  251.6250     2.4700    76.6910    16.9350    15.2040    14.0900    24.0890   -14.7690 
  251.7500     2.4630    76.6910    16.9340    15.2060    15.7420    24.1220   -14.7090 
  251.8750     2.4610    76.6910    16.9340    15.2060    19.2060    24.1210   -14.5810 
  252.0000     2.4620    76.6910    16.9340    15.2060    23.3790    24.1220   -14.4410 
  252.1250     2.4580    76.6910    16.9340    15.2060    24.8270    24.1190   -14.2960 
  252.2500     2.4440    76.6910    16.9340    15.2060    22.0930    24.1020   -14.2360 
  252.3750     2.4250    76.6910    16.9340    15.2060    19.7520    24.0730   -14.2960 
  252.5000     2.4130    76.6910    16.9340    15.2060    20.0380    24.0550   -14.2940 
  252.6250     2.4170    76.6910    16.9340    15.2060    21.9410    24.0520   -14.1720 
  252.7500     2.4410    76.6910    16.9340    15.2060    23.8760    24.0530   -14.1140 
  252.8750     2.4720    76.6910    16.9340    15.2060    24.2200    24.0480   -14.0290 
  253.0000     2.4990    76.6910    16.9340    15.2060    23.0180    24.0430   -13.8980 
  253.1250     2.5160    76.6910    16.9340    15.2060    21.4050    24.0430   -13.8850 
  253.2500     2.5210    76.6910    16.9340    15.2060    20.6630    24.0470   -13.9530 
  253.3750     2.5180    76.6910    16.9340    15.2060    21.4640    24.0490   -13.9190 
  253.5000     2.5120    76.6910    16.9340    15.2060    23.1910    24.0490   -13.8490 
  253.6250     2.5040    76.6910    16.9340    15.2060    25.3690    24.0490   -13.8820 
  253.7500     2.5000    76.6910    16.9340    15.2060    27.9870    24.0500   -13.9220 
  253.8750     2.5000    76.6910    16.9340    15.2060    30.0160    24.0460   -13.9530 
  254.0000     2.5060    76.6910    16.9340    15.2060    29.8070    24.0270   -13.9890 
  254.1250     2.5180    76.6910    16.9340    15.2060    27.6360    23.9970   -14.0260 
