~V
VERS. 2.00: Ver 2.00
~W
STRT.M 65.0000:
STOP.M 252.0000:
STEP.M 0.1250:
NULL. -999.2500:
UWI. DF3012:
~C
DEPT.M :
GR.API :
RML.OHMM :
RI. :
RXO.OHMM :
CALI.CM :
DEN.GM/CC :
SP.MV :
~A
# ...
  233.7500    70.0940    22.0780    19.0160    21.0650    24.0400     2.3000   -19.5590 
  233.8750    69.8580    23.4570    20.0790    22.8140    24.0400     2.3010   -19.6530 
  234.0000    73.7740    25.1790    21.4640    24.5260    24.0400     2.3000   -19.7330 
  234.1250    75.5310    26.9550    22.9620    26.6860    24.0380     2.2940   -19.7780 
  234.2500    71.7430    28.4450    24.2800    29.1240    24.0200     2.2850   -19.7910 
  234.3750    67.6080    29.4470    25.2190    30.7440    23.9770     2.2750   -19.8030 
  234.5000    68.3690    29.9070    25.6980    30.5250    23.9430     2.2660   -19.8300 
  234.6250    70.3320    29.8720    25.7170    28.8720    23.9880     2.2610   -19.8620 
  234.7500    69.1740    29.6380    25.5180    28.1010    24.0470     2.2590   -19.8610 
  234.8750    67.3790    29.4230    25.2880    28.6480    24.0780     2.2610   -19.8550 
  235.0000    67.6450    29.4240    25.2030    29.6280    24.1080     2.2640   -19.8970 
  235.1250    70.3570    29.8580    25.4520    30.0110    24.1210     2.2670   -19.9250 
  235.2500    72.9980    30.7290    26.0610    30.2400    24.1280     2.2690   -19.9190 
  235.3750    73.7290    32.0080    27.0300    31.3610    24.1360     2.2690   -19.9040 
  235.5000    72.2820    33.5820    28.2990    33.5200    24.1750     2.2680   -19.8120 
  235.6250    72.0480    35.2640    29.7440    36.3230    24.2790     2.2650   -19.7170 
  235.7500    73.5330    36.7950    31.1310    38.5910    24.3900     2.2610   -19.6440 
  235.8750    73.8120    37.9630    32.2610    39.3900    24.4680     2.2570   -19.5710 
  236.0000    70.5140    38.5880    32.9550    39.3310    24.5010     2.2550   -19.4150 
  236.1250    65.3710    38.4220    32.9860    39.6650    24.5090     2.2540   -19.2660 
  236.2500    63.3370    37.5360    32.4060    39.9600    24.5030     2.2550   -19.2260 
  236.3750    65.2320    36.0290    31.2850    39.8540    24.4760     2.2560   -19.0630 
  236.5000    69.2270    34.1620    29.8150    39.3700    24.4120     2.2590   -18.9450 
  236.6250    72.8830    32.3940    28.3400    37.9020    24.3590     2.2640   -18.9210 
  236.7500    74.2080    31.1080    27.1910    34.6470    24.3250     2.2760   -18.7320 
  236.8750    71.5970    30.4370    26.5090    31.5080    24.2960     2.2960   -18.5650 
  237.0000    65.9580    30.2560    26.2430    30.9540    24.2200     2.3220   -18.4570 
  237.1250    64.2760    30.1720    26.1330    33.9630    24.1190     2.3440   -18.2250 
  237.2500    68.5250    29.6750    25.7670    37.6790    24.0190     2.3560   -17.9440 
  237.3750    74.5740    28.4460    24.8490    37.3210    24.0090     2.3490   -17.6680 
  237.5000    77.1210    26.3990    23.2530    31.5710    24.0780     2.3360   -17.3770 
  237.6250    76.6960    23.6730    21.0290    26.9570    24.1250     2.3300   -16.9570 
  237.7500    76.0880    20.8160    18.6180    24.6130    24.1820     2.3430   -16.5740 
  237.8750    72.4230    18.2270    16.3630    20.6020    24.2800     2.3820   -16.2410 
  238.0000    65.0890    16.1740    14.5030    14.7690    24.3900     2.4360   -15.8940 
  238.1250    59.1920    14.8500    13.2210    12.2490    24.4700     2.4910   -15.6010 
  238.2500    58.5760    14.0850    12.4100    13.0890    24.4780     2.5300   -15.3780 
  238.3750    61.6530    13.7410    11.9850    14.8270    24.4410     2.5410   -15.2150 
  238.5000    64.6590    13.6620    11.8340    14.0130    24.4110     2.5300   -15.1310 
  238.6250    67.1770    13.6980    11.8470    11.1530    24.3790     2.5070   -15.1810 
  238.7500    69.8150    13.7110    11.8850     9.4400    24.3520     2.4840   -15.2310 
  238.8750    71.2520    13.6550    11.8870     9.2570    24.3410     2.4680   -15.2820 
  239.0000    72.0190    13.5360    11.8330     9.5990    24.3500     2.4580   -15.4240 
  239.1250    74.3130    13.3950    11.7350     9.5830    24.3450     2.4510   -15.5170 
  239.2500    77.0250    13.2850    11.6320     9.2230    24.3310     2.4440   -15.5910 
  239.3750    76.7580    13.2330    11.5520     8.9710    24.3170     2.4350   -15.7170 
  239.5000    73.5760    13.2460    11.5090     9.0410    24.2860     2.4280   -15.7470 
  239.6250    73.4850    13.3290    11.5150     9.2020    24.2160     2.4240   -15.8190 
  239.7500    76.2930    13.4710    11.5650     9.2060    24.1720     2.4230   -15.9270 
  239.8750    78.9060    13.6780    11.6620     9.2500    24.1950     2.4280   -15.9260 
  240.0000    80.9120    13.9500    11.8050     9.7980    24.2470     2.4360   -15.9420 
  240.1250    80.3570    14.2650    11.9850    11.3610    24.3010     2.4450   -15.9910 
  240.2500    77.1520    14.5570    12.1600    13.4950    24.3340     2.4510   -15.9880 
  240.3750    74.9130    14.7660    12.2930    15.2240    24.3830     2.4520   -15.9710 
  240.5000    75.6440    14.8560    12.3590    15.6650    24.4610     2.4500   -15.9060 
  240.6250    75.1330    14.8440    12.3640    14.9520    24.4980     2.4430   -15.8320 
  240.7500    71.8590    14.8600    12.3860    14.3670    24.5130     2.4350   -15.7710 
  240.8750    70.6070    15.0560    12.5280    14.3910    24.5280     2.4300   -15.7240 
  241.0000    70.6070    15.5690    12.9000    14.8200    24.5630     2.4300   -15.6430 
  241.1250    70.6070    16.5040    13.6080    15.4900    24.5790     2.4410   -15.5290 
  241.2500    70.6070    17.6690    14.5420    16.8230    24.5740     2.4610   -15.4720 
  241.3750    70.6070    18.8110    15.5270    19.2090    24.5470     2.4870   -15.4110 
  241.5000    70.6070    19.6370    16.3270    22.3090    24.5170     2.5110   -15.4480 
  241.6250    70.6070    19.8350    16.6510    24.2990    24.4840     2.5270   -15.4880 
  241.7500    70.6070    19.4910    16.5080    23.7320    24.4330     2.5310   -15.4600 
  241.8750    70.6070    18.7940    16.0170    21.0780    24.3760     2.5220   -15.4880 
  242.0000    70.6070    18.0070    15.3860    18.3610    24.3340     2.5080   -15.5460 
  242.1250    70.6070    17.3970    14.8450    16.9280    24.3240     2.4930   -15.6070 
  242.2500    70.6070    17.0590    14.5080    16.3270    24.3240     2.4820   -15.6280 
  242.3750    70.6070    17.0030    14.4060    16.0750    24.3350     2.4760   -15.6220 
  242.5000    70.6070    17.2040    14.5330    16.1670    24.3590     2.4730   -15.5880 
  242.6250    70.6070    17.6690    14.9020    17.1300    24.3990     2.4710   -15.4770 
  242.7500    70.6070    18.3160    15.4430    19.0000    24.4490     2.4720   -15.4240 
  242.8750    70.6070    19.0650    16.0970    21.3770    24.4910     2.4770   -15.3290 
  243.0000    70.6070    19.7910    16.7640    23.0730    24.5000     2.4860   -15.1860 
  243.1250    70.6070    20.3020    17.2880    22.6200    24.4750     2.4940   -15.0940 
  243.2500    70.6070    20.5170    17.5720    21.4050    24.4350     2.4960   -15.0120 
  243.3750    70.6070    20.4340    17.5880    20.7480    24.3850     2.4900   -14.9570 
  243.5000    70.6070    20.1430    17.3850    20.6020    24.3110     2.4810   -14.8930 
  243.6250    70.6070    19.8150    17.0890    20.1240    24.2240     2.4740   -14.8410 
  243.7500    70.6070    19.6230    16.8610    19.3630    24.1800     2.4740   -14.7400 
  243.8750    70.6070    19.6550    16.8000    19.1630    24.1920     2.4810   -14.6580 
  244.0000    70.6070    19.9300    16.9470    19.8870    24.2290     2.4910   -14.5140 
  244.1250    70.6070    20.4260    17.3170    20.8940    24.2830     2.5010   -14.4120 
  244.2500    70.6070    21.0280    17.8230    21.7940    24.3300     2.5090   -14.2360 
  244.3750    70.6070    21.6720    18.4120    23.3040    24.3680     2.5140   -14.0790 
  244.5000    70.6070    22.3170    19.0410    25.8720    24.3870     2.5160   -13.9100 
  244.6250    70.6070    22.9390    19.6750    28.6470    24.3900     2.5170   -13.7330 
  244.7500    70.6070    23.5210    20.2800    30.8120    24.3760     2.5200   -13.6080 
  244.8750    70.6070    24.0360    20.8200    32.4720    24.3360     2.5230   -13.4780 
