~V
VERS. 2.00: Ver 2.00
~W
STRT.M 70.0000:
STOP.M 278.0000:
STEP.M 0.1250:
NULL. -999.2500:
UWI. DF3060:
~C
DEPT.M :
SP.MV :
GR.API :
RML.OHMM :
RI. :
RXO.OHMM :
CALI.CM :
DEN.GM/CC :
~A
# ...
  216.2500   -12.9720    85.1200    10.9830     9.7270    11.2450    23.5270     2.4360 
  216.3750   -12.6630    81.9030    11.8650    10.6380    12.3820    23.5200     2.4560 
  216.5000   -12.3190    80.5700    12.8340    11.6200    13.5850    23.5040     2.4760 
  216.6250   -11.9200    81.4380    14.2150    12.8490    15.5310    23.4740     2.4950 
  216.7500   -11.4880    82.7110    16.1300    14.4060    18.1580    23.4390     2.5140 
  216.8750   -10.9880    81.8190    18.3860    16.1650    21.6380    23.3960     2.5360 
  217.0000   -10.4260    78.3990    20.3620    17.6850    25.8460    23.3350     2.5590 
  217.1250    -9.8480    75.9670    20.8250    18.0220    28.6190    23.2640     2.5800 
  217.2500    -9.2880    76.4270    19.2680    16.7330    28.0360    23.1970     2.5910 
  217.3750    -8.7650    77.2750    15.8760    13.9140    22.3160    23.1070     2.5890 
  217.5000    -8.2780    74.9710    11.6460    10.3440    13.8210    22.9690     2.5700 
  217.6250    -7.8650    68.5010     8.0140     7.1600     7.5070    22.7490     2.5350 
  217.7500    -7.5030    62.0360     5.6220     4.8930     3.9610    22.4370     2.4940 
  217.8750    -7.2240    57.9760     4.4690     3.5860     2.9640    22.1240     2.4570 
  218.0000    -7.0450    57.2460     4.2670     3.0900     3.4020    21.9850     2.4300 
  218.1250    -6.9520    59.0450     4.7000     3.2770     4.3360    22.0330     2.4170 
  218.2500    -6.9350    61.9010     5.3230     3.8110     4.9560    22.1400     2.4120 
  218.3750    -6.9780    66.1820     5.9200     4.4870     5.0570    22.2060     2.4100 
  218.5000    -7.0760    72.0830     6.3630     5.1130     4.7310    22.2360     2.4080 
  218.6250    -7.2130    78.7600     6.5490     5.4880     4.3830    22.2800     2.4040 
  218.7500    -7.3440    83.3930     6.4710     5.5500     4.2060    22.3810     2.3970 
  218.8750    -7.4660    83.7700     6.1050     5.2750     4.1040    22.5810     2.3900 
  219.0000    -7.5700    80.7760     5.4840     4.7120     3.9960    22.9000     2.3830 
  219.1250    -7.6690    78.6250     4.7480     3.9960     3.4110    23.1900     2.3790 
  219.2500    -7.7470    79.8490     4.1260     3.3530     2.7420    23.3500     2.3770 
  219.3750    -7.8480    82.7570     3.7610     2.9190     2.4610    23.3830     2.3760 
  219.5000    -7.9550    84.2860     3.7010     2.7540     2.4000    23.3240     2.3740 
  219.6250    -8.1070    84.2750     3.9440     2.8750     2.7150    23.2030     2.3700 
  219.7500    -8.3150    84.2240     4.3530     3.1700     3.0130    23.0880     2.3660 
  219.8750    -8.5860    84.0950     4.8580     3.5680     3.2980    23.0420     2.3620 
  220.0000    -8.9430    84.1340     5.4160     4.0180     3.6380    23.0370     2.3600 
  220.1250    -9.3900    84.0320     6.0060     4.4920     4.2140    23.0410     2.3600 
  220.2500    -9.9350    82.9950     6.5820     4.9550     5.0080    23.0530     2.3620 
  220.3750   -10.5210    80.9690     7.0650     5.3560     5.8340    23.0800     2.3650 
  220.5000   -11.1710    79.7770     7.3550     5.6220     6.4580    23.1270     2.3700 
  220.6250   -11.8440    80.7120     7.3500     5.6610     6.4600    23.1920     2.3750 
  220.7500   -12.5540    82.1980     7.1690     5.5350     6.0510    23.2270     2.3790 
  220.8750   -13.2720    84.0360     6.9630     5.3670     5.6090    23.2330     2.3790 
  221.0000   -13.9970    86.3740     7.0090     5.3480     5.7020    23.2290     2.3740 
  221.1250   -14.7390    88.3370     7.7710     5.8020     6.3830    23.2620     2.3630 
  221.2500   -15.4890    88.4720     9.4960     6.9010     8.1250    23.3350     2.3520 
  221.3750   -16.2490    86.0020    12.3470     8.8000    11.1790    23.4120     2.3430 
  221.5000   -16.9880    81.6220    16.4230    11.5440    15.3940    23.4510     2.3390 
  221.6250   -17.6880    77.9590    21.3460    15.1010    20.2650    23.4570     2.3420 
  221.7500   -18.3550    75.2850    26.2810    19.0310    24.3270    23.4570     2.3440 
  221.8750   -18.9990    71.6930    30.5630    23.0240    27.3690    23.4570     2.3420 
  222.0000   -19.6060    66.5490    34.7150    26.9240    29.3520    23.4570     2.3330 
  222.1250   -20.1690    63.3180    39.0790    30.8280    32.6000    23.4570     2.3180 
  222.2500   -20.6530    63.5200    43.9090    34.9390    38.2840    23.4570     2.3030 
  222.3750   -21.0310    66.3220    49.1580    39.2960    45.7480    23.4570     2.2880 
  222.5000   -21.3460    69.4210    54.5090    43.7360    53.1930    23.4570     2.2760 
  222.6250   -21.6400    70.4410    59.5990    48.0100    55.0850    23.4570     2.2630 
  222.7500   -21.9410    69.5610    64.6430    52.2320    54.2570    23.4570     2.2510 
  222.8750   -22.2550    68.4890    70.3350    56.8850    55.0600    23.4570     2.2380 
  223.0000   -22.5970    68.4450    77.4490    62.5850    60.7150    23.4570     2.2260 
  223.1250   -22.9680    69.2250    86.3950    69.8000    72.2230    23.4570     2.2170 
  223.2500   -23.3810    69.6280    95.8270    77.6600    85.9000    23.4570     2.2100 
  223.3750   -23.7990    68.8900   103.9270    84.8680    98.4940    23.4570     2.2070 
  223.5000   -24.0800    66.3120   108.9020    90.0150   105.6400    23.4570     2.2080 
  223.6250   -24.1760    64.5660   109.3940    91.8180   101.5160    23.4570     2.2120 
  223.7500   -24.1470    66.8980   107.1040    91.2120    94.2300    23.4570     2.2170 
  223.8750   -24.0400    70.7410   103.7110    89.3240    89.4010    23.4570     2.2220 
  224.0000   -23.8480    71.0740   100.4730    87.2100    87.0490    23.4570     2.2260 
  224.1250   -23.5490    66.9770    97.8170    85.4240    86.3950    23.4570     2.2280 
  224.2500   -23.2070    64.0950    95.2250    83.7480    86.7300    23.4570     2.2280 
  224.3750   -22.8970    63.3460    92.2120    81.8140    86.7020    23.4570     2.2280 
  224.5000   -22.7250    61.9980    88.6160    79.4200    86.2110    23.4570     2.2250 
  224.6250   -22.7570    60.5200    84.7190    76.6750    83.1200    23.4570     2.2230 
  224.7500   -22.8750    61.3200    81.1870    74.0820    78.0730    23.4570     2.2210 
  224.8750   -23.0420    62.4830    78.5410    72.0910    71.8730    23.4570     2.2210 
  225.0000   -23.2500    62.0790    77.0650    71.0200    68.1540    23.4570     2.2230 
  225.1250   -23.5230    62.2130    76.8430    71.0620    69.2410    23.4570     2.2270 
  225.2500   -23.7930    63.6170    77.2600    71.7570    72.0610    23.4570     2.2280 
  225.3750   -24.0770    64.4190    77.7830    72.6380    74.2910    23.4570     2.2270 
  225.5000   -24.3850    64.6120    77.8380    73.1890    74.6810    23.4570     2.2240 
  225.6250   -24.6840    65.6690    76.7980    72.8400    72.5850    23.4570     2.2230 
  225.7500   -25.0020    66.7140    74.8220    71.6080    69.4610    23.4560     2.2270 
  225.8750   -25.3190    67.1470    72.4270    69.7530    67.1740    23.4530     2.2340 
  226.0000   -25.6240    67.6460    70.6550    67.8200    64.2060    23.4430     2.2430 
  226.1250   -25.9310    66.8710    71.1220    66.8380    59.7460    23.4190     2.2470 
  226.2500   -26.2770    64.3480    74.8860    67.6290    57.8320    23.3700     2.2460 
  226.3750   -26.6470    62.6330    81.8720    70.7780    61.0770    23.2960     2.2420 
  226.5000   -27.0580    62.3060    90.4920    76.3210    69.9870    23.2460     2.2380 
  226.6250   -27.4550    62.5580    99.5960    83.5950    84.3580    23.2300     2.2370 
  226.7500   -27.8670    63.4340   106.9760    90.6300    98.7420    23.2310     2.2380 
  226.8750   -28.2650    65.7340   111.7770    95.8080   107.1740    23.2390     2.2380 
  227.0000   -28.6700    67.9260   113.2660    98.2510   105.8940    23.2620     2.2350 
  227.1250   -29.0510    67.4850   112.4020    98.3250    95.8600    23.3110     2.2280 
  227.2500   -29.3990    66.4930   112.3140    98.5430    90.2450    23.3600     2.2190 
  227.3750   -29.7330    65.8110   115.4020   101.1090    94.0080    23.3790     2.2100 
