~V
VERS. 2.00: Ver 2.00
~W
STRT.M 85.0000:
STOP.M 235.0000:
STEP.M 0.1250:
NULL. -999.2500:
UWI. DF305:
~C
DEPT.M :
DEN.GM/CC :
SP.MV :
AC.US/MT :
GR.API :
CALI.CM :
RXO.OHMM :
RI. :
RML.OHMM :
~A
# ...
  115.0000     2.2370   -37.3930   419.2470    68.0410    23.7400    10.0890     9.2310    11.5030 
  115.1250     2.2230   -37.5030   416.9510    65.2790    23.7410    10.1280     9.3290    11.5060 
  115.2500     2.2110   -37.5460   413.1290    65.2060    23.7440    10.1110     9.4650    11.6190 
  115.3750     2.2180   -37.5380   408.7770    67.4000    23.7260    10.0510     9.7020    11.9390 
  115.5000     2.2440   -37.4540   405.5350    71.8130    23.6520    10.3810    10.0310    12.4400 
  115.6250     2.2580   -37.2830   404.2410    75.9400    23.5510    12.2740    10.3650    12.9710 
  115.7500     2.2490   -37.0540   403.6200    74.4440    23.5720    15.0360    10.5780    13.3020 
  115.8750     2.2310   -36.7850   403.0050    71.3060    23.6150    15.6590    10.5890    13.2850 
  116.0000     2.2240   -36.4900   402.9600    73.3920    23.5710    13.3540    10.4010    12.9310 
  116.1250     2.2300   -36.1680   404.8940    77.0160    23.4890    10.8630    10.0950    12.4080 
  116.2500     2.2380   -35.8280   408.6410    74.5590    23.4830    10.0330     9.8070    11.9540 
  116.3750     2.2450   -35.4560   413.5600    68.4770    23.4310     9.9170     9.6050    11.6790 
  116.5000     2.2480   -35.0930   419.0000    66.2640    23.3660     9.9720     9.5060    11.5880 
  116.6250     2.2420   -34.7930   424.2390    68.2660    23.3290     9.9370     9.4780    11.6070 
  116.7500     2.2310   -34.5660   428.2640    69.0820    23.3310     9.7710     9.4560    11.6130 
  116.8750     2.2250   -34.4020   430.4410    67.0970    23.3470     9.5600     9.4180    11.5720 
  117.0000     2.2250   -34.2700   431.0980    63.9500    23.3840     9.4190     9.3760    11.5080 
  117.1250     2.2250   -34.1680   431.0520    64.1590    23.4380     9.3900     9.3510    11.4650 
  117.2500     2.2190   -34.0990   430.8690    66.3920    23.4990     9.4250     9.3550    11.4610 
  117.3750     2.2180   -34.0670   430.5760    68.2840    23.5990     9.5120     9.3860    11.4950 
  117.5000     2.2250   -34.0500   430.1740    68.1150    23.6370     9.5790     9.4380    11.5590 
  117.6250     2.2320   -34.0210   429.2720    66.0550    23.6180     9.5500     9.5070    11.6550 
  117.7500     2.2310   -33.9560   427.4800    66.0950    23.5630     9.5500     9.5880    11.7760 
  117.8750     2.2300   -33.8400   425.2680    67.2430    23.5010     9.6570     9.6700    11.8970 
  118.0000     2.2330   -33.6720   423.9580    67.6690    23.4180     9.8290     9.7390    11.9810 
  118.1250     2.2390   -33.4550   424.5660    68.1810    23.3620     9.9690     9.7750    11.9800 
  118.2500     2.2410   -33.1750   425.8660    70.2720    23.3940    10.0360     9.7810    11.9160 
  118.3750     2.2410   -32.8300   426.7790    73.7590    23.4510     9.9960     9.7780    11.8510 
  118.5000     2.2460   -32.3970   427.1260    75.2560    23.4450     9.8920     9.8240    11.9030 
  118.6250     2.2630   -31.8630   426.7800    74.2990    23.3470     9.7900    10.0330    12.2610 
  118.7500     2.2950   -31.2290   424.1930    72.2460    23.4380     9.8590    10.4070    12.9140 
  118.8750     2.3430   -30.4940   416.8850    68.3560    23.8250    10.2440    10.8220    13.6570 
  119.0000     2.4000   -29.6700   404.3410    65.0270    24.2360    11.1880    11.0010    14.0410 
  119.1250     2.4310   -28.7480   393.0430    67.9540    24.4240    12.8710    10.5170    13.3460 
  119.2500     2.4220   -27.7950   392.0340    76.8370    24.5990    13.8700     9.4220    11.6540 
  119.3750     2.3880   -26.8780   402.4970    85.8220    24.8090    12.3290     8.0030     9.4810 
  119.5000     2.3610   -26.0710   416.3400    90.9690    24.9510     8.9580     6.6370     7.4630 
  119.6250     2.3600   -25.3880   422.0280    95.5090    24.9900     6.3260     5.6580     6.1170 
  119.7500     2.3740   -24.8210   419.5690    96.9640    25.0130     5.7860     5.1330     5.4790 
  119.8750     2.4060   -24.3730   413.9130    92.2970    25.0630     5.9950     5.0990     5.5470 
  120.0000     2.4580   -24.0460   409.1180    86.5170    25.1280     6.3330     5.5410     6.2630 
  120.1250     2.5140   -23.8560   408.7110    86.2210    25.0980     7.5180     6.3900     7.4970 
  120.2500     2.5380   -23.7410   413.2390    86.1890    25.0720    10.5920     7.2750     8.7240 
  120.3750     2.5140   -23.6590   422.0560    84.1280    25.1100    14.6020     7.7780     9.3310 
  120.5000     2.4580   -23.5770   432.9170    83.5750    25.1580    15.6670     7.5900     8.8770 
  120.6250     2.4070   -23.4960   441.1640    87.1960    25.1820    11.5270     6.7260     7.4830 
  120.7500     2.3820   -23.4300   443.7320    91.3680    25.1870     7.0980     5.7210     6.0220 
  120.8750     2.3750   -23.3740   441.0970    94.1310    25.1790     5.0470     4.8840     4.9440 
  121.0000     2.3720   -23.3330   437.4070    96.2170    25.1650     4.5760     4.3400     4.3760 
  121.1250     2.3640   -23.3190   436.6930    97.1950    25.1520     4.6110     4.1180     4.2920 
  121.2500     2.3540   -23.3200   437.7990    96.6280    25.1950     4.6700     4.0760     4.4330 
  121.3750     2.3480   -23.3360   438.9120    93.6670    25.3320     4.7330     4.1110     4.6170 
  121.5000     2.3470   -23.3630   439.0520    91.0590    25.5160     4.7790     4.1440     4.7210 
  121.6250     2.3540   -23.4100   437.9650    96.4690    25.6360     4.7480     4.1310     4.6900 
  121.7500     2.3620   -23.4730   436.3120   105.8410    25.6970     4.5930     4.0860     4.5940 
  121.8750     2.3660   -23.5670   434.7930   109.9020    25.7130     4.4050     4.0430     4.4990 
  122.0000     2.3550   -23.7050   433.9060   104.7620    25.6710     4.3280     4.0390     4.4710 
  122.1250     2.3280   -23.8770   433.3930    98.0860    25.5440     4.4160     4.1240     4.5810 
  122.2500     2.2980   -24.0680   432.1300    97.6300    25.3650     4.5870     4.2990     4.8240 
  122.3750     2.2760   -24.2490   429.6620    99.1020    25.1870     4.8800     4.5470     5.1730 
  122.5000     2.2700   -24.3820   426.8150    95.4770    24.8880     5.2870     4.8300     5.5610 
  122.6250     2.2790   -24.4310   425.4220    87.3960    24.5410     5.6230     5.0710     5.8700 
  122.7500     2.2920   -24.4090   425.7120    84.7900    24.3670     5.6790     5.2110     6.0200 
  122.8750     2.3050   -24.3280   426.7680    88.0750    24.3880     5.5000     5.2210     5.9820 
  123.0000     2.3160   -24.1800   427.8490    91.2770    24.5330     5.2120     5.1070     5.7830 
  123.1250     2.3260   -23.9610   429.3450    91.1760    24.7620     5.0500     4.8900     5.4730 
  123.2500     2.3340   -23.7110   431.9830    93.9820    25.0640     4.8900     4.6220     5.1220 
  123.3750     2.3480   -23.4510   436.1020   101.2840    25.3120     4.7220     4.3290     4.7580 
  123.5000     2.3700   -23.2290   441.8060   108.5070    25.4640     4.5220     4.0330     4.3960 
  123.6250     2.3940   -23.0810   448.5920   110.5090    25.6920     4.3150     3.7600     4.0690 
  123.7500     2.4100   -23.0030   454.3790   107.9700    26.0970     4.0690     3.5380     3.8120 
  123.8750     2.4170   -22.9890   457.0680   105.2270    26.5640     3.8880     3.3980     3.6730 
  124.0000     2.4240   -23.0400   455.1650   114.3410    26.7690     3.8880     3.3770     3.7100 
  124.1250     2.4360   -23.1480   446.4070   130.8640    26.5370     4.0310     3.5380     4.0130 
  124.2500     2.4440   -23.3080   430.3810   132.1470    26.0590     4.3850     3.8640     4.5500 
  124.3750     2.4410   -23.5090   408.1100   112.9380    25.4570     5.1160     4.3240     5.2550 
  124.5000     2.4220   -23.7530   385.5820    90.9060    25.0190     6.3060     4.8360     5.9910 
  124.6250     2.3880   -24.0460   374.6620    84.3910    24.7940     7.3480     5.2770     6.5540 
  124.7500     2.3430   -24.3480   378.5550    84.6570    24.5800     7.5120     5.6130     6.9280 
  124.8750     2.2950   -24.6180   392.4550    84.8440    24.3880     6.8380     5.9270     7.2960 
