~V
VERS. 2.00: Ver 2.00
~W
STRT.M 60.0000:
STOP.M 282.0000:
STEP.M 0.1250:
NULL. -999.2500:
UWI. DF3058:
~C
DEPT.M :
GR.API :
RML.OHMM :
RI. :
RXO.OHMM :
CALI.CM :
DEN.GM/CC :
SP.MV :
~A
# ...
  273.7500    50.2530     7.0100     6.0000     7.5120    23.0160     2.3790   -10.1320 
  273.8750    50.2530     7.0990     6.1430     7.5450    23.1000     2.3920   -10.2920 
  274.0000    50.2530     7.1940     6.2590     7.3660    23.1390     2.3970   -10.4550 
  274.1250    50.2530     7.2520     6.3420     7.1770    23.1470     2.3990   -10.5730 
  274.2500    50.2530     7.2980     6.3990     6.8860    23.1600     2.3990   -10.5830 
  274.3750    50.2530     7.3060     6.4240     6.5210    23.2010     2.3940   -10.4830 
  274.5000    50.2530     7.2820     6.4050     6.1400    23.2320     2.3800   -10.2600 
  274.6250    50.2530     7.1940     6.3230     5.7240    23.1930     2.3570   -10.0010 
  274.7500    50.2530     7.0500     6.1900     5.4770    23.1470     2.3310    -9.7350 
  274.8750    50.2530     6.8750     6.0360     5.3590    23.1020     2.3120    -9.4450 
  275.0000    50.2530     6.7100     5.8960     5.3010    23.0140     2.3020    -9.1310 
  275.1250    50.2530     6.5980     5.8060     5.2760    22.8540     2.2990    -8.8530 
  275.2500    50.2530     6.5420     5.7620     5.2800    22.6920     2.2980    -8.6550 
  275.3750    50.2530     6.5260     5.7510     5.2990    22.5810     2.2940    -8.5600 
  275.5000    50.2530     6.5290     5.7560     5.3090    22.5540     2.2890    -8.5330 
  275.6250    50.2530     6.5340     5.7650     5.3200    22.6210     2.2850    -8.5370 
  275.7500    50.2530     6.5350     5.7700     5.3100    22.7000     2.2840    -8.5450 
  275.8750    50.2530     6.5340     5.7720     5.2430    22.7290     2.2880    -8.6180 
  276.0000    50.2530     6.5310     5.7720     5.2040    22.7160     2.2950    -8.7680 
  276.1250    50.2530     6.5240     5.7720     5.3140    22.6650     2.3030    -8.9030 
  276.2500    50.2530     6.5150     5.7720     5.5330    22.6140     2.3110    -9.0390 
  276.3750    50.2530     6.5040     5.7740     5.7810    22.6000     2.3180    -9.1140 
  276.5000    50.2530     6.4950     5.7770     5.9220    22.6310     2.3200    -9.1830 
  276.6250    50.2530     6.4950     5.7810     5.7880    22.6490     2.3160    -9.2330 
  276.7500    50.2530     6.5020     5.7840     5.4910    22.6370     2.3080    -9.2960 
  276.8750    50.2530     6.5130     5.7840     5.2110    22.5900     2.2970    -9.3340 
  277.0000    50.2530     6.5250     5.7810     5.1190    22.5440     2.2870    -9.3020 
  277.1250    50.2530     6.5340     5.7770     5.3560    22.5190     2.2790    -9.2330 
  277.2500    50.2530     6.5400     5.7750     5.8240    22.5320     2.2760    -9.1250 
  277.3750    50.2530     6.5420     5.7730     6.4190    22.6440     2.2790    -9.0610 
  277.5000    50.2530     6.5430     5.7730     6.9320    22.8900     2.2880    -9.0270 
  277.6250    50.2530     6.5430     5.7730     7.0520    22.8720     2.2990    -9.0390 
  277.7500    50.2530     6.5430     5.7730     6.6930    22.6770     2.3110    -9.0640 
  277.8750    50.2530     6.5430     5.7730     6.6000    22.5690     2.3200    -9.0640 
  278.0000    50.2530     6.5430     5.7730     6.6940    22.5500     2.3270    -9.0300 
  278.1250    50.2530     6.5430     5.7730     6.6290    22.5750     2.3350    -9.0100 
  278.2500    50.2530     6.5430     5.7730     6.6030    22.6220     2.3440    -9.0390 
  278.3750    50.2530     6.5430     5.7730     6.6300    22.6980     2.3570    -9.1250 
  278.5000    50.2530     6.5430     5.7730     6.6470    22.7980     2.3720    -9.1950 
  278.6250    50.2530     6.5430     5.7730     6.6440    22.9020     2.3840    -9.2010 
  278.7500    50.2530     6.5430     5.7730     6.6840    22.8570     2.3930    -9.1550 
  278.8750    50.2530     6.5430     5.7730     6.7650    22.8620     2.3960    -9.1260 
  279.0000    50.2530     6.5430     5.7730     6.8510    22.8760     2.3960    -9.1280 
  279.1250    50.2530     6.5430     5.7730     6.9160    22.8510     2.3950    -9.1200 
  279.2500    50.2530     6.5430     5.7730     6.9520    22.7950     2.3910    -9.1610 
  279.3750    50.2530     6.5430     5.7730     6.9790    22.7240     2.3780    -9.2360 
  279.5000    50.2530     6.5430     5.7730     6.9810    22.6650     2.3520    -9.2710 
  279.6250    50.2530     6.5430     5.7730     6.9190    22.1470     2.3100    -9.3380 
  279.7500    50.2530     6.5430     5.7730     6.7480    20.9590     2.2570    -9.4480 
  279.8750    50.2530     6.5430     5.7730     6.5250    19.6950     2.2010    -9.5520 
  280.0000    50.2530     6.5430     5.7730     6.3890    19.1000     2.1540    -9.6770 
  280.1250    50.2530     6.5430     5.7730     6.3530    19.0530     2.1190    -9.8210 
  280.2500    50.2530     6.5430     5.7730     6.3520    19.0530     2.0980    -9.8510 
  280.3750    50.2530     6.5430     5.7730     6.3520    19.0530     2.0890    -9.8510 
  280.5000    50.2530     6.5430     5.7730     6.3510    19.0530     2.0860  -999.2500 
  280.6250    50.2530     6.5430     5.7730     6.3500    19.0520     2.0860  -999.2500 
  280.7500    50.2530     6.5430     5.7730     6.3490    19.0470     2.0860  -999.2500 
  280.8750    50.2530     6.5430     5.7730     6.3500    19.0410     2.0870  -999.2500 
  281.0000    50.2530     6.5430     5.7730     6.3500    19.0390     2.0880  -999.2500 
  281.1250    50.2530     6.5430     5.7730     6.3490    19.0370     2.0880  -999.2500 
  281.2500    50.2530     6.5430     5.7730     6.3480    19.0400     2.0890  -999.2500 
  281.3750    50.2530     6.5430     5.7730     6.3470    19.0430     2.0900  -999.2500 
  281.5000    50.2530     6.5430     5.7730     6.3470    19.0450     2.0920  -999.2500 
  281.6250    50.2530     6.5430     5.7730     6.3480    19.0400     2.0930  -999.2500 
  281.7500    50.2530     6.5430     5.7730     6.3480    19.0350     2.0950  -999.2500 
  281.8750    50.2530     6.5430     5.7730     6.3480    19.0290     2.0950  -999.2500 
  282.0000    50.2530     6.5430     5.7730     6.3500    19.0270     2.0940  -999.2500 
