~V
VERS. 2.00: Ver 2.00
~W
STRT.M 63.0000:
STOP.M 257.0000:
STEP.M 0.1250:
NULL. -999.2500:
UWI. DF3070:
~C
DEPT.M :
DEN.GM/CC :
GR.API :
RML.OHMM :
RI. :
RXO.OHMM :
CALI.CM :
SP.MV :
~A
# ...
  130.5000     2.2320    85.0800     9.2250     8.9130    10.0420    23.5320   -23.7850 
  130.6250     2.2260    84.6280     8.5660     8.2290     8.8490    23.4210   -23.5030 
  130.7500     2.2340    85.7640     8.1870     7.7660     8.1490    23.6060   -23.3520 
  130.8750     2.2490    87.9000     8.1700     7.6160     7.7520    24.0320   -23.2330 
  131.0000     2.2620    87.3080     8.5080     7.8070     7.7300    24.2010   -23.3150 
  131.1250     2.2660    82.1010     9.1420     8.3380     8.7370    23.7870   -23.3860 
  131.2500     2.2660    78.9020     9.8720     9.0500    10.5410    23.2510   -23.5530 
  131.3750     2.2650    79.8090    10.5560     9.8160    12.0870    22.9940   -23.6940 
  131.5000     2.2660    78.8030    11.0790    10.5100    12.2450    23.0180   -23.8770 
  131.6250     2.2640    71.7720    11.3340    10.9790    11.5720    23.0790   -24.0950 
  131.7500     2.2550    66.5780    11.3580    11.1890    11.1870    23.1350   -24.1970 
  131.8750     2.2370    66.4340    11.2000    11.1460    10.9720    23.1780   -24.3130 
  132.0000     2.2120    68.8610    10.9300    10.9000    10.5920    23.2470   -24.2250 
  132.1250     2.1890    71.8930    10.6110    10.5130    10.0470    23.4390   -24.0690 
  132.2500     2.1780    74.5100    10.2770    10.0680     9.5250    23.5820   -23.8860 
  132.3750     2.1830    76.7870     9.9110     9.5870     9.2360    23.4770   -23.5750 
  132.5000     2.2030    78.5490     9.4790     9.0660     9.3040    23.2260   -23.1570 
  132.6250     2.2310    79.6030     8.9400     8.4880     9.5090    23.2180   -22.6610 
  132.7500     2.2550    83.0120     8.3240     7.8740     9.1650    23.4300   -22.1220 
  132.8750     2.2720    90.3760     7.6840     7.2590     8.1250    23.5650   -21.5970 
  133.0000     2.2800    98.0130     7.0960     6.6990     7.0080    23.4810   -21.1550 
  133.1250     2.2770    99.5360     6.7050     6.3100     6.5540    23.3290   -20.7810 
  133.2500     2.2660    96.0570     6.6260     6.1830     6.6530    23.2700   -20.4560 
  133.3750     2.2500    91.9910     6.9700     6.4220     7.0180    23.3000   -20.2820 
  133.5000     2.2330    89.8850     7.7720     7.0800     7.4530    23.3850   -20.2270 
  133.6250     2.2310    90.3260     8.9260     8.1120     8.2280    23.5390   -20.1380 
  133.7500     2.2530    90.4570    10.0080     9.1670     9.7240    23.6760   -20.1260 
  133.8750     2.2970    87.9640    10.6070     9.8700    11.9090    23.6730   -19.9540 
  134.0000     2.3510    85.5000    10.4160     9.9000    14.7260    23.5960   -19.7390 
  134.1250     2.3880    88.0280     9.3520     9.0840    16.6680    23.6420   -19.4300 
  134.2500     2.3970    93.0130     7.9880     7.8740    14.2560    23.7300   -19.0700 
  134.3750     2.3820    96.4620     6.7920     6.6860     9.4940    23.6940   -18.7560 
  134.5000     2.3560    97.3110     6.0370     5.8120     6.6480    23.5640   -18.3900 
  134.6250     2.3350    97.8020     5.8560     5.4350     6.1850    23.5070   -18.1820 
  134.7500     2.3240    99.4540     6.0640     5.4450     6.2720    23.5380   -17.9660 
  134.8750     2.3210   100.5040     6.5020     5.7300     6.1830    23.6020   -17.9230 
  135.0000     2.3240   100.6270     6.9920     6.1390     6.2880    23.6770   -17.9750 
  135.1250     2.3270   100.5580     7.3330     6.4880     7.0140    23.6780   -18.0430 
  135.2500     2.3250   100.9910     7.4440     6.6630     7.8630    23.6490   -18.1370 
  135.3750     2.3180   101.3040     7.3300     6.6370     7.9870    23.6700   -18.1240 
  135.5000     2.3050   101.8000     7.0710     6.4570     7.2390    23.7500   -18.1090 
  135.6250     2.2920   104.6910     6.7900     6.2140     6.5270    23.7790   -18.1120 
  135.7500     2.2790   108.3140     6.5900     6.0090     6.2120    23.7220   -18.1150 
  135.8750     2.2690   109.5200     6.5010     5.8850     6.0900    23.7090   -18.0820 
  136.0000     2.2630   106.6420     6.5090     5.8470     6.0570    23.8690   -17.9990 
  136.1250     2.2620   101.7830     6.5890     5.8820     6.1390    23.9910   -17.9430 
  136.2500     2.2690    99.0520     6.6950     5.9480     6.2370    23.8130   -17.9350 
  136.3750     2.2830   100.9100     6.8050     6.0200     6.3130    23.4780   -17.9410 
  136.5000     2.3020   106.0640     6.8960     6.0770     6.3890    23.3420   -17.9690 
  136.6250     2.3190   108.1350     6.9280     6.0830     6.4760    23.5900   -17.8620 
  136.7500     2.3270   105.5010     6.8760     6.0180     6.5470    23.7840   -17.7670 
  136.8750     2.3240   103.6510     6.7240     5.8670     6.4880    23.7460   -17.6770 
  137.0000     2.3120   107.2040     6.4780     5.6300     6.2830    23.6290   -17.5230 
  137.1250     2.3000   112.6750     6.1710     5.3270     5.9740    23.6500   -17.4410 
  137.2500     2.2970   114.7110     5.8730     5.0170     5.6130    23.7170   -17.2880 
  137.3750     2.3040   114.9480     5.6430     4.7550     5.2600    23.7450   -17.2500 
  137.5000     2.3190   117.2720     5.5300     4.5880     5.0600    23.8070   -17.2120 
  137.6250     2.3390   120.0860     5.5750     4.5740     5.1250    23.8780   -17.2940 
  137.7500     2.3570   118.5280     5.7450     4.6950     5.3150    24.0630   -17.4650 
  137.8750     2.3700   113.7610     6.0060     4.9370     5.6300    24.4350   -17.6640 
  138.0000     2.3790   108.8600     6.3330     5.2780     6.1410    24.7740   -17.9810 
  138.1250     2.3820   107.1360     6.7550     5.7300     6.8090    24.6440   -18.2880 
  138.2500     2.3830   104.9760     7.3070     6.2980     7.5380    24.2440   -18.7410 
  138.3750     2.3860    99.8150     8.0020     6.9780     8.2220    23.8060   -19.1340 
  138.5000     2.3930    93.0750     8.7650     7.7100     8.8330    23.3520   -19.5190 
  138.6250     2.4010    88.4490     9.3790     8.3200     9.8260    23.0280   -19.9080 
  138.7500     2.4020    86.7240     9.6430     8.6410    11.5770    22.9380   -20.2060 
  138.8750     2.3910    85.9560     9.4610     8.5750    13.4150    22.9260   -20.5260 
  139.0000     2.3700    85.7540     8.9160     8.1640    12.8480    22.9230   -20.8920 
  139.1250     2.3420    85.8400     8.2730     7.5940    10.2960    23.0400   -21.1790 
  139.2500     2.3160    88.0930     7.8150     7.1240     8.9740    23.2190   -21.3320 
  139.3750     2.2960    94.0990     7.6360     6.8720     8.6400    23.1400   -21.4290 
  139.5000     2.2840   100.4660     7.6940     6.8490     8.3640    22.6410   -21.5510 
  139.6250     2.2810   102.8730     7.8610     6.9890     7.9650    22.2330   -21.6230 
  139.7500     2.2830   101.3520     7.9750     7.1470     7.9230    22.3010   -21.6550 
  139.8750     2.2830    98.3780     7.9790     7.2450     8.1300    22.7860   -21.6190 
  140.0000     2.2760    94.7290     7.8910     7.2620     8.0450    23.3620   -21.4230 
  140.1250     2.2600    91.8660     7.7810     7.2250     7.5250    23.7850   -21.3780 
  140.2500     2.2420    93.1980     7.7040     7.1820     7.1330    23.9730   -21.3010 
  140.3750     2.2290    95.4590     7.6630     7.1480     7.1180    23.9230   -21.2620 
  140.5000     2.2270    94.8830     7.6250     7.1060     7.3340    23.8200   -21.1910 
  140.6250     2.2380    93.5230     7.5340     7.0180     7.4620    23.8510   -21.0490 
  140.7500     2.2530    93.6890     7.3730     6.8670     7.3770    23.9150   -21.0170 
  140.8750     2.2640    94.6090     7.1580     6.6660     7.1620    24.0060   -20.9210 
  141.0000     2.2670    94.2870     6.9460     6.4580     6.9700    24.1110   -20.9110 
  141.1250     2.2640    93.8140     6.7920     6.3100     6.8960    24.1790   -20.8180 
  141.2500     2.2670    92.7080     6.6980     6.2590     6.9130    24.1670   -20.7430 
  141.3750     2.2800    88.0330     6.7500     6.3430     7.0850    24.2300   -20.7050 
  141.5000     2.3060    82.1320     7.0260     6.6270     7.6390    24.4130   -20.6540 
  141.6250     2.3430    81.7660     7.9640     7.2810     8.6170    24.5990   -20.7000 
