~V
VERS. 2.00: Ver 2.00
~W
STRT.M 58.0000:
STOP.M 259.0000:
STEP.M 0.1250:
NULL. -999.2500:
UWI. DF3010:
~C
DEPT.M :
GR.API :
RML.OHMM :
RI. :
RXO.OHMM :
CALI.CM :
DEN.GM/CC :
SP.MV :
~A
# ...
  249.2500    61.2540     8.8390     7.5070     7.2440    24.0200     2.3950   -16.1960 
  249.3750    61.2540     9.0200     7.4380     7.1640    24.2300     2.4030   -16.2290 
  249.5000    61.2540     9.2940     7.5240     7.1410    24.4260     2.4270   -16.2780 
  249.6250    61.2540     9.5370     7.6760     6.9920    24.4970     2.4580   -16.2930 
  249.7500    61.2540     9.7090     7.8130     6.8010    24.5180     2.4850   -16.3570 
  249.8750    61.2540     9.8090     7.9060     6.5680    24.5460     2.4990   -16.3530 
  250.0000    61.2540     9.8430     7.9490     6.4000    24.5740     2.4950   -16.3570 
  250.1250    61.2540     9.7950     7.9440     6.3810    24.5830     2.4740   -16.3050 
  250.2500    61.2540     9.6850     7.9170     6.4250    24.5620     2.4470   -16.3510 
  250.3750    61.2540     9.5440     7.8840     6.3920    24.5000     2.4220   -16.3330 
  250.5000    61.2540     9.4240     7.8610     6.3050    24.4280     2.4030   -16.3150 
  250.6250    61.2540     9.3980     7.8600     6.2770    24.4360     2.3910   -16.2690 
  250.7500    61.2540     9.4740     7.8810     6.4670    24.4810     2.3850   -16.2480 
  250.8750    61.2540     9.6200     7.9180     6.8200    24.5120     2.3830   -16.2400 
  251.0000    61.2540     9.7770     7.9600     7.2520    24.5240     2.3830   -16.2600 
  251.1250    61.2540     9.8830     7.9920     7.6940    24.5120     2.3820   -16.2460 
  251.2500    61.2540     9.9320     8.0110     7.9910    24.5020     2.3810   -16.1830 
  251.3750    61.2540     9.9480     8.0200     8.1920    24.4970     2.3790   -16.1850 
  251.5000    61.2540     9.9660     8.0230     8.2100    24.4950     2.3760   -16.1380 
  251.6250    61.2540    10.0200     8.0290     7.9360    24.4990     2.3710   -16.1670 
  251.7500    61.2540    10.1090     8.0410     7.5870    24.5030     2.3640   -16.0890 
  251.8750    61.2540    10.2230     8.0620     7.2410    24.5070     2.3570   -15.9880 
  252.0000    61.2540    10.3500     8.0960     6.9600    24.5080     2.3500   -15.9610 
  252.1250    61.2540    10.4820     8.1480     6.9000    24.5060     2.3480   -15.9790 
  252.2500    61.2540    10.6040     8.2160     6.9130    24.5050     2.3500   -15.9910 
  252.3750    61.2540    10.7000     8.3030     6.9770    24.5060     2.3570   -15.9480 
  252.5000    61.2540    10.7480     8.4040     7.1230    24.5040     2.3660   -15.9670 
  252.6250    61.2540    10.7280     8.5100     7.2770    24.5040     2.3780   -15.9900 
  252.7500    61.2540    10.6580     8.6020     7.3930    24.5050     2.3900   -16.0250 
  252.8750    61.2540    10.5710     8.6660     7.4280    24.5050     2.4000   -16.1190 
  253.0000    61.2540    10.4990     8.6930     7.4570    24.5030     2.4050   -16.0770 
  253.1250    61.2540    10.4630     8.6800     7.4710    24.5040     2.4020   -16.0220 
  253.2500    61.2540    10.4530     8.6500     7.3280    24.5090     2.3950   -16.0220 
  253.3750    61.2540    10.4520     8.6190     7.1890    24.5190     2.3850   -15.9900 
  253.5000    61.2540    10.4490     8.5980     7.1670    24.5380     2.3780   -15.8940 
  253.6250    61.2540    10.4400     8.5910     7.1890    24.5500     2.3770   -15.7550 
  253.7500    61.2540    10.4280     8.5910     7.1530    24.5140     2.3820   -15.6550 
  253.8750    61.2540    10.4140     8.5930     7.1870    24.3980     2.3890   -15.4920 
  254.0000    61.2540    10.4030     8.5950     7.4310    24.2950     2.3960   -15.3990 
  254.1250    61.2540    10.3950     8.5970     7.9110    24.2380     2.3980   -15.2620 
  254.2500    61.2540    10.3920     8.5980     8.6260    24.1910     2.3970   -15.0600 
  254.3750    61.2540    10.3910     8.5990     9.2550    24.1600     2.3960   -14.8910 
  254.5000    61.2540    10.3910     8.5990     9.6660    24.1490     2.3960   -14.6910 
  254.6250    61.2540    10.3910     8.5990     9.8020    24.1440     2.4030   -14.4500 
  254.7500    61.2540    10.3910     8.5990     9.8700    24.1330     2.4150   -14.3010 
  254.8750    61.2540    10.3910     8.5990     9.9900    24.1060     2.4320   -14.1740 
  255.0000    61.2540    10.3910     8.5990    10.3990    24.0870     2.4510   -14.0200 
  255.1250    61.2540    10.3910     8.5990    10.9310    24.0800     2.4670   -13.9400 
  255.2500    61.2540    10.3910     8.5990    11.7220    24.0790     2.4770   -13.9040 
  255.3750    61.2540    10.3910     8.5990    11.5410    24.0790     2.4800   -13.8440 
  255.5000    61.2540    10.3910     8.5990    11.3360    24.0790     2.4770   -13.8610 
  255.6250    61.2540    10.3910     8.5990    10.7890    24.0790     2.4720   -14.0170 
  255.7500    61.2540    10.3910     8.5990    10.1550    24.0790     2.4690   -14.0780 
  255.8750    61.2540    10.3910     8.5990     9.9460    24.0790     2.4700   -14.1520 
  256.0000    61.2540    10.3910     8.5990    10.2720    24.0790     2.4750   -14.2700 
  256.1250    61.2540    10.3910     8.5990    10.7520    24.0790     2.4810   -14.3940 
  256.2500    61.2540    10.3910     8.5990    11.2570    24.0790     2.4840   -14.5020 
  256.3750    61.2540    10.3910     8.5990    11.3110    24.0790     2.4850   -14.6150 
  256.5000    61.2540    10.3910     8.5990    11.5130    24.0790     2.4840   -14.6730 
  256.6250    61.2540    10.3910     8.5990    11.4360    24.0790     2.4850   -14.6740 
  256.7500    61.2540    10.3910     8.5990    11.1390    24.0790     2.4890   -14.7460 
  256.8750    61.2540    10.3910     8.5990    10.9910    24.0590     2.4960   -14.8130 
  257.0000    61.2540    10.3910     8.5990    10.9190    24.0050     2.5020   -14.8190 
  257.1250    61.2540    10.3910     8.5990    10.8280    23.9270     2.5050   -14.8060 
  257.2500    61.2540    10.3910     8.5990    10.8590    23.8620     2.5060   -14.7830 
  257.3750    61.2540    10.3910     8.5990    10.9820    23.7960     2.5090   -14.8060 
  257.5000    61.2540    10.3910     8.5990    10.9840    23.7170     2.5140   -14.8560 
  257.6250    61.2540    10.3910     8.5990    10.7870    23.5160     2.5140   -14.8560 
  257.7500    61.2540    10.3910     8.5990    10.2290    22.5140     2.4970   -14.7860 
  257.8750    61.2540    10.3910     8.5990     9.1240    19.9750     2.4560   -14.7480 
  258.0000    61.2540    10.3910     8.5990     7.8350    16.7980     2.3970   -14.7460 
  258.1250    61.2540    10.3910     8.5990     7.0120    15.0510     2.3360   -14.6550 
  258.2500    61.2540    10.3910     8.5990     6.7420    14.5950     2.2880   -14.6240 
  258.3750    61.2540    10.3910     8.5990     6.7300    14.5870     2.2580   -14.5610 
  258.5000    61.2540    10.3910     8.5990     6.7280    14.5860     2.2440   -14.5390 
  258.6250    61.2540    10.3910     8.5990     6.7270    14.5840     2.2420   -14.5390 
  258.7500    61.2540    10.3910     8.5990     6.7280    14.5800     2.2420  -999.2500 
  258.8750    61.2540    10.3910     8.5990     6.7300    14.5780     2.2420  -999.2500 
  259.0000    61.2540    10.3910     8.5990     6.7300    14.5770     2.2410  -999.2500 
