~V
VERS. 2.00: Ver 2.00
~W
STRT.M 57.0000:
STOP.M 261.0000:
STEP.M 0.1250:
NULL. -999.2500:
UWI. DF317:
~C
DEPT.M :
DEN.GM/CC :
SP.MV :
AC.US/MT :
GR.API :
CALI.CM :
RXO.OHMM :
RI. :
RML.OHMM :
~A
# ...
  107.0000     2.2720   -12.1440   446.6430   100.1980    24.1030     5.1000     5.3740     7.7870 
  107.1250     2.2590   -12.1210   444.8120    96.9460    24.1810     5.3910     5.3610     7.7490 
  107.2500     2.2530   -12.1090   447.8110    96.4220    23.9630     6.3350     5.2700     7.5750 
  107.3750     2.2620   -12.1090   453.2610    98.9890    23.5880     7.0350     5.1200     7.3110 
  107.5000     2.2830   -12.1220   457.3180   101.3020    23.1400     6.3770     4.9660     7.0680 
  107.6250     2.3020   -12.1820   458.1410   102.0460    22.9610     4.9250     4.8660     6.9670 
  107.7500     2.2980   -12.2930   456.7630   101.3890    23.6830     4.8600     4.9100     7.1540 
  107.8750     2.2760   -12.4350   454.4180    99.7080    24.0510     5.0520     5.1260     7.6390 
  108.0000     2.2540   -12.6130   449.3340    96.5180    24.1610     5.1360     5.5300     8.4110 
  108.1250     2.2460   -12.8220   440.3060    89.5110    24.1210     5.3950     6.1130     9.4390 
  108.2500     2.2460   -13.0420   429.6500    81.2090    24.0090     6.3520     6.8170    10.5380 
  108.3750     2.2450   -13.2490   422.9140    75.7300    23.6690     7.4810     7.5060    11.5070 
  108.5000     2.2380   -13.4290   422.4830    73.5900    23.6490     8.0920     8.0790    12.2080 
  108.6250     2.2230   -13.5730   425.8730    72.5820    23.7890     8.2820     8.4780    12.6290 
  108.7500     2.2030   -13.6470   427.9550    73.3450    23.7990     8.2610     8.6750    12.7780 
  108.8750     2.1880   -13.6700   427.9350    78.0980    23.6500     8.0750     8.7350    12.7840 
  109.0000     2.1870   -13.6470   428.3030    83.9840    23.6150     7.8330     8.7290    12.7410 
  109.1250     2.1980   -13.5910   429.6160    86.7640    23.6070     7.5810     8.7020    12.7120 
  109.2500     2.2070   -13.5130   429.3700    84.7890    23.5970     7.7100     8.6770    12.6860 
  109.3750     2.2050   -13.4290   427.5160    79.6610    23.5980     7.9150     8.6350    12.6080 
  109.5000     2.1910   -13.3500   427.1210    74.0000    23.5860     7.9720     8.5530    12.4260 
  109.6250     2.1750   -13.2620   430.7370    70.6210    23.6170     7.7860     8.4350    12.1620 
  109.7500     2.1650   -13.1810   437.5820    70.2250    23.6050     7.3840     8.3050    11.8770 
  109.8750     2.1600   -13.1090   443.8020    69.7580    23.6110     7.1360     8.1870    11.6390 
  110.0000     2.1560   -13.0330   447.9270    67.7800    23.5920     7.1280     8.1090    11.4810 
  110.1250     2.1580   -12.9500   450.4640    65.7470    23.5950     7.1640     8.0820    11.4290 
  110.2500     2.1690   -12.8650   452.1830    64.7620    23.5410     7.0910     8.1040    11.4690 
  110.3750     2.1810   -12.7640   452.6620    65.1300    23.5520     7.0510     8.1450    11.5340 
  110.5000     2.1840   -12.6450   451.7170    67.3250    23.6020     7.1030     8.1870    11.5670 
  110.6250     2.1780   -12.5170   450.1560    70.6250    23.6090     7.1610     8.2010    11.5190 
  110.7500     2.1690   -12.3950   449.3980    74.2450    23.6070     7.1840     8.1650    11.3470 
  110.8750     2.1690   -12.2670   449.5560    76.8130    23.5880     7.2260     8.0840    11.0950 
  111.0000     2.1760   -12.1250   449.6550    75.8090    23.5860     7.1910     7.9640    10.8000 
  111.1250     2.1830   -11.9810   448.5470    73.1690    23.5860     7.1020     7.8870    10.6550 
  111.2500     2.1800   -11.8040   446.0580    72.6200    23.6070     7.0900     8.0440    10.9640 
  111.3750     2.1690   -11.5900   444.4840    73.2890    23.6000     7.1490     8.4180    11.6330 
  111.5000     2.1610   -11.3720   444.6460    72.5330    23.5970     7.1270     8.9330    12.4930 
  111.6250     2.1740   -11.1270   436.6990    71.0470    23.6000     7.0400     9.4840    13.3630 
  111.7500     2.2330   -10.8610   398.6380    71.5720    23.5690     7.1710     9.8540    13.8090 
  111.8750     2.3270   -10.6050   344.0170    76.0540    23.3680     8.0500     9.7890    13.5130 
  112.0000     2.4220   -10.3580   311.1160    84.7880    23.1290    11.4580     9.1930    12.4240 
  112.1250     2.4720   -10.1200   331.7820    95.6720    23.2540    14.3240     8.1860    10.7960 
  112.2500     2.4500    -9.9030   393.4350   105.7080    23.5960    11.5340     6.9720     8.9830 
  112.3750     2.4000    -9.7510   442.3090   115.0100    23.8180     6.6330     5.8550     7.4380 
  112.5000     2.3620    -9.6400   461.4470   122.4780    24.1000     4.8250     4.9830     6.3210 
  112.6250     2.3550    -9.5770   463.0480   123.0640    24.1150     4.5400     4.3920     5.6250 
  112.7500     2.3700    -9.5340   465.5600   117.3330    24.1840     4.4120     4.1310     5.4000 
  112.8750     2.3870    -9.5160   470.6310   113.6570    24.1570     4.3840     4.1450     5.5240 
  113.0000     2.3990    -9.5210   470.6720   113.9780    24.1580     4.3380     4.3890     5.9000 
  113.1250     2.4020    -9.5280   459.1050   112.7810    24.1940     4.3000     4.8180     6.4820 
  113.2500     2.3840    -9.5590   435.9350   105.4000    24.1070     4.4780     5.4350     7.2740 
  113.3750     2.3480    -9.5830   416.0770    95.7490    24.1260     5.2950     6.1260     8.1350 
  113.5000     2.3070    -9.5850   409.4070    88.3050    24.0380     6.5830     6.7520     8.8760 
  113.6250     2.2860    -9.5590   408.3860    86.9340    23.8920     7.4440     7.1540     9.3000 
  113.7500     2.3110    -9.5250   396.3910    92.0830    23.6430     7.0610     7.1760     9.2230 
  113.8750     2.3650    -9.4700   378.7220    97.1140    23.6250     7.1440     6.8740     8.7530 
  114.0000     2.4180    -9.3970   375.8010    99.6670    23.7530     8.1010     6.3640     8.0780 
  114.1250     2.4420    -9.3210   398.1900   101.7420    24.1290     8.0800     5.8020     7.4060 
  114.2500     2.4310    -9.2520   427.2380   103.4720    24.0930     6.2380     5.3110     6.9030 
  114.3750     2.4090    -9.1810   438.9310   101.6840    24.1530     4.9600     4.9560     6.6140 
  114.5000     2.3870    -9.1090   433.4210    97.0890    24.1590     4.9580     4.7480     6.5170 
  114.6250     2.3660    -9.0520   424.2370    94.1470    24.0220     5.3140     4.6830     6.5810 
  114.7500     2.3470    -8.9990   423.2720    94.7100    24.0520     5.5490     4.7710     6.8170 
  114.8750     2.3300    -8.9550   429.1680    97.0770    24.1020     5.6140     5.0210     7.2720 
  115.0000     2.3140    -8.9340   438.0980    97.3330    24.1390     5.5960     5.4690     8.0050 
  115.1250     2.2960    -8.9180   444.5510    93.7220    23.9930     5.5300     6.1340     9.0440 
  115.2500     2.2700    -8.8770   444.2400    88.1680    23.8850     6.0840     7.0750    10.4290 
  115.3750     2.2410    -8.8240   440.6840    83.3580    23.7540     7.9990     8.2560    12.0770 
  115.5000     2.2190    -8.7700   437.3150    78.8740    23.6150    10.0860     9.6510    13.9880 
  115.6250     2.2080    -8.7110   434.0030    73.5010    23.5210    10.9490    11.2200    16.1180 
  115.7500     2.2040    -8.6530   430.5070    68.3640    23.5840    11.0490    12.7980    18.1680 
  115.8750     2.1990    -8.6040   430.7360    67.4090    23.5490    11.0300    14.0350    19.6420 
  116.0000     2.2020    -8.5460   429.5960    70.1830    23.4740    10.9700    14.5790    20.1230 
  116.1250     2.2310    -8.4850   413.7940    73.9540    23.1500    10.9620    14.2290    19.4330 
  116.2500     2.3030    -8.4320   378.7880    76.5910    23.0570    12.4900    12.9780    17.5580 
  116.3750     2.3830    -8.3750   353.4480    80.5690    23.2230    17.5980    11.2550    15.0810 
  116.5000     2.4330    -8.2960   362.8060    87.3520    23.6440    19.8550     9.4340    12.5050 
  116.6250     2.4340    -8.2050   400.4480    94.7450    23.9490    14.7350     7.8200    10.2690 
  116.7500     2.4060    -8.1120   427.1060    99.5310    24.1450     7.0670     6.6880     8.8300 
  116.8750     2.3900    -7.9760   422.5070   100.9440    24.1470     5.2560     6.0320     8.1170 
