~V
VERS. 2.00: Ver 2.00
~W
STRT.M 65.0000:
STOP.M 277.0000:
STEP.M 0.1250:
NULL. -999.2500:
UWI. DF311:
~C
DEPT.M :
DEN.GM/CC :
SP.MV :
AC.US/MT :
GR.API :
CALI.CM :
RXO.OHMM :
RI. :
RML.OHMM :
~A
# ...
  115.0000     2.2030   -41.9920   427.7180    60.5050    23.9230     9.3160     6.9580     9.1080 
  115.1250     2.2000   -41.9600   428.2000    58.5360    23.8290     9.2350     6.9810     9.1520 
  115.2500     2.1910   -41.8830   428.6680    58.2750    23.5040     9.0920     7.0100     9.2000 
  115.3750     2.1860   -41.7730   428.9930    65.7620    23.2830     8.7400     7.0300     9.2400 
  115.5000     2.1900   -41.6390   429.1150    76.4400    23.1800     8.3390     7.0320     9.2550 
  115.6250     2.1980   -41.5500   429.0390    74.5340    23.1600     8.2650     7.0010     9.2230 
  115.7500     2.2050   -41.4740   429.1740    62.8260    23.1920     8.6090     6.9330     9.1330 
  115.8750     2.2080   -41.4070   430.2900    55.3320    23.2240     9.0140     6.8250     8.9810 
  116.0000     2.2050   -41.3270   433.1680    57.8310    23.2150     9.0560     6.6890     8.7880 
  116.1250     2.1930   -41.2160   438.1440    63.3720    23.1920     8.8880     6.5590     8.6060 
  116.2500     2.1770   -41.1260   443.9420    67.1140    23.2570     8.9030     6.4710     8.4860 
  116.3750     2.1640   -41.0550   449.5610    68.8980    23.4290     9.0180     6.4430     8.4520 
  116.5000     2.1600   -40.9800   454.3070    71.8610    23.7400     9.1000     6.4790     8.5090 
  116.6250     2.1660   -40.8790   456.2300    76.8310    23.8450     9.0790     6.5630     8.6380 
  116.7500     2.1800   -40.7660   452.8080    77.9470    23.8330     9.0490     6.6590     8.7760 
  116.8750     2.2030   -40.6400   442.6030    74.0500    23.5050     8.9800     6.7450     8.8850 
  117.0000     2.2210   -40.5280   428.4150    70.8560    23.2170     8.9500     6.8050     8.9410 
  117.1250     2.2170   -40.4370   418.6470    72.9760    23.1850     8.9810     6.8230     8.9320 
  117.2500     2.1940   -40.3480   418.3360    73.5700    23.3620     8.9820     6.8080     8.8900 
  117.3750     2.1680   -40.2650   426.0720    71.3040    23.3660     8.9580     6.7760     8.8440 
  117.5000     2.1530   -40.1810   436.4370    70.2040    23.1820     8.9750     6.7450     8.8130 
  117.6250     2.1530   -40.1150   443.6500    72.4740    22.8510     9.0150     6.7290     8.8020 
  117.7500     2.1530   -40.0770   446.3090    75.4440    22.8600     9.0460     6.7290     8.8050 
  117.8750     2.1500   -40.0710   444.9100    75.6920    23.0660     9.0800     6.7330     8.8130 
  118.0000     2.1490   -40.0400   441.1410    72.2120    23.2680     9.0940     6.7280     8.8120 
  118.1250     2.1540   -40.0140   438.1920    67.1430    23.3500     9.0710     6.7050     8.7840 
  118.2500     2.1590   -39.9980   438.2160    64.5030    23.2670     8.9980     6.6710     8.7340 
  118.3750     2.1620   -39.9630   440.7970    65.9360    23.0180     8.9410     6.6310     8.6770 
  118.5000     2.1640   -39.9180   444.1940    68.9010    22.7250     8.9620     6.5960     8.6290 
  118.6250     2.1680   -39.8480   447.5660    69.7540    22.6510     9.0810     6.5730     8.6080 
  118.7500     2.1710   -39.7630   451.3270    68.3750    22.7450     9.1410     6.5640     8.6110 
  118.8750     2.1690   -39.6550   454.8140    67.2870    22.9570     9.0940     6.5640     8.6280 
  119.0000     2.1640   -39.5650   455.9370    67.8510    23.2150     9.0580     6.5730     8.6560 
  119.1250     2.1590   -39.5070   452.6350    69.6910    23.3600     9.0730     6.5990     8.6940 
  119.2500     2.1580   -39.4760   447.1770    69.7840    23.4940     9.0830     6.6400     8.7430 
  119.3750     2.1620   -39.5010   442.7600    67.3100    23.5600     9.0500     6.6950     8.8000 
  119.5000     2.1670   -39.5950   442.7530    65.9770    23.6010     9.0020     6.7490     8.8600 
  119.6250     2.1680   -39.7450   448.9710    69.8520    23.6300     8.9530     6.7850     8.9050 
  119.7500     2.1630   -39.9210   456.8940    75.0840    23.6450     8.9600     6.7990     8.9240 
  119.8750     2.1540   -40.1070   461.4920    77.2240    23.6520     8.9720     6.7970     8.9140 
  120.0000     2.1460   -40.2780   459.9510    75.9330    23.6620     8.9640     6.7840     8.8810 
  120.1250     2.1450   -40.4090   453.1730    72.8880    23.6680     9.0430     6.7600     8.8310 
  120.2500     2.1470   -40.5070   446.0270    70.2250    23.6580     9.2530     6.7220     8.7710 
  120.3750     2.1440   -40.5590   441.5270    69.6180    23.6440     9.4850     6.6690     8.7040 
  120.5000     2.1360   -40.5590   440.3410    70.4100    23.6380     9.5890     6.6120     8.6350 
  120.6250     2.1340   -40.5310   440.6070    69.7050    23.5880     9.4590     6.5720     8.5880 
  120.7500     2.1460   -40.4860   440.0630    68.4740    23.4490     9.3050     6.5640     8.5810 
  120.8750     2.1690   -40.4580   438.8410    67.3420    23.2770     9.2390     6.5960     8.6260 
  121.0000     2.1910   -40.4550   438.4220    65.2680    23.3210     9.2850     6.6610     8.7160 
  121.1250     2.1970   -40.4890   440.0880    62.5670    23.2650     9.3450     6.7390     8.8220 
  121.2500     2.1890   -40.5350   442.3910    62.6230    23.2640     9.2970     6.8040     8.9020 
  121.3750     2.1760   -40.5940   443.4680    66.0230    23.2670     9.1710     6.8400     8.9320 
  121.5000     2.1670   -40.6500   442.6040    70.0390    23.3130     9.0900     6.8470     8.9140 
  121.6250     2.1670   -40.6730   440.8650    71.4300    23.3470     9.1390     6.8320     8.8620 
  121.7500     2.1670   -40.6900   439.8960    70.2850    23.2130     9.1910     6.8060     8.8030 
  121.8750     2.1610   -40.6790   440.0850    68.1070    23.3150     9.2430     6.7710     8.7420 
  122.0000     2.1520   -40.6570   441.1990    65.8210    23.7300     9.2960     6.7260     8.6780 
  122.1250     2.1430   -40.6140   442.6560    65.7320    23.7860     9.2110     6.6690     8.6010 
  122.2500     2.1370   -40.5500   443.3180    67.0960    23.4760     8.9040     6.6120     8.5250 
  122.3750     2.1350   -40.4670   442.3920    68.0890    23.1440     8.6590     6.5740     8.4690 
  122.5000     2.1390   -40.3700   440.2050    68.3980    23.1390     8.6800     6.5640     8.4530 
  122.6250     2.1500   -40.2860   438.0900    69.0530    23.3920     8.8740     6.5860     8.4830 
  122.7500     2.1650   -40.2050   436.4270    69.9140    23.6830     9.0360     6.6240     8.5360 
  122.8750     2.1770   -40.1380   434.4490    70.6280    23.8390     9.1590     6.6660     8.5960 
  123.0000     2.1820   -40.0770   431.8310    72.6640    23.7900     9.2070     6.7110     8.6560 
  123.1250     2.1730   -40.0530   429.9110    75.3630    23.5580     9.2100     6.7650     8.7210 
  123.2500     2.1560   -40.0590   430.2700    76.0240    23.3420     9.1560     6.8240     8.7920 
  123.3750     2.1410   -40.0830   433.3270    74.8020    23.2360     9.0860     6.8740     8.8500 
  123.5000     2.1370   -40.1260   438.1760    73.5150    23.0410     9.0640     6.8920     8.8660 
  123.6250     2.1420   -40.1850   442.6080    73.0710    23.0430     9.0950     6.8570     8.8180 
  123.7500     2.1460   -40.2390   444.5870    72.3760    23.2260     9.0680     6.7870     8.7290 
  123.8750     2.1500   -40.3010   443.5320    71.5550    23.5040     8.9100     6.7120     8.6380 
  124.0000     2.1540   -40.3640   440.4200    70.7440    23.6590     8.7200     6.6680     8.5910 
  124.1250     2.1610   -40.4020   437.3160    68.8870    23.7970     8.6970     6.6800     8.6230 
  124.2500     2.1680   -40.4370   435.6430    67.0400    23.9270     8.8120     6.7320     8.7110 
  124.3750     2.1730   -40.4720   435.4300    66.7930    23.9690     8.9460     6.8030     8.8220 
  124.5000     2.1740   -40.5160   435.8940    69.7560    23.9890     9.0330     6.8700     8.9210 
  124.6250     2.1730   -40.5680   435.9280    74.2630    23.9850     9.0170     6.9140     8.9790 
  124.7500     2.1700   -40.6470   435.2620    76.5010    23.9530     8.9470     6.9380     9.0040 
  124.8750     2.1660   -40.7360   434.3870    74.9320    23.8840     8.8320     6.9500     9.0150 
