~V
VERS. 2.00: Ver 2.00
~W
STRT.M 100.0000:
STOP.M 292.0000:
STEP.M 0.1250:
NULL. -999.2500:
UWI. DF310:
~C
DEPT.M :
AC.US/MT :
DEN.GM/CC :
GR.API :
CALI.CM :
RXO.OHMM :
RI. :
RML.OHMM :
SP.MV :
~A
# ...
  140.0000   335.1670     2.3540    57.2690    23.0040    16.9110    15.0510    17.3870   -26.4890 
  140.1250   360.4500     2.2910    58.7050    22.8480    15.7510    14.7200    16.9040   -26.4510 
  140.2500   385.2920     2.2240    59.8870    22.7910    12.8710    14.0890    16.0580   -26.4010 
  140.3750   401.5260     2.1880    60.9320    22.7830    11.2090    13.4040    15.2000   -26.3640 
  140.5000   408.4760     2.1830    62.5200    22.7830    10.8280    12.8700    14.6010   -26.3370 
  140.6250   409.6980     2.1870    62.5970    22.7830    10.9330    12.6310    14.4130   -26.3140 
  140.7500   410.1390     2.1830    60.6290    22.7800    11.0520    12.6170    14.4810   -26.3030 
  140.8750   411.3330     2.1720    58.8430    22.7670    11.1210    12.7410    14.6610   -26.2790 
  141.0000   413.5270     2.1640    60.8900    22.7380    11.1910    12.9430    14.8700   -26.2450 
  141.1250   416.4490     2.1610    65.4000    22.7240    11.4150    13.2200    15.1300   -26.2120 
  141.2500   419.1460     2.1570    68.2830    22.7190    11.8580    13.5550    15.4700   -26.1930 
  141.3750   420.2920     2.1560    68.4750    22.7190    12.4160    13.9200    15.8760   -26.1670 
  141.5000   418.2630     2.1640    67.4370    22.7190    12.9630    14.2630    16.2830   -26.1200 
  141.6250   412.2760     2.1910    67.7860    22.7190    13.3480    14.4880    16.5470   -26.0550 
  141.7500   406.1400     2.2270    68.3660    22.7190    13.5790    14.5390    16.5710   -25.9800 
  141.8750   404.2900     2.2570    68.8790    22.7190    13.5350    14.3890    16.3150   -25.9190 
  142.0000   408.8680     2.2680    69.2090    22.7190    13.1320    14.0530    15.8320   -25.8550 
  142.1250   417.6210     2.2480    68.5370    22.7190    12.2950    13.5930    15.2350   -25.7770 
  142.2500   424.9100     2.2150    66.6840    22.7190    11.6290    13.1540    14.6950   -25.6750 
  142.3750   428.5220     2.1860    63.9100    22.7190    11.3460    12.8260    14.3110   -25.5710 
  142.5000   428.8400     2.1750    63.5210    22.7190    11.4180    12.6490    14.1030   -25.4920 
  142.6250   426.5400     2.1860    65.2410    22.7190    11.5420    12.6200    14.0140   -25.4350 
  142.7500   422.6620     2.2010    64.9730    22.7190    11.5810    12.6670    13.9500   -25.3940 
  142.8750   418.5840     2.2080    63.0930    22.7190    11.7420    12.7430    13.8950   -25.3580 
  143.0000   416.2490     2.2040    62.5750    22.7190    12.0320    12.8110    13.8730   -25.3330 
  143.1250   416.3200     2.1990    64.7190    22.7190    12.1180    12.8360    13.9200   -25.3320 
  143.2500   416.3020     2.2050    64.9980    22.7190    12.0120    12.8130    14.0060   -25.3640 
  143.3750   414.7340     2.2180    64.6200    22.7060    11.9330    12.7500    14.0810   -25.4130 
  143.5000   412.4580     2.2290    65.7780    22.6670    11.9710    12.6650    14.1190   -25.4770 
  143.6250   411.6850     2.2260    67.3630    22.5870    12.0020    12.5730    14.1770   -25.5640 
  143.7500   412.1630     2.2180    67.5080    22.5490    12.0130    12.4650    14.2720   -25.6870 
  143.8750   412.1310     2.2140    68.2080    22.5390    11.9480    12.3130    14.3140   -25.8490 
  144.0000   410.4460     2.2180    70.2990    22.5390    11.6660    12.1090    14.2010   -26.0200 
  144.1250   407.7710     2.2250    71.8690    22.5360    11.1730    11.8890    13.9250   -26.1950 
  144.2500   405.7570     2.2270    70.4670    22.5190    10.7120    11.7200    13.6630   -26.3520 
  144.3750   404.8370     2.2220    68.9020    22.4810    10.3920    11.6550    13.5510   -26.4940 
  144.5000   404.6640     2.2130    68.0740    22.4500    10.2460    11.7210    13.6440   -26.6110 
  144.6250   404.9730     2.2050    66.3200    22.4330    10.3980    11.9440    13.9090   -26.6830 
  144.7500   405.7750     2.2030    61.4140    22.4210    10.8210    12.2600    14.1960   -26.6940 
  144.8750   407.0820     2.2040    56.4880    22.4140    11.1990    12.6060    14.4480   -26.6620 
  145.0000   408.6560     2.2040    55.0480    22.4080    11.3210    12.9080    14.7000   -26.6170 
  145.1250   410.1550     2.2000    57.3420    22.3780    11.2210    13.1020    15.0160   -26.5500 
  145.2500   411.2620     2.1940    60.2180    22.3170    11.0660    13.2150    15.3860   -26.4680 
  145.3750   411.6280     2.1930    60.1670    22.2690    10.9720    13.2830    15.7390   -26.3660 
  145.5000   411.2290     2.1980    57.6270    22.2520    11.0740    13.3400    15.9620   -26.2540 
  145.6250   411.1450     2.1990    56.4880    22.2520    11.5120    13.3890    15.9900   -26.1520 
  145.7500   412.7920     2.1880    58.9320    22.2520    12.0420    13.4010    15.8980   -26.0590 
  145.8750   416.3220     2.1700    60.9220    22.2520    12.2190    13.3550    15.6980   -25.9570 
  146.0000   420.3400     2.1530    60.1130    22.2520    12.0040    13.2500    15.3470   -25.8460 
  146.1250   422.6780     2.1480    58.5960    22.2520    11.7950    13.0960    14.7960   -25.7480 
  146.2500   423.2840     2.1500    59.1520    22.2520    11.5530    12.9250    14.2170   -25.6690 
  146.3750   423.2680     2.1530    59.3930    22.2520    11.2110    12.7590    13.7980   -25.6170 
  146.5000   423.4890     2.1520    58.3500    22.2520    10.9500    12.6370    13.6800   -25.5770 
  146.6250   423.5050     2.1500    56.5820    22.2520    10.8540    12.6090    13.8810   -25.5420 
  146.7500   422.4660     2.1520    55.0240    22.2520    10.8600    12.6630    14.1680   -25.5040 
  146.8750   420.5220     2.1600    54.8000    22.2520    10.9390    12.7640    14.4500   -25.4860 
  147.0000   418.7500     2.1670    58.2240    22.2520    11.0480    12.8600    14.7890   -25.4920 
  147.1250   418.4510     2.1730    63.0350    22.2520    11.0980    12.9100    15.2170   -25.4930 
  147.2500   419.3440     2.1780    62.4990    22.2480    11.0970    12.9210    15.6020   -25.4740 
  147.3750   420.5510     2.1850    59.4780    22.2310    11.0810    12.9120    15.8150   -25.4350 
  147.5000   421.2430     2.1880    59.0320    22.1920    11.0560    12.8970    15.8490   -25.3940 
  147.6250   421.0670     2.1840    60.2560    22.1730    10.9640    12.8810    15.7630   -25.3530 
  147.7500   420.5710     2.1790    58.0030    22.1670    10.8130    12.8720    15.6600   -25.3210 
  147.8750   420.2430     2.1800    54.6750    22.1670    10.6450    12.8760    15.6180   -25.2750 
  148.0000   420.2480     2.1850    54.1570    22.1670    10.5110    12.8970    15.6890   -25.2270 
  148.1250   420.4170     2.1890    56.2510    22.1670    10.5200    12.9350    15.8330   -25.1870 
  148.2500   420.6660     2.1880    58.6180    22.1670    10.5550    13.0000    15.9160   -25.1750 
  148.3750   421.2540     2.1830    58.9140    22.1670    10.6370    13.1140    15.8360   -25.1750 
  148.5000   422.3370     2.1780    57.5330    22.1670    10.8340    13.2780    15.6080   -25.1780 
  148.6250   423.4710     2.1770    57.1100    22.1670    11.1190    13.4400    15.3750   -25.1950 
  148.7500   423.8620     2.1780    59.7300    22.1710    11.3470    13.5050    15.3010   -25.2170 
  148.8750   423.1870     2.1830    64.2360    22.1800    11.4240    13.4100    15.4190   -25.2460 
  149.0000   421.7090     2.1920    67.2790    22.1860    11.3090    13.1610    15.6070   -25.2660 
  149.1250   420.0100     2.2060    67.5620    22.1880    10.9020    12.8240    15.6830   -25.2770 
  149.2500   418.4040     2.2150    66.7090    22.1880    10.2910    12.5120    15.6920   -25.2850 
  149.3750   416.7610     2.2160    66.2700    22.1880     9.7760    12.2800    15.8630   -25.2810 
  149.5000   415.0590     2.2120    66.3490    22.1880     9.5860    12.1460    16.3400   -25.2510 
  149.6250   413.6910     2.2100    65.4410    22.1920     9.6690    12.1300    16.9450   -25.1700 
  149.7500   412.6730     2.2120    63.3150    22.2170     9.8480    12.2070    17.2450   -25.0470 
  149.8750   411.3020     2.2130    60.8470    22.2830    10.2060    12.3790    16.9690   -24.8710 
