~V
VERS. 2.00: Ver 2.00
~W
STRT.M 60.0000:
STOP.M 248.0000:
STEP.M 0.1250:
NULL. -999.2500:
UWI. DF313:
~C
DEPT.M :
DEN.GM/CC :
SP.MV :
AC.US/MT :
GR.API :
CALI.CM :
RXO.OHMM :
RI. :
RML.OHMM :
~A
   60.0000  -999.2500  -999.2500   173.5860  -999.2500  -999.2500  -999.2500  -999.2500  -999.2500 
   60.1250  -999.2500  -999.2500   171.7310  -999.2500  -999.2500  -999.2500  -999.2500  -999.2500 
   60.2500  -999.2500  -999.2500   170.4320  -999.2500  -999.2500  -999.2500  -999.2500  -999.2500 
   60.3750  -999.2500  -999.2500   169.5190  -999.2500  -999.2500  -999.2500  -999.2500  -999.2500 
   60.5000  -999.2500  -999.2500   169.0310  -999.2500  -999.2500  -999.2500  -999.2500  -999.2500 
   60.6250  -999.2500  -999.2500   169.2570  -999.2500  -999.2500  -999.2500  -999.2500  -999.2500 
   60.7500  -999.2500  -999.2500   170.6910  -999.2500  -999.2500  -999.2500  -999.2500  -999.2500 
   60.8750  -999.2500  -999.2500   173.5730  -999.2500  -999.2500  -999.2500  -999.2500  -999.2500 
   61.0000  -999.2500  -999.2500   177.5050  -999.2500  -999.2500  -999.2500  -999.2500  -999.2500 
   61.1250  -999.2500  -999.2500   181.0080  -999.2500  -999.2500  -999.2500  -999.2500  -999.2500 
   61.2500  -999.2500  -999.2500   182.8220  -999.2500  -999.2500  -999.2500  -999.2500  -999.2500 
   61.3750  -999.2500  -999.2500   182.2970  -999.2500  -999.2500  -999.2500  -999.2500  -999.2500 
   61.5000  -999.2500  -999.2500   179.5400  -999.2500  -999.2500  -999.2500  -999.2500  -999.2500 
   61.6250  -999.2500  -999.2500   176.0850  -999.2500  -999.2500  -999.2500  -999.2500  -999.2500 
   61.7500     2.1200  -999.2500   172.9970    44.4770    26.1370    -0.1610     3.2220     6.4160 
   61.8750     2.1200  -999.2500   170.9040    44.4770    26.1370    -0.1610     3.2220     6.4160 
   62.0000     2.1220  -999.2500   170.1990    44.2780    26.1230    -0.0450     3.2380     6.4190 
   62.1250     2.1030  -999.2500   170.6610    42.6360    26.1020     0.2970     3.1560     6.4800 
   62.2500     2.0630  -999.2500   172.2470    40.9590    26.0840     1.1560     3.0620     6.5730 
   62.3750     2.0170  -999.2500   174.8380    41.1390    26.0670     2.7300     3.0420     6.5730 
   62.5000     1.9780  -999.2500   178.2100    41.8620    26.0540     4.8190     3.0970     6.5020 
   62.6250     1.9450  -999.2500   181.7950    42.5230    26.0480     6.1400     3.1700     6.4770 
   62.7500     1.9140     4.1300   185.2710    43.9300    26.0490     5.5550     3.1520     6.5500 
   62.8750     1.8910     4.1300   188.4630    44.4110    26.0480     4.8810     3.0610     6.5880 
   63.0000     1.8880     5.9460   191.1060    42.6070    26.0430     6.7450     3.0120     6.4110 
   63.1250     1.9020     9.2230   192.9190    40.0640    26.0400    11.1280     3.1480     6.0490 
   63.2500     1.9230    12.7430   193.5150    38.7240    26.0360    12.1050     3.7670     5.8920 
   63.3750     1.9570    16.2750   192.8070    38.2470    26.0180     9.5390     4.8670     6.2400 
   63.5000     2.0160    19.6100   191.5550    38.6720    25.9870     6.3760     5.2090     7.2480 
   63.6250     2.1030    22.6250   191.7540    41.6110    25.9690     3.9230     4.1750     8.9370 
   63.7500     2.2060    25.2480   195.5800    45.4100    25.9170     2.0410     3.2730    10.9880 
   63.8750     2.3110    27.5050   204.9420    45.7240    25.7320     1.2950     2.7830    12.7090 
   64.0000     2.4070    29.3820   222.1980    43.6150    25.4210     1.0310     2.5220    13.8140 
   64.1250     2.4850    30.8720   246.5690    41.1560    25.1050     0.8860     2.3760    14.2880 
   64.2500     2.5410    32.0370   277.9280    39.2980    24.9120     0.7540     2.2670    12.7260 
   64.3750     2.5530    33.0160   315.7930    38.8310    24.7770     0.6580     2.1300     8.3960 
   64.5000     2.4930    33.7850   359.2970    40.6950    24.6180     0.6470     1.9190     4.0810 
   64.6250     2.3650    34.1970   404.2190    44.4290    24.4110     0.7580     1.5940     1.5420 
   64.7500     2.2490    33.8720   446.2910    47.1890    24.1840     1.0110     1.2010     0.4300 
   64.8750     2.1960    32.6900   481.1910    48.7970    24.1020     1.3300     0.9140    -0.0810 
   65.0000     2.1960    30.4830   503.8200    53.1010    24.2650     1.7450     0.7920    -0.2790 
   65.1250     2.1940    27.2430   515.0050    61.7980    24.6010     2.5170     0.8070    -0.2960 
   65.2500     2.1740    23.1500   515.8770    73.6890    24.8530     4.2560     0.9690    -0.1290 
   65.3750     2.1560    18.6900   508.7510    83.4410    24.8000     6.8690     1.3340     0.2860 
   65.5000     2.1500    14.1350   496.3970    89.0750    24.4840     9.4560     2.0710     1.1720 
   65.6250     2.1440     9.6990   483.3270    90.2230    24.2300    10.9380     3.3680     2.8340 
   65.7500     2.1380     5.6330   472.3310    88.0550    24.3630    11.3610     5.2480     5.1610 
   65.8750     2.1440     2.0620   465.0760    85.8350    24.6650    12.0680     7.1700     7.0850 
   66.0000     2.1620    -0.8650   462.3290    84.7340    24.8590    13.4910     8.7870     8.2860 
   66.1250     2.1740    -3.0930   462.2230    84.5860    24.9160    15.1240    10.0280     9.0860 
   66.2500     2.1720    -4.7060   463.3400    82.8930    24.9490    15.8500    10.8570     9.6750 
   66.3750     2.1620    -6.0150   464.5950    79.0060    24.9900    15.4810    11.3310    10.0390 
   66.5000     2.1500    -7.1030   465.3730    74.9880    25.0290    14.6550    11.5210    10.1810 
   66.6250     2.1410    -8.0090   465.6930    74.1300    25.0640    14.1470    11.6080    10.2560 
   66.7500     2.1310    -8.7400   465.6360    76.5460    25.0760    14.5050    11.8820    10.5920 
   66.8750     2.1230    -9.3820   465.1960    76.6350    25.0840    15.5990    12.5150    11.3910 
   67.0000     2.1200    -9.9510   464.1410    73.1050    25.1120    17.1300    13.5420    12.7150 
   67.1250     2.1300   -10.4490   462.4220    68.9260    25.1460    18.5960    14.7890    14.3990 
   67.2500     2.1530   -10.8750   460.0850    68.4260    25.1730    19.1770    15.6960    15.7100 
   67.3750     2.1850   -11.2030   457.3850    71.7490    25.1360    18.1400    15.6730    15.7180 
   67.5000     2.2190   -11.4570   454.7620    77.0490    24.8870    15.2890    14.5020    14.1800 
   67.6250     2.2430   -11.6690   452.4610    83.3900    24.3460    11.7130    12.5400    11.8480 
   67.7500     2.2580   -11.8420   450.1910    90.4820    23.6900     9.2580    10.4970     9.7720 
   67.8750     2.2680   -11.9500   446.9580    96.6580    23.2410     8.1420     8.8520     8.2820 
   68.0000     2.2720   -12.0170   440.4280    98.6720    23.0860     7.8620     7.6940     7.3290 
   68.1250     2.2640   -12.0780   429.3900    95.8650    23.1250     7.9930     6.9880     6.8190 
   68.2500     2.2610   -12.1600   413.7910    94.5370    23.2460     8.2210     6.7680     6.7840 
   68.3750     2.2890   -12.2700   395.7470    97.7500    23.3980     8.4960     6.9760     7.1960 
   68.5000     2.3470   -12.3890   380.5070    98.3880    23.5750     9.7330     7.6750     8.1540 
   68.6250     2.3800   -12.5110   372.9000    91.8470    23.7750    14.0300     8.9550     9.7970 
   68.7500     2.3490   -12.6030   375.4410    82.4620    23.9940    23.7980    10.9550    12.3620 
   68.8750     2.2690   -12.6480   387.4940    76.8180    24.1930    32.3600    13.3450    15.4600 
   69.0000     2.1830   -12.6530   405.9010    74.7870    24.2600    32.4380    15.5800    18.2870 
   69.1250     2.1290   -12.6030   424.7410    74.1760    24.1840    25.5700    17.0030    19.8840 
   69.2500     2.1020   -12.4790   440.9440    73.4370    24.2400    20.4370    17.1560    19.8340 
   69.3750     2.0970   -12.3190   453.4320    71.3000    24.5460    18.3260    16.5910    19.1220 
   69.5000     2.1010   -12.1730   462.3250    68.8850    24.9100    17.2970    15.8060    18.3850 
   69.6250     2.0990   -12.0540   469.3100    68.9790    25.1190    16.6310    15.1040    17.8630 
   69.7500     2.0920   -12.0020   475.0240    70.2770    25.1980    16.2620    14.5660    17.5060 
   69.8750     2.0890   -12.0470   479.5440    70.5670    25.2600    15.8440    14.1120    17.1610 
