~V
VERS. 2.00: Ver 2.00
~W
STRT.M 60.0000:
STOP.M 262.0000:
STEP.M 0.1250:
NULL. -999.2500:
UWI. DF319:
~C
DEPT.M :
GR.API :
RML.OHMM :
RI. :
RXO.OHMM :
CALI.CM :
AC.US/MT :
DEN.GM/CC :
SP.MV :
~A
# ...
  250.0000    52.6320     4.9370     4.6180     5.1060    24.4550   393.0390     2.4170   -15.8750 
  250.1250    51.9510     4.7140     4.4320     4.7330    24.4550   399.1360     2.3850   -15.8950 
  250.2500    49.8080     4.5200     4.2470     4.4350    24.4550   416.1290     2.3230   -15.8840 
  250.3750    46.7470     4.3810     4.0920     4.2820    24.4550   435.9830     2.2470   -15.8460 
  250.5000    44.3620     4.3060     3.9870     4.2360    24.4550   445.2810     2.1810   -15.8510 
  250.6250    44.7870     4.2970     3.9470     4.2540    24.4570   444.4730     2.1590   -15.8920 
  250.7500    46.5690     4.3310     3.9540     4.2680    24.4730   442.9700     2.1840   -15.9150 
  250.8750    46.9510     4.3950     3.9940     4.2600    24.5150   442.2290     2.2400   -15.9610 
  251.0000    45.0750     4.4760     4.0530     4.2790    24.5660   439.3170     2.3020   -16.0090 
  251.1250    43.6490     4.5670     4.1250     4.3990    24.4600   431.8480     2.3380   -16.0540 
  251.2500    43.6490     4.6620     4.2050     4.6210    24.2250   422.4120     2.3460   -16.1250 
  251.3750    43.6490     4.7580     4.2910     4.8740    23.9440   415.6530     2.3340   -16.2020 
  251.5000    43.6490     4.8470     4.3820     5.1160    23.6590   410.6340     2.3140   -16.2780 
  251.6250    43.6490     4.9220     4.4740     5.2970    23.3720   404.5680     2.2990   -16.3270 
  251.7500    43.6490     4.9890     4.5680     5.4570    23.2130   397.5370     2.2930   -16.3510 
  251.8750    43.6490     5.0670     4.6720     5.5860    23.1400   393.7310     2.2980   -16.3530 
  252.0000    43.6490     5.1780     4.8010     5.7130    23.0700   393.7810     2.3090   -16.3450 
  252.1250    43.6490     5.3620     4.9820     5.8810    22.9920   393.8840     2.3170   -16.3650 
  252.2500    43.6490     5.6210     5.2190     6.2050    22.9640   390.7750     2.3180   -16.4000 
  252.3750    43.6490     5.9270     5.4930     6.7990    22.9990   383.9920     2.3130   -16.4210 
  252.5000    43.6490     6.2080     5.7520     7.6300    23.1550   375.8110     2.3070   -16.4370 
  252.6250    43.6490     6.3270     5.8900     8.4340    23.4440   367.6100     2.3040   -16.4310 
  252.7500    43.6490     6.2230     5.8520     8.8440    23.6350   363.9060     2.3030   -16.4030 
  252.8750    43.6490     5.9000     5.6260     8.6130    23.6710   374.2480     2.3040   -16.3850 
  253.0000    43.6490     5.4500     5.2620     7.5340    23.7660   396.2240     2.3050   -16.3450 
  253.1250    43.6490     5.0360     4.8600     6.0960    24.0650   418.3950     2.3090   -16.2600 
  253.2500    43.6490     4.7600     4.5290     5.2760    24.2680   429.7660     2.3160   -16.1830 
  253.3750    43.6490     4.6360     4.3170     5.0040    24.3380   428.5470     2.3290   -16.1390 
  253.5000    43.6490     4.6250     4.2330     4.8340    24.3440   424.6640     2.3450   -16.0890 
  253.6250    43.6490     4.6710     4.2670     4.7930    24.3430   422.5950     2.3610   -16.0450 
  253.7500    43.6490     4.7210     4.3520     4.8220    24.3440   421.7130     2.3730   -16.0430 
  253.8750    43.6490     4.7510     4.4430     4.8920    24.3450   419.7590     2.3810   -16.0510 
  254.0000    43.6490     4.7530     4.5090     4.9820    24.3440   416.6520     2.3850   -16.0580 
  254.1250    43.6490     4.7090     4.5210     5.0610    24.3470   414.7420     2.3890   -16.0420 
  254.2500    43.6490     4.6210     4.4810     5.0700    24.3530   416.1690     2.3920   -16.0130 
  254.3750    43.6490     4.4970     4.3960     5.0020    24.3640   419.6850     2.3960   -15.9790 
  254.5000    43.6490     4.3660     4.2850     4.8810    24.3720   422.6470     2.3980   -15.9670 
  254.6250    43.6490     4.2770     4.1850     4.7870    24.3760   424.0800     2.3980   -15.9380 
  254.7500    43.6490     4.2670     4.1460     4.7530    24.3790   423.6490     2.3960   -15.8870 
  254.8750    43.6490     4.3710     4.2110     4.8390    24.3790   421.8340     2.3900   -15.8460 
  255.0000    43.6490     4.6030     4.4060     5.0660    24.3770   417.7740     2.3770   -15.8450 
  255.1250    43.6490     4.9590     4.7400     5.5240    24.3850   407.5090     2.3520   -15.9150 
  255.2500    43.6490     5.3610     5.1360     6.1430    24.3800   388.3100     2.3230   -15.9850 
  255.3750    43.6490     5.7280     5.5180     6.7790    24.2840   368.3790     2.2940   -16.0280 
  255.5000    43.6490     5.9820     5.8100     7.2770    24.0430   362.4300     2.2690   -16.0220 
  255.6250    43.6490     6.0430     5.9290     7.3420    23.5500   371.2980     2.2490   -16.0190 
  255.7500    43.6490     5.9440     5.8920     7.0280    22.8340   383.9540     2.2350   -16.0280 
  255.8750    43.6490     5.7360     5.7330     6.7500    22.1700   389.3360     2.2270   -16.0370 
  256.0000    43.6490     5.4850     5.5040     6.6610    21.8670   392.0560     2.2260   -16.0220 
  256.1250    43.6490     5.2480     5.2610     6.2680    21.8360   396.7520     2.2320   -15.9640 
  256.2500    43.6490     5.0530     5.0430     5.7080    21.8220   401.2120     2.2420   -15.9120 
  256.3750    43.6490     4.9050     4.8650     5.2460    21.7530   402.6550     2.2530   -15.8370 
  256.5000    43.6490     4.8060     4.7290     4.9800    21.5270   407.6610     2.2590   -15.7900 
  256.6250    43.6490     4.7570     4.6440     4.8430    21.1010   399.5630     2.2540   -15.7820 
  256.7500    43.6490     4.7390     4.5960     4.7470    20.4370   354.0370     2.2400   -15.7710 
  256.8750    43.6490     4.7370     4.5750     4.7140    19.6280   281.7280     2.2210   -15.7330 
  257.0000    43.6490     4.7390     4.5680     4.7540    18.8090   230.6170     2.2050   -15.6980 
  257.1250    43.6490     4.7390     4.5670     4.7810    18.0000   216.4840     2.1980   -15.6430 
  257.2500    43.6490     4.7390     4.5670     4.8310    17.2590   225.4240     2.2000   -15.5670 
  257.3750    43.6490     4.7390     4.5670     4.8930    16.7210   239.0940     2.2070   -15.5500 
  257.5000    43.6490     4.7390     4.5670     4.9760    16.3710   243.0280     2.2170   -15.5270 
  257.6250    43.6490     4.7390     4.5670     5.0710    16.1730   237.6110     2.2250   -15.4450 
  257.7500    43.6490     4.7390     4.5670     5.1510    16.0700   236.8720     2.2260   -15.3750 
  257.8750    43.6490     4.7390     4.5670     5.1810    16.1070   250.8740     2.2200   -15.3320 
  258.0000    43.6490     4.7390     4.5670     5.2080    16.2050   266.2010     2.2080   -15.2950 
  258.1250    43.6490     4.7390     4.5670     5.2470    16.2510   271.7580     2.1940   -15.2590 
  258.2500    43.6490     4.7390     4.5670     5.3620    15.9690   270.0480     2.1820   -15.2310 
  258.3750    43.6490     4.7390     4.5670     5.5260    15.1960   271.3950     2.1760   -15.1900 
  258.5000    43.6490     4.7390     4.5670     5.6670    14.3020   277.5640     2.1760   -15.1490 
  258.6250    43.6490     4.7390     4.5670     5.9160    13.8300   283.7080     2.1810   -15.1530 
  258.7500    43.6490     4.7390     4.5670     6.1620    13.6650   281.9860     2.1900   -15.1520 
  258.8750    43.6490     4.7390     4.5670     6.3770    13.6300   274.3150     2.2020   -15.1460 
  259.0000    43.6490     4.7390     4.5670     6.5330    13.6260   270.8350     2.2170   -15.1370 
  259.1250    43.6490     4.7390     4.5670     6.5340    13.6260   284.2400     2.2370   -15.1370 
  259.2500    43.6490     4.7390     4.5670     6.4640    13.6260   317.4460     2.2610   -15.1370 
  259.3750    43.6490     4.7390     4.5670     6.4040    13.6260   348.9320     2.2870   -15.1370 
  259.5000    43.6490     4.7390     4.5670     6.4350    13.6260   359.7880     2.3110  -999.2500 
  259.6250    43.6490     4.7390     4.5670     6.5800    13.6260   352.1610     2.3300  -999.2500 
  259.7500    43.6490     4.7390     4.5670     6.6980    13.6260   341.8170     2.3410  -999.2500 
  259.8750    43.6490     4.7390     4.5670     6.6360    13.6260   345.2620     2.3440  -999.2500 
