~V
VERS. 2.00: Ver 2.00
~W
STRT.M 61.0000:
STOP.M 296.0000:
STEP.M 0.1250:
NULL. -999.2500:
UWI. DF312:
~C
DEPT.M :
DEN.GM/CC :
AC.US/MT :
GR.API :
CALI.CM :
RXO.OHMM :
RI. :
RML.OHMM :
SP.MV :
~A
# ...
  201.0000     2.3200   388.0100    70.3880    23.9130    31.2240    41.6540    44.5550   -18.8820 
  201.1250     2.3390   384.7700    72.1860    23.8830    27.4550    36.1120    38.8570   -18.7720 
  201.2500     2.3340   383.2780    73.5280    23.9700    26.5390    32.6460    35.1680   -18.6560 
  201.3750     2.3040   383.5120    74.4440    24.2170    26.7030    30.5900    32.9280   -18.5290 
  201.5000     2.2660   385.4640    76.6400    24.4600    27.1140    29.5360    31.7320   -18.4480 
  201.6250     2.2500   389.3980    79.0140    24.5640    25.4530    29.5000    31.5860   -18.4090 
  201.7500     2.2660   394.3020    79.4320    24.6240    22.0810    30.4750    32.4680   -18.3680 
  201.8750     2.2950   398.6490    78.0640    24.7020    21.6440    32.7650    34.4930   -18.3720 
  202.0000     2.3130   400.5950    76.2230    24.7450    27.9270    36.4990    37.3990   -18.3820 
  202.1250     2.3140   398.4370    75.1690    24.7820    36.3580    40.8260    39.9930   -18.3380 
  202.2500     2.3210   393.6200    75.4490    24.7970    39.7050    43.3630    40.6490   -18.2340 
  202.3750     2.3410   388.3890    78.4350    24.8100    37.5930    42.0950    38.4060   -18.0630 
  202.5000     2.3590   385.2860    82.7380    24.7750    31.5780    36.8830    33.5330   -17.8490 
  202.6250     2.3610   386.3330    84.7250    24.6430    22.8470    29.9130    27.5340   -17.6220 
  202.7500     2.3590   389.6310    84.9170    24.5310    15.7020    24.0110    22.3620   -17.3850 
  202.8750     2.3650   392.8330    87.1810    24.4540    12.2470    19.9800    18.7840   -17.1490 
  203.0000     2.3750   394.8140    92.0910    24.4290    11.0340    17.5860    16.7550   -16.9440 
  203.1250     2.3820   396.5460    94.2730    24.4960    10.6450    16.3610    15.8850   -16.8060 
  203.2500     2.3850   399.9120    92.9650    24.5900    10.5900    15.5940    15.4400   -16.7600 
  203.3750     2.3900   405.4270    91.9770    24.6270    10.3470    15.0140    15.1720   -16.8280 
  203.5000     2.3960   411.7560    93.5490    24.5890     9.7180    14.6320    15.1720   -16.9930 
  203.6250     2.3980   415.0780    94.8720    24.5210     9.2760    14.8980    16.1250   -17.2150 
  203.7500     2.3840   412.5770    93.7970    24.4440    10.0030    16.3700    18.8280   -17.5090 
  203.8750     2.3500   403.8110    91.9260    24.3500    13.7040    20.0820    24.3970   -17.8850 
  204.0000     2.3110   391.3010    88.5030    24.3430    23.9550    27.7850    34.2290   -18.2720 
  204.1250     2.2900   380.6440    81.4320    24.4500    44.2540    43.1510    50.9840   -18.6730 
  204.2500     2.2870   376.5340    72.9080    24.5820    63.6690    66.2460    74.0600   -19.1340 
  204.3750     2.2820   380.0690    66.8840    24.6300    74.4630    93.8640   100.5880   -19.6160 
  204.5000     2.2620   388.7450    64.5500    24.6700    78.0120   118.3960   124.4560   -20.0340 
  204.6250     2.2260   397.9540    63.3950    24.7850    79.3660   130.4380   137.3850   -20.4300 
  204.7500     2.1930   404.7170    62.8270    24.9120    78.9150   131.6780   139.6600   -20.7840 
  204.8750     2.1770   408.9290    64.0680    24.9610    75.7070   126.6890   134.9280   -21.0510 
  205.0000     2.1820   411.1590    64.7830    24.9060    70.2370   119.3910   127.3570   -21.3030 
  205.1250     2.1920   410.7960    62.0100    24.8430    64.5690   111.2600   119.1500   -21.5440 
  205.2500     2.1980   407.7910    58.6980    24.8020    59.6820   102.7510   111.0130   -21.7170 
  205.3750     2.2080   403.1940    58.8750    24.7620    53.2050    94.5230   103.5590   -21.8610 
  205.5000     2.2310   399.6540    62.3500    24.6860    45.5110    87.7820    97.8520   -22.0440 
  205.6250     2.2490   401.0730    65.5210    24.5950    40.0210    84.4270    95.7420   -22.2500 
  205.7500     2.2440   407.4450    66.6500    24.5360    39.5370    85.0090    97.7640   -22.4530 
  205.8750     2.2230   416.3280    65.8730    24.4810    44.4650    90.1330   104.4550   -22.6310 
  206.0000     2.2060   423.9520    64.0430    24.4800    51.2010   100.0130   115.9320   -22.7850 
  206.1250     2.2000   426.7990    61.9540    24.5180    54.8430   114.7250   132.2490   -22.9550 
  206.2500     2.1960   426.0430    60.6470    24.5690    56.7370   132.0750   151.1490   -23.1470 
  206.3750     2.1960   424.3590    59.7020    24.5750    61.6810   150.2170   170.5750   -23.3060 
  206.5000     2.2010   424.4570    58.5540    24.5750    70.9240   167.1680   188.2340   -23.4050 
  206.6250     2.2060   427.6390    58.6470    24.5660    80.6390   180.3130   200.9210   -23.4920 
  206.7500     2.2050   431.6940    61.0460    24.5590    87.3010   188.2710   207.1590   -23.5670 
  206.8750     2.2010   434.1520    62.9730    24.5690    87.9290   189.5240   205.7280   -23.6670 
  207.0000     2.2040   433.3210    61.4920    24.5670    83.0810   183.5290   196.8870   -23.7680 
  207.1250     2.2150   428.9710    59.3440    24.5370    77.4410   171.4560   182.5460   -23.8090 
  207.2500     2.2170   423.7880    59.5550    24.4880    73.4450   157.9790   167.3470   -23.8640 
  207.3750     2.2020   420.0540    60.7570    24.4070    70.9570   145.8220   153.8790   -23.9640 
  207.5000     2.1770   419.1870    61.6490    24.2870    70.3990   136.1650   143.1700   -24.0530 
  207.6250     2.1620   421.6940    62.1940    24.0380    71.4200   129.1670   135.1530   -24.0590 
  207.7500     2.1540   425.9800    62.2440    23.8030    70.4850   123.3600   128.1430   -24.1000 
  207.8750     2.1470   430.6090    61.9230    23.6560    67.8630   117.4570   120.7960   -24.1200 
  208.0000     2.1400   434.0320    61.7620    23.6800    64.8550   110.1880   112.0360   -24.0860 
  208.1250     2.1490   434.4970    60.4970    23.8740    61.2360   100.4900   101.3380   -24.0860 
  208.2500     2.1740   432.0560    57.8800    24.0910    56.3320    89.4020    89.9760   -24.0590 
  208.3750     2.2000   427.4770    59.1440    24.2620    50.4300    78.5680    79.5100   -23.9570 
  208.5000     2.2080   422.2490    65.8010    24.3180    45.2510    69.7380    71.4050   -23.8440 
  208.6250     2.1970   418.0400    71.2420    24.3260    42.8710    64.6510    67.0840   -23.7870 
  208.7500     2.1860   415.3550    70.6050    24.2990    45.2070    62.8860    65.9600   -23.6990 
  208.8750     2.1880   413.8770    67.2420    24.2800    49.5770    63.7430    67.3390   -23.6030 
  209.0000     2.2010   412.9410    64.7770    24.3070    53.2800    66.1020    70.1530   -23.5640 
  209.1250     2.2190   411.9940    62.0090    24.3670    55.1050    68.5870    73.0750   -23.5430 
  209.2500     2.2390   410.9190    60.4250    24.3890    53.4420    70.1180    75.0540   -23.5150 
  209.3750     2.2560   409.7960    61.7100    24.3600    50.0010    70.3230    75.7370   -23.4960 
  209.5000     2.2610   408.4270    64.1290    24.2670    48.1820    69.3400    75.3100   -23.5040 
  209.6250     2.2530   405.8010    66.4840    24.1360    48.4470    67.7110    74.3870   -23.5490 
  209.7500     2.2510   401.3630    69.2710    23.8730    47.0850    66.4090    73.9460   -23.6080 
  209.8750     2.2660   395.3760    71.8740    23.6740    44.3800    66.2410    74.8640   -23.6510 
  210.0000     2.2980   389.4290    71.6270    23.6670    43.2570    68.0410    78.0830   -23.6960 
  210.1250     2.3280   387.0670    68.8960    23.7560    49.5590    73.3920    85.2580   -23.7730 
  210.2500     2.3370   390.2510    65.4300    23.8550    61.2540    82.6040    96.5470   -23.8530 
  210.3750     2.3160   399.0540    61.1750    23.9430    70.4070    95.3650   111.3810   -23.9360 
  210.5000     2.2660   411.4550    58.4810    24.1250    72.4830   109.5820   126.8910   -24.0310 
  210.6250     2.2000   423.6180    60.2410    24.4390    73.0630   119.5870   135.8220   -24.0320 
  210.7500     2.1550   432.5320    63.2630    24.6800    74.2940   120.2370   133.3480   -23.9980 
  210.8750     2.1610   437.5960    64.1070    24.7660    73.0840   109.8430   119.2780   -23.9760 
