~V
VERS. 2.00: Ver 2.00
~W
STRT.M 60.0000:
STOP.M 248.0000:
STEP.M 0.1250:
NULL. -999.2500:
UWI. DF313:
~C
DEPT.M :
DEN.GM/CC :
SP.MV :
AC.US/MT :
GR.API :
CALI.CM :
RXO.OHMM :
RI. :
RML.OHMM :
~A
# ...
   70.0000     2.0950   -12.1570   482.1080    69.7850    25.2680    15.2170    13.7100    16.7980 
   70.1250     2.1010   -12.2980   482.0930    69.8190    25.1920    14.5760    13.3580    16.4500 
   70.2500     2.1000   -12.4740   478.4520    72.4180    25.0650    14.3210    13.0910    16.1850 
   70.3750     2.0980   -12.6940   470.2020    75.6430    24.9710    14.5650    12.9290    16.0380 
   70.5000     2.0980   -12.9090   456.2680    76.1530    24.9490    15.2630    12.8990    16.0350 
   70.6250     2.0930   -13.0970   438.7820    72.5540    24.9990    16.1750    13.0200    16.2090 
   70.7500     2.0820   -13.2420   420.3510    66.9490    25.0710    16.9590    13.3340    16.6430 
   70.8750     2.0710   -13.3470   404.1840    63.9990    25.1330    17.6440    13.8130    17.3220 
   71.0000     2.0800   -13.4380   394.1600    64.9540    25.1740    18.3600    14.3880    18.1110 
   71.1250     2.1260   -13.5420   390.7030    67.0960    25.1950    18.9430    14.8530    18.6190 
   71.2500     2.1930   -13.6690   393.4120    68.8730    25.1560    18.8970    14.7490    18.1000 
   71.3750     2.2500   -13.7830   401.0700    72.3060    24.9450    17.9520    13.9150    16.5160 
   71.5000     2.2740   -13.9160   412.5250    79.2610    24.6480    15.7790    12.4900    14.3240 
   71.6250     2.2590   -14.0790   425.5300    88.2190    24.5440    12.6400    10.8500    12.1570 
   71.7500     2.2320   -14.2830   438.5840    94.3550    24.7730     9.9650     9.4220    10.5450 
   71.8750     2.2170   -14.5120   450.2990    96.2670    25.0110     8.6900     8.3500     9.4990 
   72.0000     2.2210   -14.7270   459.2630    96.2310    25.0970     8.3580     7.6080     8.8860 
   72.1250     2.2390   -14.9150   465.6920    96.7180    25.1320     8.0020     7.0850     8.4800 
   72.2500     2.2640   -15.0750   469.8990    97.6900    25.1550     7.1470     6.6450     8.0230 
   72.3750     2.2950   -15.2380   472.0630    97.1480    25.0800     6.2640     6.1790     7.4020 
   72.5000     2.3250   -15.4060   471.4030    96.2710    24.9590     5.6700     5.6870     6.6910 
   72.6250     2.3450   -15.5550   467.7670    98.0930    24.8790     5.3460     5.2330     6.0680 
   72.7500     2.3570   -15.6650   461.3510   102.4060    24.8630     5.1960     4.9370     5.7510 
   72.8750     2.3660   -15.7440   453.4690   104.8600    24.8980     5.2310     4.8280     5.7510 
   73.0000     2.3680   -15.8050   446.7200   102.4060    24.9860     5.7020     4.9020     6.0360 
   73.1250     2.3540   -15.8840   442.9880    96.0960    25.0840     6.7940     5.1290     6.5350 
   73.2500     2.3270   -15.9640   442.7170    91.8710    25.0950     8.0450     5.4640     7.1440 
   73.3750     2.2980   -16.0090   445.0640    91.4210    25.0390     8.4980     5.8050     7.6960 
   73.5000     2.2770   -16.0140   448.5660    92.3520    25.0040     8.1210     6.0770     8.0830 
   73.6250     2.2640   -16.0060   451.8420    90.7580    25.0270     7.7200     6.2370     8.2650 
   73.7500     2.2600   -15.9770   454.5300    86.5800    25.0600     7.8460     6.2730     8.2500 
   73.8750     2.2690   -15.9210   456.5910    84.8870    25.0690     7.9730     6.2340     8.1380 
   74.0000     2.2830   -15.8420   457.7310    87.3520    25.0790     7.7590     6.1500     7.9860 
   74.1250     2.2870   -15.7200   457.7400    91.6850    25.1100     7.3380     6.0400     7.8300 
   74.2500     2.2870   -15.5810   456.4940    93.0640    25.1350     7.0020     5.9170     7.6960 
   74.3750     2.2950   -15.4390   454.3350    92.7090    25.1380     6.8200     5.8040     7.6060 
   74.5000     2.3090   -15.3110   452.2410    94.5320    25.1350     6.7430     5.7220     7.5790 
   74.6250     2.3080   -15.1770   451.3220    98.5320    25.1330     6.7230     5.6750     7.6000 
   74.7500     2.2890   -15.0550   452.1880   100.3910    25.1390     6.7400     5.6410     7.6170 
   74.8750     2.2700   -14.9760   454.8280    99.8590    25.1430     6.7990     5.5780     7.5590 
   75.0000     2.2660   -14.9330   458.5890    98.1510    25.1630     6.8330     5.4640     7.3830 
   75.1250     2.2770   -14.9270   462.0720    96.2760    25.2290     6.7560     5.3030     7.1100 
   75.2500     2.2800   -14.9570   464.3400    93.1950    25.2870     6.6060     5.1560     6.8760 
   75.3750     2.2610   -15.0300   464.9860    91.4910    25.2450     6.5780     5.1180     6.8800 
   75.5000     2.2210   -15.1130   464.0630    90.8920    25.1170     6.8480     5.2700     7.2820 
   75.6250     2.1900   -15.1830   462.2850    86.1090    24.9830     7.6300     5.6680     8.1570 
   75.7500     2.1860   -15.2390   459.5410    77.8710    24.8990     9.2410     6.3370     9.4660 
   75.8750     2.2050   -15.2650   454.8350    72.7080    24.8820    11.2070     7.0900    10.7740 
   76.0000     2.2340   -15.2590   445.8030    72.8900    24.9580    12.3880     7.6870    11.5960 
   76.1250     2.2740   -15.2260   432.1470    74.7080    25.0770    11.8900     7.9390    11.6630 
   76.2500     2.3280   -15.1710   415.1260    74.7630    25.1320    10.2410     7.8660    11.2060 
   76.3750     2.3950   -15.1010   398.1520    73.5860    25.1250     9.3420     7.7580    10.8550 
   76.5000     2.4530   -15.0300   387.2110    72.4580    25.1150    10.3200     7.7700    10.8730 
   76.6250     2.4700   -15.0060   385.1690    73.7000    25.1210    13.3970     7.9270    11.2200 
   76.7500     2.4430   -15.0140   392.2220    76.5860    25.0730    16.2170     8.1040    11.5500 
   76.8750     2.3910   -15.0300   405.6790    78.2020    24.9740    15.5300     8.0850    11.4260 
   77.0000     2.3460   -15.0790   420.9650    78.6160    24.8680    11.9340     7.7570    10.7030 
   77.1250     2.3260   -15.1520   433.7830    79.1200    24.7730     8.7600     7.1810     9.6010 
   77.2500     2.3170   -15.2350   442.7190    80.1680    24.6130     7.9370     6.5600     8.5720 
   77.3750     2.3000   -15.3020   448.1990    80.8690    24.3710     7.7330     6.0970     7.9390 
   77.5000     2.2700   -15.3320   451.4790    81.2250    24.1590     7.3350     5.8950     7.8200 
   77.6250     2.2430   -15.3170   454.2120    82.0290    24.0920     7.1270     5.9750     8.1840 
   77.7500     2.2340   -15.2640   456.8480    82.2030    24.1470     8.0880     6.3050     8.9020 
   77.8750     2.2420   -15.2100   459.2980    78.8090    24.2120     9.8920     6.7240     9.6700 
   78.0000     2.2610   -15.1520   461.1540    73.9310    24.3360    11.2070     7.0910    10.2370 
   78.1250     2.2830   -15.0910   462.2510    75.1010    24.5930    10.8060     7.2700    10.3930 
   78.2500     2.3010   -15.0080   462.4360    82.4970    24.8510     9.1990     7.1600    10.0300 
   78.3750     2.3060   -14.9390   461.4930    84.9430    24.9290     8.3000     6.8850     9.4360 
   78.5000     2.2880   -14.8980   458.8430    81.2800    24.8690     8.4480     6.5740     8.8520 
   78.6250     2.2490   -14.8720   454.5370    77.6090    24.8190     8.9160     6.3380     8.4550 
   78.7500     2.2180   -14.8920   448.8470    76.7300    24.8270     9.1060     6.2950     8.4230 
   78.8750     2.2240   -14.9390   442.5910    75.9260    24.8380     9.2630     6.4880     8.8040 
   79.0000     2.2820   -15.0090   437.3100    75.1600    24.8390     9.8360     6.9730     9.6730 
   79.1250     2.3690   -15.0850   434.1550    75.8850    24.8380    11.4770     7.8010    11.0930 
   79.2500     2.4150   -15.1660   433.6490    75.7090    24.8450    15.4870     9.0380    13.1050 
   79.3750     2.3860   -15.2260   435.6000    73.6980    24.8510    20.9230    10.4730    15.2850 
   79.5000     2.3050   -15.2760   439.4040    71.0830    24.8700    24.1000    11.7610    17.0040 
   79.6250     2.2380   -15.3290   443.8060    70.2940    24.8700    22.1810    12.4720    17.5960 
   79.7500     2.2120   -15.3630   448.2140    71.9520    24.7780    17.1070    12.2350    16.6640 
   79.8750     2.2160   -15.3630   452.3800    73.8190    24.5550    13.3530    11.3770    14.9530 
