~V
VERS. 2.00: Ver 2.00
~W
STRT.M 51.0000:
STOP.M 228.0000:
STEP.M 0.1250:
NULL. -999.2500:
UWI. DF314:
~C
DEPT.M :
DEN.GM/CC :
AC.US/MT :
GR.API :
CALI.CM :
RXO.OHMM :
RI. :
RML.OHMM :
SP.MV :
~A
# ...
  161.0000     2.4760   261.6660    52.1760    25.0160    14.5440    11.3100    12.0360   -13.8550 
  161.1250     2.4690   265.2010    55.3140    24.9290    15.0170    11.1410    11.8540   -13.4530 
  161.2500     2.4640   270.8230    58.9820    24.8900    14.2720    10.8770    11.5710   -12.9970 
  161.3750     2.4630   275.4060    60.4790    24.9030    13.0590    10.6320    11.3080   -12.6150 
  161.5000     2.4670   276.2230    59.6760    24.9400    12.5140    10.4990    11.1660   -12.2810 
  161.6250     2.4740   272.4530    58.6500    24.9540    13.0720    10.5340    11.2030   -11.8680 
  161.7500     2.4810   267.5440    57.3750    24.9070    13.8370    10.6720    11.3510   -11.3320 
  161.8750     2.4840   264.4420    56.5150    24.8060    14.0820    10.8530    11.5450   -10.8120 
  162.0000     2.4830   264.5200    58.4870    24.7300    13.8110    11.0340    11.7390   -10.5140 
  162.1250     2.4820   267.2330    62.7540    24.7580    14.0230    11.1690    11.8840   -10.5680 
  162.2500     2.4830   270.1340    65.9360    24.8340    14.9690    11.2010    11.9190   -10.9020 
  162.3750     2.4860   272.0170    66.3400    24.8910    15.5120    11.0860    11.7950   -11.3860 
  162.5000     2.4890   273.0660    63.4400    24.8920    14.6810    10.8430    11.5350   -11.8750 
  162.6250     2.4880   274.7240    59.1820    24.8580    13.1950    10.5850    11.2570   -12.2850 
  162.7500     2.4840   277.5960    57.7420    24.8830    12.6300    10.4580    11.1220   -12.6420 
  162.8750     2.4770   280.5790    60.1060    24.9870    13.1650    10.5690    11.2410   -12.9250 
  163.0000     2.4680   281.7360    63.3720    25.0960    14.2440    10.9170    11.6140   -12.9800 
  163.1250     2.4610   279.5630    63.7540    25.1160    15.1470    11.3240    12.0500   -12.7460 
  163.2500     2.4560   275.7510    62.2590    25.1020    15.3460    11.5300    12.2720   -12.3470 
  163.3750     2.4540   272.5270    60.6350    25.0990    14.6230    11.4280    12.1620   -11.9650 
  163.5000     2.4570   271.6520    59.4190    25.0890    13.3600    11.0850    11.7940   -11.7800 
  163.6250     2.4640   274.0600    58.5650    25.0810    12.5190    10.7010    11.3820   -11.8250 
  163.7500     2.4750   278.7640    58.1490    25.0750    12.5520    10.4480    11.1110   -11.9680 
  163.8750     2.4890   285.0870    57.7960    25.0630    13.0770    10.3670    11.0240   -12.1120 
  164.0000     2.5000   291.8020    56.0770    25.0520    13.2720    10.3990    11.0580   -12.2560 
  164.1250     2.5010   295.7810    53.5100    25.0600    12.6510    10.4450    11.1070   -12.4480 
  164.2500     2.4890   294.7850    53.3890    25.0740    11.8960    10.4250    11.0860   -12.6290 
  164.3750     2.4670   288.9850    55.1120    25.0640    11.5850    10.3170    10.9700   -12.7550 
  164.5000     2.4410   281.3780    55.7410    25.0060    11.6930    10.1580    10.7990   -12.8160 
  164.6250     2.4200   276.7160    54.7520    24.9230    11.7590    10.0290    10.6610   -12.8830 
  164.7500     2.4090   276.3500    53.6170    24.9000    11.6370     9.9890    10.6180   -13.0540 
  164.8750     2.4070   278.7260    52.4530    24.9050    11.5930    10.0600    10.6940   -13.4170 
  165.0000     2.4130   281.1230    51.8440    24.8090    11.8870    10.2260    10.8730   -13.9610 
  165.1250     2.4250   281.3130    53.3910    24.5680    12.6400    10.4710    11.1350   -14.6060 
  165.2500     2.4390   279.6700    57.1130    24.3780    13.5770    10.7540    11.4390   -15.1800 
  165.3750     2.4520   277.0180    61.7010    24.3350    14.3310    11.0410    11.7470   -15.5620 
  165.5000     2.4610   274.0670    64.7370    24.3800    14.5930    11.2650    11.9870   -15.7140 
  165.6250     2.4670   271.7020    65.1320    24.4160    14.2550    11.3400    12.0670   -15.6850 
  165.7500     2.4720   270.9890    64.5750    24.4170    13.7220    11.2990    12.0240   -15.5420 
  165.8750     2.4770   272.7800    64.3690    24.3900    13.4260    11.2360    11.9560   -15.3610 
  166.0000     2.4820   276.8630    64.5790    24.3620    13.7120    11.2860    12.0090   -15.2610 
  166.1250     2.4830   281.3780    64.8430    24.3530    14.8380    11.6030    12.3490   -15.3210 
  166.2500     2.4780   284.0140    64.6420    24.3610    16.5060    12.1310    12.9150   -15.5850 
  166.3750     2.4680   284.2440    64.5460    24.3840    18.0960    12.7420    13.5710   -16.0240 
  166.5000     2.4570   283.2770    65.6060    24.4070    18.7790    13.2710    14.1380   -16.5670 
  166.6250     2.4500   283.2930    66.9600    24.4200    18.1050    13.5440    14.4310   -17.0520 
  166.7500     2.4500   285.0310    66.8330    24.4510    16.8420    13.5560    14.4440   -17.2790 
  166.8750     2.4540   287.7340    66.2080    24.5230    15.4650    13.3460    14.2190   -17.2640 
  167.0000     2.4590   289.8760    66.3740    24.6210    14.2730    13.0010    13.8480   -17.0690 
  167.1250     2.4610   289.7830    65.5300    24.7350    13.8880    12.6360    13.4570   -16.6510 
  167.2500     2.4590   287.6290    63.9020    24.8820    14.4090    12.3640    13.1650   -16.0750 
  167.3750     2.4540   284.1290    63.8850    25.0360    15.3120    12.2570    13.0510   -15.4660 
  167.5000     2.4480   280.2280    65.9730    25.1290    15.8510    12.3520    13.1530   -14.8950 
  167.6250     2.4460   277.2210    69.9440    25.1570    15.5640    12.6530    13.4750   -14.4580 
  167.7500     2.4470   276.0930    78.2790    25.2310    14.9710    13.0430    13.8930   -14.3730 
  167.8750     2.4500   277.2520    89.1130    25.3710    14.7310    13.4280    14.3060   -14.5980 
  168.0000     2.4500   280.2210    94.5250    25.4640    15.2070    13.7230    14.6230   -14.9020 
  168.1250     2.4460   283.8870    88.5650    25.3890    15.8630    13.8040    14.7090   -15.2250 
  168.2500     2.4420   287.2180    79.2270    25.2530    15.8180    13.6540    14.5480   -15.4880 
  168.3750     2.4400   290.0910    73.4370    25.1640    15.0740    13.3270    14.1980   -15.5770 
  168.5000     2.4390   292.6550    72.3270    25.1420    14.2820    12.9430    13.7870   -15.4730 
  168.6250     2.4370   294.1940    73.9770    25.1490    13.9650    12.6820    13.5060   -15.1870 
  168.7500     2.4340   293.2480    79.2960    25.1570    13.8530    12.6600    13.4830   -14.7460 
  168.8750     2.4320   288.5780    92.4370    25.1730    13.6860    12.9540    13.7980   -14.2310 
  169.0000     2.4340   280.5400   115.0320    25.2000    13.7090    13.5680    14.4570   -13.8220 
  169.1250     2.4400   271.8480   137.8520    25.2280    15.1800    14.4250    15.3750   -13.5830 
  169.2500     2.4460   266.1760   149.2330    25.2230    18.5160    15.2450    16.2550   -13.5730 
  169.3750     2.4480   265.5540   143.9280    25.1800    22.0520    15.7680    16.8160   -13.7720 
  169.5000     2.4430   270.2990   125.0630    25.1260    22.9710    15.7940    16.8430   -14.0780 
  169.6250     2.4320   279.3330   104.2250    25.0980    20.5230    15.2500    16.2600   -14.4640 
  169.7500     2.4260   288.9630    92.0310    25.0990    17.9900    14.4480    15.4000   -14.8360 
  169.8750     2.4280   296.1600    92.2050    25.1140    16.7580    13.6370    14.5300   -15.0220 
  170.0000     2.4380   298.5320   105.0390    25.1310    16.3980    13.0100    13.8580   -14.9310 
  170.1250     2.4520   294.1290   135.0070    25.1620    16.1190    12.7760    13.6070   -14.6300 
  170.2500     2.4630   285.0340   171.1710    25.2210    15.7730    12.9880    13.8350   -14.2980 
  170.3750     2.4710   273.6100   193.0640    25.2870    15.7730    13.6760    14.5720   -14.0760 
  170.5000     2.4780   262.4300   187.0400    25.3010    17.0460    14.7740    15.7500   -14.0750 
  170.6250     2.4850   254.0530   153.2390    25.2370    21.0100    16.1090    17.1820   -14.2900 
  170.7500     2.4920   249.4390   113.4480    25.1840    26.6060    17.2950    18.4540   -14.5840 
  170.8750     2.4950   249.2250    79.8740    25.1800    30.8410    17.9450    19.1500   -14.9020 
