~V
VERS. 2.00: Ver 2.00
~W
STRT.M 57.0000:
STOP.M 261.0000:
STEP.M 0.1250:
NULL. -999.2500:
UWI. DF317:
~C
DEPT.M :
DEN.GM/CC :
SP.MV :
AC.US/MT :
GR.API :
CALI.CM :
RXO.OHMM :
RI. :
RML.OHMM :
~A
# ...
  157.0000     2.4780   -16.8930   298.5930    65.1830    24.0140    14.2540    14.0150    17.6880 
  157.1250     2.4670   -16.8480   300.6840    65.2150    24.0480    14.3080    14.0320    17.7140 
  157.2500     2.4560   -16.8220   305.7080    66.2290    24.1070    14.9920    13.9670    17.6690 
  157.3750     2.4570   -16.8240   311.0920    67.4600    23.9960    14.9390    13.8700    17.5930 
  157.5000     2.4680   -16.8350   315.1190    66.7720    23.9820    14.6460    13.7790    17.5360 
  157.6250     2.4770   -16.8360   315.5520    64.8700    23.9340    14.1150    13.7720    17.6300 
  157.7500     2.4730   -16.8350   311.7280    65.0160    23.9880    14.4180    13.9210    17.9390 
  157.8750     2.4650   -16.8270   307.7110    66.1790    24.0630    14.9820    14.1710    18.3780 
  158.0000     2.4600   -16.8100   306.4980    66.1360    24.0120    15.6190    14.4930    18.9140 
  158.1250     2.4620   -16.7930   307.7290    66.3330    24.0350    15.5970    14.8640    19.4790 
  158.2500     2.4710   -16.7930   307.0510    67.5180    24.1810    15.9630    15.2280    19.9520 
  158.3750     2.4800   -16.7840   303.4270    67.1460    24.1300    16.9880    15.5230    20.3080 
  158.5000     2.4830   -16.7840   298.5570    63.9520    24.0370    18.1710    15.7860    20.6320 
  158.6250     2.4790   -16.8180   294.6130    60.0420    23.9190    17.8680    16.0470    20.9370 
  158.7500     2.4700   -16.8530   292.3980    60.7540    23.9200    16.8290    16.2960    21.2180 
  158.8750     2.4590   -16.9090   290.6880    65.6120    23.8850    16.2720    16.5230    21.4900 
  159.0000     2.4460   -16.9930   288.0360    69.3920    23.6820    16.3820    16.7170    21.6990 
  159.1250     2.4370   -17.0920   283.0220    66.8760    23.5740    16.6500    16.7830    21.7240 
  159.2500     2.4350   -17.1560   277.3620    60.4280    23.5680    17.8490    16.6000    21.4460 
  159.3750     2.4340   -17.2050   277.1420    58.0640    23.5930    18.2430    16.2050    20.8820 
  159.5000     2.4300   -17.2450   285.4070    60.4850    23.5930    16.4880    15.5830    20.0120 
  159.6250     2.4250   -17.2630   298.8140    64.0760    23.6890    14.1560    14.7840    18.9260 
  159.7500     2.4190   -17.2750   308.8160    65.2540    23.7760    13.3940    13.9710    17.8540 
  159.8750     2.4100   -17.2780   312.6590    63.8540    23.6010    12.9720    13.3030    17.0250 
  160.0000     2.4020   -17.2720   312.9030    60.8090    23.5860    12.3140    12.8650    16.5710 
  160.1250     2.4040   -17.2450   312.2670    58.8750    23.6070    11.5870    12.7290    16.5580 
  160.2500     2.4180   -17.2340   310.3800    58.1080    23.5360    11.1690    12.9520    17.0070 
  160.3750     2.4330   -17.2420   306.1340    56.5510    23.4120    11.5100    13.3880    17.6730 
  160.5000     2.4440   -17.2400   299.4120    55.2390    23.2890    12.8560    13.9120    18.3630 
  160.6250     2.4510   -17.2330   292.1640    56.1510    23.1670    14.8750    14.3910    18.9260 
  160.7500     2.4650   -17.2400   288.6860    58.5370    23.1730    16.1080    14.6380    19.1300 
  160.8750     2.4820   -17.2450   289.9460    58.6200    23.2030    15.7980    14.6360    19.0020 
  161.0000     2.4920   -17.2450   293.0250    57.6680    23.3270    14.5320    14.4860    18.7200 
  161.1250     2.4900   -17.2630   294.1950    57.2580    23.6080    13.6330    14.3300    18.5150 
  161.2500     2.4790   -17.2840   292.9110    57.9380    23.9070    14.0290    14.3330    18.5990 
  161.3750     2.4630   -17.3000   292.5190    57.3150    24.0820    14.7750    14.5570    19.0230 
  161.5000     2.4430   -17.3240   293.5590    54.8820    24.1940    15.0330    15.0310    19.7680 
  161.6250     2.4250   -17.3610   294.2840    53.9930    24.0900    15.2740    15.6730    20.6400 
  161.7500     2.4190   -17.3790   293.9440    56.5490    24.1070    17.3320    16.3340    21.4280 
  161.8750     2.4210   -17.4060   295.1990    58.6400    23.9800    19.1380    16.8820    22.0320 
  162.0000     2.4270   -17.4380   298.7840    58.5940    23.6760    18.7990    17.2400    22.3510 
  162.1250     2.4370   -17.4640   301.9050    58.4790    23.6030    17.1720    17.4270    22.4140 
  162.2500     2.4570   -17.4480   300.5780    59.7500    23.6020    17.0420    17.4620    22.3230 
  162.3750     2.4760   -17.4220   296.1170    60.5790    23.6870    17.1610    17.4410    22.1860 
  162.5000     2.4850   -17.3870   291.6620    60.8960    23.8630    17.1820    17.3970    22.0760 
  162.6250     2.4820   -17.3360   289.3570    60.2070    23.9350    17.3780    17.3600    22.0350 
  162.7500     2.4740   -17.2970   289.6680    57.6020    24.0860    17.8970    17.3720    22.0590 
  162.8750     2.4670   -17.2600   291.1710    55.8940    24.1490    17.8230    17.3830    22.1090 
  163.0000     2.4660   -17.2370   292.4650    56.9190    24.1540    17.3900    17.4130    22.2260 
  163.1250     2.4730   -17.2200   292.8630    59.3070    24.0910    17.4590    17.4590    22.4120 
  163.2500     2.4830   -17.2540   292.6640    62.0120    24.1820    18.2850    17.5260    22.5820 
  163.3750     2.4870   -17.3060   292.6580    64.3070    24.1290    18.2830    17.6130    22.7440 
  163.5000     2.4850   -17.3710   291.8090    64.7390    24.1000    18.0970    17.7520    22.9640 
  163.6250     2.4790   -17.4520   288.8130    62.9580    24.1570    18.8920    17.9720    23.2870 
  163.7500     2.4720   -17.5350   284.9530    61.8460    23.9560    19.3930    18.2710    23.7500 
  163.8750     2.4670   -17.6080   283.6970    62.1060    23.9330    19.1740    18.6870    24.3510 
  164.0000     2.4650   -17.6760   284.8870    63.2080    23.9100    18.5300    19.2600    25.1200 
  164.1250     2.4630   -17.7570   285.6030    64.4620    23.9340    18.5220    19.9240    25.9340 
  164.2500     2.4570   -17.8490   283.7840    65.2390    23.9080    21.1020    20.4900    26.5410 
  164.3750     2.4480   -17.9400   281.9620    66.0830    23.8890    24.3620    20.8180    26.8050 
  164.5000     2.4400   -18.0410   282.1460    67.5440    23.8210    24.2220    20.8300    26.6610 
  164.6250     2.4370   -18.1660   283.5230    67.4530    23.6620    21.6560    20.5650    26.1400 
  164.7500     2.4360   -18.2920   284.4520    65.0740    23.6400    20.8260    20.0900    25.3770 
  164.8750     2.4320   -18.4430   285.7270    63.7460    23.7100    19.9450    19.5400    24.5750 
  165.0000     2.4270   -18.6130   288.3150    63.6250    23.8140    18.5770    19.0170    23.8930 
  165.1250     2.4280   -18.7940   290.5020    64.1070    23.6460    17.6360    18.6460    23.4520 
  165.2500     2.4420   -18.9570   288.5700    66.0310    23.5980    17.6000    18.4650    23.2730 
  165.3750     2.4620   -19.1360   284.0180    66.3190    23.5990    17.6810    18.3710    23.2080 
  165.5000     2.4780   -19.3100   280.5970    62.6870    23.5540    17.2260    18.2980    23.1720 
  165.6250     2.4880   -19.4530   280.6960    59.5800    23.5870    16.9890    18.2420    23.1950 
  165.7500     2.4930   -19.6090   284.0330    61.9910    23.8670    17.3730    18.2240    23.3030 
  165.8750     2.4970   -19.7370   287.5390    63.6000    23.9170    17.5440    18.2590    23.4660 
  166.0000     2.5000   -19.8370   289.8440    61.6950    23.9200    17.6440    18.3400    23.6790 
  166.1250     2.4960   -19.9170   290.3470    60.7400    23.9020    17.8330    18.4930    23.9890 
  166.2500     2.4890   -20.0110   288.4040    62.7260    23.8260    18.1520    18.7610    24.4260 
  166.3750     2.4850   -20.0840   284.9530    64.5910    23.8500    18.6480    19.0760    24.8730 
  166.5000     2.4860   -20.1480   282.0760    64.9060    23.9110    19.7350    19.3720    25.2570 
  166.6250     2.4900   -20.2150   281.2910    63.2550    23.9830    20.6350    19.6540    25.5890 
  166.7500     2.4920   -20.2600   281.6080    59.9780    23.9960    20.7730    19.8790    25.8070 
  166.8750     2.4930   -20.2980   280.2960    57.0500    23.9370    20.9840    20.0270    25.8920 
