~V
VERS. 2.00: Ver 2.00
~W
STRT.M 60.0000:
STOP.M 262.0000:
STEP.M 0.1250:
NULL. -999.2500:
UWI. DF319:
~C
DEPT.M :
GR.API :
RML.OHMM :
RI. :
RXO.OHMM :
CALI.CM :
AC.US/MT :
DEN.GM/CC :
SP.MV :
~A
# ...
  200.0000    94.1050     8.1800     7.6720     9.2160    24.3660   415.7550     2.3520   -21.9600 
  200.1250    91.3350     8.2170     7.7620     9.2480    24.3660   415.5110     2.3550   -21.9860 
  200.2500    92.0280     8.3010     7.8800     9.3910    24.3660   414.1810     2.3610   -21.9480 
  200.3750    92.8730     8.4060     8.0150     9.6840    24.3660   409.9770     2.3690   -21.8960 
  200.5000    89.2480     8.4960     8.1430    10.0100    24.3660   403.5590     2.3780   -21.8750 
  200.6250    86.4320     8.5320     8.2270    10.2560    24.3640   397.7100     2.3820   -21.8800 
  200.7500    89.3200     8.5180     8.2640    10.2890    24.3600   394.8770     2.3800   -21.8660 
  200.8750    92.8930     8.4810     8.2720    10.1420    24.3480   395.4800     2.3760   -21.8470 
  201.0000    92.6490     8.4600     8.2860     9.9750    24.3280   398.3130     2.3740   -21.8140 
  201.1250    90.1240     8.4940     8.3430     9.9760    24.3140   400.0750     2.3790   -21.7970 
  201.2500    89.0560     8.5720     8.4380    10.2290    24.3100   398.7290     2.3900   -21.7890 
  201.3750    88.6390     8.6610     8.5400    10.5060    24.3070   393.8810     2.4030   -21.7410 
  201.5000    87.5620     8.7240     8.6120    10.6620    24.3040   387.4690     2.4110   -21.7100 
  201.6250    87.2680     8.7230     8.6260    10.5980    24.3040   384.8680     2.4120   -21.6920 
  201.7500    89.6730     8.6720     8.6080    10.4440    24.3030   387.0990     2.4090   -21.6250 
  201.8750    92.6300     8.6330     8.6020    10.3560    24.3010   389.2010     2.4040   -21.5760 
  202.0000    92.7690     8.6580     8.6570    10.6080    24.2900   386.2900     2.4010   -21.5700 
  202.1250    89.6140     8.8690     8.8240    11.1500    24.2710   380.9210     2.4000   -21.5390 
  202.2500    88.5130     9.2230     9.0990    11.7380    24.2500   380.5060     2.3960   -21.5330 
  202.3750    90.5910     9.7580     9.4810    12.3480    24.2400   386.1070     2.3870   -21.5590 
  202.5000    94.0890    10.4600     9.9780    13.0220    24.2320   393.6230     2.3730   -21.5330 
  202.6250    96.2580    11.1700    10.6260    13.8500    24.2270   398.2040     2.3570   -21.5070 
  202.7500    94.4040    12.0490    11.4180    14.7800    24.2250   399.0150     2.3410   -21.5450 
  202.8750    88.8360    13.0890    12.3430    15.7030    24.2270   396.7890     2.3240   -21.5840 
  203.0000    83.5190    14.2040    13.3590    16.6230    24.2250   393.8650     2.3050   -21.5640 
  203.1250    81.1520    15.0270    14.3560    17.6620    24.2240   392.3060     2.2930   -21.5610 
  203.2500    77.7580    15.6260    15.1800    18.1360    24.2240   386.1670     2.2960   -21.5640 
  203.3750    72.0890    15.8950    15.6860    18.2240    24.2250   367.9630     2.3230   -21.5480 
  203.5000    68.4000    15.7700    15.7590    17.8810    24.2230   337.9960     2.3700   -21.5510 
  203.6250    71.1000    15.1860    15.2850    17.0610    24.2070   312.0580     2.4230   -21.5710 
  203.7500    76.3440    14.2870    14.4240    15.7320    24.1880   307.3060     2.4550   -21.5670 
  203.8750    80.5390    13.1870    13.3160    14.1320    24.1810   325.4400     2.4550   -21.5580 
  204.0000    81.9820    12.0220    12.1250    12.8480    24.1850   355.0440     2.4260   -21.6000 
  204.1250    83.2490    10.9760    11.0360    12.0650    24.2030   379.0870     2.3880   -21.6480 
  204.2500    86.0410    10.1970    10.1810    11.5470    24.2330   392.4580     2.3590   -21.6640 
  204.3750    87.2440     9.8120     9.6640    11.2020    24.2680   398.2170     2.3450   -21.6900 
  204.5000    83.7050     9.9270     9.5700    11.1130    24.2880   396.2310     2.3460   -21.7470 
  204.6250    80.2520    10.7470    10.0890    11.8000    24.2950   389.3230     2.3550   -21.7740 
  204.7500    80.9430    12.2820    11.2750    13.6840    24.2930   393.8620     2.3620   -21.8380 
  204.8750    81.7480    14.6590    13.2980    16.9170    24.2750   409.6350     2.3630   -21.9160 
  205.0000    79.5790    18.0270    16.3490    20.8670    24.2230   418.6960     2.3560   -21.9480 
  205.1250    76.0750    22.6940    20.7750    26.2670    24.1370   401.1380     2.3440   -21.9800 
  205.2500    73.1590    28.4130    26.3190    33.2610    24.1090   362.0520     2.3270   -22.0580 
  205.3750    70.3830    34.8500    32.6370    41.1150    24.1470   317.1790     2.3050   -22.1310 
  205.5000    68.6300    41.4220    39.1420    49.7930    24.2570   281.2470     2.2760   -22.1800 
  205.6250    68.8480    47.2440    44.9600    58.0870    24.3390   268.0550     2.2450   -22.2520 
  205.7500    68.5810    51.8720    49.6170    62.2400    24.3670   266.6580     2.2260   -22.2840 
  205.8750    65.2850    55.2610    53.0070    61.2830    24.3640   259.9160     2.2350   -22.2840 
  206.0000    60.0490    57.7190    55.3730    59.6740    24.3590   250.7690     2.2740   -22.3140 
  206.1250    58.7750    59.5490    57.0360    59.5630    24.3590   258.0200     2.3250   -22.3110 
  206.2500    60.6620    60.9140    58.3010    60.7110    24.3790   289.3210     2.3540   -22.2750 
  206.3750    61.1870    61.5470    59.0280    62.8130    24.4300   335.6870     2.3430   -22.2560 
  206.5000    60.2030    61.0440    58.8810    65.3970    24.4900   377.3620     2.3000   -22.2230 
  206.6250    61.4490    58.8690    57.3040    65.6440    24.5130   392.2750     2.2610   -22.1860 
  206.7500    64.1440    55.3860    54.4670    63.1010    24.5170   376.5070     2.2550   -22.1560 
  206.8750    65.5670    51.0750    50.6880    57.7720    24.5170   343.6950     2.2820   -22.1430 
  207.0000    67.6770    46.4930    46.4490    51.0630    24.5170   321.0030     2.3230   -22.1370 
  207.1250    70.9150    42.1090    42.2340    45.4100    24.5170   332.4720     2.3460   -22.0900 
  207.2500    70.8710    38.0850    38.3130    40.6710    24.5170   362.4310     2.3390   -22.0280 
  207.3750    68.8060    34.4620    34.7730    36.9720    24.5170   388.2740     2.3120   -21.9650 
  207.5000    68.3580    31.2550    31.6310    34.0570    24.5170   397.9300     2.2810   -21.9180 
  207.6250    72.3120    28.5630    28.9550    31.3510    24.5170   394.4630     2.2630   -21.8260 
  207.7500    75.0930    26.3530    26.7070    28.4790    24.5180   389.1200     2.2570   -21.7470 
  207.8750    74.2110    24.6530    24.9270    26.2680    24.5180   384.6970     2.2570   -21.6630 
  208.0000    73.3830    23.4630    23.6410    25.3770    24.5110   382.8870     2.2580   -21.5210 
  208.1250    75.2410    22.8050    22.9010    24.7350    24.4980   383.5660     2.2600   -21.4160 
  208.2500    77.1630    22.4650    22.5210    24.1600    24.4920   383.7060     2.2620   -21.3500 
  208.3750    77.1240    22.2500    22.3300    23.8690    24.4900   382.6450     2.2640   -21.2710 
  208.5000    75.5540    21.9490    22.1200    24.0340    24.4900   381.6300     2.2670   -21.1610 
  208.6250    75.8790    21.3650    21.6740    24.2980    24.4900   381.1900     2.2710   -21.0620 
  208.7500    76.9460    20.5530    20.9760    23.9190    24.4900   380.0800     2.2770   -20.9660 
  208.8750    78.0870    19.6770    20.1290    22.4290    24.4900   378.2770     2.2860   -20.8880 
  209.0000    79.5160    18.9440    19.3040    20.3600    24.4900   376.9940     2.2980   -20.8250 
  209.1250    79.6420    18.5470    18.7100    19.2680    24.4900   378.0240     2.3080   -20.7660 
  209.2500    76.3260    18.4290    18.3760    19.2760    24.4900   381.0020     2.3100   -20.7180 
  209.3750    71.5370    18.4950    18.2590    20.0000    24.4900   384.3780     2.3010   -20.6890 
  209.5000    70.4740    18.6340    18.2730    20.5920    24.4900   386.5580     2.2830   -20.6730 
  209.6250    74.6220    18.7380    18.3050    20.2370    24.4900   386.0600     2.2640   -20.6700 
  209.7500    77.4960    18.7190    18.2400    19.3700    24.4900   380.9830     2.2560   -20.6820 
  209.8750    77.7060    18.4770    17.9800    18.8100    24.4900   369.7220     2.2640   -20.6800 
