~V
VERS. 2.00: Ver 2.00
~W
STRT.M 60.0000:
STOP.M 247.0000:
STEP.M 0.1250:
NULL. -999.2500:
UWI. DF315:
~C
DEPT.M :
DEN.GM/CC :
AC.US/MT :
GR.API :
RML.OHMM :
RI. :
RXO.OHMM :
CALI.CM :
SP.MV :
~A
# ...
  160.0000     2.5820   261.7040    56.0740    20.9720    19.5490    19.2690    24.7750   -11.4200 
  160.1250     2.5480   271.8130    55.1180    20.2860    18.8780    18.9900    24.7750   -11.3630 
  160.2500     2.5290   278.4250    54.6600    19.7110    18.3150    19.2160    24.7750   -11.2950 
  160.3750     2.5230   281.0280    54.7800    19.1340    17.7820    19.5940    24.7750   -11.2400 
  160.5000     2.5210   281.6980    53.6420    18.4560    17.2040    19.3090    24.7750   -11.2300 
  160.6250     2.5140   283.4590    51.9170    17.7140    16.5900    18.4660    24.7750   -11.2580 
  160.7500     2.4990   287.3090    53.2530    17.0910    16.0930    17.7740    24.7720   -11.2640 
  160.8750     2.4840   291.7420    58.5560    16.8130    15.8850    17.2130    24.7590   -11.2700 
  161.0000     2.4770   293.5600    64.6050    17.0570    16.0790    16.9300    24.7290   -11.3160 
  161.1250     2.4830   289.0030    65.7810    17.7980    16.6890    18.0440    24.7150   -11.3880 
  161.2500     2.4940   280.8040    63.2230    18.8010    17.4410    19.8600    24.7100   -11.4650 
  161.3750     2.4980   274.0880    61.4110    19.5000    18.0790    20.7940    24.7100   -11.5160 
  161.5000     2.4880   273.1590    62.0310    19.8170    18.3940    20.2570    24.7100   -11.5170 
  161.6250     2.4650   279.2100    61.9190    19.6590    18.2660    18.2510    24.7100   -11.4910 
  161.7500     2.4450   286.8680    60.0300    19.2500    17.8790    16.5850    24.7100   -11.4930 
  161.8750     2.4370   291.6560    60.0980    18.7310    17.3730    16.2070    24.7100   -11.4990 
  162.0000     2.4420   292.6100    61.8530    18.1440    16.8110    16.9070    24.7100   -11.4620 
  162.1250     2.4520   293.9620    60.7290    17.4230    16.1480    17.6020    24.7110   -11.3920 
  162.2500     2.4560   299.5380    58.1220    16.5390    15.3670    17.2260    24.7140   -11.3310 
  162.3750     2.4540   308.2700    56.3380    15.5920    14.5250    15.3880    24.7180   -11.3070 
  162.5000     2.4470   316.2320    56.3680    14.7020    13.7600    13.1650    24.7200   -11.3160 
  162.6250     2.4440   318.6300    57.9280    14.1560    13.2660    12.4360    24.6960   -11.3750 
  162.7500     2.4450   315.2020    59.9920    13.8950    13.0720    12.9570    24.6380   -11.4170 
  162.8750     2.4500   308.0560    61.2780    13.9470    13.1520    14.0060    24.5820   -11.4390 
  163.0000     2.4550   301.1480    60.4050    14.3760    13.4430    15.1220    24.5530   -11.4810 
  163.1250     2.4550   298.6580    60.3630    14.9310    13.9020    15.3880    24.5350   -11.5450 
  163.2500     2.4520   300.2600    62.5270    15.6710    14.4570    15.7090    24.5130   -11.6120 
  163.3750     2.4450   302.7540    66.0260    16.5820    15.0720    16.7540    24.5010   -11.6610 
  163.5000     2.4380   302.3410    69.2150    17.5790    15.6990    18.4610    24.4610   -11.6820 
  163.6250     2.4320   298.3040    72.5970    18.3080    16.2590    20.0800    24.3560   -11.6440 
  163.7500     2.4310   295.0140    76.1180    18.7820    16.7160    19.9790    24.2560   -11.6000 
  163.8750     2.4360   294.8500    77.6400    19.0590    17.0940    19.3280    24.2160   -11.5330 
  164.0000     2.4460   296.0870    76.4430    19.2970    17.4650    18.7120    24.2090   -11.4500 
  164.1250     2.4630   294.5160    72.7050    19.6990    17.9460    19.1010    24.2000   -11.3620 
  164.2500     2.4800   289.4040    69.1920    20.2960    18.5690    20.0230    24.1700   -11.2910 
  164.3750     2.4940   282.9530    67.8330    21.0080    19.2970    20.8950    24.1100   -11.2170 
  164.5000     2.5000   278.1980    69.1700    21.6950    20.0320    21.5710    24.0640   -11.1270 
  164.6250     2.4960   276.8220    71.9710    22.1740    20.6140    21.6710    24.0370   -11.0780 
  164.7500     2.4860   276.9060    72.3880    22.3790    20.9690    21.5440    23.9980   -11.0500 
  164.8750     2.4720   276.8070    70.5260    22.2960    21.0690    21.4850    23.9230   -11.0230 
  165.0000     2.4580   276.0520    67.9440    21.9660    20.9270    21.3780    23.8030   -10.9920 
  165.1250     2.4460   275.9110    68.3810    21.4590    20.5680    20.9410    23.7460   -10.9850 
  165.2500     2.4380   277.5830    70.7550    20.9030    20.0870    20.3180    23.8250   -10.9680 
  165.3750     2.4360   280.8440    71.3990    20.3590    19.5370    19.8470    24.0860   -10.9370 
  165.5000     2.4420   284.3200    70.2930    19.8510    18.9640    19.1900    24.4440   -10.9130 
  165.6250     2.4510   285.4550    71.0340    19.3910    18.4190    19.2480    24.6830   -10.8580 
  165.7500     2.4570   283.8540    72.2160    18.9940    17.9400    19.6150    24.7610   -10.8120 
  165.8750     2.4560   281.4900    70.0840    18.7050    17.5620    19.4040    24.7690   -10.8080 
  166.0000     2.4480   280.5710    66.9070    18.5570    17.3180    19.1260    24.7600   -10.8030 
  166.1250     2.4400   281.1290    66.4500    18.5670    17.2410    18.5140    24.7690   -10.7620 
  166.2500     2.4370   280.3020    66.5530    18.6670    17.2820    17.8680    24.7740   -10.7150 
  166.3750     2.4400   277.6370    64.1830    18.8120    17.4080    17.8130    24.7780   -10.6990 
  166.5000     2.4490   275.6300    60.6290    18.9900    17.5970    18.1480    24.7810   -10.7360 
  166.6250     2.4650   277.3270    60.1170    19.2290    17.8540    18.2910    24.7730   -10.8060 
  166.7500     2.4850   280.4780    60.8370    19.5380    18.1600    17.9140    24.7310   -10.8280 
  166.8750     2.5050   281.1600    61.3410    19.8790    18.4630    17.8220    24.6420   -10.7990 
  167.0000     2.5190   278.1880    61.2550    20.1440    18.6680    18.3450    24.5580   -10.7910 
  167.1250     2.5190   274.5810    63.0310    20.1440    18.6280    19.0230    24.5420   -10.8250 
  167.2500     2.5090   274.4260    66.8490    19.8340    18.3410    18.7880    24.5800   -10.8640 
  167.3750     2.4950   278.7430    68.7290    19.2850    17.8790    17.1440    24.6420   -10.8630 
  167.5000     2.4830   285.2820    64.9170    18.6600    17.3960    15.3850    24.7190   -10.8220 
  167.6250     2.4750   289.6780    57.8720    18.2590    17.0970    15.4120    24.7590   -10.7820 
  167.7500     2.4690   290.3030    53.3940    18.1360    17.0550    16.3820    24.7740   -10.7820 
  167.8750     2.4640   288.3970    53.5970    18.3080    17.2520    17.6140    24.7730   -10.7960 
  168.0000     2.4590   286.0600    56.8110    18.6810    17.5930    18.5520    24.7400   -10.7850 
  168.1250     2.4570   285.1380    59.8570    18.9620    17.9310    18.7980    24.6520   -10.7710 
  168.2500     2.4550   285.9940    60.7930    19.0030    18.1740    18.9080    24.5650   -10.7760 
  168.3750     2.4540   288.1160    59.6160    18.9730    18.3380    19.0610    24.5690   -10.8120 
  168.5000     2.4520   290.0490    58.4710    19.1000    18.5090    19.1530    24.6220   -10.8400 
  168.6250     2.4470   290.3270    56.7400    19.5890    18.8230    19.2280    24.6490   -10.8400 
  168.7500     2.4380   289.4590    53.7020    20.2960    19.3180    19.8260    24.6560   -10.8490 
  168.8750     2.4280   289.0320    52.9610    21.1470    19.9630    21.0550    24.6490   -10.8990 
  169.0000     2.4180   290.5650    57.1670    21.9960    20.6590    22.2530    24.5860   -10.9860 
  169.1250     2.4160   293.4790    65.1080    22.5960    21.2220    22.9860    24.4420   -11.0350 
  169.2500     2.4250   294.6910    69.5110    22.8160    21.5100    23.2860    24.2740   -11.0320 
  169.3750     2.4450   291.9420    67.2300    22.6080    21.4500    23.1510    24.2030   -11.0560 
  169.5000     2.4730   285.0300    61.3230    22.0770    21.0770    22.3670    24.1930   -11.1330 
  169.6250     2.5010   276.8680    60.0490    21.4150    20.5200    21.3750    24.2300   -11.2170 
  169.7500     2.5250   271.5420    65.6310    20.8480    20.0010    20.1520    24.3170   -11.2460 
  169.8750     2.5430   270.4730    73.4490    20.4690    19.6630    19.1530    24.4060   -11.2150 
