~V
VERS. 2.00: Ver 2.00
~W
STRT.M 57.0000:
STOP.M 261.0000:
STEP.M 0.1250:
NULL. -999.2500:
UWI. DF317:
~C
DEPT.M :
DEN.GM/CC :
SP.MV :
AC.US/MT :
GR.API :
CALI.CM :
RXO.OHMM :
RI. :
RML.OHMM :
~A
# ...
  187.0000     2.3130   -22.7420   353.3380    76.8450    22.8450    29.1580    40.9800    46.5970 
  187.1250     2.3370   -22.7350   353.7580    78.2970    23.2600    31.8250    38.4480    43.2780 
  187.2500     2.3290   -22.7490   364.9720    76.4420    23.6430    34.8730    35.3030    39.3290 
  187.3750     2.3000   -22.7870   376.8360    75.4820    23.9950    35.5190    31.7460    35.0230 
  187.5000     2.2720   -22.7970   382.7940    77.6270    24.0640    33.9380    28.0350    30.6660 
  187.6250     2.2610   -22.7840   383.2290    81.6050    24.0570    28.7220    24.5490    26.6700 
  187.7500     2.2680   -22.7590   383.8860    83.7250    24.1740    22.1930    21.6550    23.4480 
  187.8750     2.2820   -22.7650   387.2160    82.9950    24.1320    18.2840    19.3830    21.0090 
  188.0000     2.2970   -22.7760   390.5620    80.1690    24.1580    17.8280    17.7740    19.3680 
  188.1250     2.3050   -22.8140   391.9230    77.7540    24.1630    17.7660    16.8140    18.4890 
  188.2500     2.3060   -22.8310   390.6650    76.9020    24.0560    15.9110    16.5690    18.4360 
  188.3750     2.3050   -22.8200   387.7220    76.8130    24.1140    14.7750    16.8760    19.0370 
  188.5000     2.3050   -22.8230   382.7410    75.8420    24.1820    15.7010    17.6990    20.1780 
  188.6250     2.3080   -22.8630   376.7090    74.1160    24.0710    17.5570    18.9060    21.6810 
  188.7500     2.3100   -22.9500   372.7420    75.0890    24.1090    20.0790    20.3720    23.4060 
  188.8750     2.3040   -23.0580   371.8300    78.4990    24.1310    21.8040    21.9400    25.2070 
  189.0000     2.2900   -23.1940   373.7790    78.7430    24.1110    22.3740    23.4190    26.8460 
  189.1250     2.2740   -23.3080   376.9470    75.6660    24.1860    22.2980    24.4740    27.9610 
  189.2500     2.2650   -23.4200   377.4400    74.8020    24.1780    23.1530    24.7090    28.1760 
  189.3750     2.2600   -23.5030   373.7670    76.1620    24.1180    24.5130    24.2650    27.6680 
  189.5000     2.2590   -23.5830   367.9800    73.9530    24.1620    25.4160    23.2970    26.6150 
  189.6250     2.2610   -23.6560   364.9260    69.8780    24.1590    25.0650    22.0710    25.3110 
  189.7500     2.2660   -23.6540   368.1830    72.9800    24.0190    23.6110    20.9920    24.2580 
  189.8750     2.2640   -23.6410   374.9970    79.3540    24.1030    20.5800    20.3480    23.7980 
  190.0000     2.2520   -23.6040   381.8190    80.6250    24.1210    17.6330    20.2640    24.0890 
  190.1250     2.2380   -23.5460   385.7900    75.9190    24.1190    17.2390    20.8190    25.1750 
  190.2500     2.2380   -23.4910   385.8210    72.2070    24.1900    20.0810    21.9920    26.8950 
  190.3750     2.2560   -23.4790   381.8000    72.5570    24.1240    23.7710    23.3690    28.6800 
  190.5000     2.2800   -23.4900   375.1060    73.6850    24.0890    27.1480    24.5880    30.1000 
  190.6250     2.2930   -23.5160   370.0000    73.8740    24.1730    27.9730    25.2940    30.7740 
  190.7500     2.2910   -23.6060   371.7670    74.0330    24.1420    26.1320    25.1550    30.3860 
  190.8750     2.2820   -23.6920   377.5170    74.9390    24.1120    24.4620    24.4450    29.3810 
  191.0000     2.2720   -23.7890   381.8110    76.1680    24.1450    23.5290    23.5560    28.2880 
  191.1250     2.2590   -23.9000   382.6890    75.8260    24.0480    22.5700    22.8250    27.5210 
  191.2500     2.2440   -24.0100   382.1390    72.8420    24.0330    21.1870    22.5530    27.4610 
  191.3750     2.2340   -24.1070   382.9200    70.3710    24.1480    20.2240    22.8260    28.1060 
  191.5000     2.2310   -24.2050   384.6490    71.3150    24.0660    21.2750    23.6030    29.3320 
  191.6250     2.2330   -24.2720   387.5400    74.1810    23.9730    25.0530    24.7470    30.8890 
  191.7500     2.2380   -24.3070   391.0360    73.0830    24.1470    29.1170    26.0950    32.5170 
  191.8750     2.2480   -24.3300   391.4180    68.9440    24.1100    30.4240    27.3880    33.9100 
  192.0000     2.2600   -24.3440   387.6270    69.5750    24.1330    30.2840    28.4540    34.9290 
  192.1250     2.2670   -24.3390   383.4070    73.6580    24.1520    30.8130    29.2430    35.5870 
  192.2500     2.2630   -24.3330   383.2110    71.9840    24.0510    30.9430    29.7590    35.9460 
  192.3750     2.2560   -24.3270   383.3860    66.7070    24.1040    30.6170    30.0940    36.1820 
  192.5000     2.2470   -24.2840   379.2300    67.6560    24.1640    30.2530    30.3130    36.3700 
  192.6250     2.2340   -24.1930   371.7470    74.1650    24.0840    30.3470    30.3330    36.3900 
  192.7500     2.2270   -24.0800   369.8130    74.9480    24.0830    30.6640    29.7020    35.7170 
  192.8750     2.2360   -23.9730   377.0400    71.2310    23.8830    29.9050    28.3990    34.3150 
  193.0000     2.2600   -23.8620   388.5220    68.8100    23.9040    28.6420    26.6500    32.4180 
  193.1250     2.2820   -23.7540   396.0560    68.9060    23.9340    28.3540    24.7520    30.3630 
  193.2500     2.2920   -23.6470   393.3930    70.5080    23.9200    27.0620    23.1270    28.7110 
  193.3750     2.2990   -23.5370   385.0570    70.4850    23.9340    24.0260    22.1040    27.8750 
  193.5000     2.3100   -23.4410   375.8290    68.9800    23.8490    21.2400    21.8980    28.1020 
  193.6250     2.3180   -23.3940   366.4050    67.8670    23.6040    19.6710    22.5610    29.4040 
  193.7500     2.3060   -23.3690   351.9440    69.4730    23.5530    22.8810    24.2100    31.7770 
  193.8750     2.2830   -23.3390   335.5700    71.0950    23.5230    26.8250    26.3990    34.5870 
  194.0000     2.2680   -23.3170   329.8900    70.6680    23.2710    29.4710    28.6310    37.1190 
  194.1250     2.2650   -23.3020   343.9040    68.7780    23.2930    30.4410    30.3720    38.8050 
  194.2500     2.2660   -23.2790   368.3580    66.0860    23.5200    31.5910    31.0270    39.0600 
  194.3750     2.2650   -23.2590   383.6100    65.0240    23.5460    32.5470    30.5570    38.0230 
  194.5000     2.2630   -23.2440   386.7440    67.4270    23.3630    32.2300    29.1940    36.0870 
  194.6250     2.2640   -23.2350   385.7360    73.1210    23.3140    30.8640    27.4410    33.8990 
  194.7500     2.2720   -23.2350   386.3260    78.7640    23.5330    28.2870    25.7710    31.9410 
  194.8750     2.2870   -23.2380   386.5790    79.5420    23.7220    23.5310    24.3700    30.3360 
  195.0000     2.3050   -23.2550   386.8380    75.8800    23.8520    20.6700    23.3340    29.1580 
  195.1250     2.3110   -23.2900   388.4460    72.0010    23.9030    21.7610    22.6450    28.3320 
  195.2500     2.2970   -23.3450   390.2580    70.8890    23.8790    23.6950    22.2680    27.7570 
  195.3750     2.2770   -23.4150   390.2670    69.5400    23.9290    23.6130    22.0790    27.3350 
  195.5000     2.2630   -23.5030   388.1180    68.4610    23.8880    22.6740    22.0270    27.0770 
  195.6250     2.2560   -23.5950   384.9220    69.5610    23.8580    21.6420    22.0780    26.9850 
  195.7500     2.2510   -23.7110   381.7500    71.0040    23.8340    21.3260    22.2420    27.1370 
  195.8750     2.2480   -23.8360   378.1580    70.8020    23.6790    20.9090    22.5220    27.5280 
  196.0000     2.2530   -23.9750   372.5250    69.7600    23.5750    21.2360    22.8890    28.0620 
  196.1250     2.2660   -24.1380   365.5660    68.8450    23.5910    22.6160    23.2330    28.6080 
  196.2500     2.2760   -24.3480   363.4700    69.3490    23.5480    23.9330    23.3950    28.9450 
  196.3750     2.2760   -24.5590   368.3640    72.2230    23.4860    24.1860    23.3310    29.0330 
  196.5000     2.2730   -24.7460   375.7660    77.2730    23.4610    24.0430    23.1000    28.9350 
  196.6250     2.2770   -24.9610   379.7750    81.8140    23.5820    24.4910    22.8600    28.8740 
  196.7500     2.2880   -25.1520   378.3680    84.4780    23.8620    24.2690    22.9030    29.2820 
  196.8750     2.2950   -25.3360   376.0280    83.6150    23.9600    23.9700    23.4780    30.4390 
