~V
VERS. 2.00: Ver 2.00
~W
STRT.M 56.0000:
STOP.M 209.0000:
STEP.M 0.1250:
NULL. -999.2500:
UWI. DF316:
~C
DEPT.M :
GR.API :
CALI.CM :
RXO.OHMM :
RI. :
RML.OHMM :
SP.MV :
DEN.GM/CC :
AC.US/MT :
~A
# ...
  126.0000    63.1050    21.1280    22.9170    32.4970    41.4970    -8.1390     2.1790   405.9460 
  126.1250    63.2030    21.9590    26.6540    29.5610    37.7580    -8.0320     2.1760   406.2090 
  126.2500    65.3670    22.7340    29.9170    26.2420    33.5130    -7.9400     2.1760   408.5820 
  126.3750    67.9520    23.0590    30.8180    23.2730    29.6380    -7.8500     2.1820   409.1260 
  126.5000    70.0000    23.0390    26.7700    21.3270    27.1950    -7.7590     2.1960   407.5030 
  126.6250    70.6800    22.9330    18.8190    20.6380    26.8150    -7.6680     2.2120   404.7860 
  126.7500    68.7430    22.8950    12.5540    21.2320    28.5200    -7.5820     2.2150   402.6630 
  126.8750    65.4920    22.8690    16.7330    23.4650    32.2560    -7.5210     2.2070   401.8000 
  127.0000    64.4380    22.8760    27.6030    26.8150    37.3230    -7.4770     2.1980   400.7150 
  127.1250    63.9280    23.0880    35.9320    30.8610    42.7240    -7.4400     2.1940   399.2590 
  127.2500    60.7920    23.4450    37.2770    34.7490    47.2460    -7.4070     2.1920   399.3060 
  127.3750    57.2740    23.8320    32.6440    37.3790    49.1270    -7.3920     2.1870   400.5170 
  127.5000    57.4080    23.9450    30.1090    38.4700    48.4620    -7.3850     2.1760   400.4510 
  127.6250    60.2070    24.0210    30.2600    38.0180    46.0120    -7.4040     2.1640   399.3840 
  127.7500    61.5850    24.0510    30.6080    36.9710    43.3850    -7.4620     2.1570   399.4650 
  127.8750    59.6070    24.0480    29.4570    36.2750    42.0980    -7.5370     2.1620   401.3840 
  128.0000    58.4190    24.0090    27.3630    36.3400    41.9550    -7.6120     2.1770   403.8230 
  128.1250    59.7040    23.9600    24.3850    37.3140    42.7930    -7.6860     2.1910   405.4020 
  128.2500    61.4440    23.8950    23.7710    38.6690    43.7900    -7.7610     2.1920   405.6670 
  128.3750    60.8310    23.8460    27.1070    39.0120    43.3440    -7.8370     2.1780   405.9040 
  128.5000    58.4410    23.7280    34.3260    37.0210    40.5080    -7.9190     2.1600   408.1970 
  128.6250    54.8920    23.4800    41.2810    32.7870    35.4020    -7.9950     2.1530   411.6030 
  128.7500    53.4780    23.0640    44.8260    27.3170    29.1410    -8.0430     2.1600   412.9880 
  128.8750    58.3230    23.0430    41.2660    21.9000    23.2150    -8.0740     2.1820   410.2690 
  129.0000    67.6300    23.2610    33.8240    17.4740    18.4990    -8.0980     2.2200   406.2170 
  129.1250    76.1360    23.7820    23.0540    14.4520    15.5770    -8.1230     2.2680   402.3880 
  129.2500    79.5060    24.0520     7.9280    13.0510    14.6240    -8.1540     2.3010   398.9020 
  129.3750    76.2180    24.2830    14.3060    13.5370    15.6990    -8.1740     2.2990   396.8440 
  129.5000    70.5150    24.2580    28.3780    15.4470    18.1110    -8.1860     2.2680   397.5230 
  129.6250    66.1310    24.2700    40.6290    18.4960    21.4660    -8.1780     2.2330   401.1000 
  129.7500    65.3230    24.2520    41.8970    22.3800    25.6150    -8.1540     2.2080   407.8600 
  129.8750    66.7010    24.3520    38.9270    26.7320    29.9040    -8.1040     2.1890   415.6110 
  130.0000    67.1320    24.3500    37.3690    30.9420    33.8800    -8.0410     2.1740   417.2710 
  130.1250    65.5100    24.2660    39.1830    34.7300    37.1610    -7.9710     2.1700   410.2890 
  130.2500    62.0050    24.2340    40.3990    37.6740    39.7370    -7.9060     2.1760   399.8470 
  130.3750    59.3860    24.2370    43.1560    39.8430    41.6510    -7.8430     2.1810   391.9170 
  130.5000    60.1320    24.3040    50.2300    41.7570    43.4390    -7.7890     2.1750   387.7840 
  130.6250    63.0760    24.3460    58.3400    43.2940    44.8960    -7.7570     2.1650   388.0820 
  130.7500    66.4750    24.3110    62.0130    44.2900    45.8130    -7.7610     2.1640   391.0330 
  130.8750    67.6430    24.0330    62.6500    44.3450    46.0760    -7.8130     2.1750   391.3100 
  131.0000    66.4960    23.7790    61.9250    44.2110    46.3290    -7.8930     2.1920   390.8090 
  131.1250    63.4330    23.6220    65.3660    44.0290    46.6300    -7.9960     2.2050   394.0200 
  131.2500    59.9300    23.6360    64.9580    44.1440    47.2350    -8.1030     2.2110   398.5120 
  131.3750    60.5380    23.5880    61.8190    44.9290    48.7150    -8.2520     2.2130   397.5340 
  131.5000    64.2560    23.2830    54.5070    46.0630    51.0350    -8.4290     2.2190   392.7790 
  131.6250    64.9440    23.0300    63.6330    47.7230    54.1200    -8.6350     2.2320   389.0880 
  131.7500    60.1780    22.9220    95.0310    49.9830    57.7680    -8.8630     2.2440   386.7620 
  131.8750    55.3120    22.9580   109.4950    52.8050    61.7430    -9.1050     2.2540   386.2430 
  132.0000    54.2860    23.0790   103.2650    55.7430    65.7040    -9.3600     2.2710   388.3290 
  132.1250    53.5290    23.1660    94.7460    58.8440    69.7800    -9.6250     2.3160   383.6620 
  132.2500    51.1740    23.3910    95.2000    62.2240    73.7190    -9.8920     2.3900   357.0150 
  132.3750    50.1030    23.3860    88.4500    65.0660    77.0520   -10.1470     2.4780   285.1890 
  132.5000    51.2790    23.2920    86.5950    66.9700    78.9460   -10.4020     2.5520   234.0110 
  132.6250    52.5100    23.1790    81.8390    67.4090    79.1660   -10.6440     2.5930   208.6700 
  132.7500    52.4720    23.0890    84.6240    65.6980    76.7750   -10.8610     2.6170   205.3410 
  132.8750    51.2960    22.8110    98.7190    61.5170    71.2010   -11.0570     2.6350   209.4940 
  133.0000    48.8440    22.4230   113.8190    55.5470    63.3040   -11.2470     2.6440   209.3690 
  133.1250    45.2620    21.6520   103.2960    48.5120    54.3530   -11.4250     2.6360   204.9220 
  133.2500    42.3890    20.2800    66.4170    41.6730    45.8110   -11.5950     2.6150   203.1230 
  133.3750    41.6720    19.5790    43.4490    36.2660    39.2740   -11.7590     2.5860   213.8810 
  133.5000    43.2830    19.9890    32.5580    32.5930    34.9600   -11.9050     2.5540   234.8360 
  133.6250    45.9130    20.7370    25.8310    30.6290    32.9740   -12.0380     2.5280   255.2880 
  133.7500    47.1640    21.2050    22.4440    30.2170    33.0410   -12.1630     2.5170   266.5570 
  133.8750    45.3580    21.3470    25.2520    31.3480    34.8910   -12.2730     2.5200   264.9110 
  134.0000    42.6930    21.5280    30.5280    33.2510    37.3440   -12.3660     2.5330   255.5220 
  134.1250    42.5750    21.6290    36.1870    35.5590    39.7130   -12.4490     2.5450   243.5070 
  134.2500    44.7090    21.6450    42.5560    37.1830    41.2840   -12.5350     2.5460   232.1020 
  134.3750    46.9550    21.5920    47.3990    37.6120    41.4360   -12.5900     2.5340   222.7790 
  134.5000    49.3450    21.5860    43.2150    37.0620    40.3730   -12.6220     2.5100   217.5030 
  134.6250    50.2960    21.5990    36.2980    35.6840    38.4440   -12.6320     2.4850   219.9710 
  134.7500    49.8860    21.6040    32.4570    34.1460    36.5200   -12.6330     2.4690   231.2670 
  134.8750    51.7820    21.3720    29.6390    32.9280    35.3130   -12.6160     2.4690   245.4710 
  135.0000    54.5580    20.6380    28.3660    32.4200    34.9290   -12.5950     2.4880   253.2040 
  135.1250    52.7520    20.1420    30.2610    32.5510    35.2120   -12.5800     2.5250   251.8490 
  135.2500    47.4680    20.0520    32.6000    33.1460    35.9950   -12.5690     2.5650   245.3890 
  135.3750    49.0990    20.1710    33.6480    33.9050    36.9030   -12.5650     2.5960   239.3090 
  135.5000    56.0990    20.6100    36.5270    34.3730    37.7110   -12.5730     2.6080   233.0160 
  135.6250    59.5000    21.3660    41.3020    34.5470    38.0570   -12.5950     2.5860   225.1700 
  135.7500    55.6920    22.1300    42.2440    34.2290    37.6990   -12.6200     2.5430   219.3060 
  135.8750    51.7560    22.4490    37.3080    33.0190    36.3850   -12.6620     2.5050   221.8650 
