~V
VERS. 2.00: Ver 2.00
~W
STRT.M 60.0000:
STOP.M 262.0000:
STEP.M 0.1250:
NULL. -999.2500:
UWI. DF319:
~C
DEPT.M :
GR.API :
RML.OHMM :
RI. :
RXO.OHMM :
CALI.CM :
AC.US/MT :
DEN.GM/CC :
SP.MV :
~A
# ...
  160.0000    68.5400    33.6750    32.0010    44.7280    24.3380   232.2760     2.5280   -26.3490 
  160.1250    67.3790    33.9190    32.6680    46.3700    24.3320   221.6140     2.5510   -26.3000 
  160.2500    64.0610    32.4880    31.7530    41.9560    24.2890   237.9910     2.5460   -26.2210 
  160.3750    61.5960    30.0210    29.6890    35.5260    24.1820   268.4930     2.5170   -26.1460 
  160.5000    61.6090    27.4600    27.2890    29.7310    24.0210   293.0470     2.4780   -26.1350 
  160.6250    62.9550    25.7660    25.4880    25.8240    23.8680   298.2450     2.4540   -26.1110 
  160.7500    62.8100    25.1920    24.6650    23.7670    23.7200   289.4290     2.4540   -26.0410 
  160.8750    60.6980    25.7200    24.8850    23.6820    23.6230   275.7440     2.4770   -25.9930 
  161.0000    58.7540    27.1030    25.9760    24.5910    23.5270   265.0920     2.5100   -26.0130 
  161.1250    58.5650    28.8560    27.5650    26.6090    23.3860   256.3290     2.5390   -26.0130 
  161.2500    57.6700    30.2450    28.9800    29.3750    23.2580   246.5550     2.5510   -26.0160 
  161.3750    56.0180    30.7940    29.7510    31.0600    23.1860   240.7240     2.5430   -26.0050 
  161.5000    55.9590    30.3850    29.6780    29.3630    23.1660   245.6620     2.5180   -25.9950 
  161.6250    61.3570    29.3140    28.8860    25.9060    23.1520   263.9070     2.4830   -26.0130 
  161.7500    66.5930    28.3330    27.9880    22.6950    23.0980   284.5060     2.4540   -26.0130 
  161.8750    65.6080    27.8940    27.4180    20.5720    22.9940   294.3500     2.4390   -26.0180 
  162.0000    59.8890    28.1290    27.3850    20.8460    22.8910   288.0750     2.4380   -25.9950 
  162.1250    57.3920    28.8660    27.8590    22.6750    23.0100   272.5900     2.4470   -25.9520 
  162.2500    60.5170    29.6170    28.4460    24.2230    23.3420   260.3590     2.4610   -25.8850 
  162.3750    64.5660    30.0970    28.8770    24.6260    23.6160   254.3620     2.4760   -25.8320 
  162.5000    64.9450    30.2350    29.0350    25.3910    23.5420   253.6340     2.4920   -25.7690 
  162.6250    62.1400    30.2210    29.0170    27.7140    23.4810   258.9220     2.5080   -25.6640 
  162.7500    60.7420    30.4310    29.1350    30.5720    23.6190   266.0350     2.5140   -25.6470 
  162.8750    61.3090    31.1010    29.6230    33.7900    23.9190   269.2640     2.5080   -25.6210 
  163.0000    61.0920    32.2730    30.5730    37.2550    24.2200   264.9800     2.4920   -25.5550 
  163.1250    59.3260    33.8230    31.9370    37.8870    24.4870   254.6210     2.4790   -25.5430 
  163.2500    59.1160    35.4000    33.4040    38.7700    24.5840   245.2180     2.4760   -25.5370 
  163.3750    59.8480    36.7470    34.7220    39.9440    24.6060   241.9840     2.4830   -25.5130 
  163.5000    59.8930    37.7020    35.7040    40.7010    24.6060   246.0190     2.4960   -25.4880 
  163.6250    61.1400    38.2110    36.2450    40.5090    24.6060   253.2620     2.5070   -25.4580 
  163.7500    64.0420    38.5020    36.5310    39.8260    24.6060   258.4880     2.5140   -25.3940 
  163.8750    64.8880    38.7510    36.7270    39.7220    24.6070   261.4560     2.5150   -25.3570 
  164.0000    61.4290    39.0940    36.9750    39.3900    24.6080   263.1700     2.5120   -25.3660 
  164.1250    57.9380    39.6440    37.4020    39.5860    24.6080   262.4800     2.5070   -25.3220 
  164.2500    58.7290    40.3880    38.0250    40.2840    24.5950   259.5790     2.5070   -25.3110 
  164.3750    60.4450    41.2860    38.8260    40.7740    24.5670   255.8890     2.5130   -25.3190 
  164.5000    59.6650    42.2320    39.7360    41.2020    24.5400   251.3650     2.5260   -25.2810 
  164.6250    58.1070    43.0090    40.6010    42.2320    24.5300   245.9500     2.5420   -25.2940 
  164.7500    60.0480    43.4220    41.2440    43.6220    24.5290   241.0390     2.5550   -25.3260 
  164.8750    63.4090    43.3370    41.5180    44.3140    24.5290   239.2140     2.5620   -25.3170 
  165.0000    64.0800    42.7160    41.3330    43.9570    24.5290   240.8950     2.5620   -25.2560 
  165.1250    60.7040    41.5510    40.6000    42.9390    24.5270   243.4300     2.5590   -25.2580 
  165.2500    55.7890    40.0470    39.4690    41.6920    24.5260   244.5010     2.5550   -25.2840 
  165.3750    53.2530    38.3330    38.0520    41.1460    24.5260   244.0500     2.5490   -25.2820 
  165.5000    55.0730    36.5340    36.4770    40.1840    24.5260   244.1010     2.5390   -25.2750 
  165.6250    57.6870    34.7960    34.8780    37.9500    24.5260   245.8270     2.5230   -25.2700 
  165.7500    57.3790    33.2010    33.3500    35.4250    24.5260   248.8320     2.5040   -25.2750 
  165.8750    56.2800    31.7570    31.9110    32.5460    24.5260   253.6090     2.4880   -25.2700 
  166.0000    55.9720    30.3960    30.5260    29.8500    24.5260   258.6720     2.4820   -25.2620 
  166.1250    55.3200    28.9950    29.1280    27.9770    24.5260   261.2420     2.4910   -25.2470 
  166.2500    57.4350    27.5150    27.6950    26.8850    24.5260   261.5310     2.5090   -25.2230 
  166.3750    62.6120    26.0620    26.3050    25.8310    24.5260   261.4530     2.5260   -25.1940 
  166.5000    65.9160    24.8580    25.1310    24.4970    24.5260   263.1610     2.5360   -25.2070 
  166.6250    64.0720    24.2610    24.4760    24.2400    24.5260   266.5160     2.5330   -25.1950 
  166.7500    62.0680    24.3260    24.4100    25.0900    24.5260   269.0970     2.5250   -25.1250 
  166.8750    61.4440    25.0040    24.9240    27.1410    24.5260   267.3850     2.5180   -25.0690 
  167.0000    60.0140    26.1180    25.8910    29.6510    24.5260   260.1590     2.5150   -25.0730 
  167.1250    58.5100    27.4310    27.1060    31.1220    24.5260   252.7550     2.5170   -25.0590 
  167.2500    58.7090    28.6850    28.2980    30.5350    24.5260   253.2040     2.5210   -24.9910 
  167.3750    59.3600    29.7680    29.3340    30.4250    24.5260   259.9240     2.5260   -24.9500 
  167.5000    59.3170    30.6300    30.1630    31.5940    24.5260   263.4390     2.5320   -24.9140 
  167.6250    59.2510    31.1750    30.7300    33.5640    24.5260   256.9340     2.5410   -24.8630 
  167.7500    57.9700    31.3630    31.0270    34.5690    24.5240   247.3620     2.5520   -24.8630 
  167.8750    54.3000    31.1200    30.9760    34.5370    24.5100   241.0540     2.5620   -24.8670 
  168.0000    50.8340    30.4540    30.5270    33.6150    24.4660   239.0180     2.5650   -24.8410 
  168.1250    51.3260    29.4950    29.6970    31.0100    24.3970   242.2250     2.5580   -24.8140 
  168.2500    54.6880    28.5670    28.7560    28.5260    24.3520   249.8170     2.5460   -24.8110 
  168.3750    57.7550    27.8870    27.9380    27.9540    24.3360   257.5090     2.5370   -24.8310 
  168.5000    59.5530    27.5680    27.4180    29.3190    24.3240   260.3220     2.5370   -24.8470 
  168.6250    59.8850    27.6570    27.3310    32.4550    24.2890   257.3530     2.5460   -24.8400 
  168.7500    59.0110    27.9830    27.5650    34.7060    24.2210   254.0250     2.5550   -24.8050 
  168.8750    59.0550    28.4140    28.0020    34.2020    24.1170   253.4200     2.5600   -24.8110 
  169.0000    61.0050    28.8310    28.5150    32.3050    24.0240   255.1150     2.5570   -24.8410 
  169.1250    63.5350    29.1530    28.9870    31.0150    23.9840   255.0410     2.5520   -24.8290 
  169.2500    64.5860    29.3750    29.3500    31.0270    23.9470   251.6830     2.5520   -24.8350 
  169.3750    63.7460    29.4620    29.5320    31.0220    23.8600   247.4410     2.5600   -24.8230 
  169.5000    61.9460    29.3110    29.4310    30.4080    23.7410   244.7880     2.5750   -24.7740 
  169.6250    60.3940    28.6580    28.8240    29.8030    23.6620   244.1390     2.5880   -24.7830 
  169.7500    60.0960    27.4360    27.6800    29.0440    23.6330   245.4880     2.5920   -24.8230 
  169.8750    60.7750    25.7110    26.0590    27.6270    23.6280   249.5880     2.5840   -24.8210 
