~V
VERS. 2.00: Ver 2.00
~W
STRT.M 100.0000:
STOP.M 292.0000:
STEP.M 0.1250:
NULL. -999.2500:
UWI. DF310:
~C
DEPT.M :
AC.US/MT :
DEN.GM/CC :
GR.API :
CALI.CM :
RXO.OHMM :
RI. :
RML.OHMM :
SP.MV :
~A
# ...
  280.0000   349.6690     2.4060    47.9860    22.7050     7.2370     5.9440     7.0300   -10.8310 
  280.1250   349.6300     2.4030    49.5530    22.7040     7.2760     5.9690     7.1070   -10.8290 
  280.2500   350.3420     2.3990    46.4680    22.7050     7.2740     5.9080     7.0580   -10.8210 
  280.3750   352.1470     2.3850    42.5850    22.7020     7.1250     5.7730     6.9690   -10.8280 
  280.5000   356.4290     2.3670    42.0480    22.6990     6.7670     5.5950     6.8940   -10.8280 
  280.6250   364.1600     2.3570    44.0050    22.6980     6.2830     5.4130     6.8080   -10.8320 
  280.7500   374.5560     2.3580    45.5050    22.6970     5.7120     5.2580     6.6430   -10.8460 
  280.8750   384.0200     2.3690    45.6870    22.6670     5.2520     5.1450     6.3930   -10.8990 
  281.0000   389.6580     2.3820    44.6920    22.5540     5.0240     5.0870     6.1670   -11.0010 
  281.1250   390.0670     2.3910    44.4140    22.2980     5.0330     5.0940     6.1320   -11.1490 
  281.2500   385.3330     2.3980    44.4140    22.0780     5.2190     5.1590     6.2730   -11.3220 
  281.3750   378.3300     2.4090    44.4140    21.9650     5.5790     5.2840     6.4910   -11.5150 
  281.5000   370.7440     2.4200    44.4140    21.9250     6.1190     5.4600     6.6800   -11.7180 
  281.6250   363.6240     2.4230    44.4140    21.8960     6.7340     5.6590     6.7900   -11.9030 
  281.7500   358.1920     2.4170    44.4140    21.8830     7.1420     5.8330     6.8710   -12.0660 
  281.8750   355.2990     2.4110    44.4140    21.8800     7.2320     5.9580     6.9710   -12.1740 
  282.0000   355.2800     2.4130    44.4140    21.8800     7.0190     6.0220     7.0900   -12.2120 
  282.1250   357.1950     2.4160    44.4140    21.8800     6.8870     6.0270     7.1690   -12.2140 
  282.2500   359.0870     2.4150    44.4140    21.8800     6.9070     5.9970     7.1890   -12.1700 
  282.3750   359.9970     2.4060    44.4140    21.8800     6.9100     5.9380     7.1640   -12.0780 
  282.5000   360.6270     2.3950    44.4140    21.8790     6.6880     5.8570     7.1080   -11.9930 
  282.6250   362.0330     2.3840    44.4140    21.8600     6.3770     5.7620     7.0140   -11.9210 
  282.7500   364.4050     2.3750    44.4140    21.8190     6.2090     5.6680     6.8930   -11.8580 
  282.8750   366.4160     2.3690    44.4140    21.7740     6.2380     5.5930     6.7730   -11.8170 
  283.0000   366.9510     2.3750    44.4140    21.7400     6.3780     5.5450     6.6830   -11.7940 
  283.1250   365.6910     2.3860    44.4140    21.7030     6.4930     5.5230     6.6450   -11.7710 
  283.2500   363.4510     2.3930    44.4140    21.6800     6.5010     5.5100     6.6420   -11.7730 
  283.3750   362.0100     2.3920    44.4140    21.6670     6.4040     5.5000     6.6490   -11.8080 
  283.5000   362.2660     2.3890    44.4140    21.6610     6.1920     5.4920     6.6480   -11.8250 
  283.6250   364.0100     2.3830    44.4140    21.6610     5.9780     5.4930     6.6480   -11.8420 
  283.7500   366.2860     2.3770    44.4140    21.6570     5.8920     5.5060     6.6530   -11.8710 
  283.8750   368.4310     2.3740    44.4140    21.6480     5.8990     5.5270     6.6580   -11.8920 
  284.0000   370.6820     2.3840    44.4140    21.6230     5.8610     5.5450     6.6610   -11.9040 
  284.1250   373.2520     2.3970    44.4140    21.5660     5.7120     5.5510     6.6540   -11.9070 
  284.2500   375.1050     2.4050    44.4140    21.5000     5.6600     5.5410     6.6390   -11.9130 
  284.3750   374.5640     2.4070    44.4140    21.4550     5.8100     5.5160     6.6200   -11.8980 
  284.5000   371.2650     2.4010    44.4140    21.4190     6.0880     5.4810     6.6020   -11.8860 
  284.6250   367.2620     2.3860    44.4140    21.4020     6.2670     5.4470     6.5910   -11.8740 
  284.7500   366.6630     2.3650    44.4140    21.3930     6.1920     5.4300     6.5840   -11.8460 
  284.8750   370.3230     2.3510    44.4140    21.3880     5.9690     5.4350     6.5790   -11.8190 
  285.0000   376.5230     2.3560    44.4140    21.3770     5.6950     5.4600     6.5720   -11.8030 
  285.1250   382.9610     2.3680    44.4140    21.3620     5.4670     5.4950     6.5660   -11.7930 
  285.2500   388.3200     2.3750    44.4140    21.3490     5.3380     5.5240     6.5650   -11.7850 
  285.3750   392.5850     2.3760    44.4140    21.3330     5.2660     5.5370     6.5690   -11.7850 
  285.5000   395.3350     2.3820    44.4140    21.3210     5.1810     5.5280     6.5770   -11.7910 
  285.6250   395.8440     2.3910    44.4140    21.3170     5.1940     5.5010     6.5870   -11.8070 
  285.7500   393.1770     2.3970    44.4140    21.3170     5.3830     5.4730     6.5990   -11.8220 
  285.8750   388.1730     2.3990    44.4140    21.3150     5.6910     5.4540     6.6150   -11.8450 
  286.0000   382.2450     2.3980    44.4140    21.2980     5.9890     5.4480     6.6310   -11.8610 
  286.1250   377.6570     2.3940    44.4140    21.2610     6.1880     5.4520     6.6440   -11.8600 
  286.2500   377.2760     2.3890    44.4140    21.2130     6.1830     5.4500     6.6420   -11.8520 
  286.3750   380.6160     2.3820    44.4140    21.1930     5.9180     5.4460     6.6190   -11.8340 
  286.5000   385.6190     2.3760    44.4140    21.1900     5.4810     5.4470     6.5860   -11.8000 
  286.6250   389.7920     2.3680    44.4140    21.1900     5.0970     5.4570     6.5630   -11.7670 
  286.7500   391.6340     2.3560    44.4140    21.1900     4.8950     5.4700     6.5610   -11.7300 
  286.8750   392.1840     2.3420    44.4140    21.1900     4.8400     5.4820     6.5720   -11.6780 
  287.0000   392.3740     2.3350    44.4140    21.1810     4.8450     5.4840     6.5750   -11.6450 
  287.1250   392.5370     2.3340    44.4140    21.1390     4.8190     5.4840     6.5750   -11.6300 
  287.2500   392.5800     2.3370    44.4140    21.0520     4.7430     5.4840     6.5750   -11.5960 
  287.3750   392.5530     2.3370    44.4140    20.9430     4.6560     5.4840     6.5750   -11.5720 
  287.5000   392.5800     2.3010    44.4140    20.8160     4.6020     5.4840     6.5750   -11.5720 
  287.6250   392.6760     2.2000    44.4140    20.6630     4.6230     5.4840     6.5750   -11.5720 
  287.7500   392.7280     2.0440    44.4140    20.4620     4.7260     5.4840     6.5750   -11.5720 
  287.8750   392.6930     1.8960    44.4140    20.1640     4.8630     5.4840     6.5750  -999.2500 
  288.0000   392.6380     1.8330    44.4140    19.6460     4.9630     5.4840     6.5750  -999.2500 
  288.1250   392.6380     1.8290    44.4140    18.3320     4.9550     5.4840     6.5750  -999.2500 
  288.2500   392.6860     1.8420    44.4140    16.4050     4.9070     5.4840     6.5750  -999.2500 
  288.3750   392.7020     1.8490    44.4140    14.8530     4.8670     5.4840     6.5750  -999.2500 
  288.5000   392.6710     1.8500    44.4140    14.2380     4.8530     5.4840     6.5750  -999.2500 
  288.6250   392.6350     1.8520    44.4140    14.2120     4.8520     5.4840     6.5750  -999.2500 
  288.7500   392.6180     1.8540    44.4140    14.2120     4.8520     5.4840     6.5750  -999.2500 
  288.8750   392.5710     1.8560    44.4140    14.2120     4.8510     5.4840     6.5750  -999.2500 
  289.0000   392.4660     1.8580    44.4140    14.2120     4.8500     5.4840     6.5750  -999.2500 
  289.1250   392.3520     1.8620    44.4140    14.2120     4.8500     5.4840     6.5750  -999.2500 
  289.2500   392.3510     1.8650    44.4140    14.2120     4.8500     5.4840     6.5750  -999.2500 
  289.3750   392.4620     1.8650    44.4140    14.2120     4.8490     5.4840     6.5750  -999.2500 
  289.5000   392.5540     1.8620    44.4140    14.2120     4.8470     5.4840     6.5750  -999.2500 
  289.6250   392.4780     1.8560    44.4140    14.2120     4.8450     5.4840     6.5750  -999.2500 
  289.7500   392.2650     1.8510    44.4140    14.2120     4.8440     5.4840     6.5750  -999.2500 
  289.8750   392.5690     1.8490    44.4140    14.2120     4.8450     5.4840     6.5750  -999.2500 
