~V
VERS. 2.00: Ver 2.00
~W
STRT.M 57.0000:
STOP.M 261.0000:
STEP.M 0.1250:
NULL. -999.2500:
UWI. DF317:
~C
DEPT.M :
DEN.GM/CC :
SP.MV :
AC.US/MT :
GR.API :
CALI.CM :
RXO.OHMM :
RI. :
RML.OHMM :
~A
# ...
  197.0000     2.2920   -25.5030   374.5710    79.0350    23.8790    23.6810    24.7710    32.5090 
  197.1250     2.2850   -25.6570   373.3970    73.0040    23.7450    24.8210    26.8840    35.5030 
  197.2500     2.2800   -25.7650   371.8340    70.3680    23.5700    28.0710    29.9050    39.3650 
  197.3750     2.2790   -25.8580   371.2970    71.0770    23.3900    33.5480    33.5000    43.6790 
  197.5000     2.2860   -25.9560   373.2960    70.0210    23.2870    40.2390    37.4220    48.1620 
  197.6250     2.3020   -26.0100   375.5090    65.9940    23.1850    45.7850    41.3020    52.4340 
  197.7500     2.3230   -26.0550   366.6180    62.7310    23.0380    48.8130    44.4920    55.7650 
  197.8750     2.3400   -26.0930   343.6850    63.5220    22.8890    49.4720    46.3880    57.4560 
  198.0000     2.3600   -26.1220   313.5880    68.1890    22.7970    49.0160    46.3670    56.7210 
  198.1250     2.3980   -26.1080   284.6760    71.5380    22.8500    49.6100    43.6010    52.7000 
  198.2500     2.4650   -26.0440   259.9140    70.4090    23.2890    47.9180    37.5570    45.0130 
  198.3750     2.5390   -25.9560   240.4910    67.1480    23.3760    42.1220    29.9620    35.5860 
  198.5000     2.5950   -25.8170   237.0590    64.8030    23.2340    31.3760    22.3390    26.0770 
  198.6250     2.6120   -25.6200   263.0190    64.4240    22.9850    20.4370    15.8170    17.9090 
  198.7500     2.5810   -25.3810   320.9900    65.1640    22.8140    15.5240    11.2320    12.3070 
  198.8750     2.5230   -25.1230   386.5900    66.8100    22.8810     9.9470     8.1970     8.7600 
  199.0000     2.4570   -24.8520   437.9990    68.7270    23.0240     6.6630     6.3970     6.8440 
  199.1250     2.3970   -24.6080   464.6280    72.6260    23.0790     5.6580     5.5450     6.1570 
  199.2500     2.3620   -24.3940   462.1050    83.1090    23.2030     5.7160     5.5220     6.4440 
  199.3750     2.3560   -24.1900   440.3150    96.4240    23.3110     6.5480     6.0140     7.2220 
  199.5000     2.3720   -24.0220   408.8990   103.9000    23.4140     8.6870     6.8670     8.2770 
  199.6250     2.3940   -23.8940   380.6260   104.1020    23.7110    10.8620     7.8830     9.3670 
  199.7500     2.4020   -23.7860   369.0940   105.6300    23.7470    11.3470     8.7540    10.1030 
  199.8750     2.4000   -23.7140   370.1620   111.8750    23.8440    10.6850     9.2640    10.3510 
  200.0000     2.3960   -23.6700   374.7270   115.3890    23.9000    10.1570     9.3820    10.2020 
  200.1250     2.3970   -23.6380   376.6700   112.6970    23.8460     9.7980     9.2000     9.8230 
  200.2500     2.4000   -23.6560   376.6120   109.5710    23.6050     9.5410     8.8840     9.4220 
  200.3750     2.4000   -23.7350   376.9820   110.2150    23.5420     9.3230     8.6110     9.1720 
  200.5000     2.3970   -23.8740   377.9360   112.9050    23.5570     9.2590     8.4490     9.1190 
  200.6250     2.3940   -24.0770   379.2950   115.0100    23.5580     9.2740     8.3980     9.2300 
  200.7500     2.3940   -24.3380   380.5320   113.7450    23.5480     9.3210     8.4460     9.4660 
  200.8750     2.3930   -24.6010   380.9900   111.0790    23.5760     9.4380     8.5230     9.7480 
  201.0000     2.3890   -24.8560   380.4950   110.6430    23.5560     9.6340     8.5880    10.0010 
  201.1250     2.3810   -25.0950   379.5420   111.7350    23.5700     9.8530     8.6310    10.2040 
  201.2500     2.3670   -25.2530   379.0110   112.3430    23.5370     9.9550     8.6370    10.3410 
  201.3750     2.3490   -25.3640   379.5410   115.9890    23.4690     9.8610     8.6290    10.4380 
  201.5000     2.3310   -25.4290   381.3390   121.3810    23.5210     9.7480     8.6390    10.5580 
  201.6250     2.3240   -25.4550   383.1280   122.6610    23.5460     9.6030     8.7300    10.8000 
  201.7500     2.3330   -25.4660   381.1340   117.6320    23.4830     9.6720     8.9800    11.2570 
  201.8750     2.3460   -25.4190   373.6620   112.6430    23.5610    10.3720     9.4030    11.9640 
  202.0000     2.3570   -25.3620   362.1700   108.5690    23.5470    11.4430    10.0540    12.9890 
  202.1250     2.3700   -25.3090   348.8400   103.1850    23.5190    12.5420    10.9730    14.3920 
  202.2500     2.3940   -25.3150   335.5150    97.2940    23.5480    13.3760    12.2350    16.2410 
  202.3750     2.4180   -25.3330   325.7750    91.9220    23.5210    15.3830    13.8830    18.6040 
  202.5000     2.4230   -25.3610   322.6980    88.1780    23.5250    17.2030    15.9920    21.5780 
  202.6250     2.3950   -25.4130   326.4760    86.6140    23.4710    17.8940    18.5700    25.1160 
  202.7500     2.3500   -25.4780   333.6550    86.2530    23.2300    20.4190    21.6670    29.2510 
  202.8750     2.3200   -25.6170   343.1230    85.4700    23.2210    25.4780    25.1650    33.8240 
  203.0000     2.3120   -25.8110   356.1750    84.2150    23.2190    30.7980    28.9240    38.6450 
  203.1250     2.3150   -26.0410   369.2970    82.6110    23.1280    34.3100    32.7250    43.5270 
  203.2500     2.3110   -26.2900   374.9580    81.4720    23.0750    35.4610    36.6090    48.6380 
  203.3750     2.2970   -26.5290   374.7250    81.4220    23.0280    38.1140    40.7160    54.1370 
  203.5000     2.2790   -26.7640   374.9200    80.2230    23.0680    41.8910    45.1840    60.2030 
  203.6250     2.2620   -26.9740   378.2110    75.4030    23.1780    45.4900    50.3410    67.3570 
  203.7500     2.2500   -27.1250   382.4050    70.2950    23.0000    51.1200    57.0860    76.6630 
  203.8750     2.2380   -27.2150   386.5070    70.0710    22.9590    58.5630    65.7680    88.3960 
  204.0000     2.2200   -27.2180   391.3000    73.4550    22.9510    70.7800    76.8790   103.0530 
  204.1250     2.2090   -27.1390   392.6900    75.4970    22.9400    87.9040    91.1410   121.3640 
  204.2500     2.2360   -26.9990   375.4970    72.6210    22.8900   105.6190   109.1780   143.9120 
  204.3750     2.3100   -26.8460   333.5940    67.4550    22.9380   109.5970   129.0760   168.4610 
  204.5000     2.4150   -26.6800   274.4270    62.2670    22.9190   111.6950   148.9320   192.6820 
  204.6250     2.5200   -26.4860   218.3930    59.3760    22.7510   142.2090   166.5980   213.4140 
  204.7500     2.5740   -26.3220   194.8070    60.5960    22.3520   200.2640   178.1410   224.4400 
  204.8750     2.5550   -26.1720   211.5940    63.3360    22.4240   230.9090   181.8380   223.9820 
  205.0000     2.4690   -26.0730   261.9800    65.9320    22.7570   205.2620   177.2980   212.5850 
  205.1250     2.3530   -26.0470   326.6410    67.6580    23.0030   148.9920   165.6570   193.4410 
  205.2500     2.2570   -26.0670   382.9920    70.5020    23.4470   123.3370   148.8170   170.2020 
  205.3750     2.1990   -26.1050   413.2170    73.5760    23.5900   118.3740   130.8340   147.2310 
  205.5000     2.1750   -26.1660   414.7790    74.9340    23.5870   125.0770   113.1970   125.7980 
  205.6250     2.1760   -26.2670   401.2860    75.2250    23.6150   119.7000    97.1800   107.2880 
  205.7500     2.1930   -26.3670   393.1660    74.6500    23.5910    92.6590    84.9400    94.1590 
  205.8750     2.2110   -26.4710   393.9550    72.8130    23.5650    67.8780    77.1130    86.3950 
  206.0000     2.2250   -26.5200   395.9500    72.2890    23.5550    57.4240    74.1760    84.1720 
  206.1250     2.2380   -26.4800   397.6630    73.0610    23.5660    55.1520    76.8930    87.8610 
  206.2500     2.2590   -26.3640   389.0040    73.0150    23.5950    52.7030    87.1760    98.9920 
  206.3750     2.2920   -26.2180   358.4780    69.0080    23.6060    59.6320   103.6600   116.6560 
  206.5000     2.3420   -26.0940   303.5370    63.1970    23.5530    82.3480   125.1790   140.3500 
  206.6250     2.4080   -26.0040   238.0390    58.9910    23.3480   136.8490   149.3440   167.6370 
  206.7500     2.4700   -25.9820   196.1360    60.3260    23.5010   182.9450   170.9280   191.9700 
  206.8750     2.4930   -25.9980   198.6240    67.1130    23.4970   206.0700   185.4710   207.2790 
