~V
VERS. 2.00: Ver 2.00
~W
STRT.M 60.0000:
STOP.M 262.0000:
STEP.M 0.1250:
NULL. -999.2500:
UWI. DF319:
~C
DEPT.M :
GR.API :
RML.OHMM :
RI. :
RXO.OHMM :
CALI.CM :
AC.US/MT :
DEN.GM/CC :
SP.MV :
~A
# ...
  140.0000    61.6780    10.4190     9.6850    12.1270    24.0680   421.3130     2.1910   -29.7610 
  140.1250    63.5360    10.3630     9.7110    12.0540    24.0560   420.1600     2.1920   -29.4680 
  140.2500    63.8250    10.3520     9.7480    11.8240    24.0510   420.2710     2.1900   -29.1810 
  140.3750    61.8470    10.4130     9.8160    11.5150    24.0390   421.5020     2.1850   -28.8340 
  140.5000    61.1340    10.5160     9.9050    11.2960    23.9910   423.1620     2.1760   -28.4550 
  140.6250    63.4260    10.5510     9.9420    11.2940    23.8740   425.7890     2.1640   -28.1190 
  140.7500    66.1140    10.3970     9.8340    11.4210    23.6970   430.2060     2.1570   -27.7530 
  140.8750    69.7060     9.9710     9.5110    11.4020    23.5120   432.6710     2.1630   -27.3220 
  141.0000    76.6420     9.2770     8.9580    10.9630    23.2310   426.0550     2.1880   -26.9100 
  141.1250    88.0450     8.4250     8.2400     9.6840    22.7880   405.0570     2.2350   -26.5230 
  141.2500    97.2440     7.6430     7.5330     8.1900    22.5530   383.1220     2.2870   -26.1110 
  141.3750    98.2820     7.0790     6.9660     7.2910    22.8420   374.4370     2.3290   -25.7490 
  141.5000    92.7210     6.7890     6.6080     7.0030    23.6210   380.8460     2.3520   -25.4640 
  141.6250    89.0360     6.7500     6.4780     6.9690    24.1480   386.8290     2.3600   -25.1800 
  141.7500    90.2650     6.7890     6.4580     7.1190    24.3560   379.9640     2.3660   -24.9510 
  141.8750    95.0880     6.7810     6.4520     7.3310    24.4050   368.5990     2.3760   -24.7910 
  142.0000   102.6550     6.6540     6.3860     7.3820    24.4290   369.2840     2.3830   -24.6520 
  142.1250   109.5910     6.4010     6.2260     7.2300    24.4390   389.2700     2.3760   -24.5570 
  142.2500   112.4360     6.1170     6.0200     6.6690    24.4440   412.0730     2.3570   -24.5150 
  142.3750   112.2870     5.8670     5.8130     6.3260    24.4460   424.6140     2.3350   -24.4720 
  142.5000   112.3370     5.6750     5.6360     6.3040    24.4460   426.5340     2.3180   -24.4380 
  142.6250   111.4740     5.5370     5.5030     6.3130    24.4410   424.9400     2.3120   -24.4030 
  142.7500   108.9380     5.4300     5.4120     6.3090    24.4280   426.7180     2.3120   -24.3590 
  142.8750   106.7660     5.3730     5.3790     6.2680    24.4160   425.7440     2.3140   -24.3560 
  143.0000   107.4370     5.4130     5.4400     6.2570    24.4090   419.3670     2.3130   -24.3590 
  143.1250   111.9470     5.6260     5.6480     6.4710    24.3940   416.1190     2.3110   -24.3300 
  143.2500   114.1810     5.9700     5.9670     6.9190    24.3570   416.5760     2.3130   -24.2890 
  143.3750   110.4670     6.3560     6.3270     7.6100    24.3100   410.1430     2.3210   -24.2750 
  143.5000   104.4280     6.6540     6.6240     8.3850    24.2830   392.9660     2.3320   -24.2310 
  143.6250   102.8220     6.7160     6.7310     8.8140    24.2890   382.2810     2.3400   -24.1930 
  143.7500   103.2720     6.5750     6.6520     8.4160    24.3190   390.5230     2.3390   -24.1820 
  143.8750   102.9320     6.3460     6.4620     7.3730    24.3500   408.6450     2.3300   -24.1710 
  144.0000   102.0950     6.1750     6.2770     6.6240    24.3650   424.0710     2.3200   -24.1700 
  144.1250   102.2650     6.1860     6.2150     6.5120    24.3650   426.6510     2.3160   -24.1440 
  144.2500   103.2090     6.3310     6.2720     6.7570    24.3630   414.4620     2.3190   -24.1210 
  144.3750   103.9630     6.5180     6.3910     7.2040    24.3580   391.4770     2.3280   -24.0430 
  144.5000   103.3990     6.6430     6.4910     7.6380    24.3540   368.8730     2.3400   -23.9750 
  144.6250   101.5690     6.6250     6.4930     7.6620    24.3450   367.5750     2.3500   -23.9440 
  144.7500   100.5600     6.5100     6.4090     7.2550    24.3420   390.4180     2.3530   -23.8710 
  144.8750    99.8160     6.3810     6.2950     6.9470    24.3420   421.7050     2.3480   -23.7750 
  145.0000    99.0330     6.3460     6.2360     7.1550    24.3320   440.1690     2.3340   -23.6750 
  145.1250    98.8530     6.5370     6.3630     7.7770    24.3020   430.3220     2.3200   -23.5720 
  145.2500    98.7450     6.9900     6.7430     8.5240    24.2570   409.8050     2.3150   -23.4710 
  145.3750    97.3050     7.7880     7.4340     9.5290    24.2100   392.1060     2.3240   -23.4120 
  145.5000    95.0550     8.9540     8.4740    11.3750    24.1360   379.8930     2.3440   -23.3280 
  145.6250    92.5290    10.6730     9.9210    14.2440    24.0240   375.0130     2.3560   -23.2330 
  145.7500    89.5770    12.7450    11.6680    17.3650    23.9840   381.5160     2.3440   -23.1110 
  145.8750    85.9910    15.1010    13.6210    19.9330    23.9880   395.1500     2.3070   -22.9520 
  146.0000    81.6110    17.5560    15.6420    20.3010    24.0100   406.0700     2.2550   -22.8030 
  146.1250    76.2800    19.3770    17.5250    20.5070    24.0560   409.1010     2.2030   -22.7070 
  146.2500    72.4470    20.8720    19.1250    20.9550    24.1050   412.1500     2.1650   -22.6040 
  146.3750    69.9630    22.0190    20.3680    21.8820    24.1300   417.2420     2.1410   -22.4930 
  146.5000    67.2550    22.8730    21.2660    22.2040    24.1280   421.3610     2.1310   -22.4360 
  146.6250    64.2470    23.5260    21.8800    22.0780    24.0920   425.5310     2.1320   -22.3570 
  146.7500    63.9360    24.1330    22.3820    22.3330    24.0410   430.9370     2.1400   -22.3200 
  146.8750    64.8570    24.7450    22.8450    23.0380    24.0050   435.9020     2.1510   -22.3340 
  147.0000    64.1750    25.3480    23.2870    23.9090    23.9920   438.7850     2.1610   -22.3880 
  147.1250    63.5770    25.8520    23.6630    24.7730    23.9920   441.0110     2.1630   -22.4320 
  147.2500    64.5750    26.1970    23.9450    25.1590    23.9920   442.6760     2.1580   -22.4910 
  147.3750    65.9180    26.3430    24.1150    24.8060    23.9920   440.3710     2.1500   -22.5650 
  147.5000    65.3390    26.2850    24.1670    24.4580    23.9920   434.4620     2.1410   -22.6130 
  147.6250    65.0930    26.0400    24.0980    24.8620    23.9570   430.4020     2.1350   -22.7110 
  147.7500    67.3930    25.7260    23.9660    25.5030    23.8610   430.4480     2.1330   -22.7970 
  147.8750    70.1440    25.4360    23.8300    25.6390    23.7370   432.1370     2.1350   -22.8960 
  148.0000    70.2790    25.2420    23.7470    24.6870    23.6750   431.7240     2.1410   -22.9800 
  148.1250    67.2750    25.1620    23.7460    22.9720    23.6840   428.8820     2.1470   -23.0470 
  148.2500    66.3950    25.0900    23.7500    22.6280    23.7080   426.7980     2.1520   -23.1350 
  148.3750    69.0130    24.8920    23.6390    23.4020    23.7180   426.9180     2.1550   -23.2330 
  148.5000    72.9890    24.4400    23.2910    24.1260    23.7190   428.8510     2.1560   -23.3400 
  148.6250    77.6070    23.6360    22.5900    23.5840    23.7200   430.1900     2.1590   -23.4160 
  148.7500    80.5320    22.6260    21.6490    21.6210    23.7200   429.1630     2.1620   -23.5350 
  148.8750    78.9670    21.5810    20.6160    19.0030    23.7220   425.6510     2.1660   -23.6310 
  149.0000    74.0700    20.6570    19.6580    17.2540    23.7230   421.4770     2.1700   -23.7120 
  149.1250    72.0900    19.9670    18.9220    16.5950    23.7200   418.8800     2.1740   -23.8220 
  149.2500    73.1650    19.4640    18.3940    16.1150    23.7060   417.6400     2.1800   -23.8650 
  149.3750    74.1770    19.0930    18.0400    15.5730    23.6750   417.7590     2.1850   -23.8850 
  149.5000    76.8820    18.8350    17.8310    15.2670    23.6450   419.4090     2.1890   -23.9260 
  149.6250    82.1000    18.7580    17.7950    15.2440    23.6380   421.3570     2.1880   -23.9650 
  149.7500    85.2350    18.9190    17.9490    15.3630    23.6430   421.8980     2.1840   -23.9440 
  149.8750    83.7020    19.3650    18.3210    15.8760    23.6490   421.7410     2.1770   -23.9410 
