~V
VERS. 2.00: Ver 2.00
~W
STRT.M 51.0000:
STOP.M 228.0000:
STEP.M 0.1250:
NULL. -999.2500:
UWI. DF314:
~C
DEPT.M :
DEN.GM/CC :
AC.US/MT :
GR.API :
CALI.CM :
RXO.OHMM :
RI. :
RML.OHMM :
SP.MV :
~A
# ...
  201.0000     2.3230   333.0330    68.2360    24.8670     9.3320     5.7680     6.6080   -23.5870 
  201.1250     2.3170   329.8010    66.4380    24.8330     8.8890     5.8200     6.6660   -24.0680 
  201.2500     2.3080   330.9520    67.0320    24.7810     9.2100     5.8910     6.7450   -24.4310 
  201.3750     2.3000   333.4480    71.7580    24.7510     9.8220     5.9480     6.8080   -24.6230 
  201.5000     2.2970   334.0440    76.4790    24.7600    10.0710     5.9570     6.8190   -24.6120 
  201.6250     2.3000   330.6510    75.4500    24.7260     9.6380     5.9070     6.7630   -24.3260 
  201.7500     2.3050   325.3950    70.0130    24.6080     8.7910     5.8180     6.6630   -23.7700 
  201.8750     2.3080   321.6760    63.7920    24.4730     7.5950     5.6890     6.5190   -22.9290 
  202.0000     2.3060   322.9860    59.0610    24.4140     6.1790     5.5060     6.3150   -21.8740 
  202.1250     2.3000   331.4220    55.1800    24.4340     4.9710     5.2540     6.0340   -20.7820 
  202.2500     2.2950   342.6630    50.7510    24.4160     4.2120     4.9790     5.7270   -19.7530 
  202.3750     2.2940   351.8880    47.6720    24.3220     3.8210     4.7370     5.4570   -18.8040 
  202.5000     2.3000   356.1120    47.4260    24.1770     3.6380     4.5710     5.2720   -17.9730 
  202.6250     2.3130   355.9660    47.4100    24.0540     3.6030     4.4920     5.1840   -17.4090 
  202.7500     2.3310   355.9610    44.0260    24.0180     3.6620     4.4470     5.1330   -17.1580 
  202.8750     2.3510   358.5210    39.0480    24.0810     3.7560     4.4120     5.0940   -17.1550 
  203.0000     2.3690   363.7750    35.6450    24.1940     3.8240     4.3840     5.0630   -17.3180 
  203.1250     2.3830   370.2670    33.6950    24.2830     3.8510     4.3740     5.0520   -17.5190 
  203.2500     2.3920   376.4240    32.4720    24.3330     3.8960     4.3860     5.0650   -17.5990 
  203.3750     2.3970   381.9070    32.6630    24.3730     4.0340     4.4030     5.0840   -17.5780 
  203.5000     2.4000   386.6240    34.3070    24.4250     4.2910     4.4060     5.0880   -17.5660 
  203.6250     2.3980   389.9010    36.2330    24.4780     4.5400     4.3910     5.0710   -17.5750 
  203.7500     2.3910   391.4760    37.6420    24.4970     4.6430     4.3810     5.0600   -17.5520 
  203.8750     2.3790   391.5350    39.2930    24.4720     4.6210     4.4000     5.0820   -17.4900 
  204.0000     2.3650   390.5990    40.8840    24.4300     4.5790     4.4580     5.1450   -17.3580 
  204.1250     2.3540   388.8030    42.3470    24.4350     4.5940     4.5330     5.2300   -17.1890 
  204.2500     2.3500   386.3040    42.8160    24.4890     4.6610     4.5830     5.2850   -17.1030 
  204.3750     2.3540   383.6260    40.8720    24.5580     4.7480     4.5840     5.2870   -17.1520 
  204.5000     2.3620   381.8530    38.4860    24.6150     4.7970     4.5450     5.2430   -17.3030 
  204.6250     2.3660   382.1790    37.3610    24.6590     4.7790     4.4910     5.1830   -17.4580 
  204.7500     2.3650   383.8130    37.5710    24.6500     4.7920     4.4610     5.1500   -17.5440 
  204.8750     2.3600   385.2930    38.5240    24.5680     4.8930     4.4680     5.1570   -17.5760 
  205.0000     2.3560   385.4650    38.9930    24.5040     5.0430     4.4930     5.1850   -17.6070 
  205.1250     2.3590   384.8900    38.6860    24.5620     5.1580     4.4970     5.1890   -17.6410 
  205.2500     2.3670   385.9010    39.0500    24.6600     5.2020     4.4690     5.1580   -17.7110 
  205.3750     2.3750   389.6160    40.3630    24.6960     5.1880     4.4260     5.1100   -17.8520 
  205.5000     2.3800   394.8880    41.8720    24.6720     5.1410     4.3910     5.0710   -18.0310 
  205.6250     2.3840   398.6850    43.6150    24.6510     5.0790     4.3770     5.0550   -18.1470 
  205.7500     2.3890   399.9720    45.7580    24.6480     4.9990     4.3650     5.0420   -18.1560 
  205.8750     2.3960   400.0290    45.4830    24.6490     4.8970     4.3480     5.0220   -18.1360 
  206.0000     2.4030   400.6450    42.4680    24.6490     4.7830     4.3390     5.0130   -18.1370 
  206.1250     2.4060   402.2650    39.9610    24.6510     4.6730     4.3730     5.0510   -18.1910 
  206.2500     2.4050   403.2300    38.5290    24.6560     4.5990     4.4410     5.1260   -18.2340 
  206.3750     2.4010   402.0810    36.9330    24.6630     4.5960     4.5030     5.1950   -18.2010 
  206.5000     2.3930   398.4500    35.4830    24.6650     4.6840     4.5130     5.2070   -18.1300 
  206.6250     2.3790   393.2290    35.0300    24.6670     4.8730     4.4430     5.1290   -18.1820 
  206.7500     2.3620   388.3950    35.0890    24.6780     5.0650     4.3390     5.0130   -18.5020 
  206.8750     2.3440   384.9870    35.9460    24.6990     5.1140     4.2410     4.9030   -19.0510 
  207.0000     2.3270   383.0170    39.5990    24.7260     4.9390     4.1730     4.8270   -19.7590 
  207.1250     2.3120   381.0900    45.7330    24.6830     4.7290     4.1490     4.8000   -20.6010 
  207.2500     2.2990   377.0160    50.3510    24.5650     4.8540     4.1780     4.8330   -21.4310 
  207.3750     2.2880   369.6150    53.9920    24.4840     5.5040     4.2940     4.9630   -22.1320 
  207.5000     2.2810   359.8000    60.4560    24.5480     6.5810     4.5210     5.2160   -22.7090 
  207.6250     2.2810   351.6330    68.0090    24.7290     7.6480     4.8520     5.5860   -23.1150 
  207.7500     2.2830   349.4990    68.0400    24.8680     8.2300     5.1620     5.9320   -23.2830 
  207.8750     2.2870   355.7970    60.4550    24.9300     8.1760     5.3250     6.1140   -23.2320 
  208.0000     2.2930   370.1000    53.7380    24.9470     7.6700     5.2770     6.0590   -23.0020 
  208.1250     2.3040   388.9770    52.1850    24.9380     7.1080     5.0370     5.7920   -22.4880 
  208.2500     2.3220   405.8810    49.5960    24.9190     6.6670     4.7550     5.4770   -21.8070 
  208.3750     2.3480   416.6670    44.3440    24.8410     6.1310     4.5090     5.2020   -21.1190 
  208.5000     2.3750   420.0090    40.2900    24.6800     5.3150     4.3280     5.0010   -20.4540 
  208.6250     2.3940   416.9800    40.1390    24.5370     4.4890     4.2070     4.8660   -19.8130 
  208.7500     2.4010   411.9420    40.3530    24.5270     4.0370     4.1200     4.7690   -19.2080 
  208.8750     2.3970   407.3540    40.0410    24.6180     3.9550     4.0810     4.7250   -18.5650 
  209.0000     2.3890   404.3950    40.5500    24.6980     4.0270     4.0930     4.7380   -17.8410 
  209.1250     2.3830   403.2650    41.9110    24.7120     4.1300     4.1230     4.7710   -17.2110 
  209.2500     2.3830   402.8110    42.2770    24.7130     4.2610     4.1290     4.7790   -16.8340 
  209.3750     2.3900   401.7950    40.3500    24.7160     4.3970     4.1150     4.7630   -16.6360 
  209.5000     2.3990   398.7500    38.1420    24.7180     4.4870     4.1220     4.7710   -16.5230 
  209.6250     2.4100   392.4070    40.3220    24.7210     4.5700     4.2120     4.8710   -16.4900 
  209.7500     2.4200   384.8210    44.1470    24.7300     4.8190     4.3830     5.0620   -16.5010 
  209.8750     2.4290   379.1550    45.0460    24.7480     5.3110     4.5940     5.2970   -16.5430 
  210.0000     2.4360   378.1400    43.5790    24.7800     5.8680     4.7920     5.5180   -16.6290 
  210.1250     2.4400   382.8080    44.4350    24.8200     6.1490     4.9400     5.6840   -16.7480 
  210.2500     2.4420   389.7380    47.1090    24.8500     6.1660     5.0460     5.8030   -16.7920 
  210.3750     2.4410   395.9800    48.0330    24.8640     6.1150     5.1190     5.8830   -16.7150 
  210.5000     2.4390   399.7240    47.5800    24.8650     6.1160     5.1650     5.9350   -16.5420 
  210.6250     2.4340   400.8070    47.7950    24.8640     6.1390     5.1860     5.9580   -16.3090 
  210.7500     2.4260   401.2280    48.6360    24.8540     6.1150     5.1800     5.9510   -16.0600 
  210.8750     2.4150   402.1810    49.2860    24.8270     6.0280     5.1220     5.8870   -15.8220 
