~V
VERS. 2.00: Ver 2.00
~W
STRT.M 60.0000:
STOP.M 247.0000:
STEP.M 0.1250:
NULL. -999.2500:
UWI. DF315:
~C
DEPT.M :
DEN.GM/CC :
AC.US/MT :
GR.API :
RML.OHMM :
RI. :
RXO.OHMM :
CALI.CM :
SP.MV :
~A
# ...
  230.0000     2.3310   368.0810    89.7100     8.0950     7.3980     9.1570    24.5870   -11.8350 
  230.1250     2.3310   382.0490    87.8210     7.5630     6.9910     7.9990    24.5600   -11.7220 
  230.2500     2.3310   400.2310    81.0430     6.9290     6.5000     6.8200    24.5280   -11.5570 
  230.3750     2.3290   416.8080    76.0830     6.3090     6.0420     6.1160    24.5140   -11.4010 
  230.5000     2.3240   427.1290    75.2280     5.8140     5.7010     5.9070    24.5120   -11.2240 
  230.6250     2.3180   429.3430    76.5850     5.7410     5.5340     5.9430    24.5120   -11.0090 
  230.7500     2.3160   424.6450    79.9060     5.7700     5.4980     6.0320    24.5160   -10.8340 
  230.8750     2.3190   417.7680    83.6800     5.8740     5.5580     6.1370    24.5290   -10.6670 
  231.0000     2.3290   410.9960    84.6050     6.0340     5.6770     6.2340    24.5580   -10.5100 
  231.1250     2.3420   405.3680    82.8640     6.2340     5.8320     6.3970    24.5730   -10.4770 
  231.2500     2.3520   401.9610    82.8040     6.4440     5.9990     6.6140    24.5780   -10.5320 
  231.3750     2.3560   400.1800    84.6540     6.6430     6.1660     6.8560    24.5780   -10.5770 
  231.5000     2.3540   398.9410    85.2740     6.8130     6.3180     7.0310    24.5780   -10.5960 
  231.6250     2.3470   398.7000    83.8840     6.9240     6.4300     7.0910    24.5780   -10.7020 
  231.7500     2.3390   397.7130    84.3160     6.9760     6.4940     7.1070    24.5780   -10.8250 
  231.8750     2.3340   397.6440    86.1650     6.9730     6.5060     7.0850    24.5770   -10.9330 
  232.0000     2.3300   398.8230    85.5400     6.9240     6.4700     7.0150    24.5760   -11.0660 
  232.1250     2.3300   402.1420    81.4720     6.8260     6.3930     6.9240    24.5750   -11.1910 
  232.2500     2.3310   404.5720    78.2110     6.6960     6.3000     6.8070    24.5760   -11.2880 
  232.3750     2.3320   407.6840    77.6310     6.5460     6.2040     6.6770    24.5820   -11.3770 
  232.5000     2.3310   410.7920    77.5620     6.4010     6.1200     6.5910    24.6030   -11.4930 
  232.6250     2.3270   413.1320    77.0220     6.3180     6.0730     6.6430    24.6370   -11.5750 
  232.7500     2.3190   410.1390    77.6190     6.3580     6.0950     6.8420    24.6530   -11.6300 
  232.8750     2.3080   403.3170    80.5510     6.6030     6.2400     7.1070    24.6560   -11.7310 
  233.0000     2.2970   392.5020    84.9680     7.1330     6.5760     7.5320    24.6570   -11.8900 
  233.1250     2.2950   377.9620    87.1900     8.0380     7.2080     8.6370    24.6590   -12.0100 
  233.2500     2.3070   360.1950    87.0970     9.1690     8.0780    10.9870    24.6580   -12.1150 
  233.3750     2.3330   342.4810    87.1030    10.2970     9.0580    14.2870    24.6550   -12.2800 
  233.5000     2.3640   329.8570    88.4780    11.1050     9.9290    17.6800    24.6610   -12.4450 
  233.6250     2.3810   327.6010    91.2160    11.1930    10.3540    19.3060    24.6900   -12.5520 
  233.7500     2.3740   338.3490    93.9080    10.6730    10.2800    16.5670    24.7370   -12.6650 
  233.8750     2.3470   352.4830    94.8630     9.8950     9.8580    12.0930    24.7720   -12.7360 
  234.0000     2.3160   359.5090    92.5510     9.3300     9.4170     9.7920    24.7850   -12.6950 
  234.1250     2.3000   352.5450    90.1150     9.3970     9.3260    10.0690    24.7850   -12.6220 
  234.2500     2.3010   332.6250    91.1890     9.9690     9.6090    11.4940    24.7850   -12.5300 
  234.3750     2.3120   313.5470    95.0210    10.7370    10.1110    13.1200    24.7850   -12.3340 
  234.5000     2.3180   305.7590    98.2260    11.2710    10.5530    14.3390    24.7770   -12.0790 
  234.6250     2.3090   311.5510    99.0350    11.0760    10.5520    13.5860    24.7590   -11.8440 
  234.7500     2.2900   325.7000    98.0650    10.2250    10.0350    10.9530    24.7470   -11.5540 
  234.8750     2.2730   340.3770    95.5470     9.0450     9.1490     8.3620    24.7720   -11.2230 
  235.0000     2.2690   354.1210    92.4950     7.9470     8.1810     6.9430    24.8080   -10.9070 
  235.1250     2.2830   368.1650    91.5570     7.2510     7.4240     6.4970    24.8670   -10.6050 
  235.2500     2.3060   382.9680    92.8740     6.9190     6.9410     6.5010    24.9360   -10.3210 
  235.3750     2.3270   396.2890    94.3570     6.8550     6.6970     6.5260    25.0160   -10.0830 
  235.5000     2.3420   405.5800    94.9910     6.9290     6.6090     6.5450    25.1040    -9.8820 
  235.6250     2.3490   409.9640    94.6920     6.9960     6.5880     6.5620    25.1810    -9.7050 
  235.7500     2.3550   410.6150    93.2280     6.9620     6.5550     6.5080    25.1870    -9.6010 
  235.8750     2.3610   409.9660    92.2330     6.8260     6.4920     6.3480    25.1250    -9.5250 
  236.0000     2.3680   408.9910    92.2330     6.6590     6.4170     6.2090    25.0430    -9.4670 
  236.1250     2.3730   407.7720    92.2330     6.5860     6.3790     6.1750    25.0090    -9.4540 
  236.2500     2.3710   404.6760    92.2330     6.6490     6.4100     6.2520    24.9920    -9.4630 
  236.3750     2.3600   399.0800    92.2330     6.8170     6.5150     6.5190    24.9560    -9.4960 
  236.5000     2.3420   392.1790    92.2330     7.0160     6.6690     6.9330    24.8710    -9.5820 
  236.6250     2.3220   386.9150    92.2330     7.1690     6.8190     7.2850    24.8160    -9.6600 
  236.7500     2.3090   386.0990    92.2330     7.2560     6.9110     7.5960    24.7960    -9.6800 
  236.8750     2.3050   388.2620    92.2330     7.2690     6.9150     7.7300    24.7930    -9.7090 
  237.0000     2.3120   391.6210    92.2330     7.2010     6.8310     7.6610    24.7910    -9.7410 
  237.1250     2.3220   394.7480    92.2330     7.0330     6.6740     7.5380    24.7870    -9.7120 
  237.2500     2.3290   397.1990    92.2330     6.8040     6.4970     7.4780    24.7850    -9.6710 
  237.3750     2.3310   399.5050    92.2330     6.5740     6.3400     7.4230    24.7850    -9.6850 
  237.5000     2.3300   401.7100    92.2330     6.4140     6.2340     7.3530    24.7850    -9.7290 
  237.6250     2.3310   402.9830    92.2330     6.4060     6.2260     7.3720    24.7850    -9.7920 
  237.7500     2.3360   400.7550    92.2330     6.5520     6.3250     7.5120    24.7850    -9.9030 
  237.8750     2.3440   393.2890    92.2330     6.8400     6.5360     7.8840    24.7850   -10.0510 
  238.0000     2.3520   380.9820    92.2330     7.2240     6.8390     8.5130    24.7850   -10.2480 
  238.1250     2.3520   367.2880    92.2330     7.6180     7.1860     8.8480    24.7850   -10.5040 
  238.2500     2.3440   359.0450    92.2330     7.9170     7.4920     9.3200    24.7850   -10.7640 
  238.3750     2.3290   358.8260    92.2330     8.0470     7.6860     9.4240    24.7850   -10.9450 
  238.5000     2.3100   364.5610    92.2330     7.9840     7.7210     9.3430    24.7850   -11.0530 
  238.6250     2.2940   372.3440    92.2330     7.7560     7.5790     9.0430    24.7850   -11.1330 
  238.7500     2.2840   379.4440    92.2330     7.4980     7.3550     8.7870    24.7850   -11.1360 
  238.8750     2.2800   385.7830    92.2330     7.3190     7.1340     8.7200    24.7850   -11.0700 
  239.0000     2.2810   391.0400    92.2330     7.2880     6.9900     8.9910    24.7850   -10.9740 
  239.1250     2.2900   394.5520    92.2330     7.4110     6.9610     9.9090    24.7740   -10.8670 
  239.2500     2.3010   396.6120    92.2330     7.5560     6.9820    10.9460    24.7470   -10.7300 
  239.3750     2.3120   398.2100    92.2330     7.5970     6.9770    11.8650    24.7210   -10.5970 
  239.5000     2.3170   399.8440    92.2330     7.4460     6.8760    11.9700    24.7100   -10.4310 
  239.6250     2.3090   401.5950    92.2330     7.0750     6.6270    10.3540    24.7090   -10.2840 
  239.7500     2.2910   402.5390    92.2330     6.6220     6.2950     8.7680    24.7040   -10.2110 
  239.8750     2.2700   400.4990    92.2330     6.2100     5.9630     8.5290    24.6890   -10.1970 
