~V
VERS. 2.00: Ver 2.00
~W
STRT.M 60.0000:
STOP.M 247.0000:
STEP.M 0.1250:
NULL. -999.2500:
UWI. DF315:
~C
DEPT.M :
DEN.GM/CC :
AC.US/MT :
GR.API :
RML.OHMM :
RI. :
RXO.OHMM :
CALI.CM :
SP.MV :
~A
# ...
  110.0000     2.3190   443.6530    94.2180    13.4330    12.3930    12.9460    24.9270   -16.2230 
  110.1250     2.3400   457.1260   108.3980     9.9250     9.1500     8.2860    24.9530   -16.3510 
  110.2500     2.3620   466.6480   118.1930     7.5980     7.0060     6.0010    24.9500   -16.4120 
  110.3750     2.3810   471.1560   118.9120     6.3130     5.8480     5.2750    24.9240   -16.4230 
  110.5000     2.3900   471.3080   116.8140     5.9250     5.5290     5.4250    24.9040   -16.4250 
  110.6250     2.3820   467.4170   115.7870     6.5100     6.0780     6.3530    24.8900   -16.3880 
  110.7500     2.3590   460.8480   109.4440     7.9010     7.3200     8.1650    24.8510   -16.3180 
  110.8750     2.3240   453.3560    94.6070     9.9900     9.1640    10.7790    24.7690   -16.2380 
  111.0000     2.2840   447.3030    79.8220    12.5170    11.4440    13.8250    24.7100   -16.1560 
  111.1250     2.2480   445.1920    74.7960    15.0070    13.8200    15.7620    24.6910   -16.0170 
  111.2500     2.2230   446.6250    76.6150    17.0290    15.8970    15.7630    24.6910   -15.8900 
  111.3750     2.2110   450.0080    79.0310    18.4640    17.5360    15.1830    24.6910   -15.8050 
  111.5000     2.2080   453.0030    79.6350    19.4760    18.6760    14.8950    24.6910   -15.7230 
  111.6250     2.2070   453.6950    77.2810    20.2910    19.3570    15.2100    24.6950   -15.6400 
  111.7500     2.2050   453.0480    73.6570    20.9000    19.7070    16.4190    24.7180   -15.5760 
  111.8750     2.2030   452.3440    71.7270    20.9650    19.4840    18.3580    24.7680   -15.5350 
  112.0000     2.2060   452.3360    72.0200    20.1200    18.5800    19.3570    24.8210   -15.4850 
  112.1250     2.2190   453.0990    72.5320    18.1990    16.7080    18.4920    24.8940   -15.4970 
  112.2500     2.2380   454.0890    73.6400    15.9070    14.7500    16.7420    24.9900   -15.5520 
  112.3750     2.2530   455.2050    77.0720    13.9350    13.0560    14.2100    25.0680   -15.5700 
  112.5000     2.2550   456.4770    81.5170    12.8220    12.1360    12.3660    25.1040   -15.5820 
  112.6250     2.2400   457.1920    82.9660    13.1030    12.4630    13.5120    25.0750   -15.6190 
  112.7500     2.2140   456.1160    81.7580    14.7460    13.9470    16.8580    24.9540   -15.6550 
  112.8750     2.1880   452.1660    79.6490    17.7630    16.5350    20.2810    24.7530   -15.7060 
  113.0000     2.1720   444.3440    77.6580    21.8900    19.9950    21.8740    24.5870   -15.7410 
  113.1250     2.1830   429.5300    75.9590    26.2880    23.6820    22.0970    24.5310   -15.7650 
  113.2500     2.2270   405.9340    73.5280    29.5190    26.4680    23.0190    24.5220   -15.7870 
  113.3750     2.2990   373.7580    70.6340    30.3520    27.3230    24.8740    24.5240   -15.8220 
  113.5000     2.3860   340.8220    70.3170    28.2140    25.6600    26.8820    24.5350   -15.9120 
  113.6250     2.4510   328.0020    75.6910    23.4440    21.5690    27.6340    24.5570   -15.9740 
  113.7500     2.4740   345.0590    86.5610    18.1370    16.8160    24.2200    24.5840   -16.0340 
  113.8750     2.4560   384.6170    98.1910    13.6810    12.7080    15.6670    24.5920   -16.0660 
  114.0000     2.4160   425.3480   105.8110    10.6910     9.8900     9.0650    24.5730   -16.1380 
  114.1250     2.3700   445.8520   105.1120     9.3030     8.5290     7.7040    24.5170   -16.1790 
  114.2500     2.3310   449.9200    99.8620     8.8970     8.0660     8.2560    24.4700   -16.1900 
  114.3750     2.3000   447.8170    93.6460     9.0880     8.1640     9.3820    24.4520   -16.2140 
  114.5000     2.2800   446.4370    88.7770     9.5010     8.4970    10.4660    24.4500   -16.1800 
  114.6250     2.2750   446.0860    87.0780     9.7530     8.7330    10.6260    24.4790   -16.1560 
  114.7500     2.2800   444.9920    88.9550     9.6770     8.7030     9.8100    24.5660   -16.1250 
  114.8750     2.2930   442.5720    94.1200     9.3100     8.4200     8.5390    24.7030   -16.1090 
  115.0000     2.3100   438.7630   101.4460     8.8070     8.0240     7.8590    24.7900   -16.0580 
  115.1250     2.3330   433.8260   107.6910     8.3430     7.6880     7.9760    24.8130   -16.0080 
  115.2500     2.3610   427.4460   109.7950     8.0230     7.4910     8.2400    24.8130   -15.9850 
  115.3750     2.3860   419.1740   109.5830     7.8610     7.4340     8.2450    24.8070   -15.9390 
  115.5000     2.4010   411.2880   110.3210     7.9000     7.4900     8.4690    24.7900   -15.9300 
  115.6250     2.3980   409.0680   108.0260     8.1120     7.6400     8.8680    24.7570   -15.8890 
  115.7500     2.3850   411.8090   100.6060     8.4570     7.8560     8.9170    24.7420   -15.8420 
  115.8750     2.3700   412.9610    93.2440     8.8150     8.1290     8.6900    24.7380   -15.7900 
  116.0000     2.3610   404.9570    92.2300     9.1630     8.4350     8.8090    24.7380   -15.7530 
  116.1250     2.3580   387.2700    97.8250     9.4760     8.7050     9.2280    24.7470   -15.7330 
  116.2500     2.3560   373.3970   102.1400     9.7350     8.8690     9.5590    24.7800   -15.6650 
  116.3750     2.3510   374.5340   102.7880     9.8840     8.8720     9.4500    24.8450   -15.6100 
  116.5000     2.3440   391.5620   100.8000     9.8260     8.6860     8.8010    24.9230   -15.5460 
  116.6250     2.3380   413.4080    98.8640     9.4420     8.2980     8.2240    24.9550   -15.4820 
  116.7500     2.3350   428.5740    99.7650     8.8200     7.8010     7.8740    24.9630   -15.4330 
  116.8750     2.3370   436.3820   103.8760     8.1010     7.2800     7.5940    24.9620   -15.3840 
  117.0000     2.3410   440.7650   110.4910     7.4850     6.8170     7.2020    24.9540   -15.3500 
  117.1250     2.3430   445.2240   114.0130     7.2080     6.5240     6.8210    24.9340   -15.2850 
  117.2500     2.3390   449.3530   110.1700     7.3020     6.4440     6.6420    24.9150   -15.2530 
  117.3750     2.3290   451.3710   102.1720     7.7510     6.6220     6.8720    24.9080   -15.2390 
  117.5000     2.3120   449.5320    95.9310     8.5060     7.0780     7.5040    24.9070   -15.1980 
  117.6250     2.2980   442.6070    93.6080     9.4810     7.8740     8.5630    24.9070   -15.2010 
  117.7500     2.2970   431.6180    91.1180    10.4400     8.7870    10.0580    24.9100   -15.2070 
  117.8750     2.3140   416.1240    88.6550    11.1380     9.5880    11.8870    24.9120   -15.1900 
  118.0000     2.3440   398.2330    87.7860    11.3560    10.1050    13.2890    24.9050   -15.1730 
  118.1250     2.3740   386.2670    87.7850    10.9060     9.8370    14.1180    24.8900   -15.1760 
  118.2500     2.3910   385.9470    89.3260    10.0710     9.0550    13.2800    24.8700   -15.1460 
  118.3750     2.3950   395.1990    95.2240     9.1540     8.3000    10.4680    24.8430   -15.1110 
  118.5000     2.3900   405.4590   104.4130     8.3410     7.6670     8.4860    24.8240   -15.1240 
  118.6250     2.3850   409.2230   107.8440     7.8840     7.3320     8.1010    24.8150   -15.0940 
  118.7500     2.3780   409.7510   104.9560     7.8100     7.2930     8.2330    24.8100   -15.0540 
  118.8750     2.3670   412.5300   102.3090     8.1760     7.5170     8.3330    24.7830   -15.0510 
  119.0000     2.3500   419.3040   102.4760     8.8280     7.9340     8.4650    24.7140   -15.0090 
  119.1250     2.3270   427.8290   100.7890     9.4360     8.4680     8.7020    24.5960   -14.9900 
  119.2500     2.3040   435.0710    95.9870    10.0550     9.0080     9.0570    24.5340   -15.0090 
  119.3750     2.2860   438.9650    93.0730    10.6020     9.4790     9.4420    24.5310   -14.9810 
  119.5000     2.2740   438.6540    93.8220    10.9910     9.8090     9.7380    24.5860   -14.9470 
  119.6250     2.2690   435.3990    95.6520    11.0880     9.8880     9.7820    24.7030   -14.9350 
  119.7500     2.2680   433.0400    96.1460    10.8830     9.7030     9.4970    24.7830   -14.8990 
  119.8750     2.2710   433.7100    96.7890    10.3790     9.2660     9.1520    24.8100   -14.8570 
