~V
VERS. 2.00: Ver 2.00
~W
STRT.M 100.0000:
STOP.M 292.0000:
STEP.M 0.1250:
NULL. -999.2500:
UWI. DF310:
~C
DEPT.M :
AC.US/MT :
DEN.GM/CC :
GR.API :
CALI.CM :
RXO.OHMM :
RI. :
RML.OHMM :
SP.MV :
~A
# ...
  160.0000   289.1680     2.4270    57.8240    23.8580    14.8080    16.5410    17.9890   -22.6650 
  160.1250   282.4920     2.4380    59.7610    23.8770    15.4040    16.7070    17.6140   -22.8290 
  160.2500   277.4870     2.4420    59.0710    23.9050    16.3180    16.9010    17.3450   -22.9240 
  160.3750   276.3000     2.4450    59.7460    23.9700    16.8950    16.9970    17.3070   -22.9600 
  160.5000   278.9530     2.4470    64.1520    24.0230    16.9510    16.9400    17.4730   -22.9390 
  160.6250   283.2190     2.4480    68.9770    24.0380    16.6880    16.7940    17.6080   -22.8350 
  160.7500   284.8420     2.4460    68.9090    24.0380    16.4820    16.7480    17.6030   -22.6430 
  160.8750   280.7760     2.4460    65.4300    24.0480    16.8120    16.9680    17.6320   -22.3720 
  161.0000   270.7320     2.4540    62.3830    24.0900    18.2770    17.5470    18.0250   -22.0390 
  161.1250   258.4660     2.4680    61.5720    24.2100    20.4250    18.4730    19.1570   -21.6750 
  161.2500   250.0430     2.4750    60.8950    24.3650    22.3050    19.4490    20.7330   -21.3010 
  161.3750   248.1920     2.4660    59.5630    24.4750    23.2940    20.1660    22.1410   -20.9150 
  161.5000   251.8040     2.4440    61.0140    24.5140    23.2290    20.4140    22.6960   -20.5540 
  161.6250   256.5880     2.4220    65.4730    24.5140    22.3910    20.2100    22.1550   -20.2290 
  161.7500   258.2990     2.4130    67.0180    24.5120    21.5190    19.9420    21.3720   -19.9530 
  161.8750   256.1010     2.4280    65.1240    24.5080    21.2030    19.8570    20.9900   -19.7470 
  162.0000   251.9210     2.4620    65.1770    24.5040    21.2100    20.0420    21.2020   -19.6270 
  162.1250   249.8790     2.4960    67.3960    24.5030    22.2090    20.4220    21.6980   -19.5790 
  162.2500   252.3320     2.5160    65.6660    24.5030    23.9740    20.7190    21.9390   -19.5870 
  162.3750   258.8560     2.5250    63.0050    24.5030    25.1450    20.7000    21.7080   -19.6370 
  162.5000   266.8650     2.5230    62.7490    24.4950    24.3660    20.2670    21.0880   -19.7090 
  162.6250   273.0610     2.5070    62.5200    24.4550    22.0320    19.5340    20.3690   -19.8130 
  162.7500   276.7370     2.4890    61.8200    24.3870    20.9430    18.8260    19.7650   -19.9590 
  162.8750   278.6080     2.4810    63.4860    24.3390    21.0110    18.3300    19.3670   -20.1280 
  163.0000   279.1930     2.4790    66.8370    24.3230    20.4370    18.1010    19.2390   -20.3070 
  163.1250   277.7630     2.4780    67.5460    24.3230    19.2980    18.0390    19.3080   -20.5080 
  163.2500   274.6500     2.4830    64.3360    24.3230    19.4330    17.8900    19.2920   -20.7280 
  163.3750   271.8410     2.4980    60.8050    24.3230    20.3730    17.4920    18.9840   -20.9580 
  163.5000   272.4270     2.5110    58.6330    24.3230    20.0280    16.8350    18.3430   -21.2010 
  163.6250   278.3220     2.5060    59.7340    24.3230    17.7710    16.1190    17.5720   -21.4480 
  163.7500   284.9630     2.4880    63.1810    24.3230    15.1470    15.6720    17.0200   -21.6790 
  163.8750   286.5970     2.4690    63.7630    24.3230    13.9400    15.7230    16.9710   -21.9220 
  164.0000   280.1490     2.4620    60.6540    24.3230    15.1720    16.3760    17.5880   -22.1550 
  164.1250   268.8000     2.4680    57.7960    24.3230    19.2390    17.6640    18.9610   -22.3660 
  164.2500   260.9170     2.4690    57.7480    24.3230    24.4720    19.2650    20.6750   -22.5520 
  164.3750   259.2030     2.4560    57.1140    24.3230    27.1520    20.8540    22.1610   -22.7440 
  164.5000   259.9530     2.4410    55.7990    24.3230    25.2970    22.0990    22.8920   -22.9420 
  164.6250   257.2180     2.4500    56.9940    24.3210    22.4650    22.6560    22.6490   -23.1400 
  164.7500   252.9830     2.4740    58.6430    24.3000    22.6090    22.5330    21.9250   -23.3750 
  164.8750   253.3390     2.4920    57.2740    24.2430    24.4910    21.7040    20.9660   -23.6700 
  165.0000   261.5000     2.4950    53.4980    24.1640    24.3610    20.2250    19.7510   -24.0400 
  165.1250   274.1560     2.4870    52.0520    24.1130    20.7160    18.3080    18.1130   -24.4840 
  165.2500   284.5320     2.4810    55.8420    24.0410    17.2340    16.4270    16.2740   -25.0040 
  165.3750   291.1960     2.4770    60.8110    23.9200    15.1770    14.9180    14.6740   -25.6020 
  165.5000   296.1910     2.4700    64.1300    23.7870    13.8600    13.9790    13.7440   -26.2540 
  165.6250   301.4130     2.4580    66.8940    23.7060    13.0590    13.7490    13.8010   -26.9350 
  165.7500   306.0430     2.4530    70.9430    23.6440    13.0060    14.0240    14.5210   -27.6090 
  165.8750   309.1540     2.4610    74.5150    23.6380    13.9090    14.6140    15.5140   -28.2280 
  166.0000   311.6040     2.4700    77.7480    23.7280    15.4500    15.2740    16.3910   -28.7520 
  166.1250   315.3250     2.4600    80.6540    23.8070    16.4530    15.6830    16.8350   -29.1720 
  166.2500   319.6570     2.4410    78.7420    23.8360    16.3680    15.7280    16.8900   -29.4750 
  166.3750   322.2070     2.4310    71.9980    23.8390    15.5510    15.4850    16.7030   -29.6080 
  166.5000   321.2450     2.4360    66.7290    23.8400    15.0830    15.1780    16.4630   -29.5850 
  166.6250   316.5790     2.4480    67.7560    23.8380    15.3730    15.1300    16.4540   -29.4340 
  166.7500   309.4960     2.4600    71.3580    23.8400    16.0870    15.4680    16.8530   -29.1640 
  166.8750   299.8180     2.4710    71.0110    23.8420    17.0800    16.1680    17.6790   -28.7720 
  167.0000   288.3520     2.4800    67.8640    23.8440    18.7830    17.0550    18.7640   -28.2890 
  167.1250   279.9350     2.4890    68.9390    23.8850    21.7920    17.7550    19.6570   -27.7460 
  167.2500   279.1190     2.4940    76.2510    24.0100    23.8540    17.9690    19.9250   -27.1450 
  167.3750   285.7890     2.4900    81.7150    24.1850    23.1070    17.6510    19.4650   -26.5200 
  167.5000   294.7910     2.4730    82.0150    24.2890    20.5030    17.0260    18.5420   -25.9010 
  167.6250   298.8340     2.4500    79.6660    24.3140    17.7960    16.4710    17.6740   -25.2910 
  167.7500   296.9760     2.4320    76.2380    24.3260    17.0800    16.2250    17.2320   -24.6930 
  167.8750   291.7780     2.4250    71.6150    24.3580    17.5930    16.3010    17.3220   -24.1210 
  168.0000   286.0660     2.4290    68.1170    24.3920    18.8470    16.5350    17.8010   -23.5950 
  168.1250   281.8490     2.4440    69.8140    24.4050    19.6620    16.5960    18.1730   -23.1140 
  168.2500   280.3480     2.4600    74.8080    24.4030    19.2510    16.2860    18.0130   -22.7040 
  168.3750   282.4790     2.4730    77.5850    24.3840    17.6400    15.6140    17.3190   -22.3870 
  168.5000   287.4940     2.4810    76.3520    24.3410    15.6320    14.7350    16.3580   -22.1250 
  168.6250   292.7530     2.4820    74.3540    24.3190    14.1810    13.8750    15.4540   -21.9130 
  168.7500   296.5030     2.4710    74.9380    24.3120    13.6730    13.2120    14.8020   -21.7590 
  168.8750   298.9810     2.4530    75.1050    24.3070    13.4980    12.8330    14.4720   -21.6700 
  169.0000   300.1380     2.4380    72.6160    24.2860    13.2910    12.7510    14.4280   -21.6370 
  169.1250   298.1630     2.4370    69.3240    24.2120    13.2560    12.9280    14.6240   -21.6440 
  169.2500   293.9230     2.4480    74.5880    24.1040    13.5320    13.1780    14.9310   -21.6730 
  169.3750   291.1300     2.4610    85.0690    23.9890    14.1130    13.3500    15.2120   -21.7050 
  169.5000   293.4020     2.4690    88.5680    23.9090    14.3060    13.3410    15.3210   -21.7470 
  169.6250   299.7560     2.4720    80.8380    23.8600    13.3460    13.1190    15.1940   -21.7920 
  169.7500   303.3610     2.4750    71.6920    23.8620    12.2300    12.8350    14.9970   -21.8200 
  169.8750   300.5150     2.4730    69.6970    23.9120    11.6780    12.6490    14.9270   -21.8490 
