~V
VERS. 2.00: Ver 2.00
~W
STRT.M 61.0000:
STOP.M 296.0000:
STEP.M 0.1250:
NULL. -999.2500:
UWI. DF312:
~C
DEPT.M :
DEN.GM/CC :
AC.US/MT :
GR.API :
CALI.CM :
RXO.OHMM :
RI. :
RML.OHMM :
SP.MV :
~A
# ...
  291.0000     2.3350   374.6130    90.9830    23.6240     8.6790     8.8040     9.8760   -14.9230 
  291.1250     2.3420   371.6470    90.9830    23.6150     8.8270     8.8040     9.8760   -14.9200 
  291.2500     2.3420   367.4470    90.9830    23.6070     8.9830     8.8040     9.8760   -14.9420 
  291.3750     2.3250   363.1620    90.9830    23.5880     9.1910     8.8040     9.8760   -14.9810 
  291.5000     2.2940   359.5850    90.9830    23.5780     9.4440     8.8040     9.8760   -14.9890 
  291.6250     2.2630   356.4180    90.9830    23.6100     9.6020     8.8040     9.8760   -14.9890 
  291.7500     2.2510   352.2700    90.9830    23.6300     9.8130     8.8040     9.8760  -999.2500 
  291.8750     2.2660   346.1840    90.9830    23.6110    10.1940     8.8040     9.8760  -999.2500 
  292.0000     2.2900   338.3450    90.9830    23.6170    10.8950     8.8040     9.8760  -999.2500 
  292.1250     2.3100   330.3320    90.9830    23.6970    11.7810     8.8040     9.8760  -999.2500 
  292.2500     2.3250   323.9150    90.9830    23.7820    12.4190     8.8040     9.8760  -999.2500 
  292.3750     2.3330   319.6880    90.9830    23.7810    12.8260     8.8040     9.8760  -999.2500 
  292.5000     2.3320   317.3130    90.9830    23.7440    13.2550     8.8040     9.8760  -999.2500 
  292.6250     2.3210   316.4380    90.9830    23.7220    13.9740     8.8040     9.8760  -999.2500 
  292.7500     2.3050   316.9180    90.9830    23.6850    14.3900     8.8040     9.8760  -999.2500 
  292.8750     2.2910   319.2200    90.9830    23.7260    14.5920     8.8040     9.8760  -999.2500 
  293.0000     2.2840   323.4710    90.9830    23.7550    14.7230     8.8040     9.8760  -999.2500 
  293.1250     2.2820   329.0940    90.9830    23.6610    14.6360     8.8040     9.8760  -999.2500 
  293.2500     2.2760   334.5430    90.9830    23.4050    14.5190     8.8040     9.8760  -999.2500 
  293.3750     2.2590   338.7730    90.9830    23.1630    13.8290     8.8040     9.8760  -999.2500 
  293.5000     2.2420   341.3180    90.9830    23.0540    12.3590     8.8040     9.8760  -999.2500 
  293.6250     2.2410   342.2250    90.9830    23.0730    11.0950     8.8040     9.8760  -999.2500 
  293.7500     2.2560   342.4500    90.9830    23.0570    10.9920     8.8040     9.8760  -999.2500 
  293.8750     2.2680   342.5020    90.9830    22.9300    11.1420     8.8040     9.8760  -999.2500 
  294.0000     2.2370   342.5320    90.9830    22.5640    10.6500     8.8040     9.8760  -999.2500 
  294.1250     2.1230   342.5090    90.9830    21.4400     9.2650     8.8040     9.8760  -999.2500 
  294.2500     1.9220  -999.2500    90.9830    19.3900     7.9390     8.8040     9.8760  -999.2500 
  294.3750     1.7020  -999.2500    90.9830    16.8100     6.9270     8.8040     9.8760  -999.2500 
  294.5000     1.5510  -999.2500    90.9830    14.5310     6.3630     8.8040     9.8760  -999.2500 
  294.6250     1.4900  -999.2500    90.9830    13.7770     6.2060     8.8040     9.8760  -999.2500 
  294.7500     1.4800  -999.2500    90.9830    13.5130     6.1640     8.8040     9.8760  -999.2500 
  294.8750     1.4650  -999.2500    90.9830    13.5060     6.1620     8.8040     9.8760  -999.2500 
  295.0000     1.5070  -999.2500    90.9830    13.5000     6.1620     8.8040     9.8760  -999.2500 
  295.1250     1.7030  -999.2500    90.9830    13.4990     6.1620     8.8040     9.8760  -999.2500 
  295.2500     1.9660  -999.2500    90.9830    13.4970     6.1610     8.8040     9.8760  -999.2500 
  295.3750     1.9100  -999.2500    90.9830    13.4970     6.1610     8.8040     9.8760  -999.2500 
  295.5000     1.4870  -999.2500    90.9830    13.4970     6.1610     8.8040     9.8760  -999.2500 
  295.6250     1.1490  -999.2500    90.9830    13.4970     6.1610     8.8040     9.8760  -999.2500 
  295.7500     1.3130  -999.2500  -999.2500  -999.2500  -999.2500  -999.2500  -999.2500  -999.2500 
  295.8750     1.8180  -999.2500  -999.2500  -999.2500  -999.2500  -999.2500  -999.2500  -999.2500 
  296.0000     2.1200  -999.2500  -999.2500  -999.2500  -999.2500  -999.2500  -999.2500  -999.2500 
