~V
VERS. 2.00: Ver 2.00
~W
STRT.M 58.0000:
STOP.M 221.0000:
STEP.M 0.1250:
NULL. -999.2500:
UWI. DF318:
~C
DEPT.M :
DEN.GM/CC :
SP.MV :
AC.US/MT :
GR.API :
CALI.CM :
RXO.OHMM :
RI. :
RML.OHMM :
~A
# ...
  178.0000     2.2340   -15.1860   368.8360    64.7860    24.8430    44.1020    40.8840    45.9220 
  178.1250     2.2400   -15.5090   358.6730    67.2250    24.8530    43.1150    41.2530    46.3200 
  178.2500     2.2330   -15.8060   352.8710    69.8010    24.8280    40.0970    41.5410    46.6370 
  178.3750     2.2290   -16.0660   354.0000    71.5010    24.7280    39.5230    41.6000    46.6370 
  178.5000     2.2550   -16.2890   360.1950    72.7080    24.5570    42.4060    41.1290    45.8660 
  178.6250     2.3070   -16.4760   364.8680    71.9460    24.5750    47.3270    39.7780    43.8530 
  178.7500     2.3590   -16.6240   364.7570    68.6380    24.6140    49.6240    37.4310    40.5200 
  178.8750     2.3850   -16.7250   361.1520    65.3330    24.6370    44.4980    34.3790    36.4220 
  179.0000     2.3810   -16.7830   358.9760    64.7960    24.6350    35.1760    31.5160    32.7830 
  179.1250     2.3680   -16.8200   360.6950    67.0060    24.5630    28.3760    29.5870    30.5300 
  179.2500     2.3680   -16.8620   363.9650    70.1540    24.5240    26.8060    29.1910    30.2980 
  179.3750     2.3880   -16.8930   363.3350    73.5940    24.5830    29.2150    30.9840    32.6730 
  179.5000     2.4340   -16.8860   351.7660    75.0240    24.6330    33.8850    34.2050    36.4990 
  179.6250     2.4950   -16.8750   330.4040    71.5170    24.6540    40.5150    37.0210    39.3310 
  179.7500     2.5610   -16.8470   305.4080    65.5940    24.6750    46.2330    36.3830    37.5810 
  179.8750     2.6120   -16.7980   287.2950    62.9760    24.6970    41.6750    30.0060    30.2570 
  180.0000     2.6140   -16.7190   290.2000    64.3070    24.6310    28.7770    21.6280    22.6570 
  180.1250     2.5670   -16.5420   314.1530    66.0550    24.5390    15.1390    14.4370    14.7130 
  180.2500     2.4920   -16.2490   352.2230    64.8320    24.4260     7.5820     9.5880     9.5440 
  180.3750     2.4190   -15.8830   392.3010    62.4150    24.2660     5.9640     7.0220     6.9130 
  180.5000     2.3800   -15.5200   420.3510    61.3570    24.1140     5.7070     5.7240     5.7010 
  180.6250     2.3740   -15.1510   433.0850    61.7330    24.0420     5.5630     5.3010     5.4500 
  180.7500     2.3890   -14.8310   432.6970    62.8150    24.0260     5.6230     5.5450     5.8610 
  180.8750     2.4070   -14.5870   424.1700    65.1110    24.0140     6.2440     6.3690     6.7390 
  181.0000     2.4170   -14.4210   412.7050    72.0540    23.9820     7.0190     7.4750     7.7640 
  181.1250     2.4200   -14.3570   402.6240    84.0350    23.9410     7.5840     8.6270     8.7210 
  181.2500     2.4170   -14.3970   395.7440    96.5050    23.9390     7.8810     9.5770     9.4270 
  181.3750     2.4070   -14.5290   392.4660   103.0730    24.0020     8.0080    10.0640     9.7110 
  181.5000     2.3960   -14.7210   392.0740   106.0470    24.0690     8.0890    10.1390     9.6760 
  181.6250     2.3940   -14.9600   392.4870   108.2620    24.1040     8.1510     9.9210     9.4640 
  181.7500     2.3990   -15.1950   392.7600   108.3050    24.0830     8.2160     9.5380     9.2060 
  181.8750     2.4050   -15.3780   392.6400   110.0670    24.0480     8.2510     9.0510     8.9580 
  182.0000     2.4010   -15.5500   392.2320   116.6830    24.0120     8.2540     8.5070     8.7030 
  182.1250     2.3940   -15.7660   391.4630   124.1210    23.9980     8.2820     7.9790     8.4720 
  182.2500     2.3960   -16.0090   388.9260   125.2090    23.9890     8.4250     7.6300     8.4400 
  182.3750     2.4210   -16.2120   381.8370   118.7060    24.0020     8.7960     7.7990     9.0790 
  182.5000     2.4730   -16.3510   365.4310   112.6870    24.0420    10.2260     8.7510    10.7940 
  182.6250     2.5300   -16.4100   340.0090   106.4050    24.0690    15.6350    10.9750    14.1430 
  182.7500     2.5720   -16.4410   309.3420    97.3870    24.0990    31.8680    15.2270    19.8190 
  182.8750     2.5880   -16.5120   281.1830    85.3150    24.1490    61.4640    22.9400    29.1570 
  183.0000     2.5700   -16.6170   267.1640    74.2100    24.1400    82.1250    33.7240    41.7390 
  183.1250     2.5230   -16.7390   270.2360    68.4450    24.0700    82.0610    46.0500    55.9680 
  183.2500     2.4470   -16.8840   288.2420    68.0610    24.0140    73.5970    57.5140    68.9170 
  183.3750     2.3550   -17.0910   314.9120    69.3010    24.0580    75.8450    66.5120    78.4420 
  183.5000     2.2760   -17.3500   342.1130    68.8700    24.1150    85.3220    74.5060    86.7990 
  183.6250     2.2270   -17.6580   364.1780    67.1000    24.1130    97.1180    82.8700    96.1910 
  183.7500     2.2020   -17.9600   379.6050    65.4750    24.1830   107.6410    91.6410   106.8690 
  183.8750     2.1870   -18.2250   388.8700    63.6390    24.2820   114.0870    98.6820   115.8400 
  184.0000     2.1780   -18.4650   393.1600    63.4650    24.3480   116.2240   101.9800   119.7870 
  184.1250     2.1840   -18.6680   395.3660    65.5880    24.3240   112.3680   100.7410   117.4770 
  184.2500     2.2070   -18.8380   396.8230    67.3500    24.2580   101.0200    95.6430   110.1580 
  184.3750     2.2360   -18.9720   398.0820    66.0200    24.2040    86.6410    88.4210   100.6990 
  184.5000     2.2490   -19.0610   398.9330    63.8470    24.1610    75.6380    81.6850    92.4210 
  184.6250     2.2390   -19.1620   399.3350    64.6860    24.1080    69.9040    76.9930    86.9730 
  184.7500     2.2140   -19.2850   399.4180    68.8960    24.0220    68.3990    75.2860    85.1620 
  184.8750     2.1950   -19.4180   399.2420    71.1510    23.9300    70.4510    77.3490    87.6720 
  185.0000     2.1980   -19.5590   398.5390    69.7740    23.8600    78.6320    82.0470    93.1610 
  185.1250     2.2080   -19.7070   397.1330    66.1040    23.7790    96.3250    88.2530   100.3350 
  185.2500     2.2140   -19.8500   395.0950    63.4600    23.7270   117.8470    94.5920   107.5250 
  185.3750     2.2110   -19.9970   392.8610    63.1540    23.7550   123.7300    99.8620   113.2310 
  185.5000     2.1970   -20.1720   391.2110    63.9110    23.8540   113.6530   104.4410   118.0500 
  185.6250     2.1750   -20.3300   390.5620    65.5370    23.9560   110.7820   109.5290   123.5370 
  185.7500     2.1540   -20.4820   390.9120    66.2390    24.1000   130.8110   116.3660   131.2070 
  185.8750     2.1470   -20.6190   391.9270    63.8970    24.1870   162.7170   125.6580   141.9530 
  186.0000     2.1550   -20.7470   393.2350    60.1370    24.1730   176.0130   135.7820   153.8060 
  186.1250     2.1660   -20.8350   394.6620    58.3260    24.1590   164.7790   144.4380   163.7510 
  186.2500     2.1730   -20.9230   396.2170    59.9890    24.1850   144.1590   149.5290   168.9300 
  186.3750     2.1780   -20.9990   397.6550    61.8640    24.2290   128.6040   150.0190   168.0980 
  186.5000     2.1830   -21.0980   398.1400    63.2420    24.2550   124.4100   147.8760   164.0090 
  186.6250     2.1870   -21.2120   397.1350    63.4770    24.2570   126.3760   144.2090   158.0790 
  186.7500     2.1870   -21.3200   394.5100    61.9520    24.2440   128.6070   139.3990   150.7630 
  186.8750     2.1830   -21.4020   390.6010    61.7980    24.2390   123.4750   132.9730   141.5840 
  187.0000     2.1820   -21.4420   385.8490    65.0040    24.2160   109.6390   124.8640   130.6910 
  187.1250     2.1870   -21.5080   380.7550    69.4920    24.1910    93.5780   115.3360   118.6950 
  187.2500     2.1950   -21.5740   375.4870    70.2770    24.1410    84.6990   105.2910   106.8680 
  187.3750     2.2040   -21.6730   370.3460    68.6750    24.0650    76.2870    96.1720    96.8840 
  187.5000     2.2190   -21.7550   366.2670    68.4730    23.9800    61.1990    88.5980    88.9220 
  187.6250     2.2350   -21.7790   364.0320    68.1070    23.9170    47.2690    82.3130    82.3330 
  187.7500     2.2400   -21.7420   364.1290    65.3290    23.9090    48.5750    76.6160    76.2300 
  187.8750     2.2320   -21.6730   366.2920    61.2190    23.9650    62.2170    71.1710    70.3900 
