~V
VERS. 2.00: Ver 2.00
~W
STRT.M 57.0000:
STOP.M 261.0000:
STEP.M 0.1250:
NULL. -999.2500:
UWI. DF317:
~C
DEPT.M :
DEN.GM/CC :
SP.MV :
AC.US/MT :
GR.API :
CALI.CM :
RXO.OHMM :
RI. :
RML.OHMM :
~A
# ...
  247.0000     2.2710   -32.7680   371.1040   112.3820    23.2920     8.2400     6.7630     7.6810 
  247.1250     2.2890   -32.6780   371.1400   110.1550    23.1350     7.8550     6.6800     7.6300 
  247.2500     2.2930   -32.5540   372.6700   104.0770    23.1640     7.5370     6.5980     7.5580 
  247.3750     2.2930   -32.3700   375.6950   101.1160    23.1990     7.5680     6.5150     7.4710 
  247.5000     2.2930   -32.1900   378.9600   101.2690    23.3940     7.5230     6.4270     7.3710 
  247.6250     2.2920   -32.1110   380.1160   100.3120    23.4650     7.2880     6.3280     7.2470 
  247.7500     2.2910   -32.1070   377.8410    97.7830    23.4830     7.1420     6.2120     7.1100 
  247.8750     2.2970   -32.0710   376.2280    98.7150    23.4550     7.1420     6.0860     6.9940 
  248.0000     2.3090   -32.0300   379.2380   101.7240    23.3730     7.0130     5.9630     6.9180 
  248.1250     2.3240   -32.0250   386.5800   101.3390    23.2090     6.7240     5.8670     6.8920 
  248.2500     2.3420   -32.0420   393.0490    97.1960    23.1800     6.5140     5.8330     6.9280 
  248.3750     2.3540   -32.0560   394.9990    94.6750    23.1350     6.5720     5.8530     7.0150 
  248.5000     2.3520   -32.0740   392.6160    93.8010    23.1190     6.7050     5.9160     7.1190 
  248.6250     2.3370   -32.0920   387.2470    92.6660    23.1360     6.8970     6.0070     7.2200 
  248.7500     2.3190   -32.1390   380.5330    91.0930    23.1940     7.1420     6.1020     7.2990 
  248.8750     2.3070   -32.1620   376.7190    90.5010    23.2320     7.3930     6.1770     7.3480 
  249.0000     2.3020   -32.1580   379.5680    91.6570    23.2240     7.4470     6.2410     7.3800 
  249.1250     2.3050   -32.1780   387.3330    94.5930    23.1990     7.1620     6.2990     7.4070 
  249.2500     2.3160   -32.1620   391.0200    95.8870    23.1530     6.9550     6.3590     7.4830 
  249.3750     2.3220   -32.1620   386.0060    94.7910    23.1670     7.0310     6.4310     7.5740 
  249.5000     2.3090   -32.1260   376.6980    91.1430    23.1670     7.5100     6.5010     7.6530 
  249.6250     2.2820   -32.0680   370.8910    90.2800    23.1570     8.0460     6.5480     7.6990 
  249.7500     2.2660   -31.9470   372.6290    90.2800    23.1410     8.2130     6.5440     7.6760 
  249.8750     2.2720   -31.8480   377.0950    90.2800    23.0790     8.0220     6.4820     7.5840 
  250.0000     2.2910   -31.7490   380.5870    90.2800    22.9480     7.6040     6.3610     7.4270 
  250.1250     2.3090   -31.6230   382.8950    90.2800    22.9960     7.1730     6.2040     7.2250 
  250.2500     2.3200   -31.4820   386.4050    90.2800    22.9650     7.0470     6.0510     7.0510 
  250.3750     2.3280   -31.3080   391.3930    90.2800    22.8910     6.9570     5.9290     6.9260 
  250.5000     2.3360   -31.1620   395.5440    90.2800    22.9060     6.7860     5.8500     6.8760 
  250.6250     2.3430   -31.0310   395.7650    90.2800    22.8750     6.6030     5.8130     6.8900 
  250.7500     2.3480   -30.9390   391.2440    90.2800    22.8830     6.6630     5.8050     6.9300 
  250.8750     2.3480   -30.8570   386.7680    90.2800    22.9330     6.8210     5.7980     6.9470 
  251.0000     2.3450   -30.7790   385.9870    90.2800    22.9130     7.0770     5.7760     6.9270 
  251.1250     2.3440   -30.6950   389.2770    90.2800    22.9930     7.0910     5.7300     6.8680 
  251.2500     2.3430   -30.6420   393.7920    90.2800    22.9780     6.8150     5.6680     6.7610 
  251.3750     2.3380   -30.6220   396.6100    90.2800    22.9460     6.4850     5.6040     6.6550 
  251.5000     2.3280   -30.5980   397.5210    90.2800    22.9030     6.4380     5.5560     6.5860 
  251.6250     2.3180   -30.5610   397.0160    90.2800    22.8790     6.4900     5.5460     6.5770 
  251.7500     2.3160   -30.5460   394.7830    90.2800    22.9010     6.5680     5.5920     6.6700 
  251.8750     2.3220   -30.4910   390.4740    90.2800    22.8550     6.6900     5.6860     6.8380 
  252.0000     2.3260   -30.4540   384.1940    90.2800    22.8970     6.9340     5.8160     7.0110 
  252.1250     2.3200   -30.4210   377.0000    90.2800    22.8760     7.1880     5.9630     7.1870 
  252.2500     2.3090   -30.3230   371.1970    90.2800    22.8930     7.3730     6.0970     7.3270 
  252.3750     2.3040   -30.1770   368.7360    90.2800    22.9300     7.4990     6.2000     7.4160 
  252.5000     2.3060   -29.9850   369.8940    90.2800    22.9070     7.6310     6.2510     7.4360 
  252.6250     2.3090   -29.7560   373.2680    90.2800    22.9770     7.7450     6.2480     7.3980 
  252.7500     2.3080   -29.4650   379.9340    90.2800    22.9290     7.7490     6.1970     7.3260 
  252.8750     2.3100   -29.1760   383.7320    90.2800    22.9260     7.6450     6.1360     7.2490 
  253.0000     2.3200   -28.8520   385.0670    90.2800    22.9790     7.3370     6.0910     7.2090 
  253.1250     2.3350   -28.5240   382.6290    90.2800    22.8970     6.9460     6.0790     7.1960 
  253.2500     2.3430   -28.2610   377.2920    90.2800    22.9560     6.9610     6.1020     7.1550 
  253.3750     2.3420   -28.0360   372.6470    90.2800    22.8970     7.1730     6.1240     7.1150 
  253.5000     2.3430   -27.7870   372.2290    90.2800    22.9900     7.3190     6.1080     7.0310 
  253.6250     2.3550   -27.5720   377.7160    90.2800    23.1270     7.3280     6.0300     6.8780 
  253.7500     2.3740   -27.4180   388.6010    90.2800    23.1310     7.1980     5.8720     6.6660 
  253.8750     2.3900   -27.3160   400.0660    90.2800    23.0110     6.8620     5.6660     6.4220 
  254.0000     2.3990   -27.2410   405.9960    90.2800    22.9780     6.2210     5.4390     6.1540 
  254.1250     2.4020   -27.1880   405.2990    90.2800    22.9340     5.5820     5.2240     5.9100 
  254.2500     2.3980   -27.1440   402.8670    90.2800    22.9050     5.2970     5.0580     5.7310 
  254.3750     2.3900   -27.0990   407.5440    90.2800    22.8510     5.3390     4.9540     5.6110 
  254.5000     2.3810   -27.1010   419.4460    90.2800    22.7990     5.3470     4.9050     5.5220 
  254.6250     2.3710   -27.1390   431.3770    90.2800    22.8230     5.2140     4.8900     5.4450 
  254.7500     2.3600   -27.1300   433.7810    90.2800    22.7480     4.9630     4.8900     5.3900 
  254.8750     2.3450   -27.1360   423.9900    90.2800    22.5930     4.8310     4.8900     5.3120 
  255.0000     2.3270   -27.1600   414.0110    90.2800    22.4920     4.8350     4.8890     5.2240 
  255.1250     2.3090   -27.1820   412.6520    90.2800    22.4550     4.9440     4.8880     5.1320 
  255.2500     2.2970   -27.2240   419.0340    90.2800    22.4510     4.9100     4.8870     5.0440 
  255.3750     2.2930   -27.2340   422.6180    90.2800    22.4560     4.8190     4.8870     4.9980 
  255.5000     2.2980   -27.2880   417.1410    90.2800    22.4900     4.9140     4.8870     4.9810 
  255.6250     2.3120   -27.2920   404.9750    90.2800    22.4490     5.2740     4.8870     4.9810 
  255.7500     2.3250   -27.3620   391.7710    90.2800    22.4000     5.6840     4.8870     4.9810 
  255.8750     2.3300   -27.3680   381.4660    90.2800    22.3750     5.9860     4.8870     4.9810 
  256.0000     2.3310   -27.3880   373.8990    90.2800    22.3640     6.0740     4.8870     4.9810 
  256.1250     2.3290   -27.3950   368.9560    90.2800    22.2500     6.4360     4.8870     4.9810 
  256.2500     2.3250   -27.3950   367.4470    90.2800    22.2750     6.6170     4.8870     4.9810 
  256.3750     2.3240   -27.3950   369.5490    90.2800    22.2240     6.7140     4.8870     4.9810 
  256.5000     2.3290   -27.3950   371.5520    90.2800    22.1950     6.8640     4.8870     4.9810 
  256.6250     2.3350  -999.2500   370.4000    90.2800    22.1460     7.0860     4.8870     4.9810 
  256.7500     2.3340  -999.2500   366.0300    90.2800    22.0160     7.1300     4.8870     4.9810 
  256.8750     2.3270  -999.2500   362.2270    90.2800    22.0930     7.0860     4.8870     4.9810 
