~V
VERS. 2.00: Ver 2.00
~W
STRT.M 51.0000:
STOP.M 228.0000:
STEP.M 0.1250:
NULL. -999.2500:
UWI. DF314:
~C
DEPT.M :
DEN.GM/CC :
AC.US/MT :
GR.API :
CALI.CM :
RXO.OHMM :
RI. :
RML.OHMM :
SP.MV :
~A
# ...
  151.0000     2.5920   262.3170    53.7780    25.0830    25.6590    19.8080    23.8010   -17.0390 
  151.1250     2.6030   262.5730    49.7580    25.1350    26.1960    20.7780    25.0940   -16.9620 
  151.2500     2.5990   262.2010    46.9440    25.1540    26.6410    20.4980    24.4800   -16.6790 
  151.3750     2.5760   263.0590    48.1880    25.1180    26.0720    18.9450    22.0220   -16.2340 
  151.5000     2.5430   267.0270    52.1220    25.0720    22.9820    16.5670    18.5440   -15.7110 
  151.6250     2.5110   274.9150    54.8100    25.0620    17.7920    14.0050    15.1050   -15.1330 
  151.7500     2.4870   284.3040    56.1240    25.0720    13.5330    11.7040    12.4580   -14.6290 
  151.8750     2.4730   293.0500    56.3380    25.0910    11.3350    10.3220    10.9760   -14.2290 
  152.0000     2.4640   299.8810    56.2310    25.1220    10.7500     9.4940    10.0880   -13.8520 
  152.1250     2.4590   304.0970    56.9720    25.1480    11.1060     9.2110     9.7840   -13.4440 
  152.2500     2.4550   305.8450    55.8570    25.1440    11.8200     9.3060     9.8860   -13.1160 
  152.3750     2.4520   304.7900    51.9420    25.1220    12.6410     9.6670    10.2730   -12.9250 
  152.5000     2.4500   301.1220    48.0060    25.1090    13.3100    10.1670    10.8100   -12.9150 
  152.6250     2.4490   295.8520    49.0510    25.1070    13.6210    10.6790    11.3580   -13.0810 
  152.7500     2.4470   290.8790    51.8770    25.1140    13.7290    11.0860    11.7950   -13.2530 
  152.8750     2.4450   287.2780    51.6490    25.1400    13.7990    11.3280    12.0540   -13.3670 
  153.0000     2.4440   285.2570    48.2150    25.1850    13.8660    11.4080    12.1400   -13.4420 
  153.1250     2.4440   284.2530    46.2020    25.2280    13.8260    11.3870    12.1180   -13.4850 
  153.2500     2.4450   283.5000    48.2600    25.2550    13.7450    11.3840    12.1150   -13.5550 
  153.3750     2.4470   283.1470    51.0750    25.2850    13.8210    11.4630    12.1990   -13.6720 
  153.5000     2.4500   283.6540    52.1890    25.3330    14.2440    11.6370    12.3860   -13.8110 
  153.6250     2.4550   285.3310    53.3250    25.3890    14.9740    11.8630    12.6280   -13.9540 
  153.7500     2.4600   287.3540    53.8360    25.4200    15.5640    12.0670    12.8470   -14.0840 
  153.8750     2.4670   288.4030    53.6980    25.4040    15.6780    12.2260    13.0170   -14.2410 
  154.0000     2.4730   287.0420    54.6610    25.3410    15.3460    12.3470    13.1470   -14.4990 
  154.1250     2.4760   282.7150    56.0050    25.2470    14.9840    12.4490    13.2560   -14.9320 
  154.2500     2.4730   278.0130    55.8950    25.1540    14.9580    12.5410    13.3550   -15.4450 
  154.3750     2.4630   275.6440    54.1450    25.0790    15.2040    12.6330    13.4540   -15.9620 
  154.5000     2.4440   277.1860    53.4480    25.0180    15.3790    12.7250    13.5530   -16.3400 
  154.6250     2.4210   282.4000    53.9730    24.9490    15.3620    12.8110    13.6450   -16.5220 
  154.7500     2.4020   288.1660    55.0560    24.8650    15.6140    12.9260    13.7680   -16.6220 
  154.8750     2.3930   292.1130    56.4270    24.8050    16.3480    13.1150    13.9700   -16.6310 
  155.0000     2.3980   292.9250    57.6510    24.8330    17.2780    13.3860    14.2610   -16.4870 
  155.1250     2.4120   290.5100    59.0840    24.9290    17.9760    13.7140    14.6130   -16.2210 
  155.2500     2.4260   287.2920    59.2210    24.9730    18.3960    14.0330    14.9550   -15.9230 
  155.3750     2.4330   285.4840    58.3220    24.9580    18.5350    14.2770    15.2170   -15.5700 
  155.5000     2.4320   286.4780    58.5510    24.9690    18.4260    14.3700    15.3170   -15.1800 
  155.6250     2.4250   289.9460    59.8310    25.0430    18.2200    14.2430    15.1810   -14.7900 
  155.7500     2.4170   293.1190    59.0720    25.0970    18.0390    13.9670    14.8850   -14.3550 
  155.8750     2.4110   294.2500    56.1930    25.0920    17.9080    13.6340    14.5270   -13.8810 
  156.0000     2.4080   293.3230    54.4940    25.0690    17.8340    13.3540    14.2270   -13.4750 
  156.1250     2.4080   291.8920    55.4000    25.0660    17.7220    13.2340    14.0980   -13.1720 
  156.2500     2.4110   291.1630    56.4210    25.0850    17.5360    13.2330    14.0980   -12.9660 
  156.3750     2.4170   290.6030    56.9300    25.1030    17.3780    13.2810    14.1480   -12.8310 
  156.5000     2.4260   289.0740    56.4570    25.0780    17.2710    13.3370    14.2090   -12.7970 
  156.6250     2.4390   286.1390    55.2120    25.0400    17.0120    13.4210    14.2990   -12.9200 
  156.7500     2.4520   283.2790    56.2780    25.0630    16.6960    13.5600    14.4480   -13.1850 
  156.8750     2.4630   281.8910    59.1280    25.1290    16.6720    13.7520    14.6540   -13.4920 
  157.0000     2.4700   282.4760    60.4370    25.1270    17.1170    13.9630    14.8800   -13.7120 
  157.1250     2.4730   284.3060    58.4240    25.0010    17.6690    14.1340    15.0630   -13.8500 
  157.2500     2.4740   285.6260    57.1170    24.8790    17.9550    14.2520    15.1900   -13.9320 
  157.3750     2.4750   285.4660    58.7020    24.8300    18.1330    14.3520    15.2970   -14.0030 
  157.5000     2.4780   283.6770    61.4440    24.8220    18.4530    14.4650    15.4180   -14.1000 
  157.6250     2.4800   280.7520    63.0880    24.8280    18.7710    14.5660    15.5270   -14.1630 
  157.7500     2.4810   277.7610    61.5840    24.8760    18.7540    14.6130    15.5770   -14.1660 
  157.8750     2.4770   275.2630    56.5810    24.9620    18.3590    14.5980    15.5610   -14.1590 
  158.0000     2.4690   273.4830    52.0630    25.0490    17.8120    14.5550    15.5150   -14.2030 
  158.1250     2.4590   272.8160    52.7390    25.0900    17.5290    14.5260    15.4840   -14.2730 
  158.2500     2.4530   273.7050    54.4790    25.0880    17.6880    14.5070    15.4640   -14.3040 
  158.3750     2.4550   276.6200    53.2160    25.0700    17.9150    14.4650    15.4190   -14.3090 
  158.5000     2.4640   281.0660    50.2490    25.0620    17.7240    14.3840    15.3310   -14.3050 
  158.6250     2.4780   284.7650    50.6640    25.0810    17.2790    14.3180    15.2610   -14.2860 
  158.7500     2.4930   285.4120    53.3950    25.0980    17.4760    14.3340    15.2770   -14.1990 
  158.8750     2.5050   282.5290    56.7330    25.0730    18.4940    14.4260    15.3770   -14.0240 
  159.0000     2.5100   277.7510    59.3490    25.0050    19.5990    14.5110    15.4680   -13.7600 
  159.1250     2.5050   274.4130    58.0980    24.9480    19.5190    14.3870    15.3340   -13.4480 
  159.2500     2.4930   274.4020    54.9510    24.9050    18.2440    13.9450    14.8610   -13.1520 
  159.3750     2.4770   277.5380    53.8990    24.8760    16.3460    13.1990    14.0610   -12.8650 
  159.5000     2.4630   282.3410    54.8830    24.8960    14.4650    12.2920    13.0880   -12.6660 
  159.6250     2.4580   287.0360    53.6940    24.9920    13.1190    11.4600    12.1960   -12.6310 
  159.7500     2.4580   290.6660    51.2660    25.0930    12.4230    10.8650    11.5580   -12.6880 
  159.8750     2.4640   292.8440    50.7380    25.1430    12.3570    10.5850    11.2580   -12.9060 
  160.0000     2.4710   293.1910    52.7010    25.1540    12.7850    10.6190    11.2940   -13.3390 
  160.1250     2.4780   291.0590    56.2980    25.1500    13.6050    10.8950    11.5900   -13.8280 
  160.2500     2.4860   287.0680    58.8740    25.1300    14.5780    11.1940    11.9100   -14.1970 
  160.3750     2.4940   281.9380    59.1360    25.1030    15.2380    11.3720    12.1020   -14.3750 
  160.5000     2.4980   276.4100    57.0510    25.0920    15.0040    11.3900    12.1210   -14.3350 
  160.6250     2.4970   270.9550    54.8180    25.1130    13.8910    11.3250    12.0510   -14.1820 
  160.7500     2.4910   265.9640    52.9770    25.1300    13.1210    11.3020    12.0260   -14.1260 
  160.8750     2.4840   262.3880    51.6470    25.0980    13.4380    11.3270    12.0540   -14.0650 
