~V
VERS. 2.00: Ver 2.00
~W
STRT.M 61.0000:
STOP.M 296.0000:
STEP.M 0.1250:
NULL. -999.2500:
UWI. DF312:
~C
DEPT.M :
DEN.GM/CC :
AC.US/MT :
GR.API :
CALI.CM :
RXO.OHMM :
RI. :
RML.OHMM :
SP.MV :
~A
# ...
  211.0000     2.2130   440.0380    63.4170    24.7720    71.3150    91.7010    98.4720   -23.8770 
  211.1250     2.2770   441.8530    66.4330    24.7320    71.1170    72.4130    78.2450   -23.7200 
  211.2500     2.3250   444.0680    72.3910    24.6470    62.0100    57.0110    62.7950   -23.5620 
  211.3750     2.3530   446.2040    76.9290    24.4680    46.1790    46.6840    52.7000   -23.4040 
  211.5000     2.3640   447.2020    77.2950    24.1020    34.9860    40.8480    47.1500   -23.2570 
  211.6250     2.3560   445.8040    74.0390    23.5890    33.9510    38.6780    45.3430   -23.1950 
  211.7500     2.3390   442.5900    70.3870    23.3260    37.2340    38.4180    45.4210   -23.1990 
  211.8750     2.3230   438.4320    68.1270    23.3200    40.4280    39.1660    46.3230   -23.2360 
  212.0000     2.3170   434.1880    68.6340    23.3890    41.0920    40.1140    47.1710   -23.3230 
  212.1250     2.3180   430.5230    71.0450    23.3900    40.6920    40.5450    47.2760   -23.3980 
  212.2500     2.3180   427.4810    72.0800    23.6430    39.9240    40.3180    46.6230   -23.4680 
  212.3750     2.3180   424.7410    71.6120    24.0620    38.6370    39.5230    45.3660   -23.5840 
  212.5000     2.3210   421.6530    72.6800    24.3580    37.4990    38.3270    43.7150   -23.6520 
  212.6250     2.3250   417.2230    76.0220    24.4220    36.7840    36.8830    41.8630   -23.6700 
  212.7500     2.3230   411.2680    78.1090    24.4210    35.4360    35.4160    40.0730   -23.6520 
  212.8750     2.3210   404.2260    77.6440    24.4240    33.0710    34.1190    38.5980   -23.5690 
  213.0000     2.3190   397.1850    75.8810    24.4090    30.7420    33.2240    37.6900   -23.4660 
  213.1250     2.3200   391.5520    75.8840    24.3620    29.1730    33.0370    37.5480   -23.3530 
  213.2500     2.3330   387.8570    77.2540    24.3220    27.5450    33.3580    37.7360   -23.1580 
  213.3750     2.3680   386.5710    78.1900    24.3370    26.0860    33.6560    37.5830   -22.8690 
  213.5000     2.4140   388.5580    76.2060    24.3600    26.0800    33.0860    36.3320   -22.5710 
  213.6250     2.4370   395.4010    71.6250    24.3920    26.1270    30.6760    33.3160   -22.1770 
  213.7500     2.4310   405.8280    70.2570    24.5090    22.8660    26.9440    29.1540   -21.6790 
  213.8750     2.4180   417.4150    74.5920    24.5990    17.1790    22.8320    24.6690   -21.1800 
  214.0000     2.4130   426.8660    82.0430    24.5700    12.8830    19.2370    20.6890   -20.6660 
  214.1250     2.4100   431.0970    88.1160    24.5040    11.7300    16.7510    17.9050   -20.1100 
  214.2500     2.3940   431.5100    91.6370    24.4770    11.4030    15.1880    16.1920   -19.6170 
  214.3750     2.3750   430.6040    91.5330    24.4420    11.2130    14.3580    15.3180   -19.2110 
  214.5000     2.3660   430.7890    87.6640    24.4190    11.1500    14.0130    14.9590   -18.8380 
  214.6250     2.3720   433.1670    84.5220    24.4330    11.1140    13.8660    14.7890   -18.5770 
  214.7500     2.3840   436.4350    86.4960    24.4450    10.9150    13.6470    14.5650   -18.4590 
  214.8750     2.3970   439.0780    92.0010    24.4020    10.5490    13.3080    14.2600   -18.3980 
  215.0000     2.4110   439.4990    95.2230    24.2980    10.1370    12.9270    13.9650   -18.3760 
  215.1250     2.4300   435.3970    93.9200    24.2530     9.8500    12.6680    13.8480   -18.5000 
  215.2500     2.4500   426.5200    92.2440    24.2420     9.7590    12.6210    13.9710   -18.7090 
  215.3750     2.4660   413.7320    92.4980    24.2750     9.8690    12.7990    14.3240   -18.9210 
  215.5000     2.4670   399.7670    92.9170    24.3190    10.0790    13.1430    14.8580   -19.1670 
  215.6250     2.4510   389.2910    91.5250    24.3080    10.6030    13.6230    15.6130   -19.4410 
  215.7500     2.4300   384.3990    90.6880    24.3130    11.8950    14.3170    16.7670   -19.7210 
  215.8750     2.4090   384.6620    90.8490    24.3870    13.8690    15.4980    18.7520   -20.0300 
  216.0000     2.3850   387.8550    90.8250    24.4740    17.2040    17.6360    22.2040   -20.3800 
  216.1250     2.3460   391.6010    85.6650    24.4840    26.3220    21.8970    28.3580   -20.7540 
  216.2500     2.3010   394.8050    75.9050    24.4280    43.2710    28.9730    37.4180   -21.1570 
  216.3750     2.2670   397.6140    66.6180    24.4290    62.6880    39.1240    48.9960   -21.5890 
  216.5000     2.2550   400.3230    62.1170    24.5480    76.3580    51.0170    61.2230   -22.0160 
  216.6250     2.2570   402.9090    61.1260    24.6690    78.0720    60.5550    70.0140   -22.4610 
  216.7500     2.2560   404.9960    59.7290    24.6860    70.6210    64.6490    73.1150   -22.8540 
  216.8750     2.2550   405.8480    59.6570    24.6410    57.5050    63.2890    70.8250   -23.2090 
  217.0000     2.2700   404.4610    62.1370    24.6060    46.0540    58.8670    65.6320   -23.5150 
  217.1250     2.3130   399.9440    64.7730    24.5580    42.0970    54.3670    60.7500   -23.6480 
  217.2500     2.3600   393.9290    66.4120    24.4880    43.8450    51.4650    57.8860   -23.6660 
  217.3750     2.3860   388.9040    67.6050    24.4410    48.1190    50.5500    57.3210   -23.6510 
  217.5000     2.3870   387.5290    67.8770    24.4480    53.4790    51.5260    58.7460   -23.5970 
  217.6250     2.3850   391.8300    67.9960    24.4010    58.8770    54.0890    61.5810   -23.4930 
  217.7500     2.3890   399.5560    68.1610    24.4360    63.4920    57.1120    64.5950   -23.4240 
  217.8750     2.3830   407.9560    67.4040    24.4700    66.8960    59.7060    66.9330   -23.3720 
  218.0000     2.3560   414.5780    66.5900    24.4680    66.9160    61.2630    68.0930   -23.3280 
  218.1250     2.3220   418.0470    68.3840    24.4910    63.2800    61.5230    67.9580   -23.3540 
  218.2500     2.2940   419.6040    71.5160    24.5130    59.6470    61.1060    67.2540   -23.4410 
  218.3750     2.2740   420.4370    71.8880    24.4680    58.4100    60.5390    66.5410   -23.5600 
  218.5000     2.2600   421.2670    69.3730    24.4020    59.5350    60.2240    66.2240   -23.6850 
  218.6250     2.2570   421.9370    69.4610    24.3370    62.1760    60.4290    66.5810   -23.7950 
  218.7500     2.2580   421.8410    70.8080    24.2920    63.9730    61.0840    67.4850   -23.8970 
  218.8750     2.2560   420.4910    69.6140    24.2540    63.8860    62.1100    68.7980   -23.9690 
  219.0000     2.2510   417.7760    66.4020    24.1830    63.2680    63.3660    70.3030   -24.0260 
  219.1250     2.2580   414.1960    66.1130    24.1000    65.0240    64.5900    71.6610   -24.1160 
  219.2500     2.2720   411.1030    68.2470    24.0290    68.0600    65.4750    72.5880   -24.1880 
  219.3750     2.2790   409.6720    70.1410    23.9780    69.7390    65.8360    72.9770   -24.1970 
  219.5000     2.2720   410.4790    70.0040    23.9390    69.2370    65.7350    72.9930   -24.2290 
  219.6250     2.2630   413.1400    67.6120    23.9060    68.3550    65.6320    73.2440   -24.3320 
  219.7500     2.2600   415.7440    63.5810    23.8850    69.7500    66.2940    74.5310   -24.4290 
  219.8750     2.2650   416.6280    60.5550    23.8850    74.4920    68.5140    77.6000   -24.5430 
  220.0000     2.2770   413.8790    60.4790    23.9490    82.7660    72.9630    82.9710   -24.7230 
  220.1250     2.3050   403.9770    62.2050    24.0680    92.7630    80.2040    90.9370   -24.9340 
  220.2500     2.3390   387.3250    63.4380    24.2220   100.6510    88.9810   100.0340   -25.1460 
  220.3750     2.3670   367.5810    63.4990    24.3360   103.4000    97.5820   108.4040   -25.3940 
  220.5000     2.3730   352.2920    62.4540    24.3470   101.9250   103.9040   113.9350   -25.6840 
  220.6250     2.3450   351.9600    59.5060    24.2690    94.1370   105.5990   114.4850   -25.9480 
  220.7500     2.2990   366.1130    57.4400    24.2210    81.0450   103.3590   111.1480   -26.2550 
  220.8750     2.2560   388.8160    59.4890    24.2280    67.0320    98.5350   105.4440   -26.5940 
