~V
VERS. 2.00: Ver 2.00
~W
STRT.M 58.0000:
STOP.M 221.0000:
STEP.M 0.1250:
NULL. -999.2500:
UWI. DF318:
~C
DEPT.M :
DEN.GM/CC :
SP.MV :
AC.US/MT :
GR.API :
CALI.CM :
RXO.OHMM :
RI. :
RML.OHMM :
~A
# ...
  168.0000     2.3100   -14.5630   355.3690    61.6070    24.6160    29.0730    29.2140    31.9610 
  168.1250     2.2930   -14.5360   363.2590    63.3030    24.6430    26.0910    27.3970    29.7690 
  168.2500     2.2690   -14.4700   370.0560    64.2970    24.6620    24.0160    25.8070    27.9590 
  168.3750     2.2520   -14.3970   373.7810    63.4790    24.6760    22.9480    24.6050    26.6830 
  168.5000     2.2520   -14.2850   374.5900    65.1390    24.6980    22.5970    23.7350    25.8070 
  168.6250     2.2580   -14.1440   375.0020    69.5130    24.7030    22.7080    23.1440    25.2190 
  168.7500     2.2590   -13.9700   376.0390    71.7730    24.7130    22.8650    22.7680    24.8140 
  168.8750     2.2540   -13.7820   377.3830    70.5310    24.7250    22.7470    22.5800    24.5490 
  169.0000     2.2440   -13.6260   378.1040    69.8010    24.7480    22.3410    22.5400    24.4150 
  169.1250     2.2360   -13.4850   378.1650    69.6720    24.7720    22.0900    22.6540    24.4390 
  169.2500     2.2330   -13.3770   377.9920    68.7360    24.7860    22.4890    22.9100    24.6120 
  169.3750     2.2320   -13.2990   378.0510    67.3550    24.7960    23.0530    23.2630    24.8770 
  169.5000     2.2290   -13.2640   378.7530    67.3350    24.8080    23.4070    23.6120    25.1240 
  169.6250     2.2200   -13.2510   380.0490    67.7460    24.8030    23.2160    23.8820    25.2890 
  169.7500     2.2100   -13.2490   381.7370    68.9540    24.7910    23.0470    24.0300    25.3460 
  169.8750     2.2060   -13.2400   383.4480    72.2310    24.7850    23.1820    24.0100    25.2600 
  170.0000     2.2130   -13.1930   384.7060    75.4470    24.7860    23.3750    23.8420    25.0390 
  170.1250     2.2240   -13.1340   385.3920    75.6440    24.7750    23.3250    23.5450    24.6980 
  170.2500     2.2320   -13.0370   385.5890    74.6620    24.7340    22.8100    23.1810    24.3090 
  170.3750     2.2330   -12.9110   385.5200    75.0710    24.6740    21.8640    22.8610    23.9990 
  170.5000     2.2270   -12.7410   385.4570    74.3520    24.5730    20.9810    22.6670    23.8580 
  170.6250     2.2230   -12.5780   385.5800    71.1440    24.5290    20.9750    22.6410    23.9220 
  170.7500     2.2230   -12.4370   385.9580    68.8960    24.5750    22.1610    22.7780    24.1660 
  170.8750     2.2250   -12.3550   386.5410    68.5330    24.6690    23.5220    23.0660    24.5560 
  171.0000     2.2260   -12.3580   387.0680    67.0040    24.7410    23.9100    23.4760    25.0600 
  171.1250     2.2240   -12.4240   387.1520    65.2690    24.7450    23.9190    24.0430    25.7270 
  171.2500     2.2230   -12.5500   386.5860    65.5990    24.7360    24.4480    24.8150    26.6190 
  171.3750     2.2290   -12.7130   385.5310    66.9080    24.6650    26.5340    25.8610    27.8020 
  171.5000     2.2430   -12.9050   383.9940    68.0800    24.5560    29.0920    27.0940    29.1570 
  171.6250     2.2630   -13.1050   381.1190    69.7620    24.5280    31.2440    28.3920    30.5190 
  171.7500     2.2850   -13.3040   375.3050    70.6610    24.6100    32.4350    29.5810    31.6830 
  171.8750     2.3070   -13.4820   365.4130    67.6900    24.7070    32.4330    30.4690    32.4560 
  172.0000     2.3280   -13.6030   351.9320    63.8910    24.7620    32.1980    31.0820    32.9230 
  172.1250     2.3530   -13.6830   338.5800    62.3370    24.7380    32.2990    31.4980    33.2020 
  172.2500     2.3780   -13.7420   328.4900    62.5780    24.6510    33.0420    31.7950    33.3940 
  172.3750     2.3880   -13.7970   323.6710    62.3950    24.5670    33.6150    31.9710    33.4890 
  172.5000     2.3610   -13.8610   325.6780    61.4520    24.6090    33.1500    31.9360    33.3570 
  172.6250     2.3150   -13.9250   333.2160    61.0870    24.6500    32.5040    31.5380    32.8150 
  172.7500     2.2750   -14.0050   345.3450    61.6110    24.6580    32.0610    30.6930    31.7810 
  172.8750     2.2540   -14.1110   359.9620    62.8640    24.5800    30.5290    29.4900    30.3920 
  173.0000     2.2480   -14.2030   373.0180    63.7100    24.4390    27.0580    28.2980    29.0750 
  173.1250     2.2440   -14.2800   381.2050    63.4750    24.4400    23.6670    27.4060    28.1520 
  173.2500     2.2370   -14.3290   383.6390    62.6800    24.5990    23.2610    27.0260    27.8410 
  173.3750     2.2270   -14.3680   381.8880    62.9880    24.7960    26.4030    27.3400    28.2990 
  173.5000     2.2220   -14.4110   378.8420    64.4200    24.8940    29.3610    28.1500    29.2400 
  173.6250     2.2240   -14.4480   376.7640    66.0280    24.9160    30.4010    29.2400    30.3880 
  173.7500     2.2290   -14.4790   375.9690    67.3280    24.9210    30.4640    30.3520    31.4510 
  173.8750     2.2330   -14.4920   376.1570    68.2770    24.9370    30.9650    31.1990    32.1480 
  174.0000     2.2330   -14.5520   377.4740    68.3450    24.9200    31.5630    31.7150    32.4900 
  174.1250     2.2300   -14.6240   380.0950    66.7350    24.9070    31.7670    31.9480    32.5800 
  174.2500     2.2240   -14.7340   383.9460    64.8530    24.8940    31.5540    31.9870    32.5380 
  174.3750     2.2170   -14.8510   388.2890    64.4520    24.9010    31.0800    31.8880    32.4370 
  174.5000     2.2130   -14.9330   391.6770    64.6070    24.9140    30.6180    31.7460    32.3660 
  174.6250     2.2080   -14.9680   393.0560    63.8200    24.9250    30.2530    31.6580    32.4240 
  174.7500     2.2040   -14.9480   391.4700    62.5420    24.9210    30.1510    31.7150    32.6950 
  174.8750     2.2140   -14.8870   385.8050    62.7780    24.9100    30.6080    31.9530    33.2020 
  175.0000     2.2580   -14.7740   374.8990    64.5270    24.8790    31.7690    32.2490    33.7760 
  175.1250     2.3120   -14.6200   361.8090    65.4940    24.8290    33.5560    32.4580    34.2270 
  175.2500     2.3410   -14.4110   351.1530    65.2150    24.7900    34.7240    32.4430    34.3790 
  175.3750     2.3300   -14.1700   347.7400    65.3420    24.7720    33.1850    32.1040    34.1020 
  175.5000     2.2870   -13.9430   354.7380    66.0410    24.7780    30.7560    31.5800    33.5920 
  175.6250     2.2450   -13.7750   367.1240    64.9410    24.7430    29.3240    31.0420    33.0770 
  175.7500     2.2170   -13.6670   379.4460    62.9640    24.7320    29.2270    30.6460    32.7540 
  175.8750     2.2020   -13.6060   387.5200    65.2750    24.7650    29.7150    30.5070    32.7510 
  176.0000     2.1960   -13.5970   389.5940    70.4850    24.8030    30.1520    30.5480    32.9550 
  176.1250     2.1980   -13.6100   388.4330    72.4630    24.8270    30.4120    30.6810    33.2520 
  176.2500     2.2070   -13.6560   386.0240    69.3020    24.8300    30.4130    30.8460    33.5740 
  176.3750     2.2200   -13.6940   383.5120    64.5830    24.8190    30.1300    31.0960    33.9990 
  176.5000     2.2320   -13.7200   381.3720    61.5520    24.8310    30.1650    31.5410    34.6660 
  176.6250     2.2360   -13.7380   379.7240    60.5120    24.8380    30.9540    32.2770    35.6850 
  176.7500     2.2310   -13.7450   378.7000    61.5450    24.8460    32.5470    33.3280    37.0720 
  176.8750     2.2220   -13.7380   378.3960    64.6430    24.8600    34.5760    34.6280    38.7310 
  177.0000     2.2190   -13.7120   378.8940    68.4150    24.8850    36.3370    35.9430    40.3660 
  177.1250     2.2230   -13.7230   379.8950    71.2130    24.8890    37.6050    37.0890    41.7430 
  177.2500     2.2260   -13.7730   381.1760    72.1470    24.8840    38.3330    37.9540    42.7310 
  177.3750     2.2230   -13.8990   382.5540    71.1030    24.8650    38.6450    38.5110    43.3280 
  177.5000     2.2150   -14.0890   383.9370    69.2400    24.8540    38.8400    38.9460    43.7920 
  177.6250     2.2100   -14.3160   384.8040    66.4320    24.8500    39.2890    39.3930    44.2880 
  177.7500     2.2100   -14.5710   383.6270    63.7660    24.8470    40.4660    39.9050    44.8630 
  177.8750     2.2190   -14.8650   378.5570    63.5190    24.8430    42.4540    40.4290    45.4360 
