~V
VERS. 2.00: Ver 2.00
~W
STRT.M 65.0000:
STOP.M 277.0000:
STEP.M 0.1250:
NULL. -999.2500:
UWI. DF311:
~C
DEPT.M :
DEN.GM/CC :
SP.MV :
AC.US/MT :
GR.API :
CALI.CM :
RXO.OHMM :
RI. :
RML.OHMM :
~A
# ...
  235.0000     2.3980   -20.9600   403.8220    52.7120    23.5050     5.4780     5.7970     6.7820 
  235.1250     2.4070   -20.8880   398.8510    50.2240    23.5330     5.6040     5.7550     6.8390 
  235.2500     2.4130   -20.8410   396.2990    47.6530    23.5090     5.7980     5.7360     6.9550 
  235.3750     2.4100   -20.8250   396.6260    49.0240    23.4380     5.9840     5.7060     7.0540 
  235.5000     2.3970   -20.8560   400.1130    52.4220    23.3560     6.0840     5.6160     7.0550 
  235.6250     2.3810   -20.9490   406.4760    54.2230    23.1810     5.9450     5.4150     6.8720 
  235.7500     2.3700   -21.0910   412.3400    56.6050    22.7840     5.5540     5.1240     6.5430 
  235.8750     2.3660   -21.2690   413.7290    62.1180    22.2300     5.0750     4.8010     6.1640 
  236.0000     2.3770   -21.4600   408.0160    70.9020    21.8320     4.7320     4.5280     5.8750 
  236.1250     2.4130   -21.6440   396.1670    79.7300    21.7340     4.5490     4.4160     5.8450 
  236.2500     2.4540   -21.8350   384.9840    85.0130    21.7850     4.5450     4.4930     6.0990 
  236.3750     2.4810   -22.0300   379.2240    83.9330    21.8780     4.9270     4.7600     6.6160 
  236.5000     2.4870   -22.2220   379.9470    78.1150    22.0230     5.7410     5.1690     7.2960 
  236.6250     2.4800   -22.3840   384.8000    74.3680    22.2140     6.6030     5.6100     7.9470 
  236.7500     2.4710   -22.5120   389.8410    74.6310    22.3090     6.9150     5.9440     8.3830 
  236.8750     2.4610   -22.6170   393.8750    77.7760    22.3240     6.8770     6.0940     8.5170 
  237.0000     2.4480   -22.7100   396.7640    83.4850    22.2820     6.8120     6.0650     8.3820 
  237.1250     2.4310   -22.7930   398.3150    90.8890    22.1850     6.8410     5.9230     8.1050 
  237.2500     2.4080   -22.8690   398.8270    97.2710    22.1080     6.7840     5.7790     7.8580 
  237.3750     2.3870   -22.9270   398.6300   102.2940    22.0830     6.6470     5.6810     7.7150 
  237.5000     2.3740   -22.9600   397.9780   107.3930    22.0880     6.5200     5.6430     7.6850 
  237.6250     2.3710   -23.0000   396.8200   111.8400    22.1060     6.4890     5.6690     7.7620 
  237.7500     2.3720   -23.0460   395.2400   113.7520    22.1140     6.5410     5.7400     7.9000 
  237.8750     2.3740   -23.0870   393.3860   112.7990    22.0860     6.5670     5.8490     8.0760 
  238.0000     2.3770   -23.1130   391.3230   109.6460    21.9640     6.5610     5.9900     8.2730 
  238.1250     2.3780   -23.1080   388.6260   107.7590    21.7010     6.6490     6.1550     8.4810 
  238.2500     2.3800   -23.0760   385.1200   108.3930    21.6010     6.8420     6.3140     8.6770 
  238.3750     2.3850   -23.0210   381.6470   109.0910    21.8020     7.0580     6.4360     8.8290 
  238.5000     2.3930   -22.9480   380.1540   108.1300    22.1920     7.3450     6.4980     8.9120 
  238.6250     2.3950   -22.8490   382.7880   106.5580    22.4800     7.6060     6.4830     8.9030 
  238.7500     2.3860   -22.7440   387.8680   105.5640    22.6630     7.6430     6.4280     8.8280 
  238.8750     2.3740   -22.6250   392.9860   104.5640    22.8430     7.3590     6.3640     8.7120 
  239.0000     2.3690   -22.5090   396.5970   102.1550    23.0120     7.1140     6.3240     8.5910 
  239.1250     2.3690   -22.3760   398.0690   100.9090    23.0740     7.2100     6.3460     8.5220 
  239.2500     2.3670   -22.2350   397.3020   104.4840    23.0480     7.2610     6.4360     8.5380 
  239.3750     2.3600   -22.0930   394.2670   109.5240    22.9460     7.1460     6.6110     8.6880 
  239.5000     2.3540   -21.9540   390.3980   109.3290    22.8120     7.2080     6.9140     9.0460 
  239.6250     2.3520   -21.8210   388.0620   104.2690    22.6490     7.9090     7.4430     9.7530 
  239.7500     2.3580   -21.6820   388.3890   100.4420    22.6050     8.9050     8.2020    10.7840 
  239.8750     2.3680   -21.5570   389.2100    99.9470    22.7000     9.6210     9.1250    12.0340 
  240.0000     2.3740   -21.4480   405.7250   101.8360    22.8880    10.1750    10.0180    13.2350 
  240.1250     2.3670   -21.3850   422.8740   105.5760    22.9760    11.0300    10.4780    13.8430 
  240.2500     2.3510   -21.3530   436.5280   105.3130    23.0010    11.6480    10.3150    13.5880 
  240.3750     2.3340   -21.3530   443.7910   100.9410    23.0010    11.0260     9.5950    12.5490 
  240.5000     2.3230   -21.3740   447.0210    97.5170    23.0530     9.5170     8.6390    11.1770 
  240.6250     2.3270   -21.4230   449.3500    98.1770    23.2130     8.4670     7.9100    10.1590 
  240.7500     2.3380   -21.5270   452.0570    98.1990    23.4330     8.2640     7.7220     9.9520 
  240.8750     2.3510   -21.6630   452.3220    93.2990    23.5350     8.5290     8.3470    10.9090 
  241.0000     2.3690   -21.8260   440.6000    84.0290    23.5540     9.6130    10.1610    13.4300 
  241.1250     2.3980   -22.0350   408.7690    74.2710    23.5550    13.8030    14.2760    18.6550 
  241.2500     2.4130   -22.2590   380.0420    67.3330    23.5560    22.6200    21.6350    27.4880 
  241.3750     2.3870   -22.4920   381.2600    62.8650    23.5540    37.6010    33.4630    41.5290 
  241.5000     2.3790   -22.7410   415.7790    60.1160    23.5490    54.6200    49.9330    61.8400 
  241.6250     2.2820   -23.0050   455.8060    59.1450    23.4740    64.1410    68.2110    85.8200 
  241.7500     2.2480   -23.2440   474.9500    59.4690    23.3120    66.4120    83.0990   104.8860 
  241.8750     2.2240   -23.4560   470.6650    61.2010    23.1590    67.2870    92.7250   115.2420 
  242.0000     2.2010   -23.6440   450.1650    63.7210    23.0960    69.6350    97.9840   119.2270 
  242.1250     2.1870   -23.7670   423.7290    64.4880    23.0960    76.1770    99.4560   119.1700 
  242.2500     2.1970   -23.8570   403.3410    62.8860    23.0960    84.3550    97.3180   115.1250 
  242.3750     2.2210   -23.9150   393.6070    60.8640    23.0960    86.6900    91.1590   106.1840 
  242.5000     2.2430   -23.9420   392.4850    60.5690    23.0870    78.0830    82.0610    93.9360 
  242.6250     2.2490   -23.9350   396.0560    63.2280    23.0520    62.6780    72.8270    82.3070 
  242.7500     2.2350   -23.8910   401.5410    64.9550    22.9820    47.5100    65.8420    73.8040 
  242.8750     2.2150   -23.8280   408.0360    64.4100    22.9060    37.4700    61.7960    68.8570 
  243.0000     2.1990   -23.7470   413.9080    63.6700    22.8840    36.3490    60.2610    66.8210 
  243.1250     2.1920   -23.6620   416.7380    65.2660    22.9730    42.5260    59.9800    66.2760 
  243.2500     2.1930   -23.5670   416.4160    67.2120    23.0830    48.1550    59.0530    64.9860 
  243.3750     2.2020   -23.4640   414.2650    68.8460    23.1300    47.3220    56.3470    61.5800 
  243.5000     2.2180   -23.3690   412.1110    72.0300    23.1230    41.4720    51.6020    55.8300 
  243.6250     2.2340   -23.2790   410.5720    75.5720    23.0630    35.7740    45.6330    48.8720 
  243.7500     2.2400   -23.2070   408.6630    76.6240    23.0080    31.7810    40.1460    42.6620 
  243.8750     2.2380   -23.1590   406.3160    76.7430    22.9850    28.1680    36.1100    38.1860 
  244.0000     2.2330   -23.1130   404.9340    77.5700    22.9800    24.4880    33.9890    35.8650 
  244.1250     2.2260   -23.0950   406.4180    77.8170    22.9810    21.7310    34.4070    36.3270 
  244.2500     2.2190   -23.0980   409.5750    75.1990    22.9820    22.4040    37.1870    39.3590 
  244.3750     2.2110   -23.1190   412.0610    72.0800    22.9820    27.6150    42.2790    44.9550 
  244.5000     2.2020   -23.1560   411.9410    69.9660    22.9780    36.3360    49.1640    52.6520 
  244.6250     2.1920   -23.1970   408.9850    67.3530    22.9580    44.9000    56.3010    60.7920 
  244.7500     2.1840   -23.2500   405.8440    64.5880    22.9030    48.7700    61.4310    66.5700 
  244.8750     2.1850   -23.2990   404.0790    63.3480    22.8140    46.5520    63.3030    68.3530 
