~V
VERS. 2.00: Ver 2.00
~W
STRT.M 61.0000:
STOP.M 296.0000:
STEP.M 0.1250:
NULL. -999.2500:
UWI. DF312:
~C
DEPT.M :
DEN.GM/CC :
AC.US/MT :
GR.API :
CALI.CM :
RXO.OHMM :
RI. :
RML.OHMM :
SP.MV :
~A
# ...
  171.0000     2.4310   382.2610   108.8850    24.3390     7.2670     7.4700     8.5600   -10.8880 
  171.1250     2.4210   381.7240   107.1410    24.3020     7.3060     7.6280     8.7650   -10.8020 
  171.2500     2.4120   381.6040   106.2620    24.2270     7.4810     7.6550     8.8280   -10.6080 
  171.3750     2.4040   381.9660   106.2350    24.1470     7.5850     7.5550     8.7480   -10.3940 
  171.5000     2.3950   383.4240   105.9020    24.1270     7.4540     7.3410     8.5370   -10.1520 
  171.6250     2.3840   386.8750   106.2950    24.1890     7.1420     7.0440     8.2080    -9.9230 
  171.7500     2.3730   391.7500   107.7060    24.2830     6.8020     6.7450     7.8420    -9.7240 
  171.8750     2.3600   396.9370   109.2080    24.3390     6.5530     6.5090     7.5200    -9.5870 
  172.0000     2.3440   401.1650   109.8410    24.3690     6.4620     6.3840     7.3200    -9.5590 
  172.1250     2.3310   403.3680   106.8110    24.3820     6.6590     6.4040     7.3170    -9.6990 
  172.2500     2.3290   403.9870   101.9120    24.3580     7.0710     6.5150     7.4570    -9.9000 
  172.3750     2.3400   403.6780    98.1000    24.2780     7.4060     6.6540     7.6640   -10.0710 
  172.5000     2.3540   403.1830    95.4950    24.2170     7.4950     6.7550     7.8380   -10.1690 
  172.6250     2.3620   403.1640    94.8550    24.1660     7.4370     6.7630     7.8840   -10.1730 
  172.7500     2.3670   403.5850    97.1820    24.1180     7.2880     6.7120     7.8150   -10.1440 
  172.8750     2.3770   404.0100   101.5970    24.1160     7.0890     6.6520     7.6930   -10.0330 
  173.0000     2.3910   403.9240   105.3350    24.2220     7.0240     6.6480     7.5990    -9.8670 
  173.1250     2.3980   403.0600   106.8110    24.3860     7.1630     6.7550     7.6230    -9.7390 
  173.2500     2.3980   402.0190   106.3600    24.4920     7.3990     6.9450     7.7640    -9.6690 
  173.3750     2.3920   401.4630   102.5390    24.5160     7.6290     7.1760     7.9860    -9.6690 
  173.5000     2.3770   401.6260    98.0450    24.4680     7.8430     7.4110     8.2390    -9.7960 
  173.6250     2.3530   401.7230    99.0700    24.3870     8.0100     7.6410     8.4800   -10.0540 
  173.7500     2.3330   400.5380   102.2110    24.2590     8.2330     7.8750     8.7070   -10.3340 
  173.8750     2.3310   397.6750   101.5990    24.1330     8.6590     8.1080     8.9350   -10.6220 
  174.0000     2.3390   393.8680    95.4030    24.1070     9.3420     8.3080     9.1630   -10.8610 
  174.1250     2.3370   391.1330    88.8580    24.2080     9.5100     8.3920     9.3350   -10.9750 
  174.2500     2.3250   390.9790    87.3960    24.3400     8.9740     8.3110     9.3770   -10.9840 
  174.3750     2.3170   393.7780    91.2400    24.3980     8.1430     8.0560     9.2320   -10.8660 
  174.5000     2.3200   398.8840    96.1070    24.4020     7.4800     7.6720     8.8980   -10.6300 
  174.6250     2.3320   405.0560    96.6730    24.3790     7.0830     7.2410     8.4320   -10.3420 
  174.7500     2.3460   410.7510    95.8480    24.3810     6.8550     6.8640     7.9690   -10.0620 
  174.8750     2.3630   414.9290    96.1980    24.4190     6.7360     6.6020     7.5950    -9.8440 
  175.0000     2.3760   416.7260    98.4570    24.4770     6.7050     6.4890     7.3700    -9.7410 
  175.1250     2.3830   415.1510   101.0140    24.5300     6.7730     6.5660     7.3560    -9.7790 
  175.2500     2.3870   410.7880   101.7800    24.5420     7.0000     6.8130     7.5420    -9.9880 
  175.3750     2.3950   404.3860    99.3440    24.5430     7.3840     7.2300     7.9330   -10.4190 
  175.5000     2.4070   397.2460    97.2090    24.5340     8.0370     7.7880     8.5130   -11.0090 
  175.6250     2.4130   391.3850    96.4580    24.5160     8.9980     8.4010     9.2160   -11.6790 
  175.7500     2.4040   388.3590    93.1850    24.4540    10.0250     8.9150     9.8680   -12.4550 
  175.8750     2.3770   388.9800    86.8490    24.3670    10.6130     9.1990    10.3020   -13.2780 
  176.0000     2.3440   392.9310    81.9420    24.2960    10.5550     9.1890    10.4030   -14.0450 
  176.1250     2.3220   398.5840    82.9400    24.2280    10.2850     8.9410    10.1500   -14.7650 
  176.2500     2.3180   402.4050    86.1970    24.1860    10.0270     8.7290     9.8110   -15.4640 
  176.3750     2.3300   400.8800    87.1010    24.1670    10.0850     8.7880     9.6660   -16.0600 
  176.5000     2.3600   391.4980    85.0030    24.1430    10.7490     9.2660     9.9540   -16.5760 
  176.6250     2.4040   374.7150    81.7140    24.1280    12.8220    10.2040    10.8270   -17.0570 
  176.7500     2.4410   358.5360    78.7550    24.1290    16.7170    11.2460    11.9600   -17.4240 
  176.8750     2.4490   350.6740    76.9210    24.0870    19.8220    11.9330    12.9000   -17.7240 
  177.0000     2.4250   355.1690    77.2920    24.0090    18.8420    11.9360    13.2050   -18.0310 
  177.1250     2.3840   369.5350    79.3030    23.9400    14.5160    11.3690    12.6810   -18.2900 
  177.2500     2.3520   382.6140    80.7050    23.9150    11.8120    10.8410    11.8910   -18.4180 
  177.3750     2.3410   387.3590    82.0190    23.9280    11.4220    10.6860    11.3690   -18.4260 
  177.5000     2.3490   383.0230    83.4670    23.9260    12.7590    10.9760    11.4220   -18.2940 
  177.6250     2.3630   375.6930    81.1800    23.9100    14.7010    11.4770    11.9780   -17.9100 
  177.7500     2.3700   373.7870    76.6220    23.9000    15.6070    11.6030    12.4190   -17.2670 
  177.8750     2.3750   380.3790    74.8420    23.9620    14.0670    10.9650    12.2180   -16.3410 
  178.0000     2.3880   393.6560    79.2080    24.0580    10.7210     9.6690    11.1770   -15.1980 
  178.1250     2.4110   408.2510    89.7150    24.1260     8.1030     8.2410     9.5650   -13.9530 
  178.2500     2.4300   419.0010   101.2450    24.1070     6.8360     7.1230     8.0650   -12.6970 
  178.3750     2.4350   424.4560   108.3160    23.9650     6.4200     6.4260     7.0360   -11.4700 
  178.5000     2.4380   425.7980   107.3240    23.8820     6.2860     6.1210     6.5630   -10.3340 
  178.6250     2.4450   425.5040   100.3320    23.9070     6.1150     6.1190     6.5750    -9.3330 
  178.7500     2.4420   425.9770    95.4670    24.0270     5.9310     6.1960     6.7640    -8.5740 
  178.8750     2.4200   427.8830    94.7230    24.1950     5.7330     6.2010     6.9220    -8.0620 
  179.0000     2.3900   430.9730    95.4220    24.3230     5.5030     6.0660     6.9100    -7.6930 
  179.1250     2.3710   434.2420    96.2820    24.3780     5.2430     5.8200     6.6770    -7.4400 
  179.2500     2.3630   436.0800    97.3440    24.3690     4.9580     5.5830     6.3640    -7.2760 
  179.3750     2.3620   435.0740    98.6190    24.3270     4.7610     5.4400     6.1030    -7.1690 
  179.5000     2.3620   430.6530    99.7240    24.2880     4.8530     5.4360     6.0010    -7.1050 
  179.6250     2.3530   423.7540   100.5680    24.2920     5.4090     5.5820     6.1270    -7.1530 
  179.7500     2.3370   417.5710   100.0910    24.3120     6.0000     5.7860     6.3940    -7.2210 
  179.8750     2.3210   414.4630    97.3140    24.3090     6.1960     5.9610     6.6950    -7.3040 
  180.0000     2.3070   415.3210    94.2080    24.3030     5.9840     6.0370     6.9170    -7.4570 
  180.1250     2.2960   419.3420    93.9120    24.2660     5.7750     5.9810     6.9660    -7.6420 
  180.2500     2.2890   423.7020    95.9210    24.2050     5.6970     5.8590     6.8910    -7.8190 
  180.3750     2.2860   426.8450    98.5610    24.1250     5.6960     5.7300     6.7650    -7.9670 
  180.5000     2.2820   428.3580    99.9600    24.0720     5.7280     5.6410     6.6660    -8.0830 
  180.6250     2.2770   428.5640    98.1470    24.0710     5.8150     5.6140     6.6520    -8.1600 
  180.7500     2.2730   428.1790    95.7220    24.0920     5.9400     5.6290     6.7100    -8.2060 
  180.8750     2.2720   427.2410    95.5190    24.1670     6.0530     5.6700     6.8120    -8.2360 
