~V
VERS. 2.00: Ver 2.00
~W
STRT.M 56.0000:
STOP.M 209.0000:
STEP.M 0.1250:
NULL. -999.2500:
UWI. DF316:
~C
DEPT.M :
GR.API :
CALI.CM :
RXO.OHMM :
RI. :
RML.OHMM :
SP.MV :
DEN.GM/CC :
AC.US/MT :
~A
# ...
  176.0000    48.6390    22.5700     5.9840     6.7110     7.2480   -13.8880     2.3390   385.0690 
  176.1250    50.5780    22.9800     4.1480     5.4730     5.9100   -13.8920     2.2830   439.4430 
  176.2500    51.1710    23.1470     3.5400     4.8100     5.1950   -13.9100     2.2570   465.2000 
  176.3750    48.2700    23.4090     3.3880     4.6320     5.0030   -13.9620     2.2480   469.7580 
  176.5000    46.3940    23.4950     3.2760     4.6770     5.0510   -14.0460     2.2490   468.7610 
  176.6250    48.6260    23.5040     3.2580     4.9200     5.3130   -14.1820     2.2650   464.5360 
  176.7500    54.4920    23.4790     3.4810     5.2140     5.6310   -14.3620     2.2940   460.2260 
  176.8750    59.7920    23.5170     3.8990     5.6240     6.0730   -14.5610     2.3270   458.4820 
  177.0000    62.8010    23.6960     4.3080     6.1520     6.6440   -14.7740     2.3540   452.1910 
  177.1250    66.5930    23.7290     5.3380     6.6410     7.1720   -15.0100     2.3680   434.9440 
  177.2500    72.3420    23.8300     6.9290     7.1160     7.6850   -15.2510     2.3740   411.1650 
  177.3750    76.9230    23.8850     8.2990     7.5090     8.1100   -15.4990     2.3770   395.3540 
  177.5000    77.5750    23.9240     8.8430     7.9400     8.5750   -15.7330     2.3800   391.2050 
  177.6250    77.9480    24.0010     9.1130     8.3360     9.0030   -15.9440     2.3830   393.4800 
  177.7500    83.2670    24.0370     9.2030     8.6620     9.3550   -16.1170     2.3850   395.7510 
  177.8750    94.3280    24.0280     8.9860     8.9360     9.6500   -16.2630     2.3850   397.1780 
  178.0000   104.4060    23.9670     8.7870     9.0990     9.8270   -16.3760     2.3830   398.8960 
  178.1250   108.6600    23.9240     8.7040     9.1650     9.8980   -16.4470     2.3770   398.3630 
  178.2500   109.0910    23.9320     8.7020     8.9710     9.6890   -16.4850     2.3710   394.9650 
  178.3750   109.2390    24.0040     8.7550     8.5040     9.1840   -16.4790     2.3700   392.4200 
  178.5000   109.9160    23.8870     8.7700     8.1410     8.7920   -16.4480     2.3700   393.5790 
  178.6250   109.8870    23.7520     8.7190     7.9380     8.5730   -16.3980     2.3660   396.9130 
  178.7500   107.1690    23.7600     8.3680     8.1040     8.7520   -16.3270     2.3670   400.1140 
  178.8750    99.0450    23.5660     7.7370     8.9300     9.6450   -16.2310     2.3800   401.0220 
  179.0000    86.2190    23.2450     7.6600    10.5970    11.4440   -16.1130     2.4010   393.3640 
  179.1250    74.1010    23.1690    10.3370    13.1640    14.2170   -15.9990     2.4180   372.7590 
  179.2500    67.3400    23.2310    17.3390    16.6410    17.9720   -15.8870     2.4200   344.2490 
  179.3750    65.6070    23.7840    28.0810    21.0830    22.7690   -15.7860     2.4060   324.9950 
  179.5000    65.1560    24.1230    39.3560    25.7950    27.8580   -15.6900     2.3880   323.8680 
  179.6250    65.0880    24.2190    48.2220    30.2940    32.7170   -15.5910     2.3740   334.9320 
  179.7500    66.1100    24.2490    52.4720    34.0340    36.7560   -15.4850     2.3590   346.5490 
  179.8750    65.8300    24.3080    49.0500    36.0730    38.9590   -15.3860     2.3360   352.8820 
  180.0000    63.5830    24.3150    45.2530    36.8840    39.8350   -15.2950     2.3090   358.1730 
  180.1250    62.2740    24.3210    46.7560    36.9570    39.9140   -15.2050     2.2940   363.5840 
  180.2500    64.3280    24.2550    47.9010    36.8730    39.8230   -15.1140     2.2920   367.9530 
  180.3750    68.2760    24.2500    41.2880    36.7300    39.6680   -15.0190     2.2930   370.5830 
  180.5000    68.7310    24.2540    38.7880    36.6260    39.5560   -14.9370     2.2890   372.5470 
  180.6250    65.3930    24.3060    39.6990    36.7640    39.7050   -14.8930     2.2770   370.7170 
  180.7500    61.5780    24.3280    40.2810    37.3370    40.3230   -14.8920     2.2650   363.6080 
  180.8750    59.3250    24.3130    41.5220    38.4700    41.5470   -14.9030     2.2560   357.2150 
  181.0000    59.3440    24.2820    46.1470    39.9010    43.0930   -14.9110     2.2530   359.4360 
  181.1250    61.7470    24.2470    52.1680    41.3580    44.6670   -14.9160     2.2600   370.1940 
  181.2500    67.5080    24.2440    55.1960    42.8650    46.2940   -14.9260     2.2690   381.7790 
  181.3750    69.6900    24.2710    52.6250    44.3560    47.9040   -14.9210     2.2700   386.7540 
  181.5000    64.3620    24.3230    52.0680    46.1140    49.8030   -14.8680     2.2640   386.7230 
  181.6250    58.0450    24.3220    57.8330    48.2250    52.0840   -14.7360     2.2680   383.8650 
  181.7500    57.2820    24.2540    63.6750    50.3200    54.3460   -14.5550     2.2870   378.3670 
  181.8750    59.0710    24.2440    62.2750    52.7280    56.9460   -14.3510     2.3110   368.5360 
  182.0000    57.1190    24.2490    60.6940    55.5230    59.9650   -14.1420     2.3330   356.2950 
  182.1250    56.1890    24.3030    63.7210    58.3850    63.0560   -13.9310     2.3430   342.4470 
  182.2500    60.3480    24.3290    71.7660    60.6890    65.5440   -13.7090     2.3360   328.3930 
  182.3750    64.9920    24.3180    78.9410    61.9490    66.9050   -13.4760     2.3100   321.9880 
  182.5000    65.1500    24.2860    79.4770    62.6310    67.6410   -13.2740     2.2770   329.5980 
  182.6250    63.3300    24.2500    72.4870    63.4400    68.5150   -13.1280     2.2590   348.8980 
  182.7500    62.2830    24.2530    67.8120    64.9790    70.1770   -13.0050     2.2590   367.5500 
  182.8750    60.0360    24.3160    74.0150    68.0630    73.5080   -12.8910     2.2630   374.1100 
  183.0000    55.8040    24.3080    80.9860    73.1350    78.9860   -12.7780     2.2620   373.3550 
  183.1250    51.9420    24.3120    82.4990    80.8840    87.3550   -12.6810     2.2600   371.8400 
  183.2500    50.7730    24.2520    90.2220    91.1570    98.4490   -12.6070     2.2590   372.0430 
  183.3750    51.7730    24.2500   128.7270   102.6160   110.8250   -12.5970     2.2550   373.7890 
  183.5000    52.8560    24.2850   159.8100   112.1080   121.0760   -12.6070     2.2480   376.4040 
  183.6250    53.0830    24.3150   169.1610   117.0350   126.3980   -12.6280     2.2490   379.6560 
  183.7500    52.7340    24.3130   169.7490   116.2930   125.5960   -12.6670     2.2590   382.8860 
  183.8750    50.8030    24.2910   182.0760   109.9780   118.7770   -12.7250     2.2690   384.9910 
  184.0000    47.3980    24.2470   185.6590   100.6230   108.6730   -12.7930     2.2710   385.4970 
  184.1250    45.4860    24.2440   160.7040    91.5360    98.8590   -12.8420     2.2680   384.3500 
  184.2500    49.3400    24.2400   108.9040    85.3260    92.1520   -12.8760     2.2660   381.9870 
  184.3750    58.0930    24.2280    75.6170    83.9200    90.6340   -12.8560     2.2600   380.1630 
  184.5000    62.6070    24.0640    70.1070    87.2100    94.1870   -12.8400     2.2490   379.9790 
  184.6250    59.9810    24.1200    79.5040    94.2880   101.8310   -12.8020     2.2350   381.0620 
  184.7500    53.9030    24.1550    95.5220   103.3970   111.6690   -12.7400     2.2260   381.0090 
  184.8750    49.4020    24.1600   169.0870   112.3830   121.3740   -12.6580     2.2250   378.9720 
  185.0000    48.0480    24.1460   238.6520   119.4250   128.9790   -12.5710     2.2290   378.3580 
  185.1250    49.3510    24.0600   252.9400   122.4970   132.2960   -12.5010     2.2360   381.2830 
  185.2500    51.8130    24.0360   218.5310   121.0030   130.6830   -12.4450     2.2450   387.0550 
  185.3750    55.0410    24.0600   179.8320   117.0280   126.3900   -12.4230     2.2510   391.4490 
  185.5000    57.8820    24.1420   136.2330   112.6810   121.6950   -12.3960     2.2500   392.2510 
  185.6250    58.2260    24.1390   106.3760   109.2720   118.0140   -12.3920     2.2400   391.1380 
  185.7500    55.4370    24.0290   105.0000   108.1250   116.7750   -12.4240     2.2280   390.3340 
  185.8750    51.9960    24.0030   128.7020   109.0490   117.7730   -12.4990     2.2160   389.5640 
