~V
VERS. 2.00: Ver 2.00
~W
STRT.M 60.0000:
STOP.M 247.0000:
STEP.M 0.1250:
NULL. -999.2500:
UWI. DF315:
~C
DEPT.M :
DEN.GM/CC :
AC.US/MT :
GR.API :
RML.OHMM :
RI. :
RXO.OHMM :
CALI.CM :
SP.MV :
~A
# ...
  130.0000     2.2420   427.0560    76.3780    15.4250    14.3460    11.7210    22.1160   -13.3180 
  130.1250     2.2490   430.8420    76.1630    15.5390    14.4890    11.7850    22.2320   -13.1740 
  130.2500     2.2470   437.6180    78.4870    15.7320    14.6770    11.9350    22.5110   -13.0160 
  130.3750     2.2360   446.3780    79.1080    15.9380    14.8860    12.0350    22.9030   -12.8020 
  130.5000     2.2190   453.0160    76.2670    16.1570    15.1180    12.0510    23.3270   -12.5850 
  130.6250     2.2010   452.9270    72.6810    16.4350    15.4100    11.9350    23.7630   -12.3640 
  130.7500     2.1890   449.2580    71.0290    16.8350    15.8120    11.9450    24.2360   -12.1490 
  130.8750     2.1840   447.1230    71.0130    17.4240    16.3830    12.3550    24.5760   -11.9380 
  131.0000     2.1880   448.5950    72.1340    18.2520    17.1610    13.5150    24.7230   -11.7070 
  131.1250     2.1940   454.6820    72.3960    19.3680    18.1880    15.7270    24.7610   -11.4550 
  131.2500     2.2000   461.5560    70.3900    20.6800    19.3800    18.4160    24.8110   -11.2240 
  131.3750     2.2010   461.3570    67.5010    22.0890    20.6490    21.1300    24.9100   -11.0530 
  131.5000     2.1990   449.8530    65.2450    23.4460    21.8720    23.0100    25.0990   -10.9010 
  131.6250     2.1950   429.8890    63.4930    24.5110    22.8700    23.5150    25.2090   -10.7530 
  131.7500     2.1890   409.2720    60.8380    25.1860    23.5670    23.5540    25.2080   -10.5960 
  131.8750     2.1820   386.3870    58.3780    25.4440    23.9440    23.3580    25.0830   -10.4930 
  132.0000     2.1770   363.7540    58.8150    25.4460    24.0740    23.1250    24.8870   -10.4800 
  132.1250     2.1750   355.2920    63.3410    25.3970    24.1180    23.1900    24.7670   -10.5120 
  132.2500     2.1790   364.1060    67.1690    25.6750    24.2520    23.9870    24.7630   -10.5470 
  132.3750     2.1840   378.4890    67.5570    26.2590    24.5250    25.9480    24.7720   -10.5770 
  132.5000     2.1890   383.7370    65.8900    26.7730    24.8460    28.2210    24.7240   -10.6140 
  132.6250     2.1900   381.4450    63.7890    26.8910    24.8990    30.7510    24.6180   -10.6770 
  132.7500     2.1890   387.5960    60.9280    26.3090    24.3860    31.5850    24.5420   -10.7850 
  132.8750     2.1890   405.0510    60.7620    24.9070    23.1580    28.6820    24.5150   -10.8840 
  133.0000     2.1940   423.8640    66.1000    22.8990    21.3510    24.4230    24.5120   -10.9500 
  133.1250     2.2040   434.2760    71.5620    20.7530    19.3530    20.2490    24.5130   -11.0430 
  133.2500     2.2140   437.6700    72.9280    18.8570    17.5490    17.3190    24.5180   -11.1300 
  133.3750     2.2200   436.6040    73.1400    17.2760    16.0290    15.9250    24.5320   -11.2030 
  133.5000     2.2270   433.8370    73.8480    15.9110    14.7270    15.8480    24.5400   -11.3160 
  133.6250     2.2410   431.7710    75.6170    14.6030    13.5110    16.4110    24.4900   -11.4670 
  133.7500     2.2640   431.1270    80.6550    13.2640    12.2790    15.2180    24.4480   -11.5660 
  133.8750     2.2910   431.3650    89.7370    11.9390    11.0560    12.2310    24.5110   -11.6420 
  134.0000     2.3120   432.1170    97.6120    10.7290     9.9220     9.5270    24.6440   -11.7000 
  134.1250     2.3180   431.9160    98.5130     9.7450     8.9800     8.3520    24.7510   -11.7250 
  134.2500     2.3150   429.3350    98.2910     8.9510     8.2090     7.6000    24.7940   -11.7580 
  134.3750     2.3130   425.4260    99.9070     8.2720     7.5560     7.0220    24.8040   -11.7780 
  134.5000     2.3190   422.4980   104.1410     7.6070     6.9380     6.6720    24.8050   -11.7550 
  134.6250     2.3360   424.2010   111.0710     6.8800     6.2900     6.2190    24.8070   -11.6840 
  134.7500     2.3560   433.8960   116.1390     6.1280     5.6350     5.6460    24.8050   -11.6390 
  134.8750     2.3710   449.6240   116.8180     5.4200     5.0640     5.0510    24.8040   -11.5950 
  135.0000     2.3800   462.2410   114.5640     4.9090     4.7150     4.7990    24.7970   -11.5230 
  135.1250     2.3900   458.0700   113.7140     4.9290     4.8350     5.2670    24.7760   -11.4150 
  135.2500     2.4090   435.1200   111.7990     5.7220     5.5280     7.0560    24.7410   -11.3130 
  135.3750     2.4380   395.7460   104.8210     7.4930     6.8910    10.6890    24.7070   -11.2380 
  135.5000     2.4610   347.8840    94.1180    10.3280     8.9160    15.9090    24.6590   -11.1630 
  135.6250     2.4540   313.8180    84.2230    13.7910    11.4250    21.1670    24.5770   -11.0560 
  135.7500     2.4120   311.0750    80.2490    16.8470    13.8690    23.8900    24.4430   -10.8640 
  135.8750     2.3460   338.8290    81.1710    18.5400    15.7520    20.8110    24.2940   -10.6580 
  136.0000     2.2790   378.9680    83.4420    19.0260    16.7900    15.7650    24.2010   -10.4860 
  136.1250     2.2320   407.0500    83.8970    18.8190    17.1090    14.5990    24.1750   -10.3030 
  136.2500     2.2060   418.2150    83.5390    18.7980    17.3610    15.2730    24.1660   -10.1070 
  136.3750     2.1950   419.8530    83.4680    19.2550    17.8910    16.7710    24.1550    -9.8750 
  136.5000     2.1930   419.5510    84.2340    20.1340    18.7710    18.1750    24.1400    -9.6560 
  136.6250     2.1940   420.3510    84.5850    21.2290    19.8580    18.7430    24.1140    -9.5020 
  136.7500     2.1960   420.3450    81.9230    22.2770    20.8470    18.7990    24.0670    -9.3810 
  136.8750     2.1970   418.2350    77.1000    23.0750    21.5010    18.7990    24.0100    -9.2930 
  137.0000     2.1960   414.3990    73.2590    23.3780    21.6370    18.7810    23.9640    -9.2530 
  137.1250     2.1930   411.2740    73.1110    22.8170    21.0470    18.4930    23.9510    -9.2300 
  137.2500     2.1880   411.1060    75.8170    21.5130    19.8900    17.6120    23.9540    -9.1830 
  137.3750     2.1850   413.5410    80.6480    19.7760    18.3810    16.0570    23.9530    -9.1900 
  137.5000     2.1850   416.8050    86.6020    18.0610    16.8400    14.1430    23.9230    -9.2410 
  137.6250     2.1950   418.7100    90.1920    16.8620    15.6800    12.5640    23.8690    -9.2760 
  137.7500     2.2150   419.1220    89.8450    16.2770    15.0770    11.8380    23.8080    -9.3350 
  137.8750     2.2400   418.6750    86.0680    16.2980    15.0920    11.9100    23.7830    -9.3670 
  138.0000     2.2600   418.2660    81.3610    16.8650    15.6970    12.5050    23.7800    -9.3020 
  138.1250     2.2640   419.0530    77.6520    17.9570    16.8370    13.5270    23.7800    -9.1980 
  138.2500     2.2500   421.2420    74.7300    19.3520    18.2250    14.9030    23.7800    -9.1000 
  138.3750     2.2270   424.5530    73.0660    20.8590    19.6310    16.6290    23.7800    -8.9750 
  138.5000     2.2050   428.2150    73.3790    22.2520    20.8200    18.5820    23.7820    -8.8260 
  138.6250     2.1950   431.9740    76.1820    23.2640    21.5160    20.0770    23.8070    -8.6750 
  138.7500     2.1960   436.2450    80.8460    23.8380    21.7140    20.2940    23.8600    -8.5300 
  138.8750     2.2060   440.7930    84.4000    23.9180    21.4460    19.8910    23.9100    -8.3850 
  139.0000     2.2190   444.8640    83.4470    23.4280    20.7930    19.2060    23.9300    -8.2580 
  139.1250     2.2320   447.5580    78.3370    22.3020    19.8770    18.8340    23.9300    -8.1650 
  139.2500     2.2420   449.0420    77.1760    20.9230    18.9990    19.7220    23.9290    -8.1050 
  139.3750     2.2470   449.0910    80.5640    19.8240    18.4600    21.3080    23.9270    -8.0640 
  139.5000     2.2460   447.6780    81.9260    19.6610    18.5780    21.1850    23.9270    -8.0080 
  139.6250     2.2370   445.3280    76.0470    21.2420    19.8160    20.8740    23.9260    -7.8800 
  139.7500     2.2220   442.1170    69.2070    24.3740    22.1330    23.0540    23.9240    -7.7330 
  139.8750     2.2060   438.2190    65.9500    28.5630    25.3650    26.8900    23.9260    -7.6230 
