~V
VERS. 2.00: Ver 2.00
~W
STRT.M 65.0000:
STOP.M 277.0000:
STEP.M 0.1250:
NULL. -999.2500:
UWI. DF311:
~C
DEPT.M :
DEN.GM/CC :
SP.MV :
AC.US/MT :
GR.API :
CALI.CM :
RXO.OHMM :
RI. :
RML.OHMM :
~A
# ...
  225.0000     2.1910   -37.9180   418.8630    57.0010    22.9410    63.0600   108.2520   116.6080 
  225.1250     2.1940   -37.8280   417.2460    55.0590    22.9210    58.0860   101.2420   108.7830 
  225.2500     2.1990   -37.7190   416.5000    56.3880    22.9070    56.7580    98.2920   105.3670 
  225.3750     2.2020   -37.6250   415.6780    60.1480    22.8820    56.9690    98.9870   105.9740 
  225.5000     2.2010   -37.5210   414.0840    61.8170    22.8430    55.9840   102.8200   110.0540 
  225.6250     2.1960   -37.4010   412.1710    60.0470    22.8190    54.3340   109.4850   117.1190 
  225.7500     2.1960   -37.2590   411.0340    58.1970    22.8100    54.2540   117.5140   125.4100 
  225.8750     2.2040   -37.1310   410.7980    56.8470    22.8090    56.4320   125.5850   133.4790 
  226.0000     2.2160   -36.9900   410.7430    56.0990    22.8080    59.1180   132.1560   139.8770 
  226.1250     2.2200   -36.8500   410.1620    59.1420    22.7900    59.3360   135.3360   142.9780 
  226.2500     2.2150   -36.7190   409.4270    63.1060    22.7410    57.2800   135.5160   143.2330 
  226.3750     2.2070   -36.5740   409.1430    63.7170    22.6760    55.4590   133.9960   141.7520 
  226.5000     2.2060   -36.4600   409.5980    61.1040    22.6460    56.1580   132.4140   139.9790 
  226.6250     2.2130   -36.3300   410.7210    59.1200    22.6630    58.4390   131.7810   138.8680 
  226.7500     2.2230   -36.2040   411.9090    58.0100    22.6970    59.8400   131.4280   137.9460 
  226.8750     2.2280   -36.0820   412.3970    57.6680    22.6860    59.5990   130.1770   136.2370 
  227.0000     2.2240   -35.9470   411.3740    58.9920    22.6010    59.2560   127.1590   133.0480 
  227.1250     2.2140   -35.8210   408.7420    60.8820    22.4160    59.8820   122.3880   128.4380 
  227.2500     2.2040   -35.7060   406.4740    61.0770    22.3060    59.8320   117.1650   123.4890 
  227.3750     2.2000   -35.5920   406.2160    61.4520    22.2700    57.5930   112.3510   118.9400 
  227.5000     2.2050   -35.4590   407.8930    62.0120    22.2680    53.6510   108.5860   115.4070 
  227.6250     2.2160   -35.3370   409.4080    60.9050    22.2600    50.0200   106.6880   113.7820 
  227.7500     2.2230   -35.2120   409.4940    58.3590    22.2230    46.8550   106.5850   114.0470 
  227.8750     2.2200   -35.0730   409.1040    56.9240    22.1470    44.3390   107.9750   115.8100 
  228.0000     2.2110   -34.9290   409.6330    58.9060    22.1060    44.0350   109.8780   117.8020 
  228.1250     2.2130   -34.7750   410.9240    62.9380    22.1240    47.3830   109.5970   116.9520 
  228.2500     2.2300   -34.6110   411.0510    63.6270    22.1650    51.7580   104.7850   111.2540 
  228.3750     2.2560   -34.4440   408.8760    62.2910    22.1620    52.5340    95.1280   100.8610 
  228.5000     2.2750   -34.2820   404.5770    61.3340    22.1130    47.8840    83.0430    88.3290 
  228.6250     2.2790   -34.1070   399.6110    60.4680    22.0060    39.6190    72.6310    77.6810 
  228.7500     2.2720   -33.9250   396.2730    58.1670    21.8940    33.9320    66.1300    71.1910 
  228.8750     2.2610   -33.7390   396.0890    56.6730    21.8190    32.4810    64.2130    69.7110 
  229.0000     2.2450   -33.5380   399.1620    57.1570    21.7940    35.1790    66.7830    73.2090 
  229.1250     2.2230   -33.3030   403.8370    56.4160    21.8610    42.0300    73.8670    81.5620 
  229.2500     2.2050   -33.0380   407.5130    54.3000    22.0900    51.3590    83.6040    92.4290 
  229.3750     2.1990   -32.7490   408.9730    53.1880    22.4770    60.8150    94.0610   103.5330 
  229.5000     2.2060   -32.4340   407.7940    53.2190    22.8910    65.8020   102.5230   112.0680 
  229.6250     2.2190   -32.1030   403.8980    53.9480    23.0540    63.3970   104.0440   113.1820 
  229.7500     2.2370   -31.7600   398.8850    54.2700    23.0940    59.1170    95.9490   104.4260 
  229.8750     2.2650   -31.4120   393.7100    53.2240    23.0870    56.7010    78.7580    86.0830 
  230.0000     2.3070   -31.0860   387.8020    52.9910    23.0760    54.0510    58.1020    63.5630 
  230.1250     2.3500   -30.8050   379.5550    58.0000    23.0650    44.3420    41.4630    45.0010 
  230.2500     2.3810   -30.5820   371.4310    66.3150    23.0590    30.4960    30.6480    32.9210 
  230.3750     2.3920   -30.4370   368.4230    72.5840    23.0330    19.8800    25.0060    26.6240 
  230.5000     2.3750   -30.3840   373.5070    72.3710    23.0100    16.2330    23.5390    24.8340 
  230.6250     2.3300   -30.4360   383.9620    65.7210    23.0010    20.8700    26.2810    27.5040 
  230.7500     2.2820   -30.5640   392.6580    59.2380    23.0010    30.9470    32.7030    34.0980 
  230.8750     2.2500   -30.7420   397.4850    57.0530    23.0010    41.9160    42.8530    44.4210 
  231.0000     2.2420   -30.9330   400.1110    59.3960    23.0010    47.5750    55.7260    56.1960 
  231.1250     2.2520   -31.1190   402.6940    62.2970    23.0010    46.7040    64.3350    66.1610 
  231.2500     2.2580   -31.2720   405.2560    62.2430    22.9960    44.3120    67.0320    69.3470 
  231.3750     2.2550   -31.3600   407.0310    59.6990    22.9780    41.7960    65.0650    67.0880 
  231.5000     2.2490   -31.3600   407.6480    59.0860    22.9260    39.5950    61.2490    63.0730 
  231.6250     2.2480   -31.2550   406.8540    63.7350    22.8680    37.9770    57.7540    59.9240 
  231.7500     2.2490   -31.0700   405.2250    66.7160    22.8050    36.9190    55.2460    58.1450 
  231.8750     2.2470   -30.8130   403.6840    63.5910    22.7520    36.5470    53.7400    57.6580 
  232.0000     2.2400   -30.5060   403.0920    59.6780    22.7220    36.9040    53.0260    58.1680 
  232.1250     2.2330   -30.1460   403.4910    63.4860    22.7140    37.6520    52.8050    59.1840 
  232.2500     2.2300   -29.7310   404.0150    68.2910    22.7140    38.5070    52.6960    60.0130 
  232.3750     2.2330   -29.2710   404.0340    67.8740    22.7140    39.5500    52.7160    60.4560 
  232.5000     2.2470   -28.7680   401.5220    63.8650    22.7140    40.3870    53.2920    60.9630 
  232.6250     2.2860   -28.2050   388.5470    61.4110    22.7310    40.5340    55.5810    62.9550 
  232.7500     2.3460   -27.6030   359.0470    59.3380    22.8030    41.3020    60.2690    67.5210 
  232.8750     2.4210   -26.9640   312.6740    56.0460    22.9620    45.4230    67.1900    74.9180 
  233.0000     2.5020   -26.2970   258.9140    54.3280    23.1930    57.1540    73.7760    82.6870 
  233.1250     2.5760   -25.6110   218.4230    55.9830    23.3240    81.9990    72.1850    80.8740 
  233.2500     2.6230   -24.9310   205.8870    56.3770    23.3680   103.0920    59.6020    65.3630 
  233.3750     2.6300   -24.2690   226.2960    54.6220    23.3720    98.7370    41.5870    44.3030 
  233.5000     2.5980   -23.6380   272.8250    53.1720    23.3790    67.3250    26.0010    27.2630 
  233.6250     2.5400   -23.0760   326.7240    52.8890    23.4030    32.8970    16.6150    17.3980 
  233.7500     2.4800   -22.6770   366.6590    50.1030    23.4390    14.3140    11.2670    11.8110 
  233.8750     2.4360   -22.4560   385.8750    44.8260    23.4610     7.7730     8.3630     8.8840 
  234.0000     2.4140   -22.1190   389.5810    41.4870    23.4670     6.2590     6.8540     7.5600 
  234.1250     2.4070   -21.8400   388.5700    42.5100    23.4650     6.1320     6.2470     7.2460 
  234.2500     2.4020   -21.6250   390.8270    45.0820    23.4650     6.1440     6.0510     7.2910 
  234.3750     2.3980   -21.4640   397.2220    46.9640    23.4670     6.1310     6.0390     7.3890 
  234.5000     2.3940   -21.3440   405.6350    46.8210    23.4680     6.0270     6.0620     7.3710 
  234.6250     2.3910   -21.2450   411.8640    45.9840    23.4680     5.7750     6.0400     7.2080 
  234.7500     2.3900   -21.1490   413.1850    47.0670    23.4690     5.5270     5.9710     7.0070 
  234.8750     2.3920   -21.0530   409.6920    50.5070    23.4790     5.4260     5.8790     6.8460 
