~V
VERS. 2.00: Ver 2.00
~W
STRT.M 60.0000:
STOP.M 247.0000:
STEP.M 0.1250:
NULL. -999.2500:
UWI. DF315:
~C
DEPT.M :
DEN.GM/CC :
AC.US/MT :
GR.API :
RML.OHMM :
RI. :
RXO.OHMM :
CALI.CM :
SP.MV :
~A
# ...
  170.0000     2.5550   271.9340    79.1650    20.2790    19.5870    19.1330    24.4460   -11.1450 
  170.1250     2.5600   273.1260    79.2240    20.4470    19.7690    19.5850    24.4610   -11.0760 
  170.2500     2.5540   273.7570    74.6710    20.7820    19.9950    20.0770    24.5450   -11.0410 
  170.3750     2.5380   275.1530    69.9940    20.8970    20.0440    20.8490    24.7240   -10.9920 
  170.5000     2.5150   278.5810    70.2800    20.5200    19.7180    21.7640    24.8550   -10.8890 
  170.6250     2.4930   284.8050    75.7930    19.6900    18.8840    21.1110    24.8980   -10.7440 
  170.7500     2.4790   292.8420    78.9180    18.5180    17.7770    18.9750    24.8980   -10.6570 
  170.8750     2.4740   301.0510    76.5240    17.3300    16.6600    16.3460    24.8990   -10.6250 
  171.0000     2.4750   307.1740    72.3870    16.3570    15.7830    15.0590    24.9040   -10.5960 
  171.1250     2.4760   309.1680    72.3130    15.9490    15.3710    15.4210    24.9150   -10.5670 
  171.2500     2.4740   308.1800    75.4760    16.0060    15.3810    16.4010    24.9250   -10.5500 
  171.3750     2.4680   305.8290    77.5520    16.4450    15.7320    17.5030    24.9380   -10.5380 
  171.5000     2.4620   303.5180    76.2990    17.1140    16.2760    18.3220    24.9600   -10.5220 
  171.6250     2.4600   302.0040    76.0770    17.7770    16.8210    18.7300    24.9540   -10.5220 
  171.7500     2.4610   301.3750    77.7850    18.2060    17.2020    18.9560    24.9090   -10.5220 
  171.8750     2.4620   302.2110    78.1230    18.2850    17.3420    18.9080    24.8500   -10.5360 
  172.0000     2.4580   305.5610    75.5030    18.0240    17.2390    18.7090    24.7990   -10.5830 
  172.1250     2.4450   312.2480    70.9070    17.5320    16.9390    18.1650    24.7830   -10.6200 
  172.2500     2.4300   319.9790    67.5130    17.0220    16.5930    17.7420    24.7780   -10.6020 
  172.3750     2.4180   325.6570    66.5150    16.6260    16.3240    17.3250    24.7770   -10.5700 
  172.5000     2.4160   326.9820    68.4940    16.4430    16.2420    17.0760    24.7750   -10.6020 
  172.6250     2.4260   323.2670    73.2000    16.6170    16.4870    17.3660    24.7750   -10.6690 
  172.7500     2.4400   317.5390    76.0980    17.1490    17.0400    17.9190    24.7750   -10.6720 
  172.8750     2.4510   312.7410    75.8610    17.9970    17.8650    19.0950    24.7670   -10.6200 
  173.0000     2.4540   312.2730    73.1650    19.0050    18.8550    20.7550    24.7420   -10.5710 
  173.1250     2.4410   321.4290    74.6600    19.8490    19.7580    22.4250    24.6730   -10.5800 
  173.2500     2.4200   339.5880    80.7100    20.2320    20.2790    23.5700    24.6000   -10.6290 
  173.3750     2.3980   361.5550    84.0310    19.9610    20.1780    24.6160    24.5300   -10.6510 
  173.5000     2.3850   377.3670    81.2850    19.0010    19.3360    24.7340    24.5380   -10.5960 
  173.6250     2.3850   376.2080    77.6110    17.4410    17.7520    23.3600    24.6550   -10.4930 
  173.7500     2.3930   364.4460    77.6200    15.6890    15.8560    20.3740    24.7870   -10.4310 
  173.8750     2.4010   352.5610    79.4480    14.0430    14.0040    18.4020    24.8290   -10.4000 
  174.0000     2.4020   347.9430    81.3600    12.7450    12.4780    17.8310    24.7910   -10.3330 
  174.1250     2.3930   349.3250    82.9290    12.0680    11.5400    17.9330    24.6440   -10.2080 
  174.2500     2.3800   349.1030    82.6800    12.0250    11.1720    18.0800    24.3900   -10.0800 
  174.3750     2.3670   344.6570    82.5840    12.6180    11.3740    17.1140    24.0710    -9.9980 
  174.5000     2.3560   337.4500    83.1190    13.7500    12.0970    16.8110    23.8360    -9.9610 
  174.6250     2.3500   333.4730    82.0560    15.2100    13.2710    17.9710    23.7940    -9.9270 
  174.7500     2.3470   338.2920    80.2070    16.6190    14.6200    20.2800    23.8970    -9.8750 
  174.8750     2.3450   352.0230    79.2720    17.7460    15.9350    22.2870    24.1430    -9.8330 
  175.0000     2.3410   368.9750    78.3570    18.5100    17.0510    23.8260    24.5000    -9.8390 
  175.1250     2.3340   381.2600    76.4460    18.9750    17.8520    23.3990    24.7720    -9.8460 
  175.2500     2.3240   388.5680    77.7170    19.3540    18.4150    21.6830    24.8740    -9.8050 
  175.3750     2.3110   392.8340    81.6680    19.7020    18.7840    21.9120    24.8890    -9.7320 
  175.5000     2.3000   394.4990    84.3280    19.9200    18.9390    23.7920    24.8890    -9.6800 
  175.6250     2.2940   394.9690    83.9350    19.6930    18.7060    24.5420    24.8870    -9.6760 
  175.7500     2.2950   396.3450    83.9300    18.8630    18.0050    22.9070    24.8800    -9.6770 
  175.8750     2.3020   398.5850    86.1780    17.4200    16.8100    19.9630    24.8670    -9.6370 
  176.0000     2.3090   400.7290    90.1150    15.5560    15.2450    18.1590    24.8580    -9.5280 
  176.1250     2.3110   402.9190    93.5570    13.6360    13.5900    16.7310    24.8530    -9.4310 
  176.2500     2.3070   405.8060    93.1040    12.0420    12.1580    14.8040    24.8510    -9.3930 
  176.3750     2.2990   408.2810    90.7340    11.0380    11.1420    12.9400    24.8510    -9.3780 
  176.5000     2.2970   407.9180    92.0690    10.8450    10.6890    12.1880    24.8510    -9.3440 
  176.6250     2.3160   400.7860    95.1730    11.7670    11.0530    13.0440    24.8500    -9.2620 
  176.7500     2.3580   384.8500    92.5430    13.5540    12.1560    15.7080    24.8490    -9.1580 
  176.8750     2.4160   359.0760    81.9100    15.8310    13.8470    20.2180    24.8450    -9.0960 
  177.0000     2.4670   328.2840    67.7840    17.9760    15.7460    25.7270    24.8430    -9.1000 
  177.1250     2.4810   306.8260    59.7210    19.0350    17.1350    30.6730    24.8450    -9.0870 
  177.2500     2.4580   305.3780    60.6630    18.6640    17.4910    30.9290    24.8470    -9.0450 
  177.3750     2.4120   324.2760    67.8050    17.0320    16.6750    24.1260    24.8470    -9.0130 
  177.5000     2.3650   353.1910    75.5420    14.8110    15.0320    17.7510    24.8490    -9.0030 
  177.6250     2.3340   377.6300    79.8450    12.8070    13.1790    14.5640    24.8420    -8.9980 
  177.7500     2.3210   392.8080    82.5480    11.3300    11.5780    12.7630    24.8210    -9.0120 
  177.8750     2.3220   401.1570    84.4930    10.3400    10.3330    11.5660    24.7940    -9.0350 
  178.0000     2.3300   406.5780    86.7430     9.6870     9.4110    10.6600    24.7780    -9.0640 
  178.1250     2.3400   411.8170    90.4300     9.2650     8.7740     9.8310    24.7750    -9.1080 
  178.2500     2.3470   418.4870    92.7280     8.9890     8.3320     8.9480    24.7750    -9.1400 
  178.3750     2.3510   425.5750    92.2900     8.8430     8.0630     8.3250    24.7760    -9.1490 
  178.5000     2.3510   430.9170    90.0480     8.7840     7.9340     8.1320    24.7780    -9.1670 
  178.6250     2.3480   433.2840    90.0780     8.7210     7.8930     8.2640    24.7820    -9.2420 
  178.7500     2.3450   434.6390    93.4480     8.5810     7.8540     8.3290    24.7840    -9.2930 
  178.8750     2.3440   436.3460    94.4920     8.3780     7.7680     8.2630    24.7850    -9.2970 
  179.0000     2.3460   438.3680    90.1100     8.1790     7.6260     8.1170    24.7860    -9.3020 
  179.1250     2.3560   437.6280    87.1850     8.1170     7.4880     7.9520    24.7890    -9.3460 
  179.2500     2.3750   431.4250    89.5190     8.2500     7.4650     7.9180    24.7940    -9.4240 
  179.3750     2.4020   419.0970    93.7710     8.5920     7.6510     8.1730    24.7960    -9.5020 
  179.5000     2.4280   401.9880    94.4860     9.0740     8.0910     8.9130    24.7840    -9.5280 
  179.6250     2.4410   383.7680    89.9390     9.6890     8.7730    10.2620    24.7750    -9.5150 
  179.7500     2.4320   370.6420    83.8810    10.3630     9.5210    11.8310    24.7670    -9.5250 
  179.8750     2.4060   367.2840    79.3790    11.0410    10.1570    13.0830    24.7560    -9.5700 
