~V
VERS. 2.00: Ver 2.00
~W
STRT.M 56.0000:
STOP.M 209.0000:
STEP.M 0.1250:
NULL. -999.2500:
UWI. DF316:
~C
DEPT.M :
GR.API :
CALI.CM :
RXO.OHMM :
RI. :
RML.OHMM :
SP.MV :
DEN.GM/CC :
AC.US/MT :
~A
# ...
  186.0000    51.6770    24.0140   133.8370   110.8220   119.6880   -12.5970     2.2080   387.0080 
  186.1250    53.5090    24.1060   125.5460   113.0260   122.0680   -12.6980     2.2080   383.4460 
  186.2500    55.2210    24.1530   112.2250   114.8960   124.0870   -12.7950     2.2120   381.3650 
  186.3750    54.3300    24.1480   110.8500   114.8880   124.0790   -12.9060     2.2150   382.9560 
  186.5000    52.8470    24.0750   117.6990   112.6940   121.7090   -13.0430     2.2110   385.5440 
  186.6250    54.6830    24.0080   121.0630   108.9360   117.6500   -13.1920     2.2060   386.9450 
  186.7500    59.7720    24.0150   112.0400   103.7250   112.0230   -13.3250     2.2060   386.8700 
  186.8750    62.4060    24.1390    98.6640    97.6190   105.4290   -13.4400     2.2110   383.4720 
  187.0000    61.7630    24.1530    87.9710    91.7370    99.0760   -13.5490     2.2190   378.3280 
  187.1250    60.5860    24.1390    86.4580    87.0790    94.0450   -13.6580     2.2270   374.2770 
  187.2500    59.5380    24.0150    87.2760    84.7670    91.5480   -13.7430     2.2350   373.7630 
  187.3750    56.8900    23.9920    88.0110    85.9190    92.7920   -13.7880     2.2430   375.4740 
  187.5000    54.6630    23.9870    93.1880    89.9230    97.1160   -13.7820     2.2530   373.8190 
  187.6250    54.2860    24.0000    96.3940    96.5880   104.3150   -13.7430     2.2630   367.7520 
  187.7500    54.8410    24.0730    95.4970   104.9620   113.3590   -13.7050     2.2730   357.8030 
  187.8750    56.0870    24.0670   104.1530   113.8380   122.9450   -13.6780     2.2890   341.1430 
  188.0000    57.8800    24.0630   134.4140   121.0430   130.7260   -13.6490     2.3130   319.0960 
  188.1250    58.8800    24.0230   148.5280   125.0940   135.1020   -13.6200     2.3370   298.1320 
  188.2500    58.4810    23.9890   131.0850   125.8870   135.9580   -13.6240     2.3450   290.9540 
  188.3750    58.7720    24.0030   122.4010   123.8210   133.7270   -13.6710     2.3340   306.5100 
  188.5000    59.8620    24.0520   138.3640   120.7800   130.4420   -13.7430     2.3120   330.5480 
  188.6250    59.0330    24.0490   157.4530   118.0300   127.4720   -13.8350     2.2930   349.5530 
  188.7500    55.2060    23.9700   154.4140   116.7030   126.0400   -13.9400     2.2830   354.1650 
  188.8750    51.2240    23.9430   129.5950   116.3440   125.6520   -14.0620     2.2790   340.6360 
  189.0000    51.0380    23.7870   105.7930   115.3180   124.5430   -14.2190     2.2810   319.1590 
  189.1250    54.3430    23.5110    93.3760   112.9750   122.0130   -14.4050     2.3010   299.2300 
  189.2500    57.9880    23.3690    81.8780   108.6130   117.3020   -14.5970     2.3350   288.6120 
  189.3750    59.3500    23.1820    69.4120   101.8690   110.0180   -14.7790     2.3640   287.6670 
  189.5000    60.2710    23.0550    53.9680    92.5640    99.9690   -14.9620     2.3600   295.3390 
  189.6250    61.7780    23.0650    47.5560    78.8470    85.1550   -15.1520     2.3170   313.6460 
  189.7500    62.8310    23.2900    48.0910    61.2670    66.1690   -15.3490     2.2730   332.5230 
  189.8750    66.6010    23.3180    52.6100    43.9180    47.4310   -15.5180     2.2580   326.4860 
  190.0000    71.9580    23.2670    53.2070    27.9260    32.2400   -15.6540     2.2710   291.3780 
  190.1250    72.5320    23.2000    46.8350    16.4320    19.1330   -15.7740     2.2820   246.8400 
  190.2500    64.3150    23.2630    31.6900    10.5080    11.6760   -15.8910     2.2690   226.7100 
  190.3750    50.4750    23.3280    15.1030     7.4250     8.2500   -16.0000     2.2350   258.7380 
  190.5000    39.4170    23.4980     6.1480     6.0750     6.7500   -16.0830     2.2090   316.1640 
  190.6250    31.4080    23.6350     3.4870     5.9480     6.6090   -16.1220     2.2350   350.6010 
  190.7500    25.2580    23.6590     3.4660     6.5270     7.2520   -16.1220     2.3240   328.0560 
  190.8750    20.3490    23.6570     5.4440     7.4760     8.3070   -16.1130     2.4520   259.0430 
  191.0000    16.8360    23.6400    13.2910     8.2500     9.1670   -16.1110     2.5700   196.8410 
  191.1250    15.9570    23.4710    32.3880     8.5280     9.4760   -16.0990     2.6120   172.5100 
  191.2500    17.3540    23.3720    49.3770     8.0830     8.9810   -16.0830     2.5830   197.0580 
  191.3750    21.1700    23.4260    46.2660     6.9240     7.6930   -16.0700     2.5140   269.0220 
  191.5000    25.3720    23.6720    26.2130     5.6080     6.2310   -16.0900     2.4380   351.9010 
  191.6250    27.9980    23.7390    10.9060     4.5090     5.0100   -16.1660     2.3740   414.3500 
  191.7500    29.6090    23.6270     4.8800     3.7830     4.2040   -16.2750     2.3280   443.2810 
  191.8750    31.9950    23.6020     4.3890     3.4410     3.8240   -16.3910     2.3010   443.9730 
  192.0000    33.5940    23.6110     4.2100     3.3940     3.7710   -16.5000     2.2910   437.0130 
  192.1250    31.4390    23.6920     4.1200     3.4970     3.8860   -16.6210     2.2870   432.7470 
  192.2500    28.1910    23.7370     4.2700     3.7150     4.1280   -16.7580     2.2730   434.1400 
  192.3750    29.7640    23.7290     4.5530     3.9640     4.4050   -16.9060     2.2530   436.1770 
  192.5000    34.6300    23.6680     4.7970     4.2660     4.7400   -17.0400     2.2480   431.7000 
  192.6250    38.2580    23.6050     4.8780     4.5360     5.0400   -17.1380     2.2740   421.9840 
  192.7500    38.2570    23.6070     4.8700     4.7900     5.3220   -17.1980     2.3080   413.4040 
  192.8750    37.0930    23.6480     5.0300     4.8940     5.4370   -17.2350     2.3280   408.4720 
  193.0000    36.6770    23.7240     5.3020     4.9210     5.4680   -17.2620     2.3330   401.0550 
  193.1250    37.4230    23.7230     5.5650     4.8580     5.3980   -17.2470     2.3340   389.9680 
  193.2500    37.8160    23.6240     6.1770     4.7910     5.3230   -17.1930     2.3360   382.4680 
  193.3750    35.4210    23.6060     6.6120     4.6420     5.1580   -17.1190     2.3370   389.7290 
  193.5000    31.8460    23.5960     5.8770     4.5210     5.0230   -17.0440     2.3320   406.7370 
  193.6250    29.6830    23.5910     4.6630     4.4040     4.8930   -16.9560     2.3220   423.7620 
  193.7500    29.0240    23.6460     4.1440     4.2830     4.7590   -16.8560     2.3140   434.8470 
  193.8750    28.2490    23.6510     4.1240     4.1920     4.6580   -16.7220     2.3170   439.6350 
  194.0000    27.2460    23.6170     4.2460     4.1030     4.5590   -16.5640     2.3250   441.2850 
  194.1250    27.1390    23.4120     4.3990     4.0000     4.4450   -16.4180     2.3260   440.9950 
  194.2500    26.8940    23.3140     4.4810     3.8790     4.3110   -16.2800     2.3190   440.8430 
  194.3750    25.8520    23.3670     4.3130     3.7530     4.1700   -16.1270     2.3150   441.7680 
  194.5000    25.4020    23.4730     4.0080     3.6330     4.0370   -15.9570     2.3210   441.2870 
  194.6250    25.5480    23.6160     3.7680     3.5480     3.9420   -15.7970     2.3310   440.0280 
  194.7500    25.6260    23.6640     3.6730     3.5070     3.8970   -15.6780     2.3370   440.2430 
  194.8750    25.7350    23.6760     3.6220     3.5370     3.9300   -15.6460     2.3370   442.2220 
  195.0000    24.8280    23.6730     3.5970     3.5450     3.9390   -15.6090     2.3330   443.3090 
  195.1250    22.6590    23.6890     3.6150     3.6230     4.0260   -15.5670     2.3310   443.0090 
  195.2500    20.9420    23.7760     3.5940     3.7390     4.1540   -15.5200     2.3350   442.3570 
  195.3750    22.7130    23.7920     3.5140     3.9730     4.4150   -15.4770     2.3380   437.9150 
  195.5000    26.5710    23.7800     3.5710     4.1710     4.6340   -15.4640     2.3370   426.0620 
  195.6250    29.9070    23.7190     3.8890     4.3280     4.8080   -15.4740     2.3370   408.7260 
  195.7500    31.9400    23.6810     4.2530     4.4260     4.9170   -15.4850     2.3410   393.1410 
  195.8750    33.6960    23.6990     4.4650     4.5800     5.0890   -15.4790     2.3440   386.8550 
