~V
VERS. 2.00: Ver 2.00
~W
STRT.M 57.0000:
STOP.M 261.0000:
STEP.M 0.1250:
NULL. -999.2500:
UWI. DF317:
~C
DEPT.M :
DEN.GM/CC :
SP.MV :
AC.US/MT :
GR.API :
CALI.CM :
RXO.OHMM :
RI. :
RML.OHMM :
~A
# ...
  167.0000     2.4900   -20.3360   277.6130    55.8960    23.9410    21.3630    20.0630    25.8320 
  167.1250     2.4850   -20.3680   275.7950    56.5240    23.9180    21.4250    19.9490    25.5770 
  167.2500     2.4770   -20.3770   276.2280    58.3180    23.9290    20.7980    19.6450    25.0870 
  167.3750     2.4720   -20.3950   276.9030    59.2040    23.9480    20.9430    19.2040    24.4510 
  167.5000     2.4770   -20.4140   276.5130    59.1900    23.9230    21.1510    18.6660    23.7360 
  167.6250     2.4910   -20.4170   276.3320    59.9810    23.9160    20.4060    18.0370    22.9430 
  167.7500     2.4990   -20.4200   278.7030    61.0170    23.9540    19.5500    17.3490    22.1200 
  167.8750     2.4970   -20.4410   282.7980    60.4610    24.0550    18.5030    16.7020    21.3660 
  168.0000     2.4920   -20.4810   286.2410    59.2630    24.0670    17.5710    16.1480    20.7320 
  168.1250     2.4970   -20.5390   287.3510    58.4800    24.0430    17.0550    15.7300    20.2560 
  168.2500     2.4990   -20.5980   287.5510    56.5420    23.9390    16.4960    15.4820    19.9970 
  168.3750     2.4810   -20.6390   289.5510    52.7460    23.9960    15.6910    15.3820    19.9210 
  168.5000     2.4490   -20.6620   292.6420    49.6710    24.0920    14.7220    15.4100    19.9890 
  168.6250     2.4230   -20.6910   293.4650    50.0290    23.9270    14.3410    15.5390    20.1530 
  168.7500     2.4210   -20.7310   289.7830    53.1740    23.8170    14.9760    15.7080    20.3330 
  168.8750     2.4270   -20.7680   286.1980    56.1090    23.7920    15.7920    15.8520    20.4570 
  169.0000     2.4310   -20.7680   286.4250    59.0070    23.5300    15.7450    15.9290    20.5060 
  169.1250     2.4340   -20.7400   289.6250    59.7890    23.1180    15.0220    15.9530    20.4920 
  169.2500     2.4400   -20.7280   291.6260    56.9040    22.7930    14.5680    15.9540    20.5040 
  169.3750     2.4490   -20.6970   290.9510    53.3460    22.3740    14.2150    15.9850    20.5780 
  169.5000     2.4620   -20.6710   289.5470    52.3970    22.2730    13.9410    16.0240    20.7130 
  169.6250     2.4740   -20.6550   288.8340    54.5810    22.3580    13.7570    16.0390    20.8710 
  169.7500     2.4790   -20.6210   287.8020    58.7240    22.4240    13.8140    15.9990    20.9520 
  169.8750     2.4780   -20.5820   284.8440    62.8520    22.5710    14.3550    15.8800    20.8930 
  170.0000     2.4780   -20.5460   280.5170    64.9620    22.6570    14.7160    15.6620    20.6500 
  170.1250     2.4860   -20.5020   278.0180    63.9110    22.6470    14.3660    15.3640    20.2580 
  170.2500     2.4980   -20.4230   280.6510    60.6060    22.8500    13.1360    15.0680    19.8760 
  170.3750     2.5030   -20.3710   285.7520    55.7650    23.1450    12.3550    14.8590    19.6130 
  170.5000     2.4970   -20.3280   289.1610    51.1020    23.5130    12.5970    14.7640    19.5200 
  170.6250     2.4880   -20.2770   288.8910    49.4150    23.7430    13.6530    14.7800    19.5580 
  170.7500     2.4910   -20.2220   286.3670    51.5960    23.8930    14.4740    14.8570    19.6740 
  170.8750     2.5040   -20.1580   283.9470    53.8840    23.9300    14.4640    14.9190    19.7330 
  171.0000     2.5150   -20.1120   282.4580    53.7180    23.9250    14.4810    14.8850    19.6170 
  171.1250     2.5180   -20.1000   282.6990    52.5930    23.8930    14.8860    14.7230    19.2920 
  171.2500     2.5140   -20.1150   285.7560    53.2900    23.7870    14.5640    14.4290    18.7710 
  171.3750     2.5070   -20.1240   290.1080    54.2890    23.7040    13.7720    14.1020    18.2350 
  171.5000     2.4980   -20.1330   294.5560    55.6840    23.6690    13.6070    13.8420    17.8780 
  171.6250     2.4850   -20.1610   298.8100    59.9530    23.6690    13.9120    13.7170    17.7940 
  171.7500     2.4710   -20.2150   301.7240    64.0360    23.6140    13.9010    13.7750    17.9890 
  171.8750     2.4630   -20.2760   300.4890    64.3220    23.6040    14.1890    13.9720    18.3890 
  172.0000     2.4700   -20.3420   293.7690    62.5370    23.5880    14.9630    14.2810    18.9270 
  172.1250     2.4930   -20.3990   284.8570    60.5470    23.5840    16.2710    14.6460    19.5060 
  172.2500     2.5160   -20.4590   280.1540    57.4100    23.5590    16.7690    15.0050    20.0240 
  172.3750     2.5280   -20.5270   280.5670    55.1070    23.5710    16.2080    15.3570    20.4920 
  172.5000     2.5320   -20.6210   283.5580    56.0920    23.5780    15.2590    15.7030    20.9060 
  172.6250     2.5290   -20.7280   286.5470    59.5440    23.5940    15.0530    16.0620    21.2920 
  172.7500     2.5150   -20.8180   288.9590    61.6740    23.5850    15.6640    16.4430    21.6900 
  172.8750     2.4970   -20.9110   290.8820    61.6000    23.5900    16.5570    16.8330    22.0920 
  173.0000     2.4850   -21.0220   291.9330    58.9050    23.5880    17.5930    17.2020    22.4500 
  173.1250     2.4830   -21.1550   292.2230    54.7230    23.6110    18.7650    17.5020    22.6890 
  173.2500     2.4840   -21.2940   291.7650    51.8040    23.6010    19.0610    17.6640    22.7160 
  173.3750     2.4870   -21.4450   290.6410    52.1320    23.6100    18.6580    17.7130    22.5870 
  173.5000     2.4900   -21.5860   288.2940    56.0600    23.5980    18.1340    17.6930    22.3850 
  173.6250     2.4910   -21.7100   285.2930    61.5350    23.5890    18.0860    17.6650    22.2040 
  173.7500     2.4840   -21.8350   285.0040    62.7990    23.6100    18.0310    17.6420    22.0500 
  173.8750     2.4780   -21.9660   287.7770    58.5120    23.5930    17.9630    17.6370    21.9350 
  174.0000     2.4830   -22.0740   290.4170    52.0840    23.6280    17.5820    17.6320    21.8300 
  174.1250     2.5030   -22.1610   289.1880    49.7060    23.6420    17.0200    17.5860    21.7100 
  174.2500     2.5250   -22.2380   283.8000    53.1450    23.5970    17.3340    17.4700    21.5510 
  174.3750     2.5330   -22.3110   278.3190    56.0240    23.6070    17.9820    17.3150    21.3810 
  174.5000     2.5280   -22.3790   274.7530    54.5840    23.5970    16.9800    17.1350    21.1780 
  174.6250     2.5190   -22.4420   274.1080    51.6360    23.5790    14.8850    16.8450    20.8210 
  174.7500     2.5150   -22.5050   277.7350    51.5870    23.5070    13.9370    16.2720    20.0970 
  174.8750     2.5120   -22.5730   283.4080    53.6520    23.4440    14.1540    15.4850    19.1110 
  175.0000     2.5020   -22.6460   288.2150    57.8420    23.3910    14.7790    14.6460    18.0910 
  175.1250     2.4760   -22.7230   293.8100    65.7090    23.4150    15.1930    13.9870    17.3980 
  175.2500     2.4400   -22.7990   310.5100    74.9880    23.3840    15.1050    13.8530    17.6330 
  175.3750     2.4170   -22.8690   337.1140    79.3040    23.4240    13.8310    14.5590    19.3120 
  175.5000     2.4260   -22.9300   355.6640    77.8490    23.4800    12.2000    16.5060    22.8170 
  175.6250     2.4560   -22.9970   344.9940    73.2420    23.4050    12.5590    20.0230    28.3550 
  175.7500     2.4770   -23.0780   305.0990    68.1930    23.4150    21.7730    25.5350    36.1330 
  175.8750     2.4700   -23.1500   275.5860    64.6680    23.4280    41.6540    32.4750    45.1590 
  176.0000     2.4350   -23.2260   281.3740    64.1870    23.3910    55.8400    39.9720    54.1420 
  176.1250     2.3780   -23.2780   318.3080    67.1100    23.4330    54.8980    46.7080    61.4480 
  176.2500     2.3130   -23.2900   359.1830    70.1860    23.4090    48.2830    50.7150    64.8770 
  176.3750     2.2610   -23.2930   384.8730    71.0740    23.2280    46.7830    51.8350    64.6730 
  176.5000     2.2390   -23.2870   397.3130    70.3950    23.0750    46.3140    50.8170    62.1810 
  176.6250     2.2380   -23.2650   403.3240    71.1890    23.0260    44.3770    48.9560    59.2060 
  176.7500     2.2340   -23.2210   405.0350    74.7580    22.8920    43.7910    47.0790    56.5810 
  176.8750     2.2160   -23.1800   401.9580    77.1630    23.0270    47.2280    45.2800    54.1390 
