~V
VERS. 2.00: Ver 2.00
~W
STRT.M 58.0000:
STOP.M 221.0000:
STEP.M 0.1250:
NULL. -999.2500:
UWI. DF318:
~C
DEPT.M :
DEN.GM/CC :
SP.MV :
AC.US/MT :
GR.API :
CALI.CM :
RXO.OHMM :
RI. :
RML.OHMM :
~A
# ...
   88.0000     2.3470    -4.1340   453.7600    87.6800    24.7170     6.1980     5.5930     6.9220 
   88.1250     2.2960    -4.4270   451.9060    79.7140    24.6480     8.0940     6.8640     8.7210 
   88.2500     2.2390    -4.8730   449.5400    75.7460    24.5570    10.2490     8.4260    10.7840 
   88.3750     2.1830    -5.4440   446.5040    72.7160    24.4380    11.1570     9.9490    12.5630 
   88.5000     2.1430    -6.0630   442.8420    68.2210    24.3270    11.0010    11.0350    13.5890 
   88.6250     2.1250    -6.7140   439.1360    65.4170    24.2900    11.0080    11.5070    13.7620 
   88.7500     2.1310    -7.3710   435.9550    66.0060    24.2930    11.6340    11.4510    13.3410 
   88.8750     2.1500    -7.9630   433.6820    68.1820    24.2240    11.7210    11.1150    12.7460 
   89.0000     2.1690    -8.4570   432.5390    71.5080    24.0220    11.1660    10.7890    12.3030 
   89.1250     2.1860    -8.8340   432.0970    75.5740    23.6840    10.4560    10.6000    12.1370 
   89.2500     2.2020    -9.1340   432.1610    77.7980    23.4120    10.4060    10.6290    12.3310 
   89.3750     2.2180    -9.3530   432.6090    77.0740    23.3410    11.8230    10.9760    13.0150 
   89.5000     2.2310    -9.5140   433.1470    75.5960    23.3660    13.6370    11.5740    14.0460 
   89.6250     2.2350    -9.6280   433.3310    73.9490    23.3770    14.4290    12.2620    15.1420 
   89.7500     2.2190    -9.6920   432.9900    71.7010    23.3920    13.6840    12.7410    15.8150 
   89.8750     2.1850    -9.6830   432.3180    70.6190    23.4510    12.5450    12.5610    15.4180 
   90.0000     2.1610    -9.5840   431.8800    71.7340    23.6510    11.5060    11.7410    14.1190 
   90.1250     2.1700    -9.3940   431.8970    73.3890    23.9380    10.2420    10.5200    12.3750 
   90.2500     2.2030    -9.1210   432.0960    75.6670    24.2000     8.8780     9.2320    10.6880 
   90.3750     2.2380    -8.8190   431.7320    80.8960    24.3730     7.9420     8.2020     9.4900 
   90.5000     2.2550    -8.5740   429.1930    87.2320    24.4560     7.7860     7.5350     8.8470 
   90.6250     2.2570    -8.4160   423.7960    91.5240    24.4710     7.9350     7.2660     8.7590 
   90.7500     2.2590    -8.3690   415.7070    91.9430    24.4350     7.9170     7.3850     9.1740 
   90.8750     2.2690    -8.4750   406.5530    91.1910    24.3820     7.9870     7.8880    10.0250 
   91.0000     2.2760    -8.7790   399.7660    89.2240    24.3590     8.6560     8.5970    11.0290 
   91.1250     2.2610    -9.2250   396.6270    85.3310    24.2790     9.6900     9.3720    11.9690 
   91.2500     2.2280    -9.7650   396.3660    80.6710    24.0200    10.4780    10.1120    12.7280 
   91.3750     2.1960   -10.3340   397.5330    76.7720    23.6310    10.7310    10.7860    13.3380 
   91.5000     2.1820   -10.8210   398.8590    72.5870    23.4780    10.9120    11.4450    13.9630 
   91.6250     2.1740   -11.2270   400.0490    68.4710    23.4950    11.8400    12.1180    14.6810 
   91.7500     2.1700   -11.4910   401.2300    67.2740    23.5680    14.3810    12.7780    15.4420 
   91.8750     2.1750   -11.6300   402.3740    68.4600    23.5740    17.5470    13.2140    15.8940 
   92.0000     2.1880   -11.5860   403.6350    68.3000    23.5640    17.4690    13.1750    15.6620 
   92.1250     2.1930   -11.3850   405.9120    67.9410    23.6990    15.6770    12.5060    14.5940 
   92.2500     2.1850   -10.9910   410.5500    70.2580    24.0300    15.8710    11.2690    12.8620 
   92.3750     2.1740   -10.4070   417.9230    75.6850    24.2980    14.8220     9.7100    10.8660 
   92.5000     2.1850    -9.6810   426.7170    82.6620    24.3720    11.2680     8.2100     9.0590 
   92.6250     2.2230    -8.8410   434.9310    89.2250    24.3780     7.6210     6.9680     7.6630 
   92.7500     2.2740    -7.9840   441.3830    92.1680    24.3910     6.0330     6.0680     6.7540 
   92.8750     2.3180    -7.1570   445.3300    92.5750    24.4160     5.6330     5.5470     6.3530 
   93.0000     2.3380    -6.3720   446.0800    93.9270    24.4180     5.6200     5.2770     6.2470 
   93.1250     2.3450    -5.6790   444.6080    94.3020    24.3870     5.8530     5.1710     6.2740 
   93.2500     2.3450    -5.1550   442.0290    93.0100    24.3270     6.1250     5.1510     6.3040 
   93.3750     2.3420    -4.8300   439.5540    93.2810    24.2370     6.1430     5.2060     6.3350 
   93.5000     2.3350    -4.7090   437.7920    96.3130    24.1080     5.9760     5.3830     6.5200 
   93.6250     2.3270    -4.7970   436.1030    97.0430    23.9730     6.1350     5.7820     7.0530 
   93.7500     2.3150    -5.0550   434.0420    92.7670    23.8600     6.9980     6.5000     8.0800 
   93.8750     2.2900    -5.4220   432.1450    85.4860    23.7600     8.6110     7.6280     9.6890 
   94.0000     2.2470    -5.8690   432.2400    78.6700    23.7630    10.2900     8.9610    11.5160 
   94.1250     2.2060    -6.2970   434.2380    73.2590    23.8790    11.8060    10.1400    12.9960 
   94.2500     2.1880    -6.6490   435.9440    68.1720    24.0180    12.9930    10.7080    13.4890 
   94.3750     2.2010    -6.8860   434.4100    66.4470    24.1920    13.4690    10.2980    12.6160 
   94.5000     2.2370    -7.0110   427.9320    71.8020    24.3210    12.1360     9.3190    11.1010 
   94.6250     2.2710    -6.9560   420.1100    81.0090    24.3730     9.7390     8.1830     9.5490 
   94.7500     2.2910    -6.8190   414.7740    88.5220    24.3460     7.7830     7.1820     8.3270 
   94.8750     2.2980    -6.5570   413.9100    91.2800    24.1810     6.6780     6.5090     7.6570 
   95.0000     2.3080    -6.2700   416.3700    92.3580    23.8340     6.1890     6.1630     7.4740 
   95.1250     2.3260    -6.0340   417.8670    94.3160    23.5540     6.0880     6.1340     7.7310 
   95.2500     2.3340    -5.9180   416.1310    97.4450    23.4770     6.3570     6.3700     8.3170 
   95.3750     2.3120    -5.9500   411.3100    99.7270    23.5440     6.8610     6.7830     9.0520 
   95.5000     2.2720    -6.1120   405.7910    98.0050    23.6030     7.2430     7.2010     9.6660 
   95.6250     2.2500    -6.3450   402.6550    93.6490    23.6530     7.2660     7.4830     9.9520 
   95.7500     2.2530    -6.5170   403.3140    93.0560    23.6980     6.8690     7.5350     9.8140 
   95.8750     2.2630    -6.7030   407.6080    98.9950    23.7360     6.5280     7.3440     9.3500 
   96.0000     2.2630    -6.8740   413.8470   103.6260    23.8100     6.5960     7.0810     8.8870 
   96.1250     2.2610    -7.0150   419.3660   102.9060    23.8900     6.8030     6.8720     8.6160 
   96.2500     2.2630    -7.0900   423.0590   100.3290    23.9130     6.7630     6.7990     8.6210 
   96.3750     2.2690    -7.1130   425.0830    98.6360    23.9020     6.7610     6.9130     8.9240 
   96.5000     2.2700    -7.1210   426.4120    95.5580    23.8960     7.0800     7.1350     9.3550 
   96.6250     2.2600    -7.1430   428.0440    90.5730    23.9140     7.4570     7.3570     9.7210 
   96.7500     2.2430    -7.1810   430.1570    86.7730    23.9000     7.5200     7.4610     9.8430 
   96.8750     2.2360    -7.1790   432.6190    86.4480    23.8560     7.4600     7.3470     9.5890 
   97.0000     2.2480    -7.1300   435.1850    87.6570    23.8000     7.4470     7.0760     9.1110 
   97.1250     2.2620    -7.0590   437.5370    89.3340    23.7130     7.2790     6.7430     8.5880 
   97.2500     2.2620    -6.9710   439.3060    89.8680    23.6820     6.9150     6.4530     8.1950 
   97.3750     2.2520    -6.8500   440.1340    88.9760    23.7600     6.7600     6.2950     8.0540 
   97.5000     2.2540    -6.6650   439.6050    90.0970    23.9380     6.8370     6.2490     8.0800 
   97.6250     2.2690    -6.4360   437.9840    92.2630    24.0900     6.8700     6.2710     8.1710 
   97.7500     2.2830    -6.1970   435.6790    91.3930    24.2380     6.8010     6.3100     8.2340 
   97.8750     2.2830    -5.9860   433.3740    88.1620    24.4010     6.8400     6.3090     8.1870 
