~V
VERS. 2.00: Ver 2.00
~W
STRT.M 100.0000:
STOP.M 292.0000:
STEP.M 0.1250:
NULL. -999.2500:
UWI. DF310:
~C
DEPT.M :
AC.US/MT :
DEN.GM/CC :
GR.API :
CALI.CM :
RXO.OHMM :
RI. :
RML.OHMM :
SP.MV :
~A
# ...
  120.0000   433.9790     2.1490    67.1260    22.6250     8.7400     6.8520     8.7660   -27.6390 
  120.1250   436.3690     2.1650    68.3560    22.6600     8.7000     6.6970     8.5340   -27.3520 
  120.2500   436.8930     2.2060    72.0280    22.7200     8.3700     6.4310     8.1630   -26.9190 
  120.3750   435.4660     2.2590    75.9850    22.7870     7.7820     6.0860     7.7040   -26.3370 
  120.5000   432.5600     2.3030    78.1870    22.8480     7.1380     5.7130     7.2280   -25.6600 
  120.6250   428.4310     2.3260    79.4880    22.8790     6.5460     5.3750     6.8340   -24.9320 
  120.7500   423.4650     2.3410    83.8370    22.8880     6.1010     5.1130     6.5700   -24.1990 
  120.8750   418.4070     2.3520    89.3030    22.8890     5.7460     4.9550     6.4500   -23.5230 
  121.0000   414.7640     2.3510    95.1850    22.8890     5.5430     4.9080     6.4520   -22.9700 
  121.1250   414.2680     2.3320    99.1490    22.8890     5.6420     4.9590     6.5380   -22.5760 
  121.2500   415.8390     2.3080    96.5870    22.8890     5.9100     5.0420     6.6420   -22.3690 
  121.3750   417.8350     2.2890    89.8580    22.8890     6.1760     5.1190     6.7300   -22.3400 
  121.5000   419.2700     2.2680    84.1640    22.8890     6.2520     5.1780     6.7930   -22.4540 
  121.6250   420.0310     2.2360    81.5570    22.8890     6.1610     5.2430     6.8630   -22.7190 
  121.7500   419.6680     2.2040    78.6630    22.8890     6.0970     5.3510     6.9910   -23.1430 
  121.8750   417.0790     2.1910    78.7330    22.8520     6.1780     5.5310     7.2120   -23.7230 
  122.0000   413.2330     2.1960    83.1470    22.7140     6.4580     5.8000     7.5450   -24.3730 
  122.1250   414.3930     2.2050    83.6950    22.4130     6.9270     6.1610     7.9910   -25.0360 
  122.2500   424.5010     2.2080    75.7910    22.2130     7.4050     6.5290     8.4550   -25.6630 
  122.3750   440.4900     2.2050    68.3550    22.1470     7.7480     6.7940     8.7970   -26.2280 
  122.5000   454.2100     2.2000    67.0580    22.1410     7.9250     6.8470     8.8610   -26.7030 
  122.6250   458.6520     2.1970    68.7460    22.1390     7.9180     6.6130     8.5280   -27.0580 
  122.7500   456.6970     2.2020    68.9190    22.1390     7.9170     6.2260     7.9890   -27.2670 
  122.8750   450.1180     2.2220    70.7410    22.1400     7.6350     5.8250     7.4680   -27.3050 
  123.0000   436.9480     2.2490    74.7440    22.1420     6.8910     5.5360     7.1630   -27.2700 
  123.1250   414.8770     2.2740    78.4200    22.1420     6.4800     5.4790     7.2210   -27.2300 
  123.2500   392.8210     2.2890    76.8570    22.1400     6.7080     5.6290     7.5590   -27.2430 
  123.3750   382.2790     2.2920    72.6110    22.1380     7.3230     5.9350     8.0730   -27.3250 
  123.5000   389.2900     2.2840    68.9240    22.1360     8.0030     6.3020     8.6180   -27.4800 
  123.6250   408.9270     2.2640    66.9620    22.1550     8.4270     6.6160     9.0240   -27.6910 
  123.7500   426.2460     2.2390    67.2620    22.2610     8.5630     6.8380     9.2660   -27.9620 
  123.8750   434.5880     2.2110    70.0240    22.4810     8.7160     7.0080     9.4120   -28.3010 
  124.0000   434.4660     2.1830    74.1030    22.6500     9.1460     7.1780     9.5510   -28.6520 
  124.1250   429.5200     2.1700    75.1880    22.7100     9.6600     7.3660     9.7370   -28.9890 
  124.2500   424.0610     2.1730    71.0050    22.7310     9.8110     7.5340     9.9270   -29.2800 
  124.3750   420.1700     2.1850    66.1230    22.7680     9.7730     7.6390    10.0470   -29.5240 
  124.5000   419.0340     2.1990    63.7370    22.7960     9.7320     7.6530    10.0450   -29.7370 
  124.6250   420.7460     2.2120    63.2570    22.8040     9.6380     7.5860     9.9250   -29.9370 
  124.7500   423.1250     2.2220    64.2580    22.8040     9.3800     7.5070     9.7870   -30.1030 
  124.8750   424.4050     2.2210    67.0410    22.8040     9.0860     7.4580     9.6960   -30.2180 
  125.0000   423.9580     2.2100    70.0440    22.8040     8.8840     7.4520     9.6730   -30.2960 
  125.1250   423.5460     2.1990    70.6790    22.8040     9.1250     7.4780     9.7090   -30.3510 
  125.2500   425.7680     2.1980    71.2610    22.8040     9.5050     7.5020     9.7590   -30.3780 
  125.3750   430.5020     2.2030    72.1840    22.8040     9.7780     7.5070     9.7930   -30.3860 
  125.5000   434.7350     2.2000    72.1890    22.8040     9.8100     7.4910     9.8040   -30.3780 
  125.6250   434.5860     2.1830    70.3710    22.8040     9.6520     7.4770     9.8100   -30.3290 
  125.7500   429.5240     2.1610    68.7910    22.8040     9.5540     7.5080     9.8620   -30.2380 
  125.8750   416.9470     2.1460    68.1900    22.8040     9.4620     7.6350    10.0220   -30.0990 
  126.0000   391.1090     2.1520    68.2470    22.8040     9.3620     7.8910    10.3400   -29.8960 
  126.1250   348.5990     2.1910    69.4170    22.8030     9.2540     8.2660    10.8240   -29.6200 
  126.2500   307.3160     2.2450    71.8720    22.8010     9.1450     8.6380    11.3280   -29.2980 
  126.3750   289.6560     2.2840    75.0970    22.8010     9.0110     8.8910    11.6770   -28.9800 
  126.5000   307.3000     2.2860    77.1170    22.8030     8.9460     8.9430    11.7220   -28.6880 
  126.6250   350.3490     2.2530    77.1260    22.8040     9.0040     8.7760    11.3970   -28.4610 
  126.7500   388.9530     2.2210    77.6560    22.8040     9.0130     8.5220    10.9150   -28.2920 
  126.8750   410.3260     2.2010    77.2500    22.8040     8.9730     8.2810    10.4670   -28.1760 
  127.0000   417.0010     2.1910    73.4300    22.8040     8.8970     8.1190    10.1720   -28.0940 
  127.1250   419.2580     2.1820    67.9760    22.8040     8.7190     8.0800    10.0890   -28.0200 
  127.2500   424.8860     2.1700    66.2850    22.8040     8.5310     8.1370    10.1490   -27.9260 
  127.3750   433.7990     2.1560    67.1000    22.8040     8.5880     8.2600    10.2960   -27.7320 
  127.5000   441.8140     2.1460    66.3250    22.8130     8.7400     8.3920    10.4550   -27.4200 
  127.6250   442.5580     2.1560    64.5450    22.8400     8.6940     8.4240    10.4930   -26.9740 
  127.7500   436.4550     2.1870    65.2270    22.8770     8.9650     8.2690    10.2990   -26.4250 
  127.8750   427.6220     2.2330    69.5590    22.8960     9.8170     7.8840     9.8060   -25.7710 
  128.0000   420.5730     2.2820    77.4420    22.9000    10.0570     7.3020     9.0460   -25.0560 
  128.1250   418.9040     2.3120    87.0270    22.8970     8.6880     6.6400     8.1970   -24.3770 
  128.2500   422.3490     2.3160    93.9940    22.8810     7.0110     6.0710     7.5090   -23.8080 
  128.3750   428.2710     2.3010    95.6160    22.8420     6.3020     5.7040     7.1110   -23.4300 
  128.5000   431.5780     2.2820    92.2820    22.8140     6.2910     5.5910     7.0530   -23.2560 
  128.6250   428.6020     2.2620    86.7860    22.8040     6.5930     5.7640     7.3530   -23.2840 
  128.7500   423.7480     2.2370    81.6810    22.8090     7.1870     6.1110     7.8510   -23.4850 
  128.8750   420.3460     2.2110    80.2740    22.8280     8.0140     6.5300     8.4100   -23.8590 
  129.0000   417.1800     2.1890    82.8910    22.8740     8.6620     6.9290     8.9160   -24.3570 
  129.1250   407.6730     2.1830    84.6830    22.9440     8.8110     7.2690     9.3280   -24.9020 
  129.2500   387.2320     2.2010    82.0700    23.0730     8.9250     7.5870     9.7110   -25.4250 
  129.3750   356.1040     2.2490    77.3140    23.2450     9.2180     7.9060    10.1020   -25.8910 
  129.5000   323.9570     2.3040    75.2570    23.4260     9.4520     8.2210    10.4880   -26.2760 
  129.6250   312.5360     2.3130    76.8560    23.5620     9.3760     8.4830    10.7710   -26.5960 
  129.7500   327.9660     2.2650    77.3890    23.6260     9.1110     8.6440    10.8650   -26.8890 
  129.8750   360.0300     2.1950    74.1410    23.6420     8.7780     8.6930    10.7700   -27.1720 
