~V
VERS. 2.00: Ver 2.00
~W
STRT.M 60.0000:
STOP.M 248.0000:
STEP.M 0.1250:
NULL. -999.2500:
UWI. DF313:
~C
DEPT.M :
DEN.GM/CC :
SP.MV :
AC.US/MT :
GR.API :
CALI.CM :
RXO.OHMM :
RI. :
RML.OHMM :
~A
# ...
  200.0000     2.2630   -22.7640   398.1310    70.3930    24.7130    21.2200    15.5520    18.5120 
  200.1250     2.2680   -22.9420   398.3610    71.8680    24.7160    23.9350    16.8310    20.4390 
  200.2500     2.2630   -23.1100   398.2840    71.4570    24.7370    26.2260    18.5690    22.7700 
  200.3750     2.2460   -23.2810   398.0660    68.5870    24.7530    27.5180    20.4640    25.1280 
  200.5000     2.2330   -23.4470   397.8740    66.1670    24.7570    28.3950    22.3700    27.3910 
  200.6250     2.2370   -23.5580   397.6890    63.7290    24.7620    30.2820    24.1810    29.4920 
  200.7500     2.2450   -23.5570   397.3680    60.1220    24.7760    34.1870    25.6960    31.1920 
  200.8750     2.2420   -23.4640   396.7980    58.3140    24.7860    37.7210    26.6690    32.1340 
  201.0000     2.2300   -23.2880   396.0210    60.2980    24.7810    38.1680    26.7830    31.8940 
  201.1250     2.2210   -22.9910   395.3050    65.0990    24.7660    35.5180    25.8950    30.3650 
  201.2500     2.2230   -22.5680   394.8110    69.3150    24.7800    31.8970    24.1360    27.8880 
  201.3750     2.2340   -22.0910   394.4930    70.4790    24.8180    28.1910    22.1710    25.3630 
  201.5000     2.2450   -21.5960   394.0440    68.2950    24.8430    24.4810    20.4570    23.3290 
  201.6250     2.2460   -21.1180   393.2210    63.7610    24.8670    21.9460    19.2680    22.0490 
  201.7500     2.2410   -20.7220   392.0710    60.3650    24.8930    22.0190    18.7680    21.6420 
  201.8750     2.2350   -20.3980   390.9330    59.6320    24.8930    23.5630    18.7680    21.8130 
  202.0000     2.2350   -20.1120   390.4250    61.9400    24.8580    25.0390    19.1280    22.3460 
  202.1250     2.2370   -19.9040   390.7940    64.8820    24.8240    25.5580    19.6860    23.0060 
  202.2500     2.2340   -19.8080   392.0060    64.3950    24.8190    25.5570    20.2760    23.5820 
  202.3750     2.2270   -19.7700   393.7690    62.5760    24.8050    25.9570    20.8200    24.0510 
  202.5000     2.2210   -19.7730   395.5900    60.3010    24.7950    26.6820    21.3530    24.5100 
  202.6250     2.2240   -19.8070   396.9550    56.7760    24.8130    27.4130    21.9520    25.0700 
  202.7500     2.2260   -19.8720   397.5430    55.5650    24.8560    28.5680    22.6710    25.7760 
  202.8750     2.2230   -19.9620   397.2630    58.6930    24.8900    30.5920    23.4090    26.4910 
  203.0000     2.2170   -20.0750   396.2990    63.9130    24.9030    33.0230    24.0260    27.0560 
  203.1250     2.2120   -20.2150   395.3130    67.1280    24.9040    34.7410    24.4170    27.3790 
  203.2500     2.2100   -20.3910   394.7740    66.9430    24.9030    34.8240    24.5480    27.4600 
  203.3750     2.2110   -20.6150   394.8700    64.9650    24.9030    34.1160    24.5670    27.4500 
  203.5000     2.2160   -20.8940   395.4330    61.6470    24.9030    33.6270    24.5800    27.4370 
  203.6250     2.2180   -21.2460   395.9480    59.0560    24.9030    33.7650    24.6270    27.4360 
  203.7500     2.2120   -21.6790   396.1250    58.2970    24.9050    33.7360    24.6540    27.3620 
  203.8750     2.2040   -22.1400   395.8960    57.8140    24.8960    32.3480    24.5620    27.1160 
  204.0000     2.2030   -22.5780   395.3190    57.0560    24.8700    29.6280    24.2650    26.6250 
  204.1250     2.2190   -22.9420   394.5970    57.3850    24.8730    26.8220    23.7260    25.8760 
  204.2500     2.2510   -23.1780   393.8840    58.0290    24.8530    25.3190    22.9790    24.9270 
  204.3750     2.2880   -23.2810   393.4000    58.8750    24.6970    24.5560    22.1650    23.9230 
  204.5000     2.3090   -23.2550   393.5380    61.5360    24.4520    23.7660    21.3510    22.9230 
  204.6250     2.3020   -23.0950   394.3710    64.2360    24.3160    22.9560    20.5720    21.9580 
  204.7500     2.2800   -22.7880   395.7500    65.7490    24.4270    22.6430    19.8870    21.1020 
  204.8750     2.2530   -22.3960   397.2800    67.7880    24.5860    22.3990    19.3510    20.4330 
  205.0000     2.2280   -21.9680   398.4180    68.9590    24.6860    21.9000    19.0360    20.0500 
  205.1250     2.2130   -21.5270   398.9980    65.7940    24.7440    21.7240    19.0190    20.0520 
  205.2500     2.2140   -21.1040   399.2200    60.3910    24.8000    22.7990    19.4000    20.5340 
  205.3750     2.2260   -20.7060   399.5460    60.3760    24.8550    24.4750    20.0570    21.3240 
  205.5000     2.2330   -20.3130   400.5020    64.2630    24.8800    26.1590    20.8540    22.2460 
  205.6250     2.2210   -19.8920   402.0360    67.5890    24.8760    27.8820    21.6260    23.1080 
  205.7500     2.2040   -19.4010   403.8160    69.9280    24.8530    29.4050    22.1640    23.6710 
  205.8750     2.2000   -18.8610   405.3640    72.1780    24.8250    30.0490    22.4020    23.8850 
  206.0000     2.2150   -18.3210   406.1460    72.3160    24.8390    30.0870    22.3890    23.8310 
  206.1250     2.2300   -17.8060   406.1560    70.1300    24.9040    30.5410    22.2960    23.7270 
  206.2500     2.2300   -17.3440   405.5400    67.5710    24.9750    31.6180    22.4550    23.9650 
  206.3750     2.2150   -16.9490   404.4980    67.1440    25.0120    32.8350    23.1770    24.8800 
  206.5000     2.1930   -16.6410   403.3560    68.4660    25.0290    35.4910    24.7490    26.7570 
  206.6250     2.1720   -16.4210   402.6480    69.1740    25.0540    42.2670    27.3980    29.7840 
  206.7500     2.1740   -16.3080   402.7200    66.5090    25.0570    54.8710    31.5190    34.3180 
  206.8750     2.2220   -16.2750   403.4870    62.4530    25.0520    67.7450    37.0910    40.3610 
  207.0000     2.3220   -16.2600   404.2580    61.0100    25.0660    76.0870    44.3860    48.3080 
  207.1250     2.4540   -16.2320   404.2420    63.1020    25.0900    82.4920    53.6210    58.5850 
  207.2500     2.5660   -16.1620   403.2490    63.9090    25.0700    99.1490    63.4840    69.5750 
  207.3750     2.6270   -16.0280   401.6460    61.2990    25.0110   129.8210    68.4260    72.6480 
  207.5000     2.6310   -15.8110   399.7960    56.6440    24.9500   162.7960    62.0680    59.7870 
  207.6250     2.6040   -15.5310   397.1130    51.6910    24.8970   158.4130    45.4500    38.3830 
  207.7500     2.5900   -15.1970   392.1030    48.4770    24.8320   100.2720    28.7300    22.6990 
  207.8750     2.6090   -14.8380   383.3760    46.1770    24.7240    42.2250    17.6320    13.8390 
  208.0000     2.6620   -14.4940   370.4670    41.6790    24.5570    18.2760    11.5990     9.4880 
  208.1250     2.7200   -14.2010   356.4840    33.3300    24.3780    18.1740     8.9420     7.9000 
  208.2500     2.7360   -14.0130   345.0300    24.3390    24.3200    40.9360     8.5970     8.3510 
  208.3750     2.6920   -13.9350   339.6740    19.2940    24.3810    81.1730     9.4740     9.9300 
  208.5000     2.6070   -13.9540   344.3780    18.0440    24.4660    98.7700    10.8500    11.6980 
  208.6250     2.5150   -14.0480   357.5170    19.2290    24.5170    70.7650    11.4250    12.0260 
  208.7500     2.4340   -14.1930   376.4570    21.6520    24.4730    29.6930    10.0130     9.8430 
  208.8750     2.3630   -14.3260   397.2790    24.5900    24.2440    11.4480     7.8090     7.0670 
  209.0000     2.3090   -14.4130   415.4080    27.2540    23.8210     5.5150     5.8570     4.9240 
  209.1250     2.2860   -14.4390   428.9310    28.9960    23.3830     3.9020     4.5130     3.6480 
  209.2500     2.2930   -14.3690   437.8430    30.5950    23.2280     3.6860     3.8160     3.1460 
  209.3750     2.3120   -14.2010   443.2240    31.6290    23.3830     3.6660     3.5230     3.0710 
  209.5000     2.3220   -13.9510   445.8930    31.4340    23.7050     3.6760     3.4970     3.2430 
  209.6250     2.3130   -13.6460   446.6400    30.3580    24.0140     3.6760     3.6020     3.4920 
  209.7500     2.3070   -13.3270   445.4570    30.7280    24.1740     3.6660     3.7200     3.6750 
  209.8750     2.3170   -13.0240   442.4620    32.4010    24.2190     3.7890     3.7970     3.7690 
