~V
VERS. 2.00: Ver 2.00
~W
STRT.M 60.0000:
STOP.M 247.0000:
STEP.M 0.1250:
NULL. -999.2500:
UWI. DF315:
~C
DEPT.M :
DEN.GM/CC :
AC.US/MT :
GR.API :
RML.OHMM :
RI. :
RXO.OHMM :
CALI.CM :
SP.MV :
~A
# ...
  220.0000     2.3610   319.8090   102.1410    12.4650    11.3690    14.1960    24.6040   -11.4620 
  220.1250     2.3710   320.6600   104.2300    12.6440    11.7600    14.3030    24.5410   -11.5620 
  220.2500     2.3760   324.3680   107.0060    12.3480    11.7340    14.0500    24.4410   -11.6910 
  220.3750     2.3730   329.2060   105.5050    11.6880    11.3250    13.4260    24.3800   -11.7930 
  220.5000     2.3610   335.0500   101.4860    10.8440    10.6470    12.5670    24.3640   -11.8220 
  220.6250     2.3390   342.9190   102.5970    10.0710     9.8920    11.5280    24.3710   -11.7830 
  220.7500     2.3170   350.5960   106.0350     9.5900     9.2980    10.3070    24.4040   -11.7490 
  220.8750     2.3020   354.7270   107.7000     9.5580     9.0370     9.8500    24.4910   -11.7570 
  221.0000     2.2990   353.5350   107.1090    10.0470     9.2060    10.2030    24.6110   -11.7980 
  221.1250     2.3120   347.3980   105.7810    11.0370     9.8350    11.5020    24.7240   -11.8030 
  221.2500     2.3360   339.6020   103.6980    12.1490    10.6400    13.6020    24.7840   -11.7520 
  221.3750     2.3620   332.1770   101.6100    12.9600    11.3040    16.0640    24.8030   -11.7020 
  221.5000     2.3790   329.1160   100.4850    13.0560    11.4970    18.0840    24.7950   -11.7070 
  221.6250     2.3800   338.0570   101.6230    12.1240    10.9330    17.6780    24.7470   -11.7200 
  221.7500     2.3680   357.3970   104.7190    10.6510     9.8990    14.3410    24.6620   -11.6790 
  221.8750     2.3480   378.4860   108.1450     9.2260     8.8000    10.0660    24.6120   -11.6060 
  222.0000     2.3290   389.9230   107.6770     8.3710     8.0190     7.7920    24.6270   -11.5480 
  222.1250     2.3170   384.3630   105.3240     8.4610     7.8660     8.0750    24.6930   -11.5840 
  222.2500     2.3150   369.1180   105.8400     9.2430     8.2450     9.4860    24.7220   -11.6820 
  222.3750     2.3220   351.7320   106.4810    10.3660     8.9860    11.2710    24.7300   -11.7660 
  222.5000     2.3320   338.2200   102.9730    11.3610     9.8070    12.9600    24.7330   -11.8040 
  222.6250     2.3370   334.0150    96.3460    11.6480    10.2950    13.7930    24.7290   -11.8290 
  222.7500     2.3330   340.7720    94.2600    11.1840    10.2650    13.0670    24.7020   -11.8770 
  222.8750     2.3220   357.6560    95.5170    10.2530     9.7780    10.8970    24.6390   -11.9400 
  223.0000     2.3080   378.9940    96.2480     9.3380     9.1090     8.5180    24.5930   -11.9450 
  223.1250     2.2990   393.3100    95.5090     8.8940     8.5930     7.5200    24.5790   -11.8530 
  223.2500     2.2920   395.6550    95.3870     8.8720     8.3200     7.5200    24.5750   -11.6910 
  223.3750     2.2860   390.0750    98.4010     9.0170     8.2070     8.0790    24.5610   -11.5340 
  223.5000     2.2770   384.9870   103.0070     8.9870     8.0790     8.5180    24.5360   -11.3950 
  223.6250     2.2690   387.9090   105.1040     8.4580     7.7190     8.2390    24.5020   -11.2240 
  223.7500     2.2680   398.0630   100.7350     7.5740     7.1140     7.4090    24.4080   -11.0260 
  223.8750     2.2760   411.5890    89.1710     6.6290     6.3880     6.2550    24.2480   -10.8180 
  224.0000     2.2930   421.0620    73.6860     5.9360     5.7460     5.2000    24.1340   -10.6450 
  224.1250     2.3140   422.0680    61.9120     5.6830     5.4180     5.0680    24.1670   -10.4900 
  224.2500     2.3320   415.1410    57.7230     5.7760     5.4030     5.6890    24.3300   -10.3850 
  224.3750     2.3420   404.0930    60.5290     6.0840     5.6300     6.6830    24.5220   -10.3440 
  224.5000     2.3420   392.7010    67.9090     6.3960     5.9700     7.6980    24.6550   -10.3270 
  224.6250     2.3320   388.6370    76.2890     6.6090     6.2570     7.9880    24.6970   -10.3580 
  224.7500     2.3170   392.0590    80.9800     6.7020     6.4000     7.4500    24.7140   -10.4610 
  224.8750     2.3030   396.0040    80.6490     6.7360     6.4160     6.8800    24.7240   -10.5650 
  225.0000     2.2960   395.4100    78.9380     6.7990     6.4100     6.7000    24.7280   -10.6750 
  225.1250     2.2990   388.2940    82.9980     7.0770     6.5370     7.0130    24.7280   -10.8550 
  225.2500     2.3090   377.2740    90.1760     7.5500     6.8300     7.7620    24.7280   -11.0320 
  225.3750     2.3220   364.9440    96.0790     8.1000     7.2430     8.7870    24.7280   -11.1500 
  225.5000     2.3310   354.6660    98.7230     8.5660     7.6700     9.7570    24.7280   -11.2670 
  225.6250     2.3340   350.1230   100.0450     8.7740     7.9660    10.0840    24.7290   -11.4070 
  225.7500     2.3320   349.7820   100.1110     8.7580     8.0970     9.6640    24.7340   -11.4870 
  225.8750     2.3260   350.4870    96.9070     8.6460     8.1150     8.9250    24.7530   -11.5710 
  226.0000     2.3200   349.8700    92.7530     8.6190     8.1330     8.7870    24.7900   -11.6640 
  226.1250     2.3220   347.5710    91.4610     8.8540     8.2790     9.7040    24.8070   -11.6840 
  226.2500     2.3340   345.4000    90.8690     9.3000     8.5470    10.7980    24.8010   -11.6640 
  226.3750     2.3520   345.0080    91.0150     9.8030     8.8510    11.5730    24.7640   -11.6530 
  226.5000     2.3680   348.1350    93.4330    10.1440     9.0550    11.8890    24.6940   -11.6030 
  226.6250     2.3690   357.3740    97.8080    10.0390     8.9700    11.0600    24.6170   -11.4780 
  226.7500     2.3570   371.4830   101.0080     9.5200     8.5850     9.7060    24.5850   -11.3860 
  226.8750     2.3380   387.2570   100.8960     8.7280     7.9740     8.2680    24.5780   -11.2850 
  227.0000     2.3200   400.5360    97.7440     7.8880     7.2790     7.0850    24.5780   -11.1080 
  227.1250     2.3100   407.9860    93.2170     7.2290     6.6670     6.4250    24.5780   -10.9220 
  227.2500     2.3050   410.6740    88.6660     6.7490     6.2170     6.2250    24.5780   -10.7940 
  227.3750     2.3020   409.9610    83.7320     6.4660     5.9480     6.3420    24.5780   -10.6660 
  227.5000     2.3010   407.6660    78.7160     6.3640     5.8460     6.5460    24.5710   -10.5470 
  227.6250     2.3000   405.2550    77.4270     6.4300     5.8970     6.6870    24.5480   -10.5240 
  227.7500     2.3000   402.5880    79.8790     6.5890     6.0350     6.8010    24.5180   -10.5220 
  227.8750     2.3010   398.7300    83.1840     6.7930     6.2170     6.9890    24.5180   -10.5350 
  228.0000     2.3020   393.4700    86.2230     6.9920     6.3980     7.3070    24.5540   -10.6320 
  228.1250     2.3040   387.8130    87.5570     7.1300     6.5310     7.6730    24.6250   -10.7680 
  228.2500     2.3060   383.1700    88.3990     7.1960     6.6030     7.9260    24.6620   -10.8640 
  228.3750     2.3070   380.2880    89.3390     7.2020     6.6210     7.9780    24.6740   -10.9790 
  228.5000     2.3150   379.1390    88.7770     7.1860     6.6130     7.8530    24.6790   -11.1080 
  228.6250     2.3220   379.1680    83.8700     7.2000     6.6250     7.6200    24.6810   -11.1920 
  228.7500     2.3290   379.6840    76.7960     7.2670     6.6810     7.5670    24.6810   -11.2980 
  228.8750     2.3360   380.3880    70.9960     7.3740     6.7780     7.5690    24.6810   -11.4210 
  229.0000     2.3410   381.0760    69.0400     7.4910     6.8920     7.6340    24.6810   -11.4870 
  229.1250     2.3410   381.8130    74.1720     7.5830     6.9910     7.5790    24.6810   -11.5550 
  229.2500     2.3370   383.0330    82.1080     7.6660     7.0760     7.3830    24.6810   -11.6390 
  229.3750     2.3310   383.2860    87.9200     7.7750     7.1730     7.2890    24.6820   -11.6870 
  229.5000     2.3270   379.9620    90.1710     7.9420     7.3070     7.4930    24.6830   -11.7610 
  229.6250     2.3270   372.1180    88.0530     8.1550     7.4740     8.1910    24.6720   -11.8470 
  229.7500     2.3290   363.9580    85.5330     8.3230     7.5980     9.0180    24.6410   -11.8560 
  229.8750     2.3300   361.6740    86.2840     8.3240     7.5940     9.4900    24.6090   -11.8470 
