~V
VERS. 2.00: Ver 2.00
~W
STRT.M 51.0000:
STOP.M 228.0000:
STEP.M 0.1250:
NULL. -999.2500:
UWI. DF314:
~C
DEPT.M :
DEN.GM/CC :
AC.US/MT :
GR.API :
CALI.CM :
RXO.OHMM :
RI. :
RML.OHMM :
SP.MV :
~A
# ...
  191.0000     2.2330   400.6170    61.5460    25.3470    65.7110    58.6700    62.8220   -19.7370 
  191.1250     2.2400   397.4970    59.7470    25.3020    71.6480    60.7290    65.0300   -20.2880 
  191.2500     2.2480   393.3330    61.4580    25.1370    73.5500    62.6200    67.0570   -20.9350 
  191.3750     2.2530   387.6000    63.7860    24.8800    72.5020    63.7100    68.2260   -21.4980 
  191.5000     2.2510   381.0470    62.6530    24.6740    71.2280    63.5890    68.0960   -21.9290 
  191.6250     2.2450   376.1250    60.3700    24.6780    68.0170    61.8850    66.2690   -22.2920 
  191.7500     2.2390   373.9060    60.0980    24.8150    62.5980    59.0110    63.1880   -22.2380 
  191.8750     2.2370   373.1170    59.4640    24.9340    56.5540    55.5090    59.4320   -21.7530 
  192.0000     2.2390   371.0140    57.1210    24.9530    49.6960    52.1170    55.7950   -21.1170 
  192.1250     2.2420   365.0190    56.0460    24.8940    42.7360    49.8050    53.3150   -20.6810 
  192.2500     2.2430   356.5370    58.4910    24.8160    40.4120    49.0840    52.5430   -20.6210 
  192.3750     2.2430   347.9460    61.5460    24.7510    46.2930    50.3560    53.9070   -20.9970 
  192.5000     2.2420   341.2600    60.7410    24.7250    58.3190    53.7280    57.5220   -21.6550 
  192.6250     2.2420   337.7440    56.6180    24.7630    67.3370    58.9930    63.1690   -22.2260 
  192.7500     2.2440   337.0500    54.2990    24.8230    70.2580    64.6770    69.2630   -22.8750 
  192.8750     2.2440   339.6770    56.4360    24.8590    73.0500    69.3840    74.3110   -23.6070 
  193.0000     2.2410   346.3480    59.0230    24.8370    78.9420    72.1120    77.2360   -24.2570 
  193.1250     2.2340   356.9620    57.0940    24.7080    78.6800    72.6410    77.8030   -24.6310 
  193.2500     2.2250   367.9200    54.3100    24.5140    71.0230    72.3720    77.5160   -24.5920 
  193.3750     2.2180   375.9190    54.0560    24.3390    66.9930    72.4070    77.5530   -24.1900 
  193.5000     2.2130   379.2350    55.9880    24.2730    76.1700    73.4640    78.6860   -23.5760 
  193.6250     2.2120   378.1190    56.4520    24.3530    91.0420    75.8230    81.2160   -22.9270 
  193.7500     2.2150   375.3400    54.7800    24.4960    97.6440    78.6970    84.2980   -22.2590 
  193.8750     2.2220   371.9750    52.4450    24.6370    98.0010    81.1190    86.8950   -21.6760 
  194.0000     2.2330   367.7600    49.9990    24.7440   100.2530    82.0790    87.9240   -21.3250 
  194.1250     2.2510   361.3340    48.8040    24.8160   101.5110    80.8840    86.6440   -21.2150 
  194.2500     2.2800   352.4590    50.4370    24.8530    95.7780    78.7660    84.3720   -21.3530 
  194.3750     2.3230   340.8550    53.6170    24.8410    86.9650    77.2890    82.7880   -21.7960 
  194.5000     2.3830   325.5240    54.4000    24.7970    83.2840    78.0890    83.6460   -22.4930 
  194.6250     2.4570   304.0280    49.3280    24.7600    91.5200    83.5210    89.4710   -23.3480 
  194.7500     2.5330   277.4580    43.4170    24.7380   111.1260    94.3620   101.0970   -23.9070 
  194.8750     2.5990   248.7440    41.2190    24.7080   138.7070   111.2940   119.2530   -23.7390 
  195.0000     2.6480   222.4950    43.5630    24.6670   165.0110   133.6650   143.2440   -22.8220 
  195.1250     2.6700   205.1650    47.2160    24.6560   175.7340   156.6640   167.9060   -21.5200 
  195.2500     2.6700   198.7570    48.3500    24.6810   171.2280   168.9340   181.0640   -20.3370 
  195.3750     2.6540   203.8520    47.1140    24.6860   159.2410   159.8800   171.3550   -19.3320 
  195.5000     2.6250   219.4970    47.3270    24.5910   142.4550   129.4310   138.7030   -18.5180 
  195.6250     2.5880   245.0620    51.8140    24.3510   106.4030    90.5470    97.0050   -17.8060 
  195.7500     2.5480   276.0340    56.8260    24.0840    63.0900    58.0620    62.1700   -17.2900 
  195.8750     2.5080   308.3800    58.6810    23.9110    33.8000    35.8240    38.3220   -17.2020 
  196.0000     2.4690   337.7880    57.1440    23.8890    22.1620    22.3270    23.8500   -17.5520 
  196.1250     2.4370   360.5640    55.1630    23.9960    16.2200    15.0080    16.0010   -18.2390 
  196.2500     2.4140   378.0200    54.7080    24.1340    10.7010    10.5420    11.2110   -18.9570 
  196.3750     2.3990   391.6690    55.4420    24.3370     6.8810     7.8700     8.3460   -19.4090 
  196.5000     2.3910   402.1170    54.2230    24.6010     5.4740     6.3800     6.7480   -19.4260 
  196.6250     2.3940   407.4280    49.2840    24.7810     5.5230     5.7560     6.0790   -19.0960 
  196.7500     2.4110   406.1860    44.4530    24.7860     5.6990     5.6000     5.9120   -18.7540 
  196.8750     2.4450   396.9710    42.4500    24.7020     5.7320     5.7410     6.0640   -18.4890 
  197.0000     2.4930   379.8740    42.6590    24.6620     5.6770     6.0290     6.3720   -18.2550 
  197.1250     2.5350   357.2910    42.2150    24.6980     5.6020     6.3620     6.8680   -17.9990 
  197.2500     2.5540   336.1830    41.2340    24.7050     5.5790     6.6790     7.6240   -17.5900 
  197.3750     2.5450   322.6920    41.3980    24.6220     5.6410     6.6900     7.6370   -17.1070 
  197.5000     2.5120   320.8800    43.4990    24.5040     5.7640     6.5030     7.4280   -16.7280 
  197.6250     2.4640   332.3860    45.8060    24.5010     5.8320     6.1480     7.0320   -16.6300 
  197.7500     2.4190   350.8660    46.0420    24.6020     5.7200     5.7540     6.5930   -16.6420 
  197.8750     2.3830   371.2590    44.8360    24.6740     5.3940     5.4090     6.2070   -16.6950 
  198.0000     2.3600   389.2880    43.9950    24.6270     4.9710     5.1630     5.9320   -16.7900 
  198.1250     2.3500   400.3280    45.1500    24.5020     4.7200     5.0370     5.7920   -16.9090 
  198.2500     2.3450   403.4510    47.0150    24.4260     4.7250     4.9720     5.7190   -17.0500 
  198.3750     2.3400   400.0660    47.4100    24.5070     4.8370     4.9220     5.6630   -17.1860 
  198.5000     2.3340   394.6670    44.8110    24.6960     4.8300     4.8500     5.5840   -17.2300 
  198.6250     2.3260   393.0020    39.6440    24.8110     4.6170     4.7210     5.4390   -17.0810 
  198.7500     2.3190   395.1480    35.7280    24.8100     4.3970     4.5460     5.2440   -16.9440 
  198.8750     2.3170   396.9220    34.7960    24.7680     4.2990     4.3580     5.0340   -16.9360 
  199.0000     2.3210   392.6490    36.0080    24.7500     4.3360     4.2120     4.8710   -17.0720 
  199.1250     2.3280   376.6850    39.3400    24.6920     4.5770     4.2000     4.8570   -17.3620 
  199.2500     2.3350   351.6300    44.9290    24.5470     5.2820     4.3670     5.0440   -17.8460 
  199.3750     2.3390   322.0460    51.8620    24.3980     6.8080     4.7460     5.4670   -18.5470 
  199.5000     2.3410   293.9060    58.5330    24.3930     9.2210     5.3250     6.1140   -19.3560 
  199.6250     2.3420   274.8990    64.4750    24.5650    11.6590     6.0500     6.9230   -20.1000 
  199.7500     2.3410   267.9180    68.2170    24.7340    12.6970     6.7530     7.7070   -20.7600 
  199.8750     2.3380   273.4370    68.6210    24.8240    12.0390     7.2720     8.2860   -21.3480 
  200.0000     2.3330   288.9530    65.6990    24.8770    10.7070     7.4870     8.5270   -21.8490 
  200.1250     2.3270   310.4050    63.1590    24.9200     9.9550     7.3350     8.3570   -22.2140 
  200.2500     2.3230   331.8150    62.9970    24.9240     9.7620     6.9820     7.9620   -22.4340 
  200.3750     2.3200   349.1980    63.1490    24.8980     9.8300     6.5640     7.4970   -22.4980 
  200.5000     2.3190   359.4010    61.9950    24.8710    10.1450     6.1940     7.0840   -22.4560 
  200.6250     2.3210   359.4520    60.6510    24.8600    10.6800     5.9500     6.8110   -22.5090 
  200.7500     2.3230   352.3260    62.7370    24.8570    10.8570     5.8160     6.6620   -22.7120 
  200.8750     2.3250   341.9400    66.8900    24.8640    10.2960     5.7640     6.6030   -23.0800 
