~V
VERS. 2.00: Ver 2.00
~W
STRT.M 58.0000:
STOP.M 221.0000:
STEP.M 0.1250:
NULL. -999.2500:
UWI. DF318:
~C
DEPT.M :
DEN.GM/CC :
SP.MV :
AC.US/MT :
GR.API :
CALI.CM :
RXO.OHMM :
RI. :
RML.OHMM :
~A
# ...
  138.0000     2.6520    -6.6320   230.7850    57.4270    24.4850    35.4250    38.9010    43.1620 
  138.1250     2.6690    -6.5530   232.8820    55.3490    24.4750    33.9640    37.0690    40.8210 
  138.2500     2.6760    -6.4360   236.9500    55.3060    24.4900    33.4920    34.0770    37.1500 
  138.3750     2.6670    -6.3300   243.2940    56.2790    24.5120    31.4840    30.4930    32.9240 
  138.5000     2.6450    -6.2150   250.8810    58.0910    24.5470    26.6660    27.2550    29.2580 
  138.6250     2.6160    -6.1220   256.7180    60.7180    24.5810    21.3310    24.9700    26.8620 
  138.7500     2.5870    -6.0560   258.3370    63.6690    24.6070    18.9870    23.9780    26.1100 
  138.8750     2.5730    -6.0370   254.9840    64.1530    24.6160    21.1110    24.5140    27.2040 
  139.0000     2.5890    -6.0590   248.3260    61.7810    24.6070    25.7370    25.9880    29.3070 
  139.1250     2.6160    -6.1180   242.5510    58.9350    24.5740    30.5950    27.6950    31.4600 
  139.2500     2.6250    -6.2310   240.1150    57.5640    24.4870    32.5410    28.7000    32.4940 
  139.3750     2.6140    -6.3590   241.4700    58.0740    24.3210    29.7640    28.0580    31.3980 
  139.5000     2.6130    -6.4890   245.1410    58.6740    24.2040    26.3570    26.2910    29.0900 
  139.6250     2.6340    -6.6230   248.2150    58.5980    24.2230    24.0700    24.2560    26.7310 
  139.7500     2.6570    -6.7400   249.0770    58.8670    24.3550    22.2250    22.6820    25.1700 
  139.8750     2.6650    -6.8350   247.2600    61.7300    24.5970    20.3930    22.0250    24.8540 
  140.0000     2.6610    -6.9380   243.7250    64.9970    24.7130    20.7760    22.0820    25.3860 
  140.1250     2.6570    -7.0370   241.3640    65.1890    24.7480    23.9700    22.6000    26.3450 
  140.2500     2.6450    -7.1190   242.6940    61.6920    24.7350    27.5330    23.2680    27.2660 
  140.3750     2.6160    -7.1940   249.0230    57.0160    24.7120    27.1910    23.7850    27.7220 
  140.5000     2.5800    -7.3170   259.8520    53.9430    24.6970    24.2660    24.0250    27.6470 
  140.6250     2.5530    -7.4650   271.5450    53.0270    24.6820    22.3530    23.9170    27.0470 
  140.7500     2.5380    -7.6510   281.5310    54.1580    24.6590    22.7390    23.4240    25.9880 
  140.8750     2.5260    -7.8820   288.4510    57.6090    24.5960    24.3220    22.5580    24.5980 
  141.0000     2.5140    -8.1070   292.0180    63.0430    24.4710    25.2550    21.5180    23.1440 
  141.1250     2.5000    -8.3100   293.9230    68.9280    24.3640    24.4170    20.4230    21.7690 
  141.2500     2.4900    -8.4860   295.4920    71.9050    24.3680    22.3070    19.3490    20.5510 
  141.3750     2.4930    -8.6290   297.8750    68.6850    24.4420    19.8600    18.3480    19.5180 
  141.5000     2.5050    -8.7020   301.7160    62.1310    24.4740    19.2280    17.3930    18.5550 
  141.6250     2.5030    -8.7350   304.2520    56.1900    24.5690    17.4290    16.4340    17.5570 
  141.7500     2.4830    -8.7400   306.8830    54.2330    24.7420    14.5700    15.4570    16.4910 
  141.8750     2.4650    -8.7240   311.0820    56.1380    24.8180    12.9360    14.5510    15.4870 
  142.0000     2.4730    -8.6730   314.1080    58.5180    24.7680    12.4860    13.8550    14.7510 
  142.1250     2.4850    -8.6290   316.2140    61.1200    24.7240    12.1370    13.4950    14.4560 
  142.2500     2.4810    -8.5630   317.4130    64.5010    24.7190    11.8080    13.5370    14.6710 
  142.3750     2.4590    -8.4820   317.2510    67.0780    24.6940    12.1890    13.9890    15.3630 
  142.5000     2.4400    -8.3940   315.0160    66.6420    24.7230    12.9600    14.6190    16.2030 
  142.6250     2.4340    -8.3140   311.5610    64.6830    24.7700    13.5500    15.2290    16.9330 
  142.7500     2.4400    -8.2220   308.1530    63.8990    24.7570    13.6750    15.6600    17.3720 
  142.8750     2.4540    -8.1020   305.7160    64.4840    24.6960    13.3790    15.8360    17.4800 
  143.0000     2.4690    -7.9900   303.9640    63.9420    24.6460    13.0520    15.9280    17.5430 
  143.1250     2.4800    -7.8780   301.6480    62.1390    24.6190    13.3120    16.1310    17.8320 
  143.2500     2.4870    -7.7890   298.2040    63.1680    24.6050    14.2780    16.5830    18.5000 
  143.3750     2.4960    -7.7210   294.1760    67.2190    24.5730    15.8010    17.3080    19.5140 
  143.5000     2.5040    -7.6880   291.0690    68.8560    24.4620    17.3310    18.0890    20.5460 
  143.6250     2.5050    -7.6290   289.6860    66.8640    24.3320    18.2910    18.7090    21.3090 
  143.7500     2.4970    -7.5710   289.9150    63.2780    24.3240    18.3280    19.0020    21.6230 
  143.8750     2.4840    -7.5090   290.9380    62.2730    24.4510    17.6440    18.9030    21.4620 
  144.0000     2.4740    -7.4500   291.7860    63.7800    24.5780    17.0290    18.6350    21.1370 
  144.1250     2.4760    -7.3730   292.0750    65.1780    24.5920    16.9080    18.4020    20.9050 
  144.2500     2.4900    -7.2800   291.8480    63.1720    24.5480    17.0690    18.3810    20.9700 
  144.3750     2.5200    -7.1650   291.2010    59.6480    24.5340    17.1540    18.7310    21.5060 
  144.5000     2.5110    -7.0150   289.9880    59.3200    24.5390    17.7970    19.3820    22.3960 
  144.6250     2.4910    -6.8830   288.3760    59.7030    24.5430    19.2950    20.2010    23.4520 
  144.7500     2.4810    -6.7570   286.8210    59.0660    24.5430    20.8360    20.9860    24.4010 
  144.8750     2.4920    -6.6520   286.0270    60.0320    24.5370    21.2180    21.4810    24.9130 
  145.0000     2.5080    -6.5770   286.8200    60.7540    24.5140    20.6160    21.6180    24.9450 
  145.1250     2.5140    -6.5420   288.9090    58.0190    24.4670    19.9950    21.4170    24.5660 
  145.2500     2.5070    -6.5460   291.8440    53.7560    24.4010    19.6570    20.9810    23.9390 
  145.3750     2.4960    -6.5860   295.0910    52.9120    24.3310    19.7320    20.4980    23.3180 
  145.5000     2.4840    -6.7180   297.9160    54.1850    24.2620    19.6090    20.1960    22.9640 
  145.6250     2.4740    -6.8860   299.3950    54.9820    24.2360    19.1850    20.2680    23.1080 
  145.7500     2.4700    -7.0770   298.4270    54.7440    24.2380    18.7960    20.8810    23.9530 
  145.8750     2.4750    -7.2740   294.4000    53.3260    24.2160    20.0440    22.2060    25.6840 
  146.0000     2.4860    -7.4390   287.8640    52.7240    24.1410    23.1600    23.9400    27.8530 
  146.1250     2.4990    -7.6000   281.7280    54.3230    24.0730    27.1320    25.5760    29.7430 
  146.2500     2.5070    -7.7500   278.5450    56.2400    24.0210    29.4140    26.4200    30.4470 
  146.3750     2.5060    -7.8970   279.7060    57.0840    23.9510    27.5650    25.7560    29.1660 
  146.5000     2.4880    -7.9940   285.1830    58.0890    23.9190    23.3110    24.0500    26.7190 
  146.6250     2.4700    -8.0610   292.0140    58.6950    23.9010    19.2500    22.0070    24.1110 
  146.7500     2.4680    -8.1020   297.7670    57.1480    23.8980    16.9500    20.2820    22.1480 
  146.8750     2.4830    -8.1090   300.7390    53.9450    23.9190    16.7610    19.3610    21.3410 
  147.0000     2.4980    -8.1290   300.0840    52.7280    24.0050    17.6170    19.1470    21.4160 
  147.1250     2.4960    -8.1240   297.4330    53.7800    24.1090    18.8900    19.4350    22.0190 
  147.2500     2.4830    -8.1070   294.2820    54.8680    24.1780    19.8540    19.9050    22.6970 
  147.3750     2.4700    -8.0800   291.8700    54.5600    24.1870    19.6680    20.1840    22.9810 
  147.5000     2.4700    -8.0280   291.0650    53.9890    24.1760    18.7600    20.1480    22.8220 
  147.6250     2.4830    -7.9630   291.5790    54.2390    24.2440    17.8140    19.8820    22.3980 
  147.7500     2.5010    -7.8970   293.0440    55.3300    24.3470    17.4750    19.5810    21.9910 
  147.8750     2.5080    -7.8600   294.8970    56.0500    24.4930    17.7090    19.4640    21.8700 
