~V
VERS. 2.00: Ver 2.00
~W
STRT.M 60.0000:
STOP.M 247.0000:
STEP.M 0.1250:
NULL. -999.2500:
UWI. DF315:
~C
DEPT.M :
DEN.GM/CC :
AC.US/MT :
GR.API :
RML.OHMM :
RI. :
RXO.OHMM :
CALI.CM :
SP.MV :
~A
# ...
  140.0000     2.1930   434.0120    64.2780    32.9340    29.0680    31.0220    23.9260    -7.5500 
  140.1250     2.1910   431.0430    62.8810    36.1690    32.3810    33.3690    23.9410    -7.4690 
  140.2500     2.1970   432.6930    63.4540    37.6070    34.5150    32.8150    24.0060    -7.3670 
  140.3750     2.2090   438.1950    63.7480    37.2080    35.0680    30.3190    24.1210    -7.2650 
  140.5000     2.2200   442.3750    61.2420    35.5060    34.1670    27.7680    24.2050    -7.1900 
  140.6250     2.2250   441.1020    57.2390    33.1450    32.2360    26.5810    24.2320    -7.2100 
  140.7500     2.2210   439.0570    57.8510    30.6680    29.9720    26.2560    24.2320    -7.2940 
  140.8750     2.2140   440.1170    62.5470    28.2520    27.6820    26.5200    24.2180    -7.4000 
  141.0000     2.2070   441.4520    67.7860    26.0300    25.5640    26.0550    24.1870    -7.5130 
  141.1250     2.2060   438.1420    72.6020    24.2800    23.8600    23.3050    24.1250    -7.6600 
  141.2500     2.2070   431.4600    75.0060    23.1720    22.6820    18.9020    24.0610    -7.8090 
  141.3750     2.2030   425.7040    73.1750    22.8560    22.1340    17.3350    24.0670    -7.9410 
  141.5000     2.1880   423.8480    67.8120    23.3630    22.2430    17.7180    24.2190    -8.0320 
  141.6250     2.1610   425.8040    63.0570    24.6650    23.0320    18.8220    24.5630    -8.0600 
  141.7500     2.1380   429.0840    62.0980    26.3440    24.2130    19.7590    24.7480    -8.0230 
  141.8750     2.1270   432.9190    62.6300    28.0370    25.5310    20.3050    24.6240    -7.9410 
  142.0000     2.1350   436.4860    61.9790    29.3880    26.7090    20.5070    24.1860    -7.8490 
  142.1250     2.1550   438.4490    60.7030    30.0660    27.4770    21.0650    23.8030    -7.7420 
  142.2500     2.1730   438.7060    62.2400    30.2410    27.9190    22.4300    23.8130    -7.6350 
  142.3750     2.1820   437.0850    67.1760    30.3080    28.2780    23.9040    23.9700    -7.5240 
  142.5000     2.1830   432.6220    71.6390    30.8560    28.9200    24.7100    24.1300    -7.4220 
  142.6250     2.1910   422.9010    70.9790    32.5490    30.3170    26.4180    24.2880    -7.3460 
  142.7500     2.2160   408.0290    67.7670    35.1320    32.4190    30.2630    24.4140    -7.3180 
  142.8750     2.2550   387.6680    65.9820    38.0090    34.8770    36.3810    24.4920    -7.3320 
  143.0000     2.2960   364.6090    65.6040    40.1670    37.0350    42.0230    24.5110    -7.3670 
  143.1250     2.3140   352.5050    63.9860    40.6020    37.8800    46.2880    24.4250    -7.4220 
  143.2500     2.2990   362.3820    63.7450    39.2570    37.1420    44.2590    24.2900    -7.4950 
  143.3750     2.2590   392.0920    67.3820    36.8860    35.0430    32.9370    24.2080    -7.6050 
  143.5000     2.2150   424.6410    71.6950    34.4120    32.2840    24.6860    24.1540    -7.7450 
  143.6250     2.1830   439.4410    70.1650    31.6660    29.7940    22.6400    24.1140    -7.9060 
  143.7500     2.1660   439.0240    65.8840    29.6100    27.9510    23.4460    24.0830    -8.0200 
  143.8750     2.1580   433.6140    62.4120    28.2440    26.7680    23.3660    24.0720    -8.1020 
  144.0000     2.1560   430.6840    61.0410    27.4170    26.1840    22.9070    24.0710    -8.1790 
  144.1250     2.1590   430.6280    64.5120    27.0090    25.7390    22.5790    24.0710    -8.2570 
  144.2500     2.1720   430.7730    71.6940    26.8660    25.4100    22.3170    24.0710    -8.2950 
  144.3750     2.1990   429.9450    77.2620    26.9860    25.3250    23.0250    24.0690    -8.3140 
  144.5000     2.2360   427.9430    78.2370    27.3760    25.4850    24.8880    24.0270    -8.3500 
  144.6250     2.2680   426.1580    77.1640    28.0340    25.9590    27.8980    23.8890    -8.3710 
  144.7500     2.2790   425.7940    75.5720    28.8260    26.6450    30.0100    23.7280    -8.3800 
  144.8750     2.2680   426.0790    71.5910    29.6510    27.4610    29.0370    23.7050    -8.3760 
  145.0000     2.2420   426.6320    66.4700    30.4210    28.4940    26.6800    23.7460    -8.3620 
  145.1250     2.2160   428.3660    64.4590    31.0680    29.1010    25.5800    23.7700    -8.3340 
  145.2500     2.1990   430.9590    63.5810    31.6160    29.6070    25.7090    23.7740    -8.3340 
  145.3750     2.1910   432.8590    61.8450    32.0860    30.0290    26.3830    23.7880    -8.3710 
  145.5000     2.1890   432.7790    61.2030    32.4690    30.3720    27.2050    23.8240    -8.4110 
  145.6250     2.1900   431.0470    63.3490    32.6880    30.5860    27.8140    23.8560    -8.4590 
  145.7500     2.1930   429.4750    64.7930    32.7180    30.6760    27.9860    23.8950    -8.5240 
  145.8750     2.1990   429.0450    64.3830    32.5930    30.6940    27.9460    23.9210    -8.6060 
  146.0000     2.2060   430.2470    65.3270    32.4410    30.7170    27.7180    23.9310    -8.7100 
  146.1250     2.2150   431.6500    68.5440    32.4980    30.9210    27.1870    23.9440    -8.8560 
  146.2500     2.2240   431.0430    70.3090    32.8750    31.3650    26.8280    23.9840    -9.0480 
  146.3750     2.2300   427.4130    67.9070    33.5230    31.7900    27.3310    24.0490    -9.2540 
  146.5000     2.2320   421.6150    62.3630    34.2140    32.2620    28.8520    24.1190    -9.4670 
  146.6250     2.2260   416.5230    59.8020    34.5080    32.4370    30.7060    24.1650    -9.7000 
  146.7500     2.2130   414.9950    62.9550    34.1650    32.1820    31.1630    24.1980    -9.9610 
  146.8750     2.1970   417.6190    67.9770    33.1790    31.3120    29.4110    24.2090   -10.2310 
  147.0000     2.1820   421.5780    69.2270    31.8360    30.0240    26.2630    24.2030   -10.4920 
  147.1250     2.1770   421.5110    65.7600    30.7530    29.1330    23.6630    24.1810   -10.7420 
  147.2500     2.1870   414.3390    63.4590    30.4790    28.9210    23.0080    24.1550   -10.9770 
  147.3750     2.2160   397.7950    64.0130    31.3120    29.6590    24.1770    24.1540   -11.1890 
  147.5000     2.2680   372.3890    66.3830    33.2610    31.3770    26.7210    24.2010   -11.3890 
  147.6250     2.3370   341.7520    66.7700    36.0940    33.9170    30.3270    24.3290   -11.5810 
  147.7500     2.4010   313.0650    62.1080    39.0930    36.6760    33.9870    24.4850   -11.7830 
  147.8750     2.4450   292.0890    55.8280    41.7670    39.2040    36.3470    24.6280   -11.9890 
  148.0000     2.4640   282.6300    52.1600    43.8860    41.2270    36.5760    24.7220   -12.1830 
  148.1250     2.4640   283.1720    51.3920    45.5150    42.6980    36.4560    24.7880   -12.3490 
  148.2500     2.4690   282.8260    51.8120    46.9710    43.8990    37.7790    24.8410   -12.5090 
  148.3750     2.4890   275.3170    53.8430    48.2040    44.8470    40.5260    24.8640   -12.6370 
  148.5000     2.5210   260.6680    55.0620    48.7970    45.2650    44.0950    24.8670   -12.7010 
  148.6250     2.5480   245.9730    51.9930    47.8710    44.4550    45.9740    24.8620   -12.7230 
  148.7500     2.5550   240.3850    50.6430    45.3240    42.2810    43.8640    24.8600   -12.7440 
  148.8750     2.5370   247.6180    53.9870    41.5260    39.0000    37.6470    24.8580   -12.7750 
  149.0000     2.5020   263.0970    57.3950    37.3650    35.3560    30.5910    24.8540   -12.8110 
  149.1250     2.4640   275.3610    55.4450    34.1040    32.4880    27.1020    24.8400   -12.8520 
  149.2500     2.4350   275.7650    51.9280    32.4420    31.0490    26.0340    24.8230   -12.8600 
  149.3750     2.4220   259.2860    49.7650    32.7410    31.3500    26.6470    24.8030   -12.8400 
  149.5000     2.4270   229.0920    50.7300    35.0800    33.4440    29.2790    24.7900   -12.8360 
  149.6250     2.4510   201.5780    55.0290    39.4560    37.3430    35.1460    24.7510   -12.8460 
  149.7500     2.4840   190.8590    58.7210    44.8510    42.2160    42.8860    24.6770   -12.8360 
  149.8750     2.5180   197.4360    58.6950    50.3600    47.4320    51.1660    24.6130   -12.8390 
