~V
VERS. 2.00: Ver 2.00
~W
STRT.M 61.0000:
STOP.M 296.0000:
STEP.M 0.1250:
NULL. -999.2500:
UWI. DF312:
~C
DEPT.M :
DEN.GM/CC :
AC.US/MT :
GR.API :
CALI.CM :
RXO.OHMM :
RI. :
RML.OHMM :
SP.MV :
~A
# ...
  181.0000     2.2700   425.6350    97.7020    24.2600     6.1050     5.7170     6.9220    -8.2580 
  181.1250     2.2660   423.4230   100.3060    24.3490     6.1760     5.7580     7.0070    -8.2460 
  181.2500     2.2620   421.1050   101.2070    24.3790     6.2430     5.7950     7.0590    -8.2170 
  181.3750     2.2660   418.9030   101.1270    24.3840     6.2860     5.8390     7.0890    -8.2250 
  181.5000     2.2880   416.6220   100.2180    24.3880     6.2980     5.9000     7.1210    -8.2580 
  181.6250     2.3270   413.6300    98.0610    24.3910     6.3600     5.9880     7.1810    -8.2720 
  181.7500     2.3600   410.0720    97.0650    24.3800     6.4950     6.0870     7.2710    -8.3000 
  181.8750     2.3710   406.9160    98.1080    24.3660     6.5610     6.1750     7.3710    -8.3640 
  182.0000     2.3620   405.5560    98.8990    24.3690     6.5140     6.2200     7.4450    -8.4120 
  182.1250     2.3430   407.3430    95.9410    24.3780     6.3950     6.1940     7.4440    -8.4350 
  182.2500     2.3210   410.9480    93.0690    24.3890     6.2430     6.1230     7.3730    -8.4810 
  182.3750     2.3010   414.2480    92.6200    24.3950     6.1070     6.0430     7.2670    -8.5260 
  182.5000     2.2900   415.2550    92.5640    24.3970     6.0630     5.9870     7.1750    -8.5220 
  182.6250     2.3010   413.1530    92.9410    24.3900     6.1600     5.9800     7.1510    -8.5560 
  182.7500     2.3260   410.1930    95.2440    24.3780     6.3720     5.9950     7.1820    -8.6070 
  182.8750     2.3490   408.5940    97.7680    24.3780     6.4940     6.0010     7.2270    -8.6330 
  183.0000     2.3520   409.6700    99.2200    24.3690     6.4130     5.9720     7.2380    -8.6760 
  183.1250     2.3300   413.1020   100.8520    24.3700     6.1510     5.9100     7.1750    -8.7460 
  183.2500     2.3090   416.2100   103.6310    24.3570     5.9750     5.8510     7.0710    -8.7720 
  183.3750     2.3100   417.0460   104.7050    24.3320     5.9150     5.8250     6.9740    -8.7850 
  183.5000     2.3320   415.1410   103.5390    24.2560     6.0230     5.8500     6.9300    -8.8620 
  183.6250     2.3510   411.8680   102.8390    24.2140     6.2520     5.9230     6.9680    -8.9130 
  183.7500     2.3490   409.8120   101.8400    24.2240     6.3710     6.0100     7.0530    -8.9470 
  183.8750     2.3300   410.0390   100.1470    24.2830     6.3370     6.0920     7.1470    -8.9610 
  184.0000     2.3150   411.8840   100.0580    24.2960     6.2810     6.1620     7.2180    -8.9670 
  184.1250     2.3240   413.5250   103.5860    24.2680     6.3110     6.2130     7.2480    -8.9910 
  184.2500     2.3510   414.2120   105.8080    24.2570     6.4260     6.2340     7.2380    -9.0320 
  184.3750     2.3760   415.0140   104.2730    24.2640     6.5320     6.2070     7.1820    -9.0370 
  184.5000     2.3840   417.5190   102.7270    24.2640     6.4000     6.1200     7.0710    -9.0050 
  184.6250     2.3700   422.3820   103.6460    24.2970     6.0430     5.9820     6.9060    -8.9860 
  184.7500     2.3490   427.6200   103.0560    24.3160     5.7080     5.8390     6.7330    -8.9420 
  184.8750     2.3300   431.3480   100.2160    24.3050     5.5620     5.7280     6.6010    -8.9190 
  185.0000     2.3220   432.7510    99.4520    24.2890     5.4890     5.6650     6.5430    -8.8840 
  185.1250     2.3260   432.5610   101.4590    24.2840     5.3910     5.6420     6.5620    -8.8000 
  185.2500     2.3280   432.8820   101.8520    24.2580     5.4070     5.6210     6.6010    -8.7610 
  185.3750     2.3200   434.9560    99.8750    24.2380     5.5140     5.5820     6.6120    -8.7700 
  185.5000     2.3110   438.9810    98.8330    24.2570     5.5840     5.5180     6.5680    -8.7580 
  185.6250     2.3240   443.8570    98.7480    24.3130     5.5860     5.4450     6.4680    -8.7150 
  185.7500     2.3520   447.0470    97.4430    24.3550     5.5630     5.3870     6.3520    -8.7390 
  185.8750     2.3770   445.9450    97.0030    24.3420     5.5960     5.3740     6.2620    -8.7700 
  186.0000     2.3850   438.5670    99.6420    24.2700     5.7400     5.4510     6.2440    -8.8350 
  186.1250     2.3780   423.9960   103.5590    24.1500     6.0290     5.6970     6.3850    -8.9750 
  186.2500     2.3670   406.2970   104.9820    24.0270     6.3790     6.1350     6.7280    -9.0820 
  186.3750     2.3600   389.5580   102.6310    23.9070     6.7970     6.7800     7.3110    -9.1640 
  186.5000     2.3610   376.9020    97.8400    23.7480     7.5260     7.6130     8.1320    -9.2790 
  186.6250     2.3610   369.3800    94.0300    23.6270     8.5480     8.5290     9.1150    -9.4280 
  186.7500     2.3590   364.3620    90.9950    23.5610     9.4010     9.2960    10.0300    -9.5240 
  186.8750     2.3670   360.6180    88.5870    23.5110     9.6960     9.7100    10.6500    -9.6120 
  187.0000     2.3980   358.5630    87.4310    23.4230     9.3010     9.6920    10.8230    -9.6910 
  187.1250     2.4490   359.7850    89.9000    23.3010     8.2980     9.3240    10.5090    -9.7280 
  187.2500     2.4980   363.3380    95.8220    23.1410     7.5100     8.9030    10.0020    -9.7520 
  187.3750     2.5200   367.2290   102.0750    23.0170     7.4520     8.6080     9.5490    -9.8040 
  187.5000     2.5050   369.7060   104.9090    22.9630     8.0150     8.5200     9.3170    -9.9000 
  187.6250     2.4640   370.7880   101.9130    23.0430     8.5560     8.6570     9.3850   -10.0300 
  187.7500     2.4300   372.4890    97.7740    23.2610     8.7640     8.9190     9.6230   -10.2070 
  187.8750     2.4170   375.7440    94.1570    23.5200     8.8000     9.2410     9.9270   -10.4500 
  188.0000     2.4200   380.0310    92.0330    23.6290     8.9890     9.5950    10.2390   -10.7620 
  188.1250     2.4290   383.8340    94.7770    23.6560     9.5640    10.0580    10.6100   -11.1280 
  188.2500     2.4320   386.5680    98.7540    23.6710    10.7250    10.7670    11.1420   -11.5610 
  188.3750     2.4180   388.6840    98.7600    23.6360    12.5280    11.8450    12.2490   -12.0550 
  188.5000     2.3860   390.8150    95.1450    23.5830    14.5840    13.3060    14.2620   -12.5300 
  188.6250     2.3520   393.3640    91.1520    23.5510    17.6450    14.9620    16.7140   -12.9610 
  188.7500     2.3300   396.3940    86.4810    23.5450    20.3790    16.3680    18.4790   -13.4080 
  188.8750     2.3160   399.9520    82.6150    23.5800    21.0280    17.2450    19.2180   -13.8020 
  189.0000     2.3080   403.7840    83.5730    23.6730    19.2010    17.6520    19.3800   -14.1440 
  189.1250     2.3090   407.0740    85.6810    23.8460    17.4080    17.9820    19.6310   -14.4980 
  189.2500     2.3180   409.3610    82.2410    23.9740    18.5220    18.6440    20.3430   -14.8190 
  189.3750     2.3260   410.9590    76.6960    24.0400    23.1400    19.8610    21.7480   -15.0870 
  189.5000     2.3230   412.8130    75.5750    24.0690    28.2080    21.7560    23.9260   -15.3570 
  189.6250     2.3030   416.1040    79.5180    24.0590    29.3290    24.4800    26.9090   -15.6620 
  189.7500     2.2810   420.7490    81.4840    24.0200    27.6710    27.7710    30.2460   -15.9390 
  189.8750     2.2670   426.0960    80.6290    23.9530    29.0120    31.1990    33.2650   -16.1910 
  190.0000     2.2680   431.3520    78.7170    23.9190    34.4880    33.8480    34.9560   -16.4110 
  190.1250     2.2800   435.9730    77.5610    23.9890    37.3800    33.9940    33.9950   -16.5730 
  190.2500     2.2950   439.9610    76.8530    24.0270    33.3660    31.6080    30.8810   -16.7210 
  190.3750     2.3030   443.1690    77.4620    24.0220    24.8500    27.8340    26.7950   -16.8280 
  190.5000     2.3020   445.1870    81.7910    23.9990    17.6180    24.2780    23.1620   -16.8830 
  190.6250     2.2920   445.0470    87.3410    23.9700    16.7700    22.4140    21.6810   -16.9370 
  190.7500     2.2790   442.5450    89.1290    23.9410    21.1060    22.6210    23.1830   -16.9850 
  190.8750     2.2710   437.7540    86.6050    23.9210    28.2680    25.1960    27.7300   -17.0530 
