~V
VERS. 2.00: Ver 2.00
~W
STRT.M 100.0000:
STOP.M 292.0000:
STEP.M 0.1250:
NULL. -999.2500:
UWI. DF310:
~C
DEPT.M :
AC.US/MT :
DEN.GM/CC :
GR.API :
CALI.CM :
RXO.OHMM :
RI. :
RML.OHMM :
SP.MV :
~A
# ...
  170.0000   292.4720     2.4600    69.9980    23.9730    11.8740    12.7050    15.2020   -21.8680 
  170.1250   283.9900     2.4460    67.9690    24.0280    13.0940    13.1010    16.0240   -21.8790 
  170.2500   278.4050     2.4450    64.8370    24.0870    14.3760    13.6710    17.1540   -21.8930 
  170.3750   275.9550     2.4560    64.2180    24.1680    15.7060    14.2350    18.1870   -21.9050 
  170.5000   275.8890     2.4650    66.7760    24.2620    17.1420    14.6890    18.8100   -21.9140 
  170.6250   277.0640     2.4680    68.9930    24.3220    17.4380    15.1610    19.1680   -21.9460 
  170.7500   276.5440     2.4740    67.8870    24.3760    16.6270    15.8910    19.7860   -22.0150 
  170.8750   271.2300     2.4900    68.6060    24.4070    15.7650    16.9440    20.8960   -22.0990 
  171.0000   261.0540     2.5140    72.7660    24.4130    16.7330    18.0130    22.1770   -22.1860 
  171.1250   254.9740     2.5320    75.3930    24.4080    21.3290    18.0940    22.2310   -22.2770 
  171.2500   266.0330     2.5300    72.2010    24.4080    26.3270    16.5560    20.0030   -22.3750 
  171.3750   300.5460     2.4990    69.3490    24.4080    25.4630    13.6430    15.8410   -22.4680 
  171.5000   352.0100     2.4530    71.8590    24.4080    18.0030    10.3330    11.2650   -22.5520 
  171.6250   400.6620     2.4200    78.3420    24.4080    10.4550     7.6380     7.7460   -22.5900 
  171.7500   430.4800     2.4040    82.4540    24.4080     6.4620     5.7560     5.4630   -22.5940 
  171.8750   439.3270     2.3970    83.5680    24.4080     4.9470     4.6130     4.2910   -22.5500 
  172.0000   434.5410     2.3920    83.6420    24.4080     4.5590     4.0560     4.0160   -22.4660 
  172.1250   426.5900     2.3840    83.9250    24.4080     4.4910     3.9440     4.3820   -22.3320 
  172.2500   422.7480     2.3700    84.9220    24.4080     4.3930     3.9840     4.8750   -22.1430 
  172.3750   424.4270     2.3480    87.3690    24.4080     4.2010     4.0010     5.1620   -21.9460 
  172.5000   430.4500     2.3210    89.7980    24.4080     3.9390     3.8980     5.0790   -21.7590 
  172.6250   438.8240     2.2930    90.0290    24.4080     3.6660     3.6620     4.6660   -21.5890 
  172.7500   447.4190     2.2710    87.3660    24.4080     3.4440     3.3840     4.1720   -21.4480 
  172.8750   454.9850     2.2590    83.4780    24.4080     3.2780     3.1330     3.7420   -21.3680 
  173.0000   459.5430     2.2580    79.5490    24.4080     3.1840     2.9710     3.4950   -21.3620 
  173.1250   457.1140     2.2670    77.5870    24.4070     3.1680     2.9670     3.5720   -21.4200 
  173.2500   447.5300     2.2830    80.1290    24.4060     3.3070     3.1080     3.9300   -21.5210 
  173.3750   433.4120     2.3080    83.5050    24.4040     3.6970     3.3560     4.4380   -21.6430 
  173.5000   419.9490     2.3330    84.6380    24.4060     4.2960     3.6390     4.8920   -21.7740 
  173.6250   413.0690     2.3390    82.4870    24.4070     4.8270     3.8700     5.1080   -21.9230 
  173.7500   412.5040     2.3270    80.9130    24.4080     5.0670     4.0150     5.1410   -22.0700 
  173.8750   415.3460     2.3150    83.3860    24.4080     5.0430     4.0730     5.0990   -22.1920 
  174.0000   418.0980     2.3150    86.7160    24.4080     4.9610     4.0730     5.0670   -22.2680 
  174.1250   418.5990     2.3230    85.1190    24.4080     5.0570     4.0540     5.0650   -22.3170 
  174.2500   417.9410     2.3280    80.0120    24.4070     5.2470     4.0500     5.0900   -22.3690 
  174.3750   417.5960     2.3280    78.4710    24.4050     5.3620     4.0710     5.2250   -22.4140 
  174.5000   417.9830     2.3300    81.3180    24.4000     5.3610     4.1130     5.5700   -22.4570 
  174.6250   417.4930     2.3370    84.8610    24.3980     5.3610     4.1670     6.0980   -22.4950 
  174.7500   414.7480     2.3450    85.4530    24.3970     5.3630     4.2170     6.5500   -22.5330 
  174.8750   410.6940     2.3530    83.9680    24.3970     5.3750     4.2560     6.7400   -22.5610 
  175.0000   408.2320     2.3600    82.8410    24.3970     5.3980     4.2760     6.6370   -22.5790 
  175.1250   410.1620     2.3580    84.9430    24.3970     5.3960     4.2690     6.3510   -22.6020 
  175.2500   414.1070     2.3520    89.3840    24.3950     5.3350     4.2520     6.0990   -22.6190 
  175.3750   416.3530     2.3500    91.2430    24.3930     5.2660     4.2430     5.9680   -22.6230 
  175.5000   414.4980     2.3580    89.1450    24.3850     5.2360     4.2590     5.9390   -22.6160 
  175.6250   409.3460     2.3680    86.0160    24.3580     5.2490     4.3160     5.9760   -22.5900 
  175.7500   405.2390     2.3710    84.9450    24.3200     5.3280     4.3960     6.0620   -22.5610 
  175.8750   404.8310     2.3680    85.1130    24.3010     5.4290     4.4690     6.1870   -22.5290 
  176.0000   408.2720     2.3600    84.4120    24.2940     5.5030     4.4980     6.3080   -22.4820 
  176.1250   413.5640     2.3470    83.1040    24.2920     5.5310     4.4390     6.3660   -22.4430 
  176.2500   418.1240     2.3340    82.4850    24.2910     5.5210     4.3200     6.3220   -22.4050 
  176.3750   421.1000     2.3280    85.8850    24.2910     5.4230     4.1850     6.1280   -22.3720 
  176.5000   422.3910     2.3280    93.4690    24.2910     5.2300     4.0810     5.8290   -22.3290 
  176.6250   421.8840     2.3270    97.5540    24.2910     5.0350     4.0420     5.5780   -22.2860 
  176.7500   420.2320     2.3250    92.6400    24.2910     5.0270     4.0560     5.4990   -22.2590 
  176.8750   418.1750     2.3280    86.5930    24.2910     5.1460     4.1070     5.6310   -22.2530 
  177.0000   416.5750     2.3350    85.7570    24.2910     5.2940     4.1810     5.8990   -22.2560 
  177.1250   416.1730     2.3370    88.6650    24.2910     5.3950     4.2620     6.1410   -22.2630 
  177.2500   416.7410     2.3350    89.7560    24.2910     5.4470     4.3290     6.2490   -22.2710 
  177.3750   417.7830     2.3330    88.1150    24.2910     5.4350     4.3750     6.2500   -22.2760 
  177.5000   418.6020     2.3310    84.6210    24.2910     5.3730     4.4030     6.2420   -22.2950 
  177.6250   418.4560     2.3260    81.3100    24.2910     5.2930     4.4200     6.3490   -22.3200 
  177.7500   417.6150     2.3200    81.6300    24.2910     5.2740     4.4250     6.5910   -22.3500 
  177.8750   416.8140     2.3220    84.2940    24.2910     5.2710     4.4130     6.8900   -22.3750 
  178.0000   416.6240     2.3320    86.0890    24.2910     5.2710     4.3880     7.0890   -22.4050 
  178.1250   416.7790     2.3430    85.2800    24.2910     5.2800     4.3640     7.0360   -22.4400 
  178.2500   416.2880     2.3470    83.9150    24.2910     5.3130     4.3520     6.8040   -22.4850 
  178.3750   414.6190     2.3430    84.3070    24.2910     5.3470     4.3540     6.5180   -22.5490 
  178.5000   411.8980     2.3340    84.7800    24.2910     5.3780     4.3660     6.3000   -22.6250 
  178.6250   408.6890     2.3250    83.6700    24.2910     5.5190     4.4150     6.2030   -22.6920 
  178.7500   405.1620     2.3200    82.2900    24.2910     5.8270     4.5370     6.1790   -22.7530 
  178.8750   399.8920     2.3180    80.9170    24.2910     6.2730     4.7810     6.2610   -22.8030 
  179.0000   390.2780     2.3260    79.0000    24.2910     6.7690     5.1710     6.5400   -22.8410 
  179.1250   374.1030     2.3570    77.1020    24.2910     7.3500     5.7240     7.1340   -22.8840 
  179.2500   356.0650     2.3980    76.2120    24.2870     8.2130     6.3420     7.9170   -22.9360 
  179.3750   342.9340     2.4270    75.2110    24.2700     9.1170     6.8840     8.7020   -22.9850 
  179.5000   340.1380     2.4330    73.4960    24.2310     9.4680     7.1830     9.2660   -23.0180 
  179.6250   349.6510     2.4160    72.7910    24.2120     8.7840     7.0650     9.2850   -23.0700 
  179.7500   364.9720     2.3910    75.1500    24.2060     7.6090     6.6520     8.7970   -23.1370 
  179.8750   380.9240     2.3660    77.6480    24.2060     6.7370     6.1230     7.9690   -23.2240 
