~V
VERS. 2.00: Ver 2.00
~W
STRT.M 51.0000:
STOP.M 228.0000:
STEP.M 0.1250:
NULL. -999.2500:
UWI. DF314:
~C
DEPT.M :
DEN.GM/CC :
AC.US/MT :
GR.API :
CALI.CM :
RXO.OHMM :
RI. :
RML.OHMM :
SP.MV :
~A
# ...
   91.0000     2.1630   428.2790    72.9100    25.7190    21.3580    18.5350    22.3510   -15.3480 
   91.1250     2.1520   424.6970    66.2980    25.8070    21.9370    19.0120    23.4060   -15.3080 
   91.2500     2.1500   424.0290    63.5990    25.8020    23.5760    19.3850    24.2960   -15.0590 
   91.3750     2.1560   425.6730    69.0510    25.6990    24.6260    19.5660    24.5290   -14.7610 
   91.5000     2.1660   428.5070    80.6050    25.6340    23.6540    19.4950    23.9250   -14.4410 
   91.6250     2.1760   430.8240    89.0860    25.7400    21.5550    19.1760    22.8310   -14.0070 
   91.7500     2.1830   431.2250    90.0250    25.9050    20.5210    18.8060    21.9670   -13.4050 
   91.8750     2.1870   429.5080    86.8760    25.9720    20.9270    18.5690    21.6420   -12.7290 
   92.0000     2.1850   427.2810    83.3530    25.8750    22.1960    18.5680    21.8180   -12.0140 
   92.1250     2.1780   428.3780    77.9220    25.8210    23.5780    18.7850    22.2450   -11.1540 
   92.2500     2.1640   434.5020    69.2410    25.9070    24.6910    19.0420    22.5690   -10.1310 
   92.3750     2.1450   444.5980    63.0260    26.0330    25.3750    19.2230    22.6910    -8.9710 
   92.5000     2.1250   455.5320    64.4510    26.0810    25.3520    19.2780    22.6100    -7.7830 
   92.6250     2.1110   463.7500    69.5350    26.0850    24.3810    19.2180    22.3280    -6.8830 
   92.7500     2.1040   468.9140    70.6460    26.1360    23.2270    19.1580    21.9740    -6.3690 
   92.8750     2.1030   471.8360    68.3650    26.2310    22.4530    19.1660    21.6330    -6.1070 
   93.0000     2.1090   472.9220    65.8550    26.3260    22.1820    19.2270    21.3830    -6.0630 
   93.1250     2.1190   471.3570    62.8710    26.3660    22.5210    19.2440    21.2330    -6.3180 
   93.2500     2.1310   467.9560    59.0180    26.3140    23.1230    19.1410    21.0930    -6.7570 
   93.3750     2.1400   464.9760    56.5330    26.2280    23.2370    18.9160    20.9210    -7.2800 
   93.5000     2.1400   465.3860    57.5730    26.2180    22.5410    18.6740    20.7070    -7.8050 
   93.6250     2.1260   471.9290    62.1950    26.2840    21.8810    18.6330    20.5940    -8.2120 
   93.7500     2.1050   483.0020    65.7440    26.4260    22.0830    18.9190    20.8780    -8.5520 
   93.8750     2.0860   496.2040    65.3030    26.7490    22.9510    19.5690    21.7530    -8.8750 
   94.0000     2.0790   508.5420    60.9020    27.3290    23.9870    20.4580    23.0180    -9.2000 
   94.1250     2.0930   516.7480    57.8260    28.0850    24.7100    21.0260    23.6120    -9.4630 
   94.2500     2.1250   520.9300    60.1030    28.6610    24.3580    20.5240    22.4970    -9.6480 
   94.3750     2.1700   522.8290    67.8330    28.8090    21.7670    18.5660    19.5080    -9.8300 
   94.5000     2.2160   524.8240    77.4210    28.3860    16.8680    15.5300    15.6140   -10.0450 
   94.6250     2.2510   527.9920    82.8050    27.3810    11.7640    12.2910    12.3450   -10.2180 
   94.7500     2.2720   530.0780    85.4410    26.3000     8.5820     9.5040    10.0980   -10.2680 
   94.8750     2.2810   528.0410    87.7440    25.5650     7.3840     7.8410     8.3160   -10.1980 
   95.0000     2.2810   520.3420    88.7760    25.3650     7.3320     6.9030     7.3090   -10.0630 
   95.1250     2.2770   508.1310    84.7580    25.4940     7.7100     6.6020     6.9870    -9.9760 
   95.2500     2.2750   495.8850    79.8980    25.5540     8.1570     6.6660     7.0550   -10.0850 
   95.3750     2.2790   486.2840    78.7110    25.5180     8.4890     6.9060     7.3130   -10.4250 
   95.5000     2.2870   480.2020    80.7230    25.4750     8.4720     7.1300     7.5520   -10.9560 
   95.6250     2.2960   476.8500    84.0000    25.4770     8.0320     7.1760     7.6020   -11.5680 
   95.7500     2.3010   473.2940    88.2550    25.4530     7.5100     7.0830     7.5030   -12.1790 
   95.8750     2.3020   467.2790    91.5530    25.3560     7.1080     6.9290     7.3380   -12.7350 
   96.0000     2.3000   457.7900    91.2450    25.2360     6.9660     6.8090     7.2080   -13.1820 
   96.1250     2.2980   445.5590    87.0160    25.1940     7.1750     6.8020     7.2010   -13.5450 
   96.2500     2.2980   433.5560    83.1500    25.2100     7.5360     6.8500     7.2520   -13.6470 
   96.3750     2.2960   424.0350    82.6180    25.2000     7.8350     6.8780     7.2830   -13.3670 
   96.5000     2.2920   418.6820    85.3390    25.0540     7.9440     6.8550     7.2580   -12.7610 
   96.6250     2.2810   419.5050    85.9150    24.7520     7.8510     6.8220     7.2220   -12.0220 
   96.7500     2.2660   425.3940    80.8600    24.5380     7.8570     6.8630     7.2660   -11.4080 
   96.8750     2.2480   434.1420    74.4320    24.7070     8.3210     7.0190     7.4330   -11.0940 
   97.0000     2.2310   441.8740    72.0580    25.3220     9.3210     7.2730     7.7060   -11.0150 
   97.1250     2.2190   443.5350    72.9510    25.9760    10.2290     7.5120     7.9620   -10.9450 
   97.2500     2.2130   439.1700    73.2350    26.2580    10.3600     7.6330     8.0920   -10.9020 
   97.3750     2.2080   432.1070    73.3110    26.1830     9.8810     7.6640     8.1250   -10.9380 
   97.5000     2.2030   427.4580    73.7780    25.9210     9.5520     7.7380     8.2040   -11.0850 
   97.6250     2.1950   429.7770    74.0340    25.7070    10.2390     8.1020     8.5950   -11.3020 
   97.7500     2.1850   436.7430    72.6220    25.7760    12.1360     8.9160     9.4680   -11.4050 
   97.8750     2.1740   444.0260    68.1740    26.1720    15.4950    10.3370    10.9910   -11.3040 
   98.0000     2.1590   447.3960    62.5990    26.7110    20.1740    12.4510    13.2590   -11.0740 
   98.1250     2.1360   444.3950    60.9720    27.1620    24.6770    15.1910    16.1960   -10.8380 
   98.2500     2.0990   438.2590    62.6700    27.5100    27.3220    17.9690    19.1760   -10.6870 
   98.3750     2.0460   432.6540    63.2160    27.8000    28.2020    20.2540    21.6260   -10.6580 
   98.5000     1.9770   430.3890    60.3210    28.1710    28.4790    21.7510    23.2320   -10.6640 
   98.6250     1.9010   432.8470    56.1400    28.9600    29.0370    22.5020    24.0370   -10.5700 
   98.7500     1.8390   438.0890    52.3390    30.1790    29.8090    23.0480    24.6230   -10.3320 
   98.8750     1.8110   444.2010    49.8620    31.5220    30.7060    23.7430    25.3680    -9.8750 
   99.0000     1.8280   449.0610    49.3100    32.6790    32.0700    24.7610    26.4590    -9.2360 
   99.1250     1.8870   450.1250    49.9290    33.3780    34.5600    26.1600    27.9590    -8.5180 
   99.2500     1.9560   447.5050    49.9500    33.2300    37.3940    27.7760    29.6930    -7.6970 
   99.3750     2.0080   442.9320    50.0500    32.0250    39.3220    29.4130    31.4490    -6.7890 
   99.5000     2.0270   439.5670    50.7210    30.3390    39.8100    30.8040    32.9400    -5.9720 
   99.6250     2.0050   441.4660    51.4570    29.3370    39.3080    31.5240    33.7110    -5.3150 
   99.7500     1.9690   448.7340    51.2720    29.1670    38.5810    31.4630    33.6470    -4.7000 
   99.8750     1.9420   459.5560    50.1700    29.5240    37.2230    30.7060    32.8350    -4.1850 
  100.0000     1.9410   470.8880    50.2220    30.4080    33.8690    29.5880    31.6360    -3.8930 
  100.1250     1.9730   479.1930    51.0460    31.6710    28.7530    28.6550    30.6350    -3.8300 
  100.2500     2.0190   483.5010    52.3400    32.1540    25.8430    28.2730    30.2260    -3.9240 
  100.3750     2.0570   484.6650    54.3520    31.1650    27.4000    28.5710    30.5450    -4.0370 
  100.5000     2.0740   485.3240    56.8600    29.2520    31.4890    29.5230    31.5660    -3.9990 
  100.6250     2.0660   489.2510    58.4440    27.7170    33.5440    30.9880    33.1380    -4.0770 
  100.7500     2.0520   496.1520    58.3110    27.0140    33.1230    32.3530    34.6010    -4.5060 
  100.8750     2.0490   501.6700    58.1230    27.0340    32.6300    32.7380    35.0130    -5.2010 
