~V
VERS. 2.00: Ver 2.00
~W
STRT.M 61.0000:
STOP.M 296.0000:
STEP.M 0.1250:
NULL. -999.2500:
UWI. DF312:
~C
DEPT.M :
DEN.GM/CC :
AC.US/MT :
GR.API :
CALI.CM :
RXO.OHMM :
RI. :
RML.OHMM :
SP.MV :
~A
# ...
  261.0000     2.3430   391.3900   110.1480    24.0320     6.8490     6.1680     7.3450    -3.1910 
  261.1250     2.3400   385.1930   106.7110    23.9400     7.4490     6.6940     7.9570    -3.3720 
  261.2500     2.3330   380.1280   100.1030    23.8780     7.5230     7.1600     8.4440    -3.5290 
  261.3750     2.3260   376.8150    93.6310    23.8560     7.3190     7.4350     8.6610    -3.6480 
  261.5000     2.3230   375.2000    89.9520    23.8500     7.2750     7.4260     8.5260    -3.6960 
  261.6250     2.3230   375.3350    88.9890    23.8530     7.2500     7.0930     8.0260    -3.6800 
  261.7500     2.3260   377.0530    90.7790    23.9160     6.8790     6.6050     7.3780    -3.6140 
  261.8750     2.3300   380.1720    95.7890    23.9730     6.3270     6.1240     6.7840    -3.5310 
  262.0000     2.3330   383.5510   102.5870    23.9970     6.1300     5.8030     6.4430    -3.4600 
  262.1250     2.3340   384.6150   105.0510    24.0230     6.6770     5.8270     6.5990    -3.4400 
  262.2500     2.3300   381.8310   102.0850    24.0040     7.8300     6.2360     7.2530    -3.4570 
  262.3750     2.3200   375.2880    97.9730    23.9630     9.3550     7.0370     8.3220    -3.5160 
  262.5000     2.3070   366.6020    94.4990    23.9710    10.8500     8.1200     9.5560    -3.6300 
  262.6250     2.3000   359.0180    89.0420    24.0340    11.9990     9.1530    10.4890    -3.7520 
  262.7500     2.3090   356.0250    82.0490    24.0830    12.6320     9.7570    10.8410    -3.8610 
  262.8750     2.3330   359.6740    78.3500    24.0840    12.0190     9.8140    10.6330    -3.9320 
  263.0000     2.3620   368.9640    80.5790    24.0750    10.4950     9.5080    10.1540    -3.9650 
  263.1250     2.3840   378.2460    84.3020    24.0510    10.0600     9.2140     9.8500    -3.9860 
  263.2500     2.3910   380.8790    84.3650    24.0270    11.1170     9.1940     9.9430    -4.0090 
  263.3750     2.3850   375.2290    80.9860    24.0040    13.2040     9.5030    10.4080    -4.0490 
  263.5000     2.3710   364.6090    76.6900    24.0130    14.8060    10.0510    11.0510    -4.1130 
  263.6250     2.3550   356.0200    73.8330    23.9930    15.5940    10.6320    11.5960    -4.2510 
  263.7500     2.3390   353.6100    72.1580    23.9520    15.1360    11.0910    11.9690    -4.4650 
  263.8750     2.3210   356.7610    72.4520    23.9280    14.1690    11.5270    12.3660    -4.7490 
  264.0000     2.3110   361.7810    75.8610    23.9230    13.8650    12.2240    13.2540    -5.1020 
  264.1250     2.3260   362.9210    80.2850    23.9210    16.5730    13.6030    15.1760    -5.5260 
  264.2500     2.3640   356.9120    80.8170    23.9580    23.1170    15.6400    17.7050    -6.0180 
  264.3750     2.4140   343.8020    78.0330    24.0530    30.0600    17.9370    19.9720    -6.5650 
  264.5000     2.4560   327.6420    77.5380    24.1200    30.9280    19.5540    21.0210    -7.1660 
  264.6250     2.4590   316.7020    84.5490    24.0450    24.9280    19.2350    20.1470    -7.8050 
  264.7500     2.4320   315.3070    95.2570    23.9060    17.4750    17.4980    18.1180    -8.4530 
  264.8750     2.3980   322.3520   103.0440    23.8470    13.3400    15.3580    15.8530    -9.1050 
  265.0000     2.3700   333.0080   103.0310    23.9210    12.6300    13.5770    14.0980    -9.7520 
  265.1250     2.3440   342.0550    97.2360    23.9510    13.4690    12.4880    13.1670   -10.3490 
  265.2500     2.3180   348.6330    96.0190    23.8400    13.4110    11.8520    12.6900   -10.8630 
  265.3750     2.3020   354.4180   101.1470    23.6750    11.8770    11.4460    12.3660   -11.2960 
  265.5000     2.3020   360.5690   106.0990    23.5980    10.0450    11.0850    12.0080   -11.6510 
  265.6250     2.3150   366.2930   104.0640    23.6230     9.2230    10.7130    11.6080   -11.9330 
  265.7500     2.3240   370.2670   100.2590    23.6470     9.0090    10.4170    11.3010   -12.1780 
  265.8750     2.3240   371.7830    98.9660    23.6130     9.0130    10.2810    11.1860   -12.4030 
  266.0000     2.3160   370.9880    98.3720    23.5540     9.2150    10.3190    11.2700   -12.6170 
  266.1250     2.3080   368.4040    95.1080    23.5520     9.6140    10.4920    11.4820   -12.8140 
  266.2500     2.3050   365.0050    92.8840    23.5700     9.9790    10.6900    11.6850   -12.9960 
  266.3750     2.3060   361.4060    93.8390    23.5790    10.2910    10.8270    11.7990   -13.1620 
  266.5000     2.3110   358.5890    95.9930    23.6010    10.7250    10.8410    11.7960   -13.2820 
  266.6250     2.3140   358.5350    98.4420    23.6590    11.0950    10.7060    11.6830   -13.3310 
  266.7500     2.3130   361.8410   101.7470    23.7740    10.7010    10.4920    11.5290   -13.3060 
  266.8750     2.3100   367.6370   102.7700    23.8900     9.6430    10.2550    11.3800   -13.2240 
  267.0000     2.3120   373.5890    99.6380    23.9700     8.8150    10.0430    11.2610   -13.1120 
  267.1250     2.3170   376.5110    96.0190    24.0060     8.7030     9.8980    11.1930   -12.9890 
  267.2500     2.3210   375.7690    94.6570    24.0420     8.9780     9.8310    11.1790   -12.8780 
  267.3750     2.3130   374.7790    94.9680    24.0920     9.3810     9.8670    11.2490   -12.7920 
  267.5000     2.2960   366.2730    96.4310    24.1490     9.8030    10.0410    11.4540   -12.7490 
  267.6250     2.2850   359.0290    96.4820    24.1990    10.8750    10.4350    11.9000   -12.7620 
  267.7500     2.2950   351.2770    94.8760    24.1810    12.5080    11.0530    12.5900   -12.8450 
  267.8750     2.3220   344.1720    94.7740    24.1340    14.5680    11.8950    13.4870   -12.9580 
  268.0000     2.3370   338.8760    97.3090    24.1110    16.3840    12.8960    14.4610   -13.0460 
  268.1250     2.3210   335.8910    97.1320    24.1430    16.8610    13.8610    15.2360   -13.0850 
  268.2500     2.2840   334.1050    94.2650    24.1270    16.6250    14.5000    15.5710   -13.0700 
  268.3750     2.2630   333.6020    93.5890    24.1650    16.2330    14.5850    15.3260   -12.9730 
  268.5000     2.2720   335.9280    95.8300    24.2420    15.0830    14.0430    14.5210   -12.7770 
  268.6250     2.3000   344.0000    96.4380    24.2760    12.2620    12.9820    13.3180   -12.4730 
  268.7500     2.3250   356.8910    93.3160    24.1260     9.3060    11.7710    12.0670   -12.0960 
  268.8750     2.3390   371.8270    88.3160    23.8600     7.6660    10.6320    10.9820   -11.6980 
  269.0000     2.3520   385.0070    85.0820    23.6500     7.4990     9.7070    10.1750   -11.2890 
  269.1250     2.3690   392.5770    84.8990    23.6180     7.9980     9.0860     9.6870   -10.8620 
  269.2500     2.3830   394.8840    83.8100    23.6950     8.2390     8.6940     9.3960   -10.4960 
  269.3750     2.3820   393.3030    79.6330    23.7620     8.2390     8.4950     9.2500   -10.2810 
  269.5000     2.3690   389.3160    75.3510    23.7830     8.6580     8.4810     9.2550   -10.2680 
  269.6250     2.3560   383.1540    76.7930    23.8040     9.7610     8.7130     9.5040   -10.4640 
  269.7500     2.3580   374.8900    82.9440    23.8410    10.7140     9.1820    10.0010   -10.7860 
  269.8750     2.3690   364.9020    90.2120    23.9120    11.5080     9.8620    10.6970   -11.1710 
  270.0000     2.3720   354.7270    95.3410    23.9850    12.0770    10.6540    11.4560   -11.5850 
  270.1250     2.3620   347.1390    98.4200    24.0900    11.9790    11.3590    12.0710   -12.0240 
  270.2500     2.3480   342.9320   100.5600    24.1530    11.2630    11.8530    12.4520   -12.4420 
  270.3750     2.3430   340.9800   100.6040    24.1800    10.6310    12.1370    12.6180   -12.7640 
  270.5000     2.3460   338.9780    98.2020    24.1700    10.7070    12.2840    12.6490   -12.9630 
  270.6250     2.3520   335.2230    96.4130    24.1620    12.3040    12.3570    12.6130   -13.0430 
  270.7500     2.3600   331.3170    97.6370    24.1840    14.6040    12.3980    12.5500   -13.0210 
  270.8750     2.3700   329.6940    99.1650    24.2040    15.4820    12.4050    12.4570   -12.8960 
