~V
VERS. 2.00: Ver 2.00
~W
STRT.M 60.0000:
STOP.M 262.0000:
STEP.M 0.1250:
NULL. -999.2500:
UWI. DF319:
~C
DEPT.M :
GR.API :
RML.OHMM :
RI. :
RXO.OHMM :
CALI.CM :
AC.US/MT :
DEN.GM/CC :
SP.MV :
~A
# ...
  150.0000    79.7820    20.1180    18.8910    17.0990    23.6450   422.7220     2.1730   -23.9200 
  150.1250    75.2880    21.0520    19.5920    18.6670    23.6230   424.9560     2.1740   -23.8430 
  150.2500    70.4490    21.9400    20.2810    20.4300    23.5960   426.4190     2.1800   -23.8220 
  150.3750    67.5240    22.6070    20.8700    21.7790    23.5850   425.0720     2.1880   -23.8280 
  150.5000    67.4400    23.1690    21.3230    21.7720    23.5910   421.9820     2.1940   -23.7730 
  150.6250    70.1450    23.6330    21.6600    21.0530    23.6620   420.9260     2.1910   -23.7260 
  150.7500    72.9940    24.0400    21.9560    20.7640    23.8750   422.7210     2.1800   -23.7240 
  150.8750    73.5150    24.3910    22.2370    21.3270    24.2050   425.5220     2.1620   -23.6820 
  151.0000    71.3120    24.6690    22.4930    22.2670    24.4590   428.3240     2.1420   -23.6390 
  151.1250    70.3510    24.8580    22.6960    23.1430    24.4880   431.2330     2.1280   -23.6390 
  151.2500    72.2640    25.0130    22.8560    23.3420    24.4320   432.7510     2.1220   -23.6210 
  151.3750    73.2900    25.1960    23.0100    23.2060    24.3790   431.7720     2.1240   -23.5700 
  151.5000    70.5620    25.4600    23.1980    23.3120    24.3540   429.5930     2.1320   -23.5660 
  151.6250    68.2890    25.8160    23.4410    23.8000    24.3460   428.6450     2.1420   -23.5810 
  151.7500    68.5220    26.1780    23.6970    24.1980    24.3450   429.0110     2.1480   -23.5630 
  151.8750    68.9130    26.4520    23.9040    24.2320    24.3460   430.1320     2.1500   -23.5490 
  152.0000    68.9740    26.5590    24.0050    23.7750    24.3450   431.7170     2.1490   -23.5600 
  152.1250    70.4840    26.4310    23.9590    23.1000    24.3400   433.2170     2.1490   -23.5980 
  152.2500    72.7990    26.1260    23.8070    22.6380    24.3270   434.5370     2.1510   -23.6270 
  152.3750    73.9580    25.7100    23.5870    22.3440    24.3010   435.1990     2.1540   -23.6370 
  152.5000    72.8900    25.2690    23.3380    22.0680    24.2760   434.4940     2.1570   -23.6450 
  152.6250    70.0290    24.9090    23.1040    22.0980    24.2530   432.3500     2.1570   -23.6570 
  152.7500    68.3950    24.6820    22.9300    22.2560    24.2350   430.4140     2.1540   -23.6940 
  152.8750    69.5850    24.6110    22.8600    22.3450    24.2300   428.9120     2.1530   -23.7260 
  153.0000    71.1360    24.6940    22.9340    22.2590    24.2320   427.2880     2.1550   -23.7370 
  153.1250    69.9850    24.9180    23.1840    22.2180    24.2320   425.7150     2.1630   -23.7380 
  153.2500    67.5550    25.1900    23.5300    22.3580    24.2310   425.4310     2.1720   -23.7180 
  153.3750    65.8100    25.4070    23.8680    22.8290    24.2050   427.2020     2.1770   -23.7350 
  153.5000    66.2920    25.4550    24.0680    23.6780    24.1100   429.9160     2.1730   -23.7850 
  153.6250    69.0570    25.2030    23.9600    24.8160    23.9480   429.9160     2.1570   -23.8020 
  153.7500    71.1540    24.6930    23.5480    25.7040    23.8570   425.4960     2.1370   -23.8070 
  153.8750    70.9300    24.0170    22.9030    25.9230    23.8730   419.5050     2.1170   -23.8570 
  154.0000    69.6370    23.3090    22.1620    24.3800    24.0550   416.7920     2.1030   -23.9070 
  154.1250    68.4090    22.7270    21.5000    20.7890    24.2020   419.3390     2.0970   -23.9380 
  154.2500    68.7100    22.3030    21.0080    19.5410    24.2850   423.4330     2.0960   -24.0080 
  154.3750    70.2630    22.0070    20.7040    19.6710    24.3200   427.0080     2.0970   -24.0740 
  154.5000    70.3330    21.8080    20.5610    20.4830    24.3210   428.8710     2.0980   -24.0970 
  154.6250    67.3210    21.7610    20.6210    21.4840    24.1910   428.4040     2.1020   -24.1470 
  154.7500    63.7810    22.1860    21.0470    22.3810    23.8600   427.7730     2.1070   -24.2490 
  154.8750    62.9750    23.6020    22.2520    23.7540    23.4310   430.2700     2.1160   -24.3470 
  155.0000    65.0040    26.5470    24.7780    26.6850    23.1340   432.6380     2.1300   -24.4450 
  155.1250    68.6270    31.3830    29.1990    33.2530    23.0830   416.9190     2.1600   -24.5380 
  155.2500    70.1760    36.6140    34.6500    43.7000    23.2840   373.6200     2.2140   -24.6490 
  155.3750    68.8260    40.7490    39.5700    56.6020    23.6700   310.4320     2.2940   -24.7650 
  155.5000    66.6570    41.6540    41.8300    66.6770    24.1120   250.4280     2.3890   -24.8840 
  155.6250    65.4580    37.2290    38.9360    67.1150    24.2910   220.0300     2.4690   -25.0200 
  155.7500    67.6340    29.5020    32.1570    57.4090    24.3380   221.7770     2.5100   -25.1130 
  155.8750    74.3000    21.3370    24.0030    40.0610    24.3210   251.1460     2.5050   -25.2200 
  156.0000    82.6660    14.9410    16.9780    22.7380    24.2250   298.7380     2.4670   -25.3480 
  156.1250    89.4070    11.1710    12.4830    12.8420    23.9780   348.1390     2.4210   -25.4870 
  156.2500    94.6090     9.0690     9.8090     9.0190    23.6870   382.2820     2.3870   -25.6100 
  156.3750    98.0210     8.0380     8.3630     8.0460    23.5870   398.7790     2.3710   -25.7160 
  156.5000    97.8450     7.6600     7.6850     7.9110    23.7440   405.1340     2.3710   -25.8480 
  156.6250    95.4470     7.6850     7.5310     7.7240    24.1120   406.4380     2.3760   -25.9250 
  156.7500    95.4630     7.9120     7.6570     7.7760    24.2910   403.5800     2.3770   -26.0100 
  156.8750    96.2480     8.3080     8.0330     8.3700    24.3320   397.3590     2.3680   -26.0820 
  157.0000    93.2720     9.0030     8.7390     9.6350    24.3030   391.0180     2.3530   -26.1290 
  157.1250    86.3810    10.1610    10.0460    11.9410    24.2420   386.2640     2.3410   -26.1960 
  157.2500    80.8150    11.9800    12.0610    15.1340    24.2480   375.3430     2.3440   -26.2570 
  157.3750    78.1450    14.6450    14.8410    19.0470    24.3750   348.9570     2.3660   -26.3090 
  157.5000    74.6820    18.0650    18.2440    24.2520    24.4870   307.0630     2.4060   -26.3490 
  157.6250    69.0090    21.6340    21.8050    28.8330    24.5020   268.8190     2.4530   -26.4070 
  157.7500    63.8890    24.7320    24.8070    32.5560    24.4610   254.2930     2.4930   -26.4430 
  157.8750    61.3420    26.7880    26.7150    33.7500    24.4310   257.8860     2.5190   -26.4660 
  158.0000    61.3970    27.3620    27.3270    33.6840    24.4230   261.2190     2.5310   -26.4770 
  158.1250    60.9460    26.8010    26.7930    33.5680    24.4280   257.8530     2.5300   -26.4510 
  158.2500    59.3720    26.0760    25.9630    32.5150    24.4210   255.0080     2.5150   -26.4340 
  158.3750    59.0820    25.8570    25.4680    30.3630    24.3910   250.5710     2.4880   -26.4630 
  158.5000    61.5380    26.5530    25.7360    28.2400    24.3560   236.3110     2.4600   -26.4590 
  158.6250    63.6600    28.2750    26.9750    29.8910    24.3420   217.3820     2.4520   -26.4270 
  158.7500    61.7430    30.3250    28.6600    34.0820    24.3390   209.0720     2.4680   -26.4250 
  158.8750    58.3130    31.9110    30.1310    38.6200    24.3400   210.9510     2.5050   -26.4420 
  159.0000    56.4910    32.2810    30.6900    39.2020    24.3400   216.2100     2.5430   -26.4830 
  159.1250    56.7780    30.9270    29.7590    34.9970    24.3380   226.1490     2.5570   -26.5040 
  159.2500    58.3960    28.7200    27.9350    29.5200    24.3310   245.1810     2.5430   -26.5230 
  159.3750    60.6440    26.7230    26.0810    24.8280    24.3280   272.5720     2.5090   -26.5230 
  159.5000    61.1480    25.8790    25.0740    22.9040    24.3280   297.1180     2.4730   -26.4950 
  159.6250    59.9940    26.8500    25.6540    25.5370    24.3270   303.9110     2.4540   -26.4970 
  159.7500    60.9430    29.0430    27.4630    31.1460    24.3310   292.1380     2.4620   -26.4890 
  159.8750    65.1610    31.6560    29.8800    38.2110    24.3350   264.0380     2.4910   -26.4310 
