~V
VERS. 2.00: Ver 2.00
~W
STRT.M 100.0000:
STOP.M 292.0000:
STEP.M 0.1250:
NULL. -999.2500:
UWI. DF310:
~C
DEPT.M :
AC.US/MT :
DEN.GM/CC :
GR.API :
CALI.CM :
RXO.OHMM :
RI. :
RML.OHMM :
SP.MV :
~A
  100.0000   415.4710     2.3390    83.3400    23.0050     5.3430     4.8710     7.0330   -24.2200 
  100.1250   415.7900     2.3160    84.5790    22.7140     5.3990     4.5500     7.0840   -23.8270 
  100.2500   418.6520     2.3020    83.8270    22.4770     5.5550     4.5240     7.3240   -23.5890 
  100.3750   423.0520     2.2990    82.7050    22.3180     5.6180     4.6520     7.4700   -23.5030 
  100.5000   426.3780     2.3060    82.9890    22.2530     5.6310     4.8370     7.4350   -23.4940 
  100.6250   427.3320     2.3130    83.6120    22.2410     5.7080     5.0320     7.3450   -23.5260 
  100.7500   427.3010     2.3130    85.4600    22.2410     5.7790     5.2170     7.3600   -23.5760 
  100.8750   427.2850     2.3050    90.2420    22.2410     5.7920     5.3750     7.4910   -23.6100 
  101.0000   427.5870     2.2950    94.9270    22.2140     5.7870     5.4850     7.6590   -23.6130 
  101.1250   428.2430     2.2900    98.6500    22.1160     5.7980     5.4990     7.7430   -23.5800 
  101.2500   429.4780     2.2880    99.6630    21.9720     5.8260     5.4000     7.6640   -23.5150 
  101.3750   431.5130     2.2900    97.4880    21.8910     5.8250     5.1820     7.3700   -23.4160 
  101.5000   433.9680     2.3000    94.3250    21.8690     5.7530     4.8770     6.8770   -23.3080 
  101.6250   435.6910     2.3220    94.0970    21.8690     5.5630     4.5560     6.3330   -23.1820 
  101.7500   436.0260     2.3440    97.3150    21.8690     5.4040     4.2970     5.9350   -23.0580 
  101.8750   435.0530     2.3540    99.7670    21.8690     5.3200     4.1430     5.7930   -22.9470 
  102.0000   433.5330     2.3450   100.7470    21.8690     5.3590     4.1050     5.9400   -22.8600 
  102.1250   433.0790     2.3210    99.8060    21.8690     5.5770     4.1850     6.3350   -22.8000 
  102.2500   433.8880     2.2940    95.0360    21.8690     5.8310     4.3440     6.8010   -22.7770 
  102.3750   432.6390     2.2740    89.2780    21.8690     6.0030     4.5810     7.2300   -22.7830 
  102.5000   422.5480     2.2790    85.7260    21.8690     6.1310     4.9240     7.6230   -22.7870 
  102.6250   395.0800     2.3280    85.6950    21.8690     6.4880     5.4670     8.1430   -22.7900 
  102.7500   355.8200     2.4110    86.6460    21.8690     7.4060     6.2170     8.9170   -22.7830 
  102.8750   316.7360     2.5030    85.5730    21.8760     8.9310     7.0960     9.9240   -22.7820 
  103.0000   292.9900     2.5630    83.6360    21.9070    10.7050     7.8800    10.8800   -22.8110 
  103.1250   300.2720     2.5520    81.6060    21.9890    11.7130     8.1380    11.1270   -22.8580 
  103.2500   331.8200     2.4890    79.8760    22.0760    11.2250     7.7830    10.4850   -22.9240 
  103.3750   373.9220     2.4030    79.2610    22.1220     9.3430     7.0010     9.2630   -23.0140 
  103.5000   410.1880     2.3200    80.2590    22.1350     7.2420     6.1220     8.0090   -23.1340 
  103.6250   428.4500     2.2600    82.0540    22.1360     6.0900     5.4460     7.1480   -23.2780 
  103.7500   434.2720     2.2270    80.9060    22.1380     5.7440     5.0410     6.6850   -23.4360 
  103.8750   434.8260     2.2160    78.7130    22.1380     5.7050     4.8890     6.5460   -23.5810 
  104.0000   434.5530     2.2210    77.4700    22.1470     5.7220     4.9280     6.6280   -23.6860 
  104.1250   433.8880     2.2310    79.2050    22.2030     5.7470     5.0690     6.8200   -23.7640 
  104.2500   432.1530     2.2420    81.9440    22.3310     5.7960     5.2060     6.9970   -23.8080 
  104.3750   429.5650     2.2510    84.5670    22.4850     5.8440     5.2910     7.1110   -23.8270 
  104.5000   426.9600     2.2600    88.1040    22.5830     5.8480     5.3170     7.1490   -23.8240 
  104.6250   425.2770     2.2670    90.0480    22.6290     5.8360     5.2920     7.1050   -23.8070 
  104.7500   424.3980     2.2710    87.2550    22.6950     5.8220     5.2430     7.0230   -23.7840 
  104.8750   423.6460     2.2720    82.2880    22.8100     5.7840     5.1870     6.9290   -23.7750 
  105.0000   422.3850     2.2720    80.0470    22.9230     5.7030     5.1440     6.8510   -23.7960 
  105.1250   420.5840     2.2700    86.9080    23.0740     5.6930     5.1310     6.8380   -23.8360 
  105.2500   418.5420     2.2660    95.3890    23.2350     5.7820     5.1360     6.9060   -23.9000 
  105.3750   415.6150     2.2670    93.9830    23.3710     5.9220     5.1310     7.0160   -24.0080 
  105.5000   411.2180     2.2740    87.9940    23.4330     6.0150     5.0880     7.0720   -24.1650 
  105.6250   407.1060     2.2750    87.8800    23.4410     6.0510     4.9940     6.9780   -24.3730 
  105.7500   404.8110     2.2610    90.2000    23.4410     6.0820     4.9190     6.8300   -24.6320 
  105.8750   400.5230     2.2480    85.1000    23.4410     6.1350     4.9910     6.8650   -24.9720 
  106.0000   387.2550     2.2690    80.4410    23.4410     6.2850     5.3750     7.3820   -25.3910 
  106.1250   364.8530     2.3500    81.7190    23.4100     6.8940     6.3160     8.7870   -25.9160 
  106.2500   349.9850     2.4550    80.2850    23.2770     8.3700     7.7930    11.0390   -26.5350 
  106.3750   355.2890     2.5290    74.4560    23.0180    11.4240     9.5870    13.8200   -27.2300 
  106.5000   378.8380     2.5230    69.7810    22.7970    16.4200    11.0540    16.0760   -27.9810 
  106.6250   405.3170     2.4300    68.4990    22.7190    18.7750    11.1180    15.8680   -28.7720 
  106.7500   423.0910     2.3270    69.2050    22.7080    16.3270    10.0190    13.7080   -29.5790 
  106.8750   432.9500     2.2650    69.0880    22.7080    12.1650     8.5960    11.2470   -30.3380 
  107.0000   438.9700     2.2480    68.7060    22.7080    10.0400     7.5790     9.6830   -31.0220 
  107.1250   440.6680     2.2570    69.9000    22.7210     9.8460     7.4580     9.6070   -31.6040 
  107.2500   433.9850     2.2830    70.9690    22.7770    10.8600     8.1920    10.8050   -32.0980 
  107.3750   417.2160     2.3260    68.9540    22.9010    14.5290     9.6680    13.0940   -32.4980 
  107.5000   397.0690     2.3670    64.8430    23.0990    25.6340    11.4180    15.7810   -32.8240 
  107.6250   389.3520     2.3630    62.3560    23.1280    36.7640    12.2740    16.9300   -33.0860 
  107.7500   398.5950     2.3090    63.0500    22.9810    33.9490    11.7150    15.7010   -33.2880 
  107.8750   417.3420     2.2340    66.0250    22.6550    20.7000    10.2270    13.1470   -33.4490 
  108.0000   433.8540     2.1730    68.9170    22.3630    11.3450     8.6460    10.7740   -33.5840 
  108.1250   440.9720     2.1460    68.4170    22.2580     9.2760     7.5710     9.4420   -33.7090 
  108.2500   443.0200     2.1370    65.4540    22.2480     8.7850     7.0280     8.9680   -33.8180 
  108.3750   443.8650     2.1350    63.9750    22.2870     8.7560     6.9150     9.0890   -33.9220 
  108.5000   444.5680     2.1400    64.0430    22.3910     8.7990     7.0490     9.4760   -34.0140 
  108.6250   443.9610     2.1540    64.3880    22.5290     8.8550     7.2310     9.7850   -34.0960 
  108.7500   442.1160     2.1660    64.6900    22.6360     8.8960     7.3360     9.8890   -34.1720 
  108.8750   440.1480     2.1690    63.8210    22.6920     8.8780     7.3550     9.8320   -34.2390 
  109.0000   439.0590     2.1640    62.6780    22.7100     8.7950     7.3210     9.6980   -34.2970 
  109.1250   439.1400     2.1610    63.5710    22.7280     8.7300     7.2720     9.5570   -34.3410 
  109.2500   439.9600     2.1610    65.3300    22.7760     8.7490     7.2200     9.4390   -34.3610 
  109.3750   441.4250     2.1590    64.3840    22.8420     8.8480     7.1670     9.3530   -34.3410 
  109.5000   442.9850     2.1550    63.0340    22.8810     8.9270     7.1210     9.3290   -34.2910 
  109.6250   442.9570     2.1510    64.6920    22.8890     8.9050     7.1050     9.4160   -34.2090 
  109.7500   440.8680     2.1520    66.4400    22.8890     8.8820     7.1200     9.5850   -34.0990 
  109.8750   437.9660     2.1630    65.2270    22.8890     8.9510     7.1490     9.7660   -33.9770 
