~V
VERS. 2.00: Ver 2.00
~W
STRT.M 65.0000:
STOP.M 277.0000:
STEP.M 0.1250:
NULL. -999.2500:
UWI. DF311:
~C
DEPT.M :
DEN.GM/CC :
SP.MV :
AC.US/MT :
GR.API :
CALI.CM :
RXO.OHMM :
RI. :
RML.OHMM :
~A
# ...
  265.0000     2.3440   -13.7190   396.6710    50.6480    24.4020    10.7230     6.3670     8.6190 
  265.1250     2.3650   -13.7020   379.3500    50.6480    24.2260    12.3900     6.5230     8.8430 
  265.2500     2.3640   -13.6820   365.1840    50.6480    24.1410    11.9270     6.7390     9.0910 
  265.3750     2.3420   -13.6670   351.4350    50.6480    24.0980    10.1750     6.9930     9.3480 
  265.5000     2.3010   -13.6400   336.2500    50.6480    24.0770     9.0320     7.2760     9.6250 
  265.6250     2.2510   -13.6010   320.8590    50.6480    24.1310     9.3180     7.6040     9.9530 
  265.7500     2.2220   -13.5570   307.0280    50.6480    24.2780    10.1710     7.9890    10.3460 
  265.8750     2.2420   -13.4860   295.2180    50.6480    24.4440    11.6910     8.4360    10.8040 
  266.0000     2.3070   -13.3900   285.8920    50.6480    24.4600    15.4130     8.9210    11.2990 
  266.1250     2.3840   -13.2660   279.6970    50.6480    24.2700    22.5350     9.3650    11.7370 
  266.2500     2.4280   -13.1270   274.5540    50.6480    24.0170    26.0090     9.6640    11.9930 
  266.3750     2.4300   -12.9520   269.2560    50.6480    23.9080    21.5060     9.7290    11.9670 
  266.5000     2.4090   -12.7610   266.3110    50.6480    23.8930    13.3950     9.5360    11.6360 
  266.6250     2.3940   -12.5780   273.2560    50.6480    23.9010     9.0460     9.1280    11.0670 
  266.7500     2.3980   -12.3890   289.7780    50.6480    23.9510     7.1690     8.6660    10.4610 
  266.8750     2.4080   -12.1910   309.5860    50.6480    24.0580     6.4100     8.2590     9.9370 
  267.0000     2.4160   -12.0290   325.2070    50.6480    24.1360     6.2360     7.9710     9.5610 
  267.1250     2.4240   -11.9070   331.9510    50.6480    24.1930     6.4210     7.8330     9.3640 
  267.2500     2.4250   -11.7970   332.6580    50.6480    24.2950     6.6490     7.7880     9.2830 
  267.3750     2.4140   -11.7290   331.1010    50.6480    24.4680     6.7410     7.7930     9.2740 
  267.5000     2.3940   -11.6820   331.9050    50.6480    24.6480     6.7720     7.8090     9.2850 
  267.6250     2.3770   -11.6450   337.2540    50.6480    24.7180     6.8510     7.8160     9.2770 
  267.7500     2.3670   -11.6270   342.1530    50.6480    24.7330     6.5860     7.8220     9.2560 
  267.8750     2.3540   -11.6490   342.9190    50.6480    24.7070     6.1020     7.8350     9.2390 
  268.0000     2.3420   -11.6810   340.8710    50.6480    24.6180     5.7740     7.8510     9.2380 
  268.1250     2.3410   -11.7060   341.4590    50.6480    24.4560     5.6760     7.8580     9.2520 
  268.2500     2.3390   -11.7330   346.2970    50.6480    24.4250     5.6570     7.8540     9.2700 
  268.3750     2.3120   -11.7560   352.4940    50.6480    24.5550     5.7240     7.8460     9.2840 
  268.5000     2.2660   -11.7730   355.2940    50.6480    24.7750     6.0510     7.8400     9.2940 
  268.6250     2.2380   -11.7760   349.3140    50.6480    25.1070     6.3930     7.8360     9.2960 
  268.7500     2.2590   -11.7940   335.3930    50.6480    25.2490     6.3820     7.8310     9.2940 
  268.8750     2.3030   -11.7940   316.7080    50.6480    24.9580     6.0840     7.8210     9.2850 
  269.0000     2.3480   -11.7730   298.5660    50.6480    24.2460     5.9400     7.8150     9.2720 
  269.1250     2.3860   -11.7560   288.1220    50.6480    23.7510     6.1650     7.8200     9.2550 
  269.2500     2.4170   -11.7360   286.6470    50.6480    23.5480     6.5040     7.8310     9.2400 
  269.3750     2.4380   -11.7210   291.2220    50.6480    23.4500     6.9410     7.8370     9.2300 
  269.5000     2.4470   -11.7120   296.1820    50.6480    23.2070     7.5800     7.8310     9.2300 
  269.6250     2.4350   -11.7180   295.8510    50.6480    22.6240     8.4500     7.8190     9.2440 
  269.7500     2.4080   -11.7120   290.7590    50.6480    22.1320     9.1490     7.8120     9.2630 
  269.8750     2.3950   -11.7010   284.0850    50.6480    21.8810     9.4770     7.8190     9.2760 
  270.0000     2.4060   -11.7000   279.6230    50.6480    21.7970     9.5170     7.8360     9.2730 
  270.1250     2.4280   -11.7000   280.2580    50.6480    21.7400     9.8150     7.8530     9.2580 
  270.2500     2.4370   -11.7030   283.7630    50.6480    21.6580    10.5700     7.8620     9.2460 
  270.3750     2.4390   -11.7200   286.8470    50.6480    21.6090    11.0950     7.8650     9.2450 
  270.5000     2.4400   -11.7420   287.2900    50.6480    21.5820    10.8080     7.8640     9.2550 
  270.6250     2.4350   -11.7560   285.5750    50.6480    21.5410    10.1260     7.8600     9.2680 
  270.7500     2.4250   -11.7670   284.2610    50.6480    21.4710     9.7400     7.8550     9.2720 
  270.8750     2.4210   -11.7910   284.1250    50.6480    21.4050     9.6700     7.8550     9.2720 
  271.0000     2.4290   -11.8100   284.6320    50.6480    21.3660     9.8020     7.8550     9.2720 
  271.1250     2.4370   -11.8450   285.0230    50.6480    21.3050    10.0340     7.8550     9.2720 
  271.2500     2.4340   -11.8860   285.1830    50.6480    21.1440    10.3000     7.8550     9.2720 
  271.3750     2.4280   -11.8900   285.2580    50.6480    20.8520    10.4490     7.8550     9.2720 
  271.5000     2.4280   -11.9010   285.3320    50.6480    20.4900    10.2460     7.8550     9.2720 
  271.6250     2.4360   -11.9220   285.3880    50.6480    20.2460     9.5440     7.8550     9.2720 
  271.7500     2.4080   -11.9380   285.3900    50.6480    20.0780     8.6950     7.8550     9.2720 
  271.8750     2.2860   -11.9440   285.3660    50.6480    19.8480     7.8830     7.8550     9.2720 
  272.0000     2.0730   -11.9500   285.3790    50.6480    19.2770     7.0350     7.8550     9.2720 
  272.1250     1.8580   -11.9390   285.4590    50.6480    18.0600     6.2290     7.8550     9.2720 
  272.2500     1.7590   -11.9250   285.5000    50.6480    16.2560     5.6810     7.8550     9.2720 
  272.3750     1.7540   -11.9250   285.5780    50.6480    14.7120     5.4530     7.8550     9.2720 
  272.5000     1.7780   -11.9130   285.8360    50.6480    14.0040     5.3990     7.8550     9.2720 
  272.6250     1.7910   -11.9000   285.1080    50.6480    13.8890     5.3970     7.8550     9.2720 
  272.7500     1.7900   -11.8950   281.8010    50.6480    13.8890     5.3970     7.8550     9.2720 
  272.8750     1.7880   -11.9000   276.7490    50.6480    13.8890     5.3970     7.8550     9.2720 
  273.0000     1.7860   -11.9010   273.8110    50.6480    13.8890     5.3970     7.8550     9.2720 
  273.1250     1.7840   -11.8970   276.4150    50.6480    13.8890     5.3980     7.8550     9.2720 
  273.2500     1.7830   -11.9040   279.5130    50.6480    13.8890     5.3980     7.8550     9.2720 
  273.3750     1.7850   -11.9160   293.8070    50.6480    13.8890     5.3990     7.8550     9.2720 
  273.5000     1.7880   -11.9320   324.5300    50.6480    13.8890     5.4000     7.8550     9.2720 
  273.6250     1.7860   -11.9390   356.6750    50.6480    13.8890     5.4000     7.8550     9.2720 
  273.7500     1.7760   -11.9440   377.9740    50.6480    13.8890     5.4000     7.8550     9.2720 
  273.8750     1.7680   -11.9440   396.3010    50.6480    13.8890     5.4000     7.8550     9.2720 
  274.0000     1.7680   -11.9500   417.3170    50.6480    13.8890     5.3990     7.8550     9.2720 
  274.1250     1.7760   -11.9610  -999.2500    50.6480    13.8890     5.3990     7.8550     9.2720 
  274.2500     1.7860   -11.9500  -999.2500    50.6480    13.8890     5.3990     7.8550     9.2720 
  274.3750     1.7920   -11.9530  -999.2500    50.6480    13.8890     5.4000     7.8550     9.2720 
  274.5000     1.7930   -11.9860  -999.2500    50.6480    13.8890     5.4010     7.8550     9.2720 
  274.6250     1.7900   -12.0140  -999.2500    50.6480    13.8890     5.4030     7.8550     9.2720 
  274.7500     1.7870   -12.0290  -999.2500    50.6480    13.8890     5.4010     7.8550     9.2720 
  274.8750     1.7860   -12.0350  -999.2500    50.6480    13.8890     5.3990     7.8550     9.2720 
