~V
VERS. 2.00: Ver 2.00
~W
STRT.M 61.0000:
STOP.M 296.0000:
STEP.M 0.1250:
NULL. -999.2500:
UWI. DF312:
~C
DEPT.M :
DEN.GM/CC :
AC.US/MT :
GR.API :
CALI.CM :
RXO.OHMM :
RI. :
RML.OHMM :
SP.MV :
~A
# ...
   91.0000     2.3160   353.5560    66.5990    25.0770    20.6810    12.6710    14.7830   -15.6370 
   91.1250     2.3240   359.4890    64.5050    25.1600    20.9140    13.1550    14.9940   -15.6340 
   91.2500     2.2910   379.9320    65.7920    25.0900    16.7490    12.6480    14.1890   -15.6510 
   91.3750     2.2340   408.5720    69.1260    24.8940    12.9120    11.5270    12.8080   -15.6710 
   91.5000     2.1810   435.4480    71.1500    24.6110    11.4990    10.3580    11.4730   -15.7140 
   91.6250     2.1580   451.2350    70.1030    24.3970    11.4580     9.5860    10.7240   -15.8240 
   91.7500     2.1590   458.3440    68.7970    24.2460    11.4850     9.2540    10.5350   -16.0240 
   91.8750     2.1640   461.6320    69.6710    24.1380    11.3390     9.2780    10.7230   -16.3230 
   92.0000     2.1590   464.0180    72.1520    24.0410    11.1790     9.4900    11.0590   -16.6580 
   92.1250     2.1450   464.1510    73.9220    23.9850    11.2090     9.7280    11.3550   -16.9960 
   92.2500     2.1420   459.8810    73.8840    23.9760    11.3430     9.9160    11.5520   -17.2730 
   92.3750     2.1600   451.6080    72.7160    23.9990    11.5000    10.0460    11.6590   -17.4640 
   92.5000     2.1850   442.4950    73.3500    24.0470    11.8060    10.1250    11.7030   -17.6350 
   92.6250     2.1950   437.1560    74.8850    24.1470    12.1670    10.1690    11.7160   -17.7520 
   92.7500     2.1900   436.4750    73.8590    24.2940    12.2570    10.2070    11.7370   -17.7530 
   92.8750     2.1790   438.7280    70.7990    24.3850    12.0910    10.2590    11.7870   -17.6760 
   93.0000     2.1700   441.4950    68.7800    24.4190    11.9820    10.3300    11.8660   -17.5470 
   93.1250     2.1650   443.3210    69.8560    24.4390    12.1880    10.3990    11.9420   -17.3840 
   93.2500     2.1620   444.0820    70.6200    24.4710    12.5010    10.4200    11.9570   -17.2240 
   93.3750     2.1650   444.2310    69.9590    24.4520    12.7220    10.3540    11.8670   -17.0420 
   93.5000     2.1740   445.1180    69.9690    24.3280    12.6070    10.1830    11.6580   -16.8720 
   93.6250     2.1940   449.6870    72.8020    24.1700    12.0460     9.9190    11.3570   -16.7750 
   93.7500     2.2110   458.7720    77.1980    24.0380    11.1520     9.6430    11.0650   -16.7380 
   93.8750     2.2150   470.7180    81.3490    23.9480    10.1440     9.4240    10.8660   -16.6960 
   94.0000     2.2020   481.4810    82.9120    23.8960     9.3120     9.3110    10.8170   -16.6360 
   94.1250     2.1870   485.9140    77.9980    24.0930     9.0660     9.3450    10.9450   -16.5720 
   94.2500     2.1820   484.6320    72.7960    24.3800     9.4030     9.4680    11.1480   -16.4550 
   94.3750     2.1850   481.0090    74.5160    24.5720    10.0950     9.5940    11.2980   -16.2930 
   94.5000     2.1920   479.0990    82.0610    24.5390    10.7340     9.6020    11.2630   -16.0650 
   94.6250     2.2040   480.8010    85.9530    24.3690    11.0500     9.3680    10.9440   -15.7450 
   94.7500     2.2200   483.1030    86.9410    24.2790    10.8860     8.9710    10.4680   -15.3350 
   94.8750     2.2400   483.1780    91.4530    24.3530    10.3440     8.5500    10.0100   -14.9370 
   95.0000     2.2620   480.0880    98.9570    24.4760     9.9620     8.2520     9.7520   -14.7040 
   95.1250     2.2670   475.3180   101.1270    24.5780    10.2230     8.2220     9.8600   -14.7320 
   95.2500     2.2470   471.8180    96.5710    24.6000    10.9940     8.4380    10.2590   -14.9810 
   95.3750     2.2070   470.9210    90.7580    24.5380    11.7970     8.8340    10.8190   -15.4640 
   95.5000     2.1700   472.6160    88.9790    24.3430    12.1970     9.2930    11.3670   -16.0870 
   95.6250     2.1570   475.8950    90.2220    24.1290    12.1660     9.6650    11.7230   -16.7550 
   95.7500     2.1610   479.0770    88.8980    24.0110    12.1050     9.8920    11.8770   -17.4900 
   95.8750     2.1660   481.1250    85.6300    23.9930    12.1510     9.9890    11.8960   -18.1790 
   96.0000     2.1640   481.2550    83.5820    23.9940    12.2630    10.0180    11.8740   -18.7500 
   96.1250     2.1560   478.9450    81.5910    23.7050    12.3730    10.0220    11.8710   -19.1200 
   96.2500     2.1470   475.2900    78.0990    22.6810    12.3860    10.0060    11.8720   -19.3700 
   96.3750     2.1380   471.5250    75.7490    20.8150    12.2720     9.9470    11.8440   -19.4920 
   96.5000     2.1270   468.8270    76.6550    18.8420    12.1120     9.8460    11.7750   -19.5400 
   96.6250     2.1160   467.9570    79.3600    17.9190    12.0720     9.7290    11.6850   -19.5840 
   96.7500     2.1130   468.3780    78.9020    17.4390    12.1000     9.6300    11.6110   -19.6200 
   96.8750     2.1220   469.4930    73.7050    16.9950    12.0650     9.5630    11.5670   -19.6930 
   97.0000     2.1360   470.6090    66.3070    16.7060    11.9480     9.5270    11.5400   -19.7710 
   97.1250     2.1420   470.9510    64.1240    16.9010    11.8900     9.5020    11.4940   -19.7570 
   97.2500     2.1450   470.5280    66.1140    17.4320    11.9040     9.4660    11.4050   -19.6860 
   97.3750     2.1510   469.9320    66.6910    18.0570    11.8860     9.4160    11.2700   -19.6020 
   97.5000     2.1580   470.0060    64.9190    18.7130    11.7560     9.3620    11.1060   -19.5070 
   97.6250     2.1560   471.3080    66.4080    19.5880    11.5280     9.3270    10.9510   -19.4180 
   97.7500     2.1540   472.9850    69.5680    20.5360    11.3250     9.3230    10.8330   -19.3340 
   97.8750     2.1590   473.9420    68.9580    21.5700    11.3360     9.3550    10.7700   -19.2420 
   98.0000     2.1670   473.5250    65.2720    22.6890    11.6090     9.4240    10.7610   -19.1230 
   98.1250     2.1670   472.1090    65.0560    23.8760    11.8730     9.5170    10.7980   -19.0380 
   98.2500     2.1580   471.2330    66.9540    24.4020    11.9170     9.6080    10.8490   -18.9750 
   98.3750     2.1430   471.9410    67.4880    24.5500    11.7930     9.6780    10.8960   -18.9160 
   98.5000     2.1310   474.5270    67.6740    24.5940    11.6440     9.7150    10.9250   -18.8160 
   98.6250     2.1370   478.4630    67.9630    24.6240    11.6400     9.7110    10.9190   -18.6930 
   98.7500     2.1570   482.2010    66.8200    24.6230    11.8430     9.6780    10.8710   -18.5190 
   98.8750     2.1750   484.4950    65.7750    24.6300    12.1310     9.6100    10.7590   -18.2870 
   99.0000     2.1720   484.5670    67.6700    24.6810    12.2670     9.4920    10.5510   -18.0310 
   99.1250     2.1510   482.2600    70.1070    24.7500    12.0320     9.2880    10.2310   -17.6960 
   99.2500     2.1290   479.0110    69.9470    24.7460    11.6300     9.0320     9.9130   -17.2890 
   99.3750     2.1180   475.0920    69.7960    24.7090    11.3620     8.8480     9.8030   -16.8250 
   99.5000     2.1250   467.9190    70.0200    24.6850    11.4400     8.9410    10.1720   -16.2900 
   99.6250     2.1640   450.5670    69.0500    24.7310    12.1860     9.6180    11.3710   -15.5970 
   99.7500     2.2360   421.6500    68.1910    24.8540    14.2520    10.8670    13.2050   -14.7260 
   99.8750     2.3300   385.8990    69.5540    25.0550    17.4140    12.4670    15.1240   -13.6480 
  100.0000     2.4130   354.6820    72.4240    25.1900    18.5630    13.7390    16.2020   -12.3980 
  100.1250     2.4420   343.9550    73.3690    25.0690    14.7940    13.4160    15.3370   -11.0760 
  100.2500     2.4100   353.8050    74.3740    24.8550    10.1650    11.6480    13.0160    -9.7790 
  100.3750     2.3470   374.4650    78.7500    24.6810     7.6630     9.4400    10.2650    -8.5440 
  100.5000     2.3040   389.7580    87.5510    24.5830     6.9490     7.7060     8.1750    -7.4070 
  100.6250     2.3300   381.9900    97.0570    24.5050     7.5510     7.0360     7.6640    -6.4550 
  100.7500     2.4030   352.1820   100.0980    24.4670    10.3770     7.4790     8.7560    -5.7820 
  100.8750     2.4840   309.1630    95.5350    24.4980    17.1170     9.2600    11.5130    -5.4060 
