~V
VERS. 2.00: Ver 2.00
~W
STRT.M 56.0000:
STOP.M 209.0000:
STEP.M 0.1250:
NULL. -999.2500:
UWI. DF316:
~C
DEPT.M :
GR.API :
CALI.CM :
RXO.OHMM :
RI. :
RML.OHMM :
SP.MV :
DEN.GM/CC :
AC.US/MT :
~A
# ...
  166.0000    49.5350    24.0220    27.7370    29.1190    33.4870   -12.6710     2.3850   324.5270 
  166.1250    50.6060    23.9660    26.4810    28.1260    32.3450   -12.7420     2.3900   332.9670 
  166.2500    52.3290    23.9400    25.2270    27.3500    31.4530   -12.8170     2.3940   333.1200 
  166.3750    52.3730    23.9620    23.7630    26.8170    30.8390   -12.8800     2.3870   331.4420 
  166.5000    50.2930    24.0160    23.6160    26.5110    30.4870   -12.9320     2.3680   334.3070 
  166.6250    47.7320    24.0210    24.8050    26.1180    30.0350   -12.9750     2.3450   341.2930 
  166.7500    46.3980    24.0110    26.1850    25.2480    29.0350   -13.0130     2.3270   350.5900 
  166.8750    48.4640    23.9420    26.7030    24.1790    27.8060   -13.0400     2.3130   361.0740 
  167.0000    54.2050    23.9350    25.4810    23.1640    26.6390   -13.0620     2.3020   372.9590 
  167.1250    59.9030    23.9380    22.5430    22.4210    25.7850   -13.0650     2.2990   382.6370 
  167.2500    61.4560    23.9930    19.8520    22.0630    25.3720   -13.0520     2.3090   382.6960 
  167.3750    58.7980    23.9230    20.3100    22.0920    25.4060   -13.0300     2.3310   364.5970 
  167.5000    56.4220    23.9190    25.1080    22.4550    25.8230   -13.0070     2.3650   337.9580 
  167.6250    55.0140    23.9690    31.7740    23.0750    26.5370   -12.9700     2.3960   320.5060 
  167.7500    53.5690    23.9540    34.6370    23.9430    27.5350   -12.9150     2.4050   321.9340 
  167.8750    52.4450    23.9190    29.9200    24.7940    28.5140   -12.8600     2.3800   336.8830 
  168.0000    52.8840    23.9100    26.1980    25.3620    29.1660   -12.8040     2.3300   353.3270 
  168.1250    55.1250    23.8790    26.3240    25.9920    29.8910   -12.7570     2.2880   367.5480 
  168.2500    57.5290    23.6830    26.9010    26.6320    30.6260   -12.7140     2.2770   373.0660 
  168.3750    58.6550    23.8260    26.9500    27.2330    31.3180   -12.6700     2.2930   359.3860 
  168.5000    57.2430    23.8230    25.8090    27.8250    31.9980   -12.6250     2.3160   337.6600 
  168.6250    55.1450    23.7160    25.3480    28.2220    32.4550   -12.5880     2.3230   324.8040 
  168.7500    55.7900    23.8710    26.7020    28.5010    32.7760   -12.5730     2.3130   330.1230 
  168.8750    58.8280    23.9010    29.6830    28.6350    32.9310   -12.5640     2.2980   348.0830 
  169.0000    59.9230    23.9550    32.3260    28.6030    32.8930   -12.5630     2.2870   363.4310 
  169.1250    57.6450    23.9850    33.8650    28.3220    32.5710   -12.5680     2.2810   369.0260 
  169.2500    54.6050    23.9470    33.7320    27.9530    32.1460   -12.5820     2.2740   367.0730 
  169.3750    52.2450    23.9270    30.8130    27.8450    32.0220   -12.6100     2.2680   365.4680 
  169.5000    51.4540    23.9120    27.6400    27.8130    31.9850   -12.6460     2.2690   368.0140 
  169.6250    53.0520    23.9070    26.9610    27.4180    31.5310   -12.6950     2.2760   372.3940 
  169.7500    54.1500    23.8880    27.6450    26.4620    30.4320   -12.7480     2.2770   375.0070 
  169.8750    52.3110    23.8580    28.1720    24.4950    28.1690   -12.8030     2.2710   375.5910 
  170.0000    52.5640    23.8470    28.4910    22.1510    25.4740   -12.8590     2.2660   373.6330 
  170.1250    57.1790    23.8240    27.1650    19.5810    20.9950   -12.9130     2.2760   368.3810 
  170.2500    62.5640    23.6600    21.7350    16.9540    17.3340   -12.9660     2.3000   365.4690 
  170.3750    63.7450    23.7270    14.6470    14.7460    14.8140   -13.0280     2.3290   371.2550 
  170.5000    63.8770    23.7890    10.5310    13.0900    13.0630   -13.1010     2.3540   379.3610 
  170.6250    65.6640    23.8440     9.3380    12.1500    12.2010   -13.1730     2.3640   381.4760 
  170.7500    68.8900    23.8480     9.2010    11.8050    12.0010   -13.2520     2.3580   376.3450 
  170.8750    70.0140    23.8230     9.5610    11.9850    12.6450   -13.3260     2.3480   371.3900 
  171.0000    66.2230    23.7770    10.2340    12.7110    13.8800   -13.3950     2.3460   370.0660 
  171.1250    62.1030    23.9330    11.1030    13.9000    15.5820   -13.4650     2.3510   370.9070 
  171.2500    62.6520    24.0100    12.9760    15.5080    17.5170   -13.5340     2.3470   371.7810 
  171.3750    64.9540    23.9460    16.4130    17.1780    19.5430   -13.5900     2.3290   372.2040 
  171.5000    63.8080    23.9430    19.0630    18.7110    21.5010   -13.6300     2.3040   372.5730 
  171.6250    61.0290    23.9970    20.2230    20.0960    23.3050   -13.6550     2.2860   371.8740 
  171.7500    60.7880    24.0320    21.2730    21.0890    24.8840   -13.6620     2.2780   370.1480 
  171.8750    62.8420    24.0060    22.4610    21.8590    26.1620   -13.6720     2.2800   369.3230 
  172.0000    64.0100    23.9350    23.9480    22.5280    27.3090   -13.6770     2.2860   369.8930 
  172.1250    63.5750    23.8880    24.2480    23.2560    28.4870   -13.6820     2.2900   372.3580 
  172.2500    61.6790    23.7870    24.0430    24.3570    29.8950   -13.6790     2.2900   375.7840 
  172.3750    60.1500    23.7320    23.6030    25.9690    31.5650   -13.6710     2.2880   377.0410 
  172.5000    59.4400    23.7060    23.5800    27.8560    33.6620   -13.6470     2.2850   373.6990 
  172.6250    58.5330    23.6060    23.8100    29.8290    36.0220   -13.6240     2.2820   366.6080 
  172.7500    57.7810    23.4790    25.1790    31.7470    38.6150   -13.5900     2.2790   359.1960 
  172.8750    58.7560    23.3750    26.7040    33.6660    41.0670   -13.5390     2.2760   356.6300 
  173.0000    60.5560    23.3810    28.2440    35.2180    43.2530   -13.4760     2.2780   358.3510 
  173.1250    60.8170    23.3980    29.5630    36.1950    44.9030   -13.4040     2.2860   361.0440 
  173.2500    59.6420    23.4000    29.8570    36.4980    45.9220   -13.3330     2.2960   363.0130 
  173.3750    58.0480    23.3620    28.9680    36.0980    46.0090   -13.2720     2.3050   364.3360 
  173.5000    57.9050    23.2830    28.0950    35.6150    45.7080   -13.2290     2.3030   366.2750 
  173.6250    58.2320    23.2640    27.9250    35.1710    45.3590   -13.1980     2.2870   369.5210 
  173.7500    57.1650    23.2360    27.8810    34.9300    45.3780   -13.1880     2.2700   373.2950 
  173.8750    56.3320    23.1100    26.6100    35.1140    46.0860   -13.2170     2.2670   376.6480 
  174.0000    56.9210    23.0940    25.5450    35.8040    47.3840   -13.2840     2.2770   377.5760 
  174.1250    58.9490    23.1120    27.4380    37.3690    49.2230   -13.3640     2.2890   370.6650 
  174.2500    60.9590    23.2100    34.3990    39.6920    51.4770   -13.4570     2.2940   351.6200 
  174.3750    62.3190    23.1790    41.6560    42.3930    54.2010   -13.5690     2.2990   331.2090 
  174.5000    62.9990    23.1430    39.8830    45.5540    57.2120   -13.6810     2.3070   331.1860 
  174.6250    60.6570    23.1030    32.8740    49.1950    60.6900   -13.7900     2.3150   352.9630 
  174.7500    54.9580    23.1050    29.7440    53.3980    64.4880   -13.8930     2.3190   376.9510 
  174.8750    49.7690    23.0890    31.3050    57.0120    67.5990   -13.9570     2.3220   383.1300 
  175.0000    48.6920    23.0230    31.3230    58.2000    67.7720   -13.9950     2.3250   378.0170 
  175.1250    50.8610    22.8730    29.9310    55.2490    63.5090   -14.0300     2.3260   365.5830 
  175.2500    52.1970    22.6930    29.4880    47.7830    54.4070   -14.0550     2.3280   342.9110 
  175.3750    53.3200    22.5060    32.4290    37.4880    42.1960   -14.0390     2.3490   313.4450 
  175.5000    56.3660    22.3440    30.8660    27.2900    30.1240   -14.0140     2.4020   287.3710 
  175.6250    58.8380    22.2010    24.6470    18.7240    20.3060   -13.9670     2.4590   270.8820 
  175.7500    56.0190    22.1940    16.7510    12.5650    13.5700   -13.9180     2.4690   274.4890 
  175.8750    50.3490    22.2710    10.0150     8.8710     9.5800   -13.8920     2.4180   318.8750 
