~V
VERS. 2.00: Ver 2.00
~W
STRT.M 56.0000:
STOP.M 209.0000:
STEP.M 0.1250:
NULL. -999.2500:
UWI. DF316:
~C
DEPT.M :
GR.API :
CALI.CM :
RXO.OHMM :
RI. :
RML.OHMM :
SP.MV :
DEN.GM/CC :
AC.US/MT :
~A
# ...
  146.0000    48.1830    23.7480    14.4150    16.2560    17.2650   -12.4670     2.4000   295.5570 
  146.1250    47.1590    23.6450    14.7780    16.0360    17.1570   -12.4420     2.3850   295.8380 
  146.2500    46.6570    23.5790    15.0660    15.7310    17.0460   -12.4240     2.3910   297.1200 
  146.3750    46.4710    23.3800    14.8620    15.3390    16.8160   -12.4170     2.4070   297.7290 
  146.5000    49.3740    23.4420    14.2690    14.8940    16.6060   -12.4370     2.4260   296.7510 
  146.6250    54.6430    23.5400    13.3660    14.4390    16.4190   -12.4780     2.4370   294.8700 
  146.7500    59.2350    23.7360    13.0500    14.0030    16.4390   -12.5310     2.4360   294.5830 
  146.8750    62.0460    23.9620    13.5160    13.7410    16.6200   -12.5960     2.4210   296.3470 
  147.0000    63.5570    24.0440    13.6240    13.6360    16.9690   -12.6650     2.4020   298.3960 
  147.1250    62.6450    24.0210    13.9530    13.7370    17.1530   -12.7410     2.3890   299.8350 
  147.2500    60.0330    23.7980    15.3040    13.8730    17.2740   -12.8120     2.3860   298.6810 
  147.3750    58.9390    23.7540    15.6500    13.9720    17.2320   -12.8730     2.3900   295.3700 
  147.5000    58.9950    23.6480    15.1650    14.0790    17.1560   -12.9130     2.4040   293.9540 
  147.6250    58.4300    23.4930    14.5910    14.2240    17.0790   -12.9270     2.4270   296.4850 
  147.7500    57.5630    23.3860    14.2430    14.3520    17.0690   -12.9190     2.4510   301.8460 
  147.8750    56.9130    23.0930    13.5540    14.4590    17.0000   -12.9070     2.4690   306.8470 
  148.0000    56.5340    22.9150    13.3090    14.6480    16.9950   -12.8910     2.4770   308.5130 
  148.1250    56.4560    22.8710    14.7350    14.8310    17.0540   -12.8820     2.4710   306.2040 
  148.2500    56.4200    22.8080    15.9710    15.0540    17.1150   -12.8760     2.4560   301.9200 
  148.3750    57.9750    22.5610    14.4940    15.2530    17.1000   -12.8540     2.4380   303.3630 
  148.5000    64.0010    22.4870    11.9320    15.4440    17.2800   -12.8360     2.4280   318.3790 
  148.6250    72.4390    22.2920     9.7220    15.6570    17.7340   -12.8270     2.4290   348.8270 
  148.7500    77.8770    22.5910     9.4390    15.8970    18.5750   -12.8170     2.4290   384.0190 
  148.8750    77.9760    23.2700    12.4520    16.5240    19.9950   -12.8120     2.4160   401.1140 
  149.0000    78.7650    23.6590    15.8650    17.4380    21.7710   -12.8170     2.3930   398.0760 
  149.1250    82.9210    23.7220    17.6610    18.7350    23.8010   -12.8240     2.3750   388.5000 
  149.2500    85.8500    23.7370    19.1200    20.3390    26.1040   -12.8380     2.3730   384.5090 
  149.3750    81.4860    23.7120    20.3850    22.1430    28.6810   -12.8570     2.3850   388.2460 
  149.5000    73.1510    23.7040    22.8270    24.3170    31.3270   -12.8850     2.4000   393.2810 
  149.6250    69.4030    23.6770    25.3060    26.7160    34.2140   -12.8970     2.4000   397.7440 
  149.7500    72.7130    23.4360    29.3960    29.4120    37.3880   -12.9110     2.3810   399.1610 
  149.8750    75.9340    23.1560    34.3370    32.3640    41.1790   -12.9190     2.3520   395.9870 
  150.0000    76.0200    23.0930    38.6310    35.6730    45.1010   -12.9130     2.3260   392.4240 
  150.1250    76.8070    23.2390    39.6930    39.0210    48.8320   -12.8900     2.3120   392.1880 
  150.2500    77.3970    23.4220    41.2580    41.8070    51.7910   -12.8680     2.3080   394.7230 
  150.3750    73.1920    23.4270    43.1770    43.9510    53.7340   -12.8660     2.3060   395.6410 
  150.5000    70.0470    23.4170    45.6390    45.2610    54.6530   -12.8550     2.3030   392.2370 
  150.6250    74.2590    23.3310    45.7370    45.0480    53.4390   -12.8700     2.2960   388.2460 
  150.7500    82.5090    23.2970    41.1960    42.4210    49.1460   -12.9020     2.2930   387.5880 
  150.8750    86.7000    23.2940    33.1290    37.1510    42.1470   -12.9320     2.2930   390.5210 
  151.0000    85.9120    23.3330    26.8010    30.6390    33.9800   -12.9790     2.2890   391.1940 
  151.1250    82.5630    23.2260    23.4220    24.0370    27.2880   -13.0420     2.2830   388.1150 
  151.2500    78.2630    23.1380    20.9940    18.2590    20.9980   -13.1110     2.2900   385.3610 
  151.3750    71.4370    23.0550    15.8450    13.6210    15.6650   -13.1990     2.3170   389.8810 
  151.5000    61.2750    23.0620    10.3560    10.1200    11.6380   -13.2990     2.3520   400.5170 
  151.6250    50.8670    23.1540     7.1130     7.7310     8.8910   -13.4030     2.3660   409.2670 
  151.7500    44.5030    23.3740     6.0480     6.2030     7.1340   -13.4960     2.3610   408.2100 
  151.8750    43.3180    23.4290     5.4780     5.3430     6.1450   -13.6090     2.3490   400.4070 
  152.0000    43.4790    23.4490     5.3090     4.9320     5.6720   -13.7280     2.3290   401.3940 
  152.1250    43.4550    23.5010     5.4560     4.8690     5.5990   -13.8540     2.2810   414.4630 
  152.2500    42.2480    23.5700     5.6360     4.9110     5.6480   -13.9820     2.2120   427.0300 
  152.3750    39.5640    23.7350     5.3830     5.0260     5.7800   -14.0920     2.1470   426.6000 
  152.5000    36.4720    23.7430     5.0150     5.1550     5.9280   -14.1870     2.1050   419.6630 
  152.6250    33.9040    23.7670     4.8040     5.2100     5.9910   -14.2630     2.0820   414.4150 
  152.7500    33.7210    23.7730     4.8640     5.2000     5.9800   -14.3320     2.0710   411.8870 
  152.8750    36.4900    23.7910     5.1490     5.1200     5.8880   -14.3760     2.0750   409.2240 
  153.0000    39.1590    23.9040     5.1470     5.0950     5.8600   -14.3940     2.1010   407.2540 
  153.1250    39.7570    24.0310     4.9750     5.0830     5.8460   -14.3870     2.1360   405.0050 
  153.2500    40.8430    24.0330     4.7210     5.1380     5.9090   -14.3620     2.1530   401.7360 
  153.3750    47.3720    23.9590     4.6670     5.1130     5.8800   -14.3200     2.1390   398.1980 
  153.5000    55.5530    23.9070     4.6980     5.0480     5.8050   -14.2790     2.1140   397.1670 
  153.6250    61.3290    23.7810     4.8450     5.0140     5.7660   -14.2350     2.1220   399.7410 
  153.7500    64.1820    23.7230     5.0330     4.9600     5.7040   -14.1870     2.1760   403.1890 
  153.8750    67.3020    23.4700     5.1530     4.9140     5.6520   -14.1290     2.2580   403.4960 
  154.0000    71.2710    23.3790     5.1930     4.8460     5.5720   -14.0720     2.3330   401.3000 
  154.1250    73.1220    23.3210     5.1890     4.8990     5.6340   -14.0190     2.3710   399.1770 
  154.2500    73.4700    23.3750     5.0980     5.0910     5.8550   -13.9650     2.3800   400.3440 
  154.3750    73.2870    23.5440     5.0350     5.2730     6.0640   -13.9170     2.3770   404.0160 
  154.5000    72.5310    23.7190     4.9440     5.4800     6.3020   -13.8650     2.3730   407.9320 
  154.6250    72.5150    23.7340     5.0300     5.6560     6.5050   -13.8130     2.3680   410.3660 
  154.7500    75.3210    23.6420     5.1780     5.8750     6.7560   -13.7690     2.3640   410.0410 
  154.8750    78.7430    23.6360     5.2130     6.0070     6.9080   -13.7370     2.3660   408.0770 
  155.0000    78.6000    23.6870     5.4070     6.0260     6.9290   -13.7070     2.3790   405.6680 
  155.1250    76.0710    23.7310     5.8190     5.9890     6.8880   -13.6800     2.3970   400.7220 
  155.2500    76.2530    23.7430     6.5570     6.0180     6.9210   -13.6490     2.4080   392.9440 
  155.3750    79.6650    23.6220     7.2270     6.0990     7.0140   -13.6230     2.4080   389.1950 
  155.5000    80.7710    23.5670     7.4590     6.2040     7.1350   -13.6000     2.4000   391.3750 
  155.6250    79.2810    23.4820     7.4590     6.2240     7.1580   -13.5870     2.3910   395.1030 
  155.7500    79.5560    23.4480     7.3040     6.2020     7.1330   -13.5720     2.3850   396.7340 
  155.8750    82.4530    23.4080     7.0380     6.2080     7.1390   -13.5740     2.3840   396.7070 
