~V
VERS. 2.00: Ver 2.00
~W
STRT.M 65.0000:
STOP.M 277.0000:
STEP.M 0.1250:
NULL. -999.2500:
UWI. DF311:
~C
DEPT.M :
DEN.GM/CC :
SP.MV :
AC.US/MT :
GR.API :
CALI.CM :
RXO.OHMM :
RI. :
RML.OHMM :
~A
# ...
  215.0000     2.4050   -22.0510   398.7640    85.2030    22.9260     7.2560     5.9890     8.8110 
  215.1250     2.4040   -22.4110   396.7690    80.6920    22.9260     7.5640     6.4870     9.4400 
  215.2500     2.3920   -22.7380   394.5460    79.1630    22.9260     7.6970     7.0930    10.2240 
  215.3750     2.3730   -23.0460   392.6700    80.7250    22.9260     8.0130     7.7850    11.1290 
  215.5000     2.3610   -23.3450   391.8670    80.6160    22.9260     8.7930     8.4750    12.0090 
  215.6250     2.3670   -23.6180   392.6030    76.6130    22.9260     9.6290     8.9730    12.5530 
  215.7500     2.3860   -23.8420   393.9780    73.8400    22.9260    10.0050     9.1770    12.6290 
  215.8750     2.4040   -24.0340   394.9460    73.3870    22.9260     9.6960     9.1050    12.3100 
  216.0000     2.4090   -24.2110   394.5050    73.9300    22.9260     9.0260     8.8830    11.8540 
  216.1250     2.4050   -24.3480   391.7290    74.1590    22.9310     8.4810     8.6820    11.5780 
  216.2500     2.4030   -24.4820   387.6920    74.4780    22.9700     8.3230     8.5800    11.5580 
  216.3750     2.4020   -24.5980   384.4290    77.0350    23.0660     8.6500     8.5510    11.6980 
  216.5000     2.3970   -24.6990   384.0740    81.4340    23.1600     9.0520     8.5070    11.7910 
  216.6250     2.3810   -24.7960   387.4750    84.0060    23.1970     9.0030     8.3710    11.6340 
  216.7500     2.3590   -24.9280   391.9040    82.6560    23.2090     8.6650     8.2410    11.3910 
  216.8750     2.3400   -25.0820   395.1950    79.4010    23.2300     8.5970     8.3330    11.4350 
  217.0000     2.3290   -25.2480   396.9170    75.1370    23.2700     9.0330     8.9280    12.2200 
  217.1250     2.3190   -25.4480   397.9180    70.5110    23.2890    10.6390    10.5630    14.4600 
  217.2500     2.3100   -25.6630   396.9620    68.2400    23.2930    14.7290    13.6100    18.5220 
  217.3750     2.3150   -25.9100   389.3720    67.3520    23.2900    23.1120    18.6140    25.0000 
  217.5000     2.3440   -26.1810   371.4100    63.7610    23.2800    34.8510    25.8930    34.3000 
  217.6250     2.3780   -26.4790   347.4360    59.8820    23.2530    44.9170    34.8020    45.7190 
  217.7500     2.3890   -26.7820   332.4600    61.1020    23.2190    51.3550    42.5560    55.3880 
  217.8750     2.3710   -27.1040   335.7740    63.9080    23.2040    54.4120    46.9770    59.9850 
  218.0000     2.3400   -27.4320   354.5350    63.2010    23.2020    52.2910    47.9060    59.5620 
  218.1250     2.3120   -27.7430   374.3590    61.9960    23.2020    45.8400    46.8680    57.0190 
  218.2500     2.2930   -28.0450   384.1820    63.6630    23.2020    39.6400    45.9300    55.2330 
  218.3750     2.2830   -28.3330   385.3070    64.8520    23.2020    38.5810    45.8460    54.9790 
  218.5000     2.2810   -28.6030   384.7150    60.5780    23.2020    41.8980    46.7670    56.2480 
  218.6250     2.2840   -28.8610   388.0730    55.7630    23.2020    44.9320    48.4870    58.6350 
  218.7500     2.2800   -29.1090   393.5430    55.8780    23.2020    46.3600    50.2620    61.0200 
  218.8750     2.2630   -29.3490   397.6290    59.2900    23.2020    46.4270    51.5000    62.5170 
  219.0000     2.2370   -29.5850   398.4880    61.5950    23.2000    45.1780    51.9060    62.6830 
  219.1250     2.2190   -29.8120   396.6670    61.7150    23.1960    43.7040    51.6540    61.8080 
  219.2500     2.2180   -30.0270   394.3920    61.8530    23.1940    43.3570    51.4860    61.0250 
  219.3750     2.2320   -30.2330   392.5560    61.6110    23.1930    44.7210    51.9430    61.0950 
  219.5000     2.2510   -30.4510   391.6750    60.1810    23.1900    46.1420    53.3420    62.4230 
  219.6250     2.2660   -30.6830   392.8010    58.6060    23.1860    47.3760    55.8960    65.2530 
  219.7500     2.2710   -30.9300   395.8800    58.0190    23.1850    48.9470    59.1440    68.9700 
  219.8750     2.2670   -31.1820   399.8550    57.2400    23.1860    51.3500    62.5690    72.8900 
  220.0000     2.2540   -31.4330   402.9950    55.6940    23.1870    52.9150    65.5620    76.1920 
  220.1250     2.2400   -31.6960   403.7260    56.2800    23.1860    52.0860    67.4240    77.9540 
  220.2500     2.2330   -31.9790   402.7360    62.0660    23.1860    49.0110    68.1990    78.2910 
  220.3750     2.2370   -32.2770   401.2900    67.6350    23.1800    45.3830    68.2250    77.6990 
  220.5000     2.2460   -32.5560   400.6250    66.3090    23.1180    42.4410    68.0850    76.9410 
  220.6250     2.2470   -32.7950   401.5110    60.4810    22.9230    40.3900    68.5010    76.8820 
  220.7500     2.2380   -33.0130   403.3140    58.6020    22.6590    39.6300    69.7710    77.8310 
  220.8750     2.2310   -33.2220   405.3000    61.6050    22.4960    40.7500    71.9640    79.8300 
  221.0000     2.2320   -33.4220   406.8920    64.0960    22.4480    43.9790    74.9110    82.6640 
  221.1250     2.2300   -33.6220   407.6920    62.2150    22.4480    47.6200    78.1840    85.8270 
  221.2500     2.2200   -33.8210   407.9270    57.6010    22.4480    49.2010    81.0870    88.5200 
  221.3750     2.2100   -34.0030   408.1820    55.3480    22.4480    49.1730    83.1520    90.2150 
  221.5000     2.2110   -34.2030   409.2360    58.2090    22.4480    49.5270    84.2770    90.8220 
  221.6250     2.2230   -34.4220   411.2280    61.3140    22.4620    51.3790    84.7840    90.7360 
  221.7500     2.2320   -34.6420   412.6570    60.8770    22.5370    53.4730    85.4740    90.8410 
  221.8750     2.2310   -34.8750   412.3350    58.9200    22.6980    53.9890    86.9990    91.8220 
  222.0000     2.2240   -35.1180   410.6030    58.7290    22.8500    53.0580    89.9690    94.3250 
  222.1250     2.2190   -35.3740   409.2300    58.9360    22.9070    54.3510    95.4460    99.4540 
  222.2500     2.2220   -35.6240   408.6020    57.5050    22.9480    59.5190   103.5960   107.4170 
  222.3750     2.2300   -35.8970   407.2760    55.5830    23.0460    66.6910   114.0290   117.9720 
  222.5000     2.2410   -36.1730   404.3260    54.2730    23.1310    71.6140   124.8140   129.1860 
  222.6250     2.2480   -36.4730   401.5960    53.1030    23.1430    73.3410   131.8170   135.4190 
  222.7500     2.2550   -36.7680   401.5740    51.7070    23.1130    73.1110   132.0270   133.6580 
  222.8750     2.2580   -37.0300   403.9330    51.7110    23.0890    68.7400   123.5600   126.8310 
  223.0000     2.2550   -37.2950   406.2680    54.1680    23.0630    59.7650   112.3210   116.5990 
  223.1250     2.2440   -37.5200   406.5770    56.9550    23.0230    51.8320   103.6240   107.9290 
  223.2500     2.2330   -37.7160   405.9410    57.5230    23.0050    50.7380    99.6610   103.7470 
  223.3750     2.2270   -37.8950   405.4750    57.1090    23.0010    55.4270   100.8970   104.9440 
  223.5000     2.2300   -38.0460   405.2430    57.6330    23.0010    60.9420   107.0620   111.3560 
  223.6250     2.2310   -38.1270   404.9610    59.4780    23.0010    64.6480   117.7970   122.5360 
  223.7500     2.2260   -38.1950   405.2280    61.2370    23.0010    66.8990   130.5300   135.7680 
  223.8750     2.2170   -38.2500   406.6120    61.7930    23.0080    67.8890   143.1320   148.9860 
  224.0000     2.2130   -38.2780   408.6580    60.4470    23.0290    66.9080   154.0250   160.6780 
  224.1250     2.2130   -38.2910   410.2660    58.2800    23.0740    66.4130   162.1540   169.6700 
  224.2500     2.2080   -38.2900   411.7400    57.5590    23.0820    69.3570   167.2840   175.5650 
  224.3750     2.2010   -38.2470   414.2920    57.4580    23.0470    75.6970   167.9490   176.9370 
  224.5000     2.1950   -38.1740   418.2400    57.5900    23.0130    81.8150   162.5100   172.2310 
  224.6250     2.1950   -38.1280   421.7350    58.7600    23.0010    82.1450   150.1200   160.3350 
  224.7500     2.1940   -38.0730   422.7720    60.0590    22.9960    78.0170   134.7950   144.8890 
  224.8750     2.1920   -37.9950   421.3080    59.7640    22.9790    70.9050   120.0240   129.3780 
