~V
VERS. 2.00: Ver 2.00
~W
STRT.M 100.0000:
STOP.M 292.0000:
STEP.M 0.1250:
NULL. -999.2500:
UWI. DF310:
~C
DEPT.M :
AC.US/MT :
DEN.GM/CC :
GR.API :
CALI.CM :
RXO.OHMM :
RI. :
RML.OHMM :
SP.MV :
~A
# ...
  260.0000   383.3570     2.3530    84.5280    23.3420     6.4900     5.7000     6.6760   -13.6150 
  260.1250   382.9830     2.3570    85.4590    23.3700     5.6030     5.1180     6.5000   -13.5150 
  260.2500   382.6570     2.3530    85.4620    23.3780     5.1650     4.7580     6.3860   -13.4570 
  260.3750   381.9080     2.3440    85.0970    23.3780     5.0910     4.6270     6.3280   -13.4220 
  260.5000   380.4380     2.3300    84.3920    23.3780     5.2590     4.7180     6.3600   -13.3990 
  260.6250   378.5300     2.3110    83.4760    23.3830     5.6900     5.0420     6.5320   -13.3760 
  260.7500   377.0480     2.2900    82.3160    23.4070     6.4500     5.5250     6.8400   -13.3530 
  260.8750   376.3540     2.2760    80.6890    23.4680     7.4840     6.1230     7.2880   -13.3480 
  261.0000   376.0970     2.2700    78.4480    23.5510     8.3100     6.7790     7.8390   -13.3590 
  261.1250   375.7010     2.2690    77.1270    23.6150     8.5490     7.3960     8.3320   -13.3610 
  261.2500   374.9100     2.2690    78.6050    23.6390     9.0190     7.8720     8.6200   -13.3530 
  261.3750   374.0460     2.2730    80.5340    23.6440     9.9760     8.1260     8.6960   -13.3420 
  261.5000   373.2690     2.2830    80.8500    23.6550    10.5410     8.1370     8.6460   -13.3220 
  261.6250   372.6190     2.2930    80.2270    23.6850     9.5200     7.9270     8.5710   -13.3120 
  261.7500   372.6850     2.2940    81.7630    23.7210     8.2960     7.6080     8.5020   -13.3100 
  261.8750   374.2020     2.2870    82.4550    23.7360     7.7390     7.2340     8.3760   -13.2930 
  262.0000   377.1870     2.2820    81.2590    23.7390     7.8800     6.8350     8.1340   -13.2710 
  262.1250   380.3820     2.2880    80.2220    23.7390     7.8110     6.4260     7.8010   -13.2520 
  262.2500   381.5820     2.2980    81.3530    23.7390     7.0900     6.0380     7.4430   -13.2430 
  262.3750   380.5790     2.3060    81.9160    23.7390     6.2040     5.7160     7.1050   -13.2450 
  262.5000   378.4740     2.3090    80.4810    23.7390     5.7810     5.5140     6.8800   -13.2520 
  262.6250   376.3650     2.3140    80.3450    23.7390     5.8860     5.5140     6.8920   -13.2550 
  262.7500   374.1100     2.3240    81.8130    23.7390     6.0470     5.7210     7.1350   -13.2430 
  262.8750   371.0640     2.3340    82.7030    23.7390     6.3140     6.1250     7.5580   -13.2170 
  263.0000   367.6850     2.3360    82.3600    23.7390     6.7350     6.6680     8.0360   -13.1760 
  263.1250   365.4290     2.3230    80.8490    23.7410     7.4900     7.2140     8.3570   -13.1260 
  263.2500   365.8140     2.3110    78.4550    23.7580     8.3140     7.5810     8.4010   -13.0660 
  263.3750   367.8960     2.3110    76.2480    23.7960     8.8270     7.6490     8.1930   -13.0070 
  263.5000   370.2480     2.3230    76.6230    23.8250     8.7170     7.4380     7.8680   -12.9530 
  263.6250   371.7180     2.3330    79.3160    23.8330     8.1330     7.1200     7.5840   -12.9050 
  263.7500   371.8190     2.3310    81.9520    23.8300     7.6080     6.8970     7.4550   -12.8650 
  263.8750   371.2670     2.3200    80.8390    23.8290     7.7200     6.8440     7.5100   -12.8360 
  264.0000   370.4380     2.3100    76.7250    23.8270     8.9360     6.9670     7.7520   -12.8130 
  264.1250   368.9390     2.3110    72.5540    23.8270    11.4340     7.2570     8.2260   -12.8040 
  264.2500   365.6600     2.3140    69.4700    23.8290    12.1580     7.6680     8.8780   -12.8100 
  264.3750   360.7150     2.3270    67.3230    23.8310    10.6460     8.2440     9.6960   -12.8130 
  264.5000   353.9550     2.3440    66.3440    23.8330     9.7400     9.0920    10.7390   -12.8370 
  264.6250   343.7960     2.3730    65.9410    23.8330    12.2090    10.3950    12.2090   -12.8850 
  264.7500   327.9730     2.4090    62.8080    23.8310    15.9540    12.0680    14.1220   -12.9560 
  264.8750   310.9310     2.4390    59.6670    23.8310    19.2260    13.8620    16.2950   -13.0590 
  265.0000   299.6860     2.4580    60.9070    23.8310    21.4810    15.2920    18.1600   -13.1790 
  265.1250   298.0980     2.4680    64.8730    23.8250    21.9230    15.6620    18.6720   -13.3130 
  265.2500   301.8680     2.4740    67.3100    23.8070    20.0540    15.0960    17.8390   -13.4500 
  265.3750   301.5410     2.4780    69.8120    23.7710    17.2260    14.0710    16.3090   -13.5950 
  265.5000   295.4420     2.4760    73.0240    23.7450    16.4320    13.1190    14.8700   -13.7340 
  265.6250   289.1350     2.4640    73.8860    23.7210    17.2370    12.7070    14.2030   -13.8640 
  265.7500   290.5240     2.4480    71.7720    23.6760    17.4940    12.9770    14.4630   -13.9930 
  265.8750   297.1030     2.4400    71.3110    23.6170    17.7640    14.0550    15.7350   -14.1000 
  266.0000   301.2260     2.4540    72.3610    23.5590    19.9740    16.0040    18.0300   -14.2040 
  266.1250   296.4260     2.4860    73.1290    23.5020    23.7520    18.7980    21.3520   -14.2760 
  266.2500   282.0680     2.5210    73.3710    23.4090    25.7940    21.6000    24.8000   -14.3230 
  266.3750   267.4870     2.5390    74.9810    23.2770    26.2970    23.1130    26.7010   -14.3440 
  266.5000   261.4410     2.5280    76.7210    23.0880    27.2560    22.1290    25.3130   -14.3170 
  266.6250   269.7080     2.5040    73.7800    22.9420    28.8950    18.6050    20.6540   -14.2530 
  266.7500   292.9510     2.4780    63.8900    22.8730    25.1830    14.5350    15.5830   -14.1520 
  266.8750   319.0950     2.4530    52.6690    22.8380    16.5890    11.0150    11.5450   -14.0190 
  267.0000   337.0820     2.4310    45.6990    22.7870     9.0180     8.4280     8.8910   -13.8780 
  267.1250   341.1150     2.4190    43.5090    22.7350     6.4850     6.8670     7.5380   -13.7450 
  267.2500   332.5760     2.4140    43.5740    22.7110     5.7050     6.0020     6.8960   -13.6150 
  267.3750   319.8520     2.4120    44.7690    22.6760     5.4720     5.6650     6.6800   -13.5040 
  267.5000   306.0380     2.4060    46.0680    22.5570     5.5420     5.6840     6.6910   -13.4170 
  267.6250   293.7260     2.3980    47.5420    22.2970     5.6870     5.8790     6.7860   -13.3620 
  267.7500   290.8080     2.3900    48.5360    22.0930     5.8190     6.0560     6.8460   -13.3220 
  267.8750   301.3480     2.3850    48.2310    22.1160     5.9040     6.1350     6.8010   -13.3000 
  268.0000   323.0190     2.3800    47.9030    22.3550     5.8930     6.0940     6.5960   -13.2680 
  268.1250   348.3700     2.3770    50.6260    22.6040     5.7180     5.9330     6.2340   -13.2220 
  268.2500   369.0930     2.3760    54.0720    22.7000     5.5310     5.7250     5.8500   -13.1880 
  268.3750   382.6710     2.3800    52.6430    22.7160     5.4060     5.5220     5.5590   -13.1650 
  268.5000   389.2930     2.3830    48.6300    22.7040     5.3580     5.3600     5.4370   -13.1360 
  268.6250   390.6390     2.3770    47.4730    22.6780     5.3880     5.2710     5.5070   -13.0940 
  268.7500   389.1140     2.3630    49.6590    22.6450     5.4560     5.2420     5.6730   -13.0600 
  268.8750   387.4320     2.3540    50.9320    22.6310     5.5080     5.2590     5.8630   -13.0450 
  269.0000   386.4470     2.3600    52.2040    22.6290     5.5920     5.2990     6.0310   -13.0360 
  269.1250   386.7750     2.3760    54.5060    22.6310     5.7660     5.3400     6.1580   -13.0450 
  269.2500   390.3330     2.3900    56.4120    22.6280     5.8730     5.3690     6.2530   -13.0480 
  269.3750   396.8640     2.3980    57.0650    22.6250     5.7960     5.3870     6.3260   -13.0360 
  269.5000   402.8720     2.4020    55.2700    22.6250     5.5920     5.3990     6.3770   -13.0450 
  269.6250   402.9210     2.3990    51.2780    22.6280     5.4840     5.4060     6.4090   -13.0680 
  269.7500   393.7220     2.3930    47.8080    22.6340     5.5620     5.4070     6.4450   -13.0720 
  269.8750   381.8500     2.3880    46.8280    22.6400     5.8490     5.4070     6.4980   -13.0680 
