~V
VERS. 2.00: Ver 2.00
~W
STRT.M 51.0000:
STOP.M 228.0000:
STEP.M 0.1250:
NULL. -999.2500:
UWI. DF314:
~C
DEPT.M :
DEN.GM/CC :
AC.US/MT :
GR.API :
CALI.CM :
RXO.OHMM :
RI. :
RML.OHMM :
SP.MV :
~A
# ...
   61.0000     2.1340   265.2510  -999.2500  -999.2500  -999.2500  -999.2500  -999.2500    -4.0390 
   61.1250     2.1460   279.0990  -999.2500  -999.2500  -999.2500  -999.2500  -999.2500    -4.8220 
   61.2500     2.1470   285.2370  -999.2500  -999.2500  -999.2500  -999.2500  -999.2500    -5.6240 
   61.3750     2.1370   282.9120  -999.2500  -999.2500  -999.2500  -999.2500  -999.2500    -6.4470 
   61.5000     2.1170   274.9770    47.2210    26.0920    89.4360     5.0130     3.2070    -7.2420 
   61.6250     2.0930   267.9440    47.2210    26.0920    89.4360     5.0130     3.2070    -7.9980 
   61.7500     2.0740   267.6470    44.2830    26.0940   118.9550     4.4210     3.3540    -8.7220 
   61.8750     2.0620   276.3570    41.6520    26.0960   145.2310     3.4680     3.9910    -9.3410 
   62.0000     2.0570   292.7100    38.3700    26.0980   189.4990     2.7600     5.6550    -9.8150 
   62.1250     2.0560   311.7430    38.0990    26.0960   455.9570     2.5770     8.7000   -10.1400 
   62.2500     2.0540   326.9770    38.8300    26.0960   803.5310     2.7410    13.8800   -10.4020 
   62.3750     2.0530   335.8930    38.5400    26.1050   699.5130     3.1210    20.6500   -10.6500 
   62.5000     2.0540   340.3910    38.4130    26.1230   194.0840     3.6010    24.6210   -10.9380 
   62.6250     2.0580   347.0730    39.1280    26.1460    26.0160     3.9170    23.9980   -11.2340 
   62.7500     2.0640   361.0770    38.8440    26.1630     6.0540     3.8210    22.4580   -11.4270 
   62.8750     2.0690   382.2170    37.1730    26.1680     2.0620     3.4600    20.7430   -11.4190 
   63.0000     2.0660   405.7110    35.9820    26.1660     0.8710     3.0940    16.7460   -11.2240 
   63.1250     2.0500   424.4020    37.4960    26.1640     0.2820     2.4480     8.5450   -10.9720 
   63.2500     2.0390   436.0680    40.8330    26.1660    -0.1790     1.4080     2.8260   -10.8590 
   63.3750     2.0570   441.8960    44.2590    26.1700    -0.4470     0.5740     0.5450   -11.0130 
   63.5000     2.1210   444.2640    46.2250    26.1750   532.6420     0.1960    -0.1560   -11.3480 
   63.6250     2.2290   443.7500    48.1880    26.1770   533.0910     0.0740    -0.3000   -11.7760 
   63.7500     2.3410   439.3060    51.3580    26.1840   268.6870     0.0220    -0.3290   -12.3400 
   63.8750     2.4270   429.7860    54.3320    26.1700     6.9770     0.0450    -0.2960   -13.1420 
   64.0000     2.4670   416.9740    57.3410    25.9970    14.8280     0.2340    -0.1250   -14.1740 
   64.1250     2.4570   407.7390    61.0010    25.5860    25.7680     0.9240     0.5300   -15.2710 
   64.2500     2.4170   408.7630    63.2760    25.1810    37.1120     2.5070     2.3530   -16.1630 
   64.3750     2.3610   422.4060    66.4360    24.9720    42.6890     4.9150     5.8950   -16.5440 
   64.5000     2.3040   445.0130    75.2090    24.9380    36.2500     7.5520     9.1090   -16.3260 
   64.6250     2.2620   467.1830    85.4040    24.9630    22.0180     8.4950    10.1730   -15.6760 
   64.7500     2.2390   480.8020    88.6440    25.0490    12.4600     8.1940     9.8340   -14.8420 
   64.8750     2.2350   483.9350    86.2130    25.1800     9.2650     7.5240     9.0780   -13.9960 
   65.0000     2.2430   479.1690    84.7090    25.2730     8.7800     6.9030     8.3760   -13.3830 
   65.1250     2.2610   471.1300    87.9390    25.2670     8.3760     6.4270     7.8390   -13.2010 
   65.2500     2.2810   464.2330    93.3760    25.2120     7.4460     6.0130     7.3710   -13.2350 
   65.3750     2.3000   459.6890    97.5360    25.1510     6.4050     5.6110     6.9180   -13.5270 
   65.5000     2.3160   456.7820    98.7820    25.0950     5.5690     5.2450     6.5040   -14.2940 
   65.6250     2.3280   453.4170    98.1000    25.0540     5.3250     5.0310     6.2630   -15.5110 
   65.7500     2.3340   448.5770    97.4590    25.0380     5.7920     5.0000     6.2280   -16.8890 
   65.8750     2.3340   443.7960    95.5080    25.0410     6.6240     5.1090     6.3510   -18.1680 
   66.0000     2.3280   442.5280    92.9330    25.0480     7.0400     5.2650     6.5270   -19.0450 
   66.1250     2.3170   448.8740    93.7140    25.0460     6.6240     5.3600     6.6340   -19.3020 
   66.2500     2.3070   460.4280    96.7990    25.0210     6.1300     5.3670     6.6420   -19.2040 
   66.3750     2.3000   472.2820    98.2970    24.9670     6.0000     5.3210     6.5900   -18.8510 
   66.5000     2.2950   479.3040    97.3480    24.8990     6.1160     5.2810     6.5460   -18.2400 
   66.6250     2.2920   478.4700    95.4440    24.8500     6.2840     5.3110     6.5790   -17.4470 
   66.7500     2.2910   473.4090    93.6480    24.8210     6.4820     5.3950     6.6740   -16.6810 
   66.8750     2.2940   467.5570    92.1900    24.8070     6.6370     5.4660     6.7540   -16.1500 
   67.0000     2.3030   463.2040    92.9710    24.8170     6.6120     5.4310     6.7150   -15.9740 
   67.1250     2.3170   461.7380    95.2680    24.8620     6.3040     5.1860     6.4380   -16.1910 
   67.2500     2.3300   462.9810    96.5630    24.9070     5.7980     4.7920     5.9930   -16.6550 
   67.3750     2.3380   466.4940    97.6570    24.9290     5.2210     4.3670     5.5130   -17.3190 
   67.5000     2.3360   470.7350    99.9060    24.9470     4.7920     4.0520     5.1580   -18.0500 
   67.6250     2.3280   472.9010   100.2620    25.0130     4.8800     3.9810     5.0770   -18.6820 
   67.7500     2.3170   472.2900    96.0710    25.0920     5.5250     4.1270     5.2430   -19.1460 
   67.8750     2.3060   470.6400    89.9750    25.1200     6.4150     4.4180     5.5710   -19.3080 
   68.0000     2.2970   470.8070    87.9470    25.0920     6.9720     4.7270     5.9200   -19.1330 
   68.1250     2.2890   474.4030    89.6370    25.0630     6.8610     4.9240     6.1430   -18.6960 
   68.2500     2.2830   478.3650    90.0240    25.0670     6.5800     5.0150     6.2450   -18.1850 
   68.3750     2.2810   479.0360    88.3540    25.0940     6.5480     5.0760     6.3140   -17.7670 
   68.5000     2.2860   474.1000    85.5500    25.1270     6.9510     5.2030     6.4570   -17.6540 
   68.6250     2.3020   462.6950    81.0630    25.1710     7.8660     5.4980     6.7900   -18.0160 
   68.7500     2.3240   447.0610    74.8300    25.2260     8.9560     5.9510     7.3020   -18.6240 
   68.8750     2.3430   428.4760    69.9180    25.2740    10.0160     6.5170     7.9400   -19.2820 
   69.0000     2.3480   409.1260    67.5890    25.2880    11.4700     7.1060     8.6060   -19.8500 
   69.1250     2.3330   394.7010    66.6090    25.2310    13.7160     7.5880     9.1500   -20.3400 
   69.2500     2.3080   390.5080    67.3560    25.1380    14.9510     7.8690     9.4670   -20.6960 
   69.3750     2.2830   398.9330    70.8690    25.0680    13.6900     7.9000     9.5010   -20.7500 
   69.5000     2.2660   417.1810    74.6280    25.0680    10.9650     7.7010     9.2770   -20.4320 
   69.6250     2.2630   437.4840    76.8700    25.1330     9.3360     7.3200     8.8470   -19.8650 
   69.7500     2.2660   452.2890    79.0140    25.1950     8.8090     6.8540     8.3210   -19.3320 
   69.8750     2.2700   460.1920    81.6040    25.2190     8.3810     6.3680     7.7730   -19.0300 
   70.0000     2.2730   464.0680    82.4200    25.2080     7.6940     5.9270     7.2750   -19.0160 
   70.1250     2.2700   468.0700    79.8090    25.1710     7.1240     5.5900     6.8950   -19.0750 
   70.2500     2.2630   473.1750    78.4480    25.1340     6.8500     5.3680     6.6430   -19.1380 
   70.3750     2.2550   477.2450    79.7850    25.1070     6.8240     5.2940     6.5600   -19.2870 
   70.5000     2.2470   477.6880    80.6950    25.0970     6.9890     5.4010     6.6810   -19.5500 
   70.6250     2.2440   473.4810    77.8640    25.1010     7.5730     5.7350     7.0570   -19.8500 
   70.7500     2.2470   468.5480    73.6390    25.1280     8.7130     6.2310     7.6170   -20.1270 
   70.8750     2.2540   467.0640    71.3660    25.1920    10.0650     6.7880     8.2470   -20.4910 
