~V
VERS. 2.00: Ver 2.00
~W
STRT.M 65.0000:
STOP.M 277.0000:
STEP.M 0.1250:
NULL. -999.2500:
UWI. DF311:
~C
DEPT.M :
DEN.GM/CC :
SP.MV :
AC.US/MT :
GR.API :
CALI.CM :
RXO.OHMM :
RI. :
RML.OHMM :
~A
# ...
  135.0000     2.5440   -21.0270   254.8200    50.0830    23.9410    19.3370    19.6700    22.7580 
  135.1250     2.5320   -21.0760   264.9780    49.9600    23.8810    18.9290    18.6800    21.3120 
  135.2500     2.5300   -21.1300   277.7600    49.7450    23.8570    16.3680    17.1260    19.2080 
  135.3750     2.5270   -21.1720   288.2880    50.1300    23.8600    13.3370    15.5420    17.1780 
  135.5000     2.5190   -21.1910   293.2210    50.1570    23.8790    11.4930    14.2890    15.6670 
  135.6250     2.5150   -21.1650   291.9150    49.1000    23.9600    11.0810    13.6190    14.9480 
  135.7500     2.5210   -21.0850   287.6420    48.3370    24.1420    11.3580    13.4700    14.8820 
  135.8750     2.5320   -20.9720   281.7610    48.1640    24.4460    11.9590    13.7770    15.3580 
  136.0000     2.5410   -20.8190   274.7580    47.8950    24.7800    12.6290    14.4100    16.2040 
  136.1250     2.5470   -20.6500   267.6920    48.0180    25.0230    13.3540    15.1950    17.1950 
  136.2500     2.5500   -20.4780   262.4450    48.6670    25.0540    14.0930    15.8930    18.0420 
  136.3750     2.5510   -20.3280   260.2470    47.9610    24.9710    14.4660    16.3340    18.5350 
  136.5000     2.5500   -20.2150   261.3240    46.6890    24.8100    14.4150    16.4360    18.5830 
  136.6250     2.5510   -20.1470   265.2490    47.3610    24.8470    14.1850    16.2190    18.2400 
  136.7500     2.5540   -20.1180   269.6870    49.0510    24.8530    13.5530    15.9160    17.8210 
  136.8750     2.5560   -20.1160   272.3230    49.3820    24.9350    12.8960    15.6940    17.5450 
  137.0000     2.5550   -20.1420   271.8870    49.0970    24.9600    12.8070    15.6460    17.5330 
  137.1250     2.5500   -20.1650   269.8760    51.0750    24.8860    13.4820    15.8060    17.8150 
  137.2500     2.5500   -20.1880   269.7060    53.5220    24.9770    14.6820    16.0770    18.2410 
  137.3750     2.5600   -20.1970   272.0500    53.8520    24.9700    15.7990    16.3890    18.6910 
  137.5000     2.5730   -20.1910   274.8030    51.9110    24.9150    15.9830    16.7020    19.0950 
  137.6250     2.5780   -20.1880   274.7820    49.0520    24.9110    15.3240    17.0430    19.4830 
  137.7500     2.5760   -20.1700   271.9570    47.9370    24.7000    15.2670    17.4440    19.9410 
  137.8750     2.5740   -20.1420   267.6100    49.1340    24.3120    15.9400    17.8950    20.4760 
  138.0000     2.5760   -20.1060   263.2580    51.2000    24.1550    17.0350    18.3360    21.0090 
  138.1250     2.5820   -20.0740   260.9140    52.9290    24.3860    17.7550    18.6730    21.3820 
  138.2500     2.5890   -20.0320   261.4360    55.2740    24.7650    17.7830    18.8920    21.5550 
  138.3750     2.5950   -19.9960   263.9980    56.4550    24.9260    17.0940    19.0460    21.5980 
  138.5000     2.5970   -19.9590   266.1220    54.8600    24.9420    16.2810    19.2300    21.6650 
  138.6250     2.5970   -19.9260   265.2530    52.4020    24.9400    16.4000    19.4950    21.8720 
  138.7500     2.5930   -19.9130   262.6470    52.3080    24.9210    17.3320    19.7320    22.0880 
  138.8750     2.5810   -19.9060   260.7840    53.4830    24.8640    18.4430    19.7730    22.0880 
  139.0000     2.5620   -19.9040   261.5270    54.6870    24.7920    18.8660    19.4900    21.6860 
  139.1250     2.5490   -19.9120   265.0950    57.1350    24.6850    17.6960    18.8480    20.8330 
  139.2500     2.5480   -19.9230   269.1860    57.5490    24.4410    15.6170    18.0810    19.8410 
  139.3750     2.5530   -19.9380   272.3410    54.0750    24.1660    13.7500    17.4060    19.0030 
  139.5000     2.5580   -19.9710   274.4950    49.9720    24.0800    13.1930    16.9810    18.5170 
  139.6250     2.5590   -20.0110   276.5910    50.2750    24.2860    14.4780    16.8850    18.4580 
  139.7500     2.5610   -20.0600   278.4440    52.1880    24.6080    15.7390    16.9830    18.6220 
  139.8750     2.5700   -20.1090   278.4770    52.7610    24.7540    16.3350    17.1600    18.8520 
  140.0000     2.5830   -20.1670   275.8350    52.2010    24.7710    16.4440    17.3000    19.0180 
  140.1250     2.5860   -20.2320   272.4890    51.4020    24.6900    16.6330    17.2950    19.0200 
  140.2500     2.5710   -20.3190   272.0260    50.2270    24.4930    16.1860    17.1680    18.9060 
  140.3750     2.5490   -20.4110   275.3640    49.2600    24.1730    15.5090    16.9950    18.7650 
  140.5000     2.5390   -20.4900   280.1240    50.3120    23.8660    15.1710    16.8690    18.6870 
  140.6250     2.5520   -20.5400   281.4660    53.4710    23.6990    14.9680    16.9170    18.7940 
  140.7500     2.5780   -20.5720   277.7450    56.0790    23.6940    14.8950    17.1960    19.1530 
  140.8750     2.6060   -20.6040   270.4230    56.4790    23.8040    15.2710    17.7140    19.7820 
  141.0000     2.6250   -20.6360   262.5650    53.9630    23.9740    16.1330    18.4030    20.6040 
  141.1250     2.6250   -20.6520   257.2360    50.5270    23.8290    17.0720    19.1330    21.4580 
  141.2500     2.6130   -20.6700   254.6260    49.0150    23.6410    17.6700    19.7890    22.2100 
  141.3750     2.6020   -20.6840   253.6350    50.0000    23.4710    18.0590    20.3180    22.7960 
  141.5000     2.6000   -20.6970   252.7520    51.2560    23.3130    18.2660    20.7100    23.2000 
  141.6250     2.6060   -20.7600   251.0700    49.7230    23.1640    18.2400    20.9760    23.4300 
  141.7500     2.6130   -20.8350   249.4590    48.2750    23.0350    18.3280    21.1570    23.5400 
  141.8750     2.6160   -20.9280   248.9720    53.0280    22.9060    18.5000    21.2300    23.5060 
  142.0000     2.6120   -21.0210   249.7040    61.8960    22.7400    18.0820    21.1530    23.2910 
  142.1250     2.6050   -21.1120   251.0200    63.7940    22.6090    17.4280    20.8470    22.8270 
  142.2500     2.5980   -21.2010   253.0760    56.8980    22.5590    17.4220    20.3140    22.1240 
  142.3750     2.5940   -21.2840   257.1240    49.6230    22.5700    17.7180    19.5640    21.1980 
  142.5000     2.5900   -21.3680   263.6010    48.0450    22.6170    17.4540    18.6830    20.1420 
  142.6250     2.5830   -21.4340   270.4260    49.1810    22.6480    16.2140    17.8030    19.1090 
  142.7500     2.5710   -21.4810   274.5020    50.0050    22.6570    14.4680    17.0190    18.1950 
  142.8750     2.5560   -21.5100   275.3120    51.2520    22.6520    13.2730    16.3620    17.4320 
  143.0000     2.5460   -21.5210   275.1700    51.2650    22.6430    12.9820    15.8250    16.8080 
  143.1250     2.5420   -21.5210   277.8300    49.5440    22.6390    13.1070    15.3820    16.2800 
  143.2500     2.5370   -21.5210   283.2540    49.2490    22.6580    12.8910    14.9930    15.7980 
  143.3750     2.5240   -21.5160   288.7540    52.6000    22.7050    12.3710    14.6970    15.4080 
  143.5000     2.5120   -21.4900   291.3670    57.9850    22.7180    11.9030    14.5620    15.2100 
  143.6250     2.5120   -21.4450   289.6300    64.2510    22.5880    11.7450    14.6760    15.3220 
  143.7500     2.5190   -21.3930   285.8220    68.8030    22.3500    11.8650    14.9690    15.6680 
  143.8750     2.5240   -21.3230   282.0330    68.2450    22.1320    12.3910    15.3160    16.0930 
  144.0000     2.5230   -21.2650   279.9580    63.6120    22.0670    13.4400    15.5070    16.3470 
  144.1250     2.5240   -21.2200   281.2590    60.4940    22.2610    14.2420    15.2780    16.1180 
  144.2500     2.5300   -21.1430   285.5630    61.2550    22.6510    14.2210    14.6930    15.4770 
  144.3750     2.5400   -21.0690   291.4450    63.0780    23.0000    13.2280    13.9640    14.6660 
  144.5000     2.5460   -21.0450   295.9300    64.1120    23.2140    11.7380    13.3800    14.0180 
  144.6250     2.5490   -21.0340   294.3300    62.0380    23.4950    10.8520    13.2610    13.9090 
  144.7500     2.5570   -21.0600   286.4760    58.2530    23.8810    11.2350    13.6220    14.3580 
  144.8750     2.5730   -21.1180   275.7830    56.4870    24.1420    12.8480    14.3590    15.2380 
