~V
VERS. 2.00: Ver 2.00
~W
STRT.M 60.0000:
STOP.M 247.0000:
STEP.M 0.1250:
NULL. -999.2500:
UWI. DF315:
~C
DEPT.M :
DEN.GM/CC :
AC.US/MT :
GR.API :
RML.OHMM :
RI. :
RXO.OHMM :
CALI.CM :
SP.MV :
~A
   60.0000  -999.2500  -999.2500  -999.2500  -999.2500  -999.2500  -999.2500  -999.2500     4.7360 
   60.1250  -999.2500  -999.2500  -999.2500  -999.2500  -999.2500  -999.2500  -999.2500     4.4040 
   60.2500  -999.2500  -999.2500  -999.2500  -999.2500  -999.2500  -999.2500  -999.2500     4.1380 
   60.3750  -999.2500  -999.2500  -999.2500  -999.2500  -999.2500  -999.2500  -999.2500     3.9410 
   60.5000  -999.2500  -999.2500    34.7330     1.7980     0.7830     4.6270    25.3580     3.7900 
   60.6250  -999.2500  -999.2500    34.7330     1.7980     0.7830     4.6270    25.3580     3.6190 
   60.7500  -999.2500  -999.2500    34.4790     1.6590     0.7800     4.6280    25.3580     3.4970 
   60.8750  -999.2500  -999.2500    35.3350     1.5870     0.7810     4.7110    25.3580     3.4300 
   61.0000  -999.2500  -999.2500    37.1430     1.5970     0.7870     4.7780    25.3580     3.3940 
   61.1250  -999.2500  -999.2500    38.2040     1.6840     0.7940     4.8290    25.3580     3.4620 
   61.2500  -999.2500  -999.2500    37.1600     1.7660     0.7960     4.8290    25.3560     3.5920 
   61.3750  -999.2500  -999.2500    35.9390     1.7700     0.7870     4.7900    25.3550     3.7170 
   61.5000  -999.2500  -999.2500    36.9210     1.6560     0.7660     4.7920    25.3560     3.8940 
   61.6250  -999.2500  -999.2500    40.4930     1.4400     0.7420     4.8600    25.3560     4.1370 
   61.7500  -999.2500  -999.2500    44.5530     1.2080     0.7280     4.8590    25.3540     4.3030 
   61.8750  -999.2500  -999.2500    48.1120     1.0240     0.7310     4.7310    25.3520     4.3550 
   62.0000  -999.2500  -999.2500    49.5420     0.9250     0.7510     4.5720    25.3550     4.2850 
   62.1250  -999.2500  -999.2500    47.5710     0.9360     0.7780     4.5070    25.3570     4.0470 
   62.2500  -999.2500  -999.2500    44.2880     1.0330     0.7980     4.5010    25.3580     3.6830 
   62.3750  -999.2500  -999.2500    41.0320     1.1710     0.8080     4.5200    25.3570     3.2700 
   62.5000  -999.2500  -999.2500    40.1270     1.2730     0.8090     4.5330    25.3560     2.8080 
   62.6250  -999.2500  -999.2500    42.8330     1.2360     0.8020     4.5620    25.3530     2.2600 
   62.7500  -999.2500  -999.2500    44.7840     1.0640     0.7890     4.6610    25.3540     1.7060 
   62.8750  -999.2500  -999.2500    44.1720     0.8230     0.7720     4.8560    25.3550     1.2070 
   63.0000  -999.2500  -999.2500    42.4850     0.6070     0.7510     5.1110    25.3560     0.7320 
   63.1250  -999.2500  -999.2500    41.7300     0.5280     0.7340     5.4240    25.3540     0.2990 
   63.2500  -999.2500  -999.2500    42.0970     0.6150     0.7280     5.6710    25.3460    -0.1430 
   63.3750  -999.2500  -999.2500    44.7040     0.8490     0.7370     5.7520    25.3320    -0.6320 
   63.5000  -999.2500  -999.2500    48.8320     1.1480     0.7580     5.6900    25.3160    -1.1720 
   63.6250  -999.2500  -999.2500    50.9800     1.3810     0.7850     5.7590    25.3050    -1.7230 
   63.7500  -999.2500  -999.2500    51.4420     1.4750     0.8110     6.0380    25.3020    -2.1970 
   63.8750  -999.2500  -999.2500    51.6700     1.4400     0.8290     6.5000    25.3010    -2.6170 
   64.0000  -999.2500  -999.2500    50.9640     1.3400     0.8370     7.0650    25.3010    -2.9850 
   64.1250  -999.2500  -999.2500    49.0660     1.2350     0.8370     7.7550    25.3010    -3.2580 
   64.2500  -999.2500  -999.2500    47.3350     1.1220     0.8370     8.4010    25.3010    -3.4000 
   64.3750  -999.2500  -999.2500    46.6030     0.9730     0.8420     8.9550    25.3010    -3.4550 
   64.5000  -999.2500  -999.2500    46.7580     0.7790     0.8500     9.4960    25.3000    -3.3870 
   64.6250  -999.2500  -999.2500    47.5450     0.5780     0.8430    10.0930    25.2920    -3.1970 
   64.7500  -999.2500  -999.2500    47.2140     0.4190     0.8020    10.5950    25.2740    -3.0240 
   64.8750  -999.2500  -999.2500    45.5130     0.3200     0.7120    10.3900    25.2500    -2.9020 
   65.0000  -999.2500  -999.2500    45.2450     0.2610     0.5720     9.6570    25.2320    -2.8750 
   65.1250  -999.2500  -999.2500    47.6950     0.2090     0.4050     6.7260    25.2230    -3.1770 
   65.2500  -999.2500  -999.2500    50.4940     0.1590     0.2610     1.8760    25.2170    -3.7930 
   65.3750  -999.2500  -999.2500    53.0000     0.1170     0.1710     0.6540    25.2080    -4.6570 
   65.5000  -999.2500  -999.2500    57.8620     0.0850     0.1490     0.3180    25.1710    -5.8470 
   65.6250  -999.2500  -999.2500    69.2490     0.1050     0.2340     0.4420    24.9660    -7.4860 
   65.7500  -999.2500  -999.2500    82.9910     0.2600     0.4760     1.9700    24.5840    -9.3810 
   65.8750  -999.2500  -999.2500    91.8990     0.6570     0.9610     5.2190    24.2590   -11.3680 
   66.0000  -999.2500  -999.2500    91.7790     1.3710     1.7590     7.0240    24.2170   -13.3300 
   66.1250  -999.2500  -999.2500    85.5900     2.3960     2.8950     8.3790    24.4710   -15.0450 
   66.2500  -999.2500  -999.2500    80.8470     3.4430     4.1400     9.1790    24.6900   -16.5010 
   66.3750  -999.2500  -999.2500    79.3720     4.1900     5.2180     9.3640    24.8070   -17.7550 
   66.5000  -999.2500  -999.2500    82.4730     4.4630     5.8850     8.7960    24.8440   -18.7500 
   66.6250  -999.2500  -999.2500    89.7170     4.4160     6.0850     7.6170    24.8500   -19.3710 
   66.7500  -999.2500  -999.2500    96.2520     4.3560     6.1010     6.6560    24.8400   -19.7630 
   66.8750  -999.2500  -999.2500   100.7020     4.3790     6.1000     6.2600    24.8080   -19.9950 
   67.0000  -999.2500  -999.2500   103.7450     4.5150     6.1710     6.3010    24.7510   -20.1350 
   67.1250  -999.2500  -999.2500   104.5500     4.7830     6.3520     6.5710    24.7150   -20.2610 
   67.2500  -999.2500  -999.2500   102.3730     5.1400     6.5990     6.9140    24.7040   -20.3460 
   67.3750  -999.2500  -999.2500    99.3740     5.5670     6.8860     7.2030    24.7050   -20.3950 
   67.5000  -999.2500  -999.2500    99.0930     6.0830     7.2320     7.4050    24.7060   -20.4770 
   67.6250  -999.2500  -999.2500   100.2890     6.7470     7.7500     7.8590    24.6750   -20.5340 
   67.7500  -999.2500  -999.2500    97.8120     7.5280     8.4910     8.8410    24.5470   -20.5500 
   67.8750  -999.2500  -999.2500    89.5920     8.3270     9.4130    10.5420    24.2700   -20.6220 
   68.0000  -999.2500  -999.2500    79.4760     8.9670    10.3410    12.7300    23.9370   -20.7150 
   68.1250  -999.2500  -999.2500    75.2780     9.1830    10.9350    14.5460    23.7410   -20.7600 
   68.2500  -999.2500  -999.2500    75.6280     9.0080    11.0530    14.6090    23.6670   -20.8160 
   68.3750  -999.2500  -999.2500    78.1410     8.6750    10.8080    13.0200    23.6740   -20.9140 
   68.5000  -999.2500  -999.2500    81.4120     8.5190    10.5360    11.5200    23.7800   -21.0020 
   68.6250  -999.2500  -999.2500    82.8570     8.8680    10.6540    12.1900    23.9520   -21.1000 
   68.7500  -999.2500  -999.2500    82.2210     9.6740    11.2260    15.2800    24.0690   -21.1790 
   68.8750  -999.2500  -999.2500    82.3000    10.7460    12.1200    19.9360    24.1120   -21.2360 
   69.0000  -999.2500  -999.2500    83.5580    11.7550    13.0490    23.2170    24.1180   -21.2650 
   69.1250  -999.2500  -999.2500    82.5530    12.2370    13.5730    22.9050    24.1190   -21.2740 
   69.2500  -999.2500  -999.2500    80.1490    12.1000    13.4970    21.5020    24.1480   -21.2890 
   69.3750  -999.2500  -999.2500    80.5530    11.4820    12.8400    21.4200    24.2590   -21.2810 
   69.5000  -999.2500  -999.2500    83.2780    10.6320    11.8040    20.7080    24.4950   -21.2280 
   69.6250  -999.2500  -999.2500    86.0380     9.7620    10.6690    14.7390    24.6240   -21.1880 
   69.7500  -999.2500  -999.2500    90.2200     9.0040     9.6560     9.8350    24.6710   -21.1640 
   69.8750  -999.2500  -999.2500    96.1050     8.4310     8.8550     7.6580    24.6400   -21.1070 
