~V
VERS. 2.00: Ver 2.00
~W
STRT.M 65.0000:
STOP.M 277.0000:
STEP.M 0.1250:
NULL. -999.2500:
UWI. DF311:
~C
DEPT.M :
DEN.GM/CC :
SP.MV :
AC.US/MT :
GR.API :
CALI.CM :
RXO.OHMM :
RI. :
RML.OHMM :
~A
# ...
  145.0000     2.5820   -21.1850   267.8280    56.7960    24.1870    15.3010    15.2140    16.2500 
  145.1250     2.5700   -21.2920   267.2440    55.4180    24.0780    16.9090    15.7530    16.8820 
  145.2500     2.5500   -21.4410   271.0880    52.9320    24.0070    16.5510    15.7730    16.8970 
  145.3750     2.5360   -21.6180   275.5370    51.1630    23.9820    14.9540    15.3550    16.4040 
  145.5000     2.5330   -21.8010   278.5730    50.3320    23.9790    13.5910    14.7650    15.7460 
  145.6250     2.5320   -22.0040   280.8100    50.7160    23.9780    12.9640    14.2870    15.2800 
  145.7500     2.5320   -22.2340   283.5760    52.3910    23.9780    12.5810    13.9930    15.0710 
  145.8750     2.5330   -22.4920   286.8790    55.1610    23.9780    12.5880    13.8210    15.0130 
  146.0000     2.5360   -22.7650   290.4180    58.5350    23.9780    13.0730    13.6740    14.9560 
  146.1250     2.5320   -23.0720   294.1180    60.1060    23.9770    13.3080    13.5690    14.8840 
  146.2500     2.5260   -23.3520   296.7870    58.4960    23.9760    13.1510    13.6580    15.0000 
  146.3750     2.5330   -23.5390   295.7740    56.1050    23.9730    12.8970    14.1100    15.5420 
  146.5000     2.5550   -23.8880   289.2010    57.4360    23.9730    13.2530    15.0310    16.6650 
  146.6250     2.5690   -24.3270   279.9400    61.6230    23.9720    15.7290    16.4620    18.4230 
  146.7500     2.5580   -24.8210   276.1920    64.7100    23.9610    19.8630    18.0730    20.3920 
  146.8750     2.5250   -25.3200   282.6620    68.5030    23.9020    23.0300    19.4590    22.0370 
  147.0000     2.4890   -25.8400   297.5520    74.0040    23.7650    22.9150    20.2600    22.8970 
  147.1250     2.4660   -26.3900   313.0550    78.1790    23.5880    21.3490    20.3100    22.8230 
  147.2500     2.4540   -26.8950   322.4610    79.4140    23.4000    20.9560    19.9700    22.3450 
  147.3750     2.4530   -27.3490   324.9140    78.5510    23.1870    21.3130    19.5040    21.8180 
  147.5000     2.4580   -27.7370   323.1660    76.2870    23.0060    21.3580    19.0650    21.4060 
  147.6250     2.4610   -27.9850   320.8610    75.5390    22.9390    21.2470    18.7030    21.1160 
  147.7500     2.4590   -28.1270   319.1350    78.5430    22.9200    20.7550    18.4110    20.8840 
  147.8750     2.4600   -28.1640   316.6600    81.8890    22.8990    19.3350    18.2250    20.7430 
  148.0000     2.4700   -28.1030   312.5070    81.6330    22.8380    18.0530    18.2160    20.7870 
  148.1250     2.4850   -27.9440   307.5180    78.6740    22.7620    18.6030    18.5070    21.1740 
  148.2500     2.4930   -27.7060   302.5700    78.1860    22.6810    20.0920    19.0140    21.8190 
  148.3750     2.4940   -27.4090   296.7700    79.3330    22.6470    20.9460    19.4810    22.4010 
  148.5000     2.4960   -27.0840   290.4330    77.9490    22.6410    20.9360    19.4800    22.3620 
  148.6250     2.5010   -26.7200   289.6690    75.3940    22.6040    21.9700    18.4870    21.0130 
  148.7500     2.5000   -26.3310   299.7900    75.7470    22.5090    22.4240    16.7030    18.6670 
  148.8750     2.4840   -25.9420   319.5270    80.6750    22.3930    19.5090    14.5690    15.9500 
  149.0000     2.4600   -25.5350   340.4560    84.5600    22.3420    14.2890    12.5810    13.5310 
  149.1250     2.4410   -25.1200   351.6140    83.8670    22.3740    11.1680    11.1110    11.8790 
  149.2500     2.4220   -24.7260   353.7230    83.2560    22.4460    10.7970    10.0560    10.7930 
  149.3750     2.3950   -24.3240   353.5790    86.0120    22.5090    10.9260     9.2260     9.9840 
  149.5000     2.3620   -23.9180   358.6630    93.0610    22.5440    10.3450     8.4040     9.1380 
  149.6250     2.3360   -23.5700   373.3720    97.7950    22.5630     8.9230     7.4250     8.0190 
  149.7500     2.3220   -23.2410   392.5410    96.6450    22.6630     7.0870     6.3660     6.7620 
  149.8750     2.3210   -22.9570   409.8420    92.2130    23.0490     5.3800     5.3950     5.6120 
  150.0000     2.3320   -22.7290   420.5470    89.8260    23.7700     4.3470     4.6410     4.7560 
  150.1250     2.3460   -22.5400   423.3600    90.5870    24.4460     4.0540     4.1810     4.2880 
  150.2500     2.3490   -22.4110   422.9270    88.1740    24.4830     3.9950     3.9360     4.0900 
  150.3750     2.3390   -22.3570   422.0940    83.7480    24.2380     4.0040     3.8520     4.0740 
  150.5000     2.3280   -22.3750   421.7140    81.9640    24.0020     4.0340     3.8650     4.1530 
  150.6250     2.3310   -22.4680   420.8550    86.3670    23.7370     4.0310     3.9150     4.2510 
  150.7500     2.3390   -22.6160   418.8390    92.5060    23.5510     4.0450     3.9600     4.3390 
  150.8750     2.3420   -22.8140   416.2720    95.1300    23.4780     4.0940     3.9920     4.4170 
  151.0000     2.3420   -23.0520   414.4130    92.4600    23.4430     4.1250     4.0120     4.4800 
  151.1250     2.3470   -23.3140   413.9580    86.3450    23.3040     4.1840     4.0130     4.5120 
  151.2500     2.3520   -23.5950   414.0300    81.7550    23.0700     4.3160     3.9910     4.5110 
  151.3750     2.3550   -23.8800   414.5640    80.4390    22.8420     4.5030     3.9450     4.4890 
  151.5000     2.3540   -24.1440   416.4950    81.5960    22.7180     4.6250     3.8880     4.4740 
  151.6250     2.3600   -24.3880   419.9010    84.2660    22.6650     4.6580     3.8620     4.5140 
  151.7500     2.3750   -24.6200   421.4950    86.9960    22.6530     4.7870     3.9010     4.6370 
  151.8750     2.3970   -24.8100   418.2680    89.3410    22.6860     5.0540     4.0220     4.8600 
  152.0000     2.4150   -24.9860   410.5030    90.6120    22.8080     5.3410     4.2160     5.1750 
  152.1250     2.4200   -25.1720   402.8550    89.1270    23.0220     5.5080     4.4530     5.5410 
  152.2500     2.4190   -25.3300   399.4120    91.0700    23.2230     5.5420     4.6800     5.8800 
  152.3750     2.4220   -25.4930   399.7940   100.6850    23.3230     5.5000     4.8570     6.1290 
  152.5000     2.4240   -25.6930   401.3340   111.7580    23.2930     5.4590     4.9570     6.2530 
  152.6250     2.4170   -25.9020   402.7780   110.7110    23.0700     5.4710     4.9580     6.2420 
  152.7500     2.4040   -26.1320   405.8290   101.3420    22.7740     5.4900     4.8940     6.1590 
  152.8750     2.3940   -26.3720   411.3650    93.8410    22.5950     5.4260     4.7940     6.0460 
  153.0000     2.3900   -26.6020   417.2640    90.0580    22.5440     5.2780     4.6930     5.9420 
  153.1250     2.3890   -26.8450   418.8480    85.7160    22.5440     5.2400     4.6360     5.9000 
  153.2500     2.3860   -27.1270   415.4500    86.4710    22.5440     5.4140     4.6440     5.9600 
  153.3750     2.3780   -27.4590   409.6200    93.7960    22.5440     5.7190     4.7300     6.1500 
  153.5000     2.3600   -27.8400   405.0830   100.2160    22.5330     5.9810     4.9000     6.4810 
  153.6250     2.3380   -28.2770   404.9020    96.9730    22.4870     6.1330     5.1650     6.9510 
  153.7500     2.3220   -28.7610   407.9940    89.2000    22.3970     6.3160     5.4840     7.4770 
  153.8750     2.3190   -29.2780   412.1990    83.2410    22.2930     6.5610     5.8000     7.9670 
  154.0000     2.3250   -29.7980   415.2330    79.0780    22.1910     6.8200     6.0370     8.3080 
  154.1250     2.3320   -30.2770   415.8100    75.3900    22.1180     7.0280     6.0940     8.3600 
  154.2500     2.3390   -30.6860   415.6170    74.3750    22.0850     7.1770     5.9850     8.1680 
  154.3750     2.3440   -30.9800   416.7240    76.2980    22.0800     7.1840     5.7670     7.8290 
  154.5000     2.3450   -31.1830   420.4210    78.6860    22.0940     6.9410     5.5170     7.4770 
  154.6250     2.3350   -31.3200   426.7200    77.2420    22.1430     6.7120     5.3120     7.2380 
  154.7500     2.3200   -31.3750   433.4590    74.3930    22.2090     6.9200     5.1790     7.1270 
  154.8750     2.3110   -31.3890   438.6120    74.3530    22.2600     7.2170     5.1230     7.1230 
