~V
VERS. 2.00: Ver 2.00
~W
STRT.M 61.0000:
STOP.M 296.0000:
STEP.M 0.1250:
NULL. -999.2500:
UWI. DF312:
~C
DEPT.M :
DEN.GM/CC :
AC.US/MT :
GR.API :
CALI.CM :
RXO.OHMM :
RI. :
RML.OHMM :
SP.MV :
~A
# ...
  121.0000     2.1720   452.1780    82.1690    24.0990     9.0050     8.0460     9.4330   -16.8280 
  121.1250     2.1730   450.9790    81.9500    24.0980     9.1930     8.0650     9.4270   -17.0860 
  121.2500     2.1840   449.4880    82.2730    24.2070     9.5230     8.0060     9.3260   -17.2700 
  121.3750     2.1960   449.4580    85.0130    24.2230     9.8250     7.8650     9.1350   -17.4340 
  121.5000     2.2060   451.8770    88.7930    24.1930     9.8140     7.6740     8.9010   -17.5580 
  121.6250     2.2140   455.9710    90.4160    24.1520     9.4420     7.5080     8.7260   -17.6780 
  121.7500     2.2150   459.0820    91.1140    24.1650     9.4280     7.4370     8.6940   -17.9070 
  121.8750     2.2070   459.4490    91.9630    24.1920     9.9490     7.5000     8.8450   -18.2100 
  122.0000     2.1930   456.3480    90.3940    24.2120    10.6050     7.7070     9.1680   -18.4700 
  122.1250     2.1860   449.4490    84.1110    24.1500    11.0370     8.0480     9.6070   -18.7000 
  122.2500     2.1890   440.4470    79.3740    24.0690    11.4060     8.4290    10.0340   -18.9390 
  122.3750     2.1980   431.3770    78.9980    24.0970    11.7560     8.7590    10.3520   -19.1160 
  122.5000     2.2050   425.0750    78.8680    24.1550    11.7700     8.9650    10.5040   -19.2050 
  122.6250     2.2090   424.9240    76.2040    24.1710    11.3860     9.0010    10.4600   -19.2560 
  122.7500     2.2090   429.8340    74.3420    24.1090    11.0130     8.9280    10.3040   -19.1890 
  122.8750     2.1990   437.0960    73.4970    24.0070    10.9280     8.8040    10.1110   -19.0430 
  123.0000     2.1770   443.3140    72.2030    23.8790    11.0600     8.6900     9.9490   -18.9360 
  123.1250     2.1560   445.8830    72.5470    23.7090    11.2400     8.6450     9.8840   -18.8390 
  123.2500     2.1490   445.8180    74.7330    23.5720    11.2660     8.6750     9.9090   -18.7110 
  123.3750     2.1520   444.6450    76.6410    23.5680    11.2310     8.7670    10.0020   -18.5960 
  123.5000     2.1580   443.4370    75.8820    23.6790    11.2580     8.8960    10.1330   -18.4640 
  123.6250     2.1620   442.3620    73.1530    23.8440    11.3330     9.0380    10.2800   -18.2610 
  123.7500     2.1680   441.2660    71.2440    23.9160    11.2370     9.1770    10.4110   -17.9870 
  123.8750     2.1760   440.2240    70.7650    23.8940    11.0050     9.2880    10.4790   -17.6340 
  124.0000     2.1870   439.4160    72.3300    23.7890    10.8170     9.3100    10.4120   -17.2020 
  124.1250     2.2010   438.8850    75.0170    23.6410    10.6950     9.1490    10.1270   -16.6990 
  124.2500     2.2190   438.3680    76.1950    23.5880    10.1490     8.8410     9.6920   -16.1750 
  124.3750     2.2430   437.7670    76.6260    23.6600     8.8580     8.4740     9.2270   -15.6420 
  124.5000     2.2680   437.4440    78.0160    23.8580     7.3470     8.1680     8.8840   -15.2690 
  124.6250     2.2760   438.1790    81.9550    24.0770     6.9450     8.0600     8.8380   -15.1720 
  124.7500     2.2540   439.8690    85.6180    24.2630     7.8880     8.1640     9.0760   -15.3080 
  124.8750     2.2110   441.9260    84.6930    24.3990     9.2080     8.4400     9.5160   -15.6000 
  125.0000     2.1690   443.5420    78.5950    24.4720     9.9830     8.7940    10.0010   -15.9830 
  125.1250     2.1510   444.0240    72.2650    24.4310    10.2130     9.0630    10.2860   -16.5070 
  125.2500     2.1550   443.4500    71.8250    24.3530    10.3660     9.1270    10.2510   -17.0840 
  125.3750     2.1710   441.6540    74.7080    24.2850    10.6080     8.9540     9.9080   -17.6850 
  125.5000     2.1810   437.7250    75.1960    24.2730    10.9170     8.6360     9.4180   -18.1460 
  125.6250     2.1850   427.9800    71.2150    24.2820    11.2440     8.4140     9.1370   -18.2610 
  125.7500     2.2080   409.3400    67.1350    24.3490    11.6680     8.5530     9.4280   -18.0690 
  125.8750     2.2680   379.5660    65.3250    24.4860    12.7360     9.3420    10.6640   -17.5560 
  126.0000     2.3640   339.7200    65.1620    24.6550    15.2880    11.1690    13.2460   -16.7290 
  126.1250     2.4720   295.6690    64.9180    24.7750    22.2070    14.7980    17.7480   -15.5770 
  126.2500     2.5630   257.8950    64.1340    24.8040    32.1070    20.0940    23.2730   -14.2420 
  126.3750     2.6210   234.8560    63.6960    24.8500    40.6960    25.7910    27.8410   -12.8100 
  126.5000     2.6280   232.1690    62.7990    24.9150    40.6660    28.7390    29.0110   -11.3490 
  126.6250     2.5730   253.7270    62.6920    24.9490    30.1220    25.7740    25.3280    -9.9270 
  126.7500     2.4850   289.7100    67.2270    24.9330    18.3050    20.2080    19.5750    -8.6480 
  126.8750     2.4000   329.5160    77.2670    24.8740    11.3740    15.0860    14.2580    -7.5630 
  127.0000     2.3560   360.9620    90.0750    24.8050     8.7430    11.5410    10.6670    -6.6940 
  127.1250     2.3780   372.0750    98.9140    24.8200     8.0990     9.6650     9.0190    -6.1090 
  127.2500     2.4260   367.1670   103.6580    24.9130     8.7980     8.7860     8.4600    -5.7080 
  127.3750     2.4500   356.1330   104.4400    24.9300     9.8340     8.5550     8.4930    -5.4430 
  127.5000     2.4280   350.8360   102.1990    24.8770     9.9120     8.6190     8.6870    -5.2770 
  127.6250     2.3780   360.3170    97.5690    24.7650     8.8730     8.6190     8.6880    -5.2130 
  127.7500     2.3380   379.4840    94.5880    24.6340     7.7860     8.4160     8.4460    -5.2060 
  127.8750     2.3090   400.4050    96.2370    24.5020     7.3220     8.0850     8.0770    -5.2400 
  128.0000     2.2820   416.0120    99.4810    24.4000     7.2620     7.7670     7.7420    -5.2990 
  128.1250     2.2600   422.7730    99.2990    24.3390     7.2570     7.5870     7.5680    -5.3730 
  128.2500     2.2540   424.8530    98.6150    24.3360     7.3610     7.5320     7.5260    -5.5190 
  128.3750     2.2640   426.1390   101.4260    24.3860     7.4820     7.5480     7.5500    -5.6810 
  128.5000     2.2810   429.0270   106.1230    24.4450     7.4120     7.5680     7.5860    -5.8370 
  128.6250     2.2920   433.6300   107.4140    24.4840     7.1180     7.5570     7.6210    -6.0210 
  128.7500     2.2900   437.7830   107.6930    24.5040     7.0760     7.5340     7.6810    -6.2050 
  128.8750     2.2730   440.0900   107.5330    24.4890     7.2600     7.5260     7.7910    -6.4180 
  129.0000     2.2530   440.5620   105.6710    24.4520     7.4600     7.5490     7.9480    -6.6500 
  129.1250     2.2490   440.3790   103.7020    24.4450     7.5310     7.6030     8.1050    -6.8580 
  129.2500     2.2560   440.3160   104.0760    24.4610     7.6530     7.6380     8.1870    -7.0340 
  129.3750     2.2630   439.3740   103.8400    24.5000     7.8710     7.6030     8.1530    -7.1600 
  129.5000     2.2670   436.1640    99.5280    24.5820     8.0940     7.4910     8.0330    -7.2210 
  129.6250     2.2770   429.6750    97.2420    24.7320     8.0990     7.3880     7.9610    -7.1970 
  129.7500     2.2930   420.5310    99.0580    24.8520     7.8900     7.4230     8.0950    -7.1190 
  129.8750     2.3200   408.7580    99.6610    24.8540     7.8780     7.6840     8.5300    -7.0160 
  130.0000     2.3610   394.6450    94.1300    24.6980     8.4300     8.2020     9.2640    -6.9460 
  130.1250     2.3960   381.2070    86.7200    24.4810     9.5260     8.9270    10.1540    -6.9230 
  130.2500     2.3880   373.7360    83.4330    24.2350    10.2220     9.6260    10.9060    -6.9540 
  130.3750     2.3320   375.9800    82.7450    24.0590    10.3300    10.0890    11.3100    -7.1180 
  130.5000     2.2650   387.6780    81.7320    23.9790    10.1550    10.1960    11.3030    -7.3960 
  130.6250     2.2290   403.7680    83.0420    23.9410    10.0430     9.9700    10.9780    -7.7400 
  130.7500     2.2160   417.0000    88.2090    23.8750     9.9320     9.6410    10.6000    -8.1180 
  130.8750     2.2050   424.8610    94.9030    23.7980     9.8690     9.3370    10.2910    -8.4850 
