~V
VERS. 2.00: Ver 2.00
~W
STRT.M 56.0000:
STOP.M 209.0000:
STEP.M 0.1250:
NULL. -999.2500:
UWI. DF316:
~C
DEPT.M :
GR.API :
CALI.CM :
RXO.OHMM :
RI. :
RML.OHMM :
SP.MV :
DEN.GM/CC :
AC.US/MT :
~A
# ...
   66.0000    37.9180    25.2710     0.2990     0.1930     0.6890    10.5040     2.0990   196.3160 
   66.1250    38.9830    25.2830     0.2980     0.1060     0.4660    10.0630     2.1040   238.2730 
   66.2500    42.9270    25.2620     0.2990     0.1190     0.4030     9.5620     2.1450   266.6610 
   66.3750    47.0840    25.1370     0.3110     0.2390     0.4280     8.9330     2.2180   273.3350 
   66.5000    49.3070    24.6700     0.3630     0.3920     0.4860     8.1660     2.2930   324.6390 
   66.6250    50.0960    23.9130     0.5480     0.6550     0.6370     7.2490     2.3210   438.6860 
   66.7500    53.1900    23.0710     1.3650     1.1430     0.9530     6.2100     2.2970   556.4600 
   66.8750    58.5500    22.4130     3.4570     2.2760     1.7700     5.0820     2.2410   594.3820 
   67.0000    60.8870    22.5010     5.5950     4.1530     3.2490     3.8850     2.1820   559.7980 
   67.1250    60.1800    23.1630     6.7520     6.7420     5.4830     2.6570     2.1440   495.1790 
   67.2500    60.3840    23.6800     7.1210     9.7210     8.2240     1.4320     2.1240   439.3930 
   67.3750    62.9230    23.8550     7.3170    12.5140    10.8470     0.2860     2.1180   424.3380 
   67.5000    63.2850    23.9310     7.4810    14.6650    12.6200    -0.7470     2.1180   429.1940 
   67.6250    60.2370    24.0030     7.5130    16.0360    13.4620    -1.6430     2.1180   433.7630 
   67.7500    56.7080    24.1030     7.5230    16.9660    13.9790    -2.4110     2.1180   439.3130 
   67.8750    58.8190    24.1200     7.5480    17.5910    14.4000    -3.1080     2.1200   446.1960 
   68.0000    64.7430    24.0490     7.6370    18.0380    14.9590    -3.7560     2.1270   450.1380 
   68.1250    67.7500    24.0340     7.7520    18.4990    15.1890    -4.3590     2.1350   448.9500 
   68.2500    65.7530    23.9930     7.7920    18.8640    15.3430    -4.9340     2.1370   445.7680 
   68.3750    63.2230    23.8340     7.6850    18.9690    15.3660    -5.4770     2.1330   445.2680 
   68.5000    62.5690    23.5590     7.5550    18.9980    15.7560    -5.9720     2.1300   445.9760 
   68.6250    61.8350    23.3320     7.4230    18.9300    16.2450    -6.4260     2.1350   445.9340 
   68.7500    62.9050    23.1920     7.2640    18.8260    17.0510    -6.8340     2.1470   444.5930 
   68.8750    67.2890    23.0810     7.1450    18.8530    17.4560    -7.1790     2.1560   443.8380 
   69.0000    68.8050    22.9370     7.0750    18.9400    17.7790    -7.5150     2.1550   443.3870 
   69.1250    67.1160    22.7800     7.0330    19.0280    17.9410    -7.8490     2.1420   443.1640 
   69.2500    66.3370    22.7420     7.0170    19.2050    18.1490    -8.1620     2.1250   442.4240 
   69.3750    68.6220    22.7360     7.0090    19.4820    18.0350    -8.4310     2.1110   441.1250 
   69.5000    72.4730    22.7450     7.0660    19.6800    17.9300    -8.6830     2.1030   440.3620 
   69.6250    75.4320    22.7840     7.1400    19.8410    18.0320    -8.9260     2.1040   440.1630 
   69.7500    75.8440    22.8290     7.2400    19.9710    18.2290    -9.1910     2.1120   439.5440 
   69.8750    72.5460    23.0550     7.4440    20.1390    18.8000    -9.4810     2.1240   439.8230 
   70.0000    69.8270    23.0980     7.7170    20.3200    19.2830    -9.7420     2.1350   442.9510 
   70.1250    69.1880    23.1920     7.9600    20.4140    19.8980    -9.9620     2.1390   446.2160 
   70.2500    67.6980    23.3550     8.0570    20.3430    20.6420   -10.1350     2.1340   445.3840 
   70.3750    64.8520    23.4310     8.0060    20.0970    21.5890   -10.2810     2.1230   441.9190 
   70.5000    61.9370    23.4840     7.9350    19.7760    22.2150   -10.4130     2.1140   440.8150 
   70.6250    60.8460    23.6520     7.9390    19.5110    22.8770   -10.5310     2.1130   442.0380 
   70.7500    61.8680    23.7550     8.0280    19.4220    23.3690   -10.6220     2.1170   442.9590 
   70.8750    62.2310    23.9880     8.1920    19.4210    23.5350   -10.7030     2.1220   442.3880 
   71.0000    61.1800    24.0450     8.3520    19.5660    23.5010   -10.7930     2.1260   440.1290 
   71.1250    60.0410    24.1330     8.4770    19.8650    23.2160   -10.9020     2.1280   437.4110 
   71.2500    60.7130    24.1660     8.6620    20.0490    22.6830   -11.0230     2.1270   436.5390 
   71.3750    62.4980    24.1510     8.7000    20.2210    22.0010   -11.1600     2.1220   439.7910 
   71.5000    63.3660    24.0220     8.6480    20.2250    21.6210   -11.3110     2.1210   443.5420 
   71.6250    64.8060    23.9200     8.7510    19.9460    21.0710   -11.4790     2.1290   445.4870 
   71.7500    66.8720    23.9080     9.0500    19.6330    20.8430   -11.6720     2.1390   446.0580 
   71.8750    67.7390    23.9360     9.1770    19.3140    20.9490   -11.8520     2.1460   445.4850 
   72.0000    67.7220    23.9440     8.9820    19.2190    21.5290   -12.0160     2.1530   444.1930 
   72.1250    67.5780    23.8290     8.6330    19.4340    22.3040   -12.1480     2.1620   442.2240 
   72.2500    67.9940    23.6400     8.7060    19.9620    22.9950   -12.2660     2.1650   437.6100 
   72.3750    67.5950    23.5790     9.4520    20.6710    23.5400   -12.3990     2.1650   425.4780 
   72.5000    66.0100    23.4410     9.6840    21.4170    23.9510   -12.5670     2.1680   411.0810 
   72.6250    63.8570    23.3110     9.3130    22.1270    24.2560   -12.7660     2.1800   406.7620 
   72.7500    62.1000    23.2990     9.1130    22.7600    24.2780   -12.9960     2.1920   418.4120 
   72.8750    64.2010    23.3710     9.5430    23.2220    24.4520   -13.2740     2.1990   437.7620 
   73.0000    67.2730    23.3660     9.7010    23.3340    24.2720   -13.5850     2.1990   450.1570 
   73.1250    68.5850    23.3670     9.4980    22.7700    23.5830   -13.9480     2.1910   450.9140 
   73.2500    66.3580    23.3780     9.3230    21.4670    22.2490   -14.3580     2.1820   445.0230 
   73.3750    62.2730    23.4270     9.5680    19.5080    20.3890   -14.7960     2.1840   439.7340 
   73.5000    61.3990    23.7570     9.9810    17.3180    18.2320   -15.2290     2.2000   438.6030 
   73.6250    66.5880    24.0780    10.2530    15.3090    16.3800   -15.6530     2.2250   442.6480 
   73.7500    75.1730    24.1540     9.9260    13.7210    15.1590   -16.0580     2.2440   450.1220 
   73.8750    78.2170    23.8760     9.0630    12.8050    14.8040   -16.4210     2.2510   456.0180 
   74.0000    74.1310    23.4370     8.3940    12.5940    15.1190   -16.7490     2.2470   456.2000 
   74.1250    66.4710    22.5790     8.6690    13.0330    16.0470   -17.0400     2.2340   453.3290 
   74.2500    60.2920    22.0440     9.5350    14.1080    17.4870   -17.2920     2.2120   450.1360 
   74.3750    60.7100    21.9650    10.3070    15.8400    19.4650   -17.4760     2.1890   447.1550 
   74.5000    64.9910    22.0160    10.6690    17.9440    22.0550   -17.6270     2.1820   445.1290 
   74.6250    67.4160    22.4320    10.7050    20.6220    25.4330   -17.7610     2.2190   440.3630 
   74.7500    63.5440    23.1520    11.0090    23.9410    29.7790   -17.8890     2.2950   418.7270 
   74.8750    56.2660    23.9700    16.1870    27.9970    35.0960   -18.0430     2.3990   361.9800 
   75.0000    51.4550    24.5650    31.0020    32.9180    41.3380   -18.2290     2.5130   288.3100 
   75.1250    50.7940    24.5470    48.2060    38.4420    47.7750   -18.4470     2.6090   227.1990 
   75.2500    52.1840    24.4880    58.7700    43.2630    52.9930   -18.6540     2.6660   198.5770 
   75.3750    52.4200    24.3850    66.3510    45.8250    54.8110   -18.8520     2.6810   197.6240 
   75.5000    50.6050    24.3810    69.0100    45.1380    52.5640   -19.0150     2.6710   199.5660 
   75.6250    50.5700    24.3830    68.1220    40.6650    46.3870   -19.1260     2.6460   196.2360 
   75.7500    55.4360    24.3690    63.9630    33.6000    37.6750   -19.2000     2.6000   194.1350 
   75.8750    62.5570    24.3620    49.1300    26.0060    28.7850   -19.2440     2.5270   212.9090 
