~V
VERS. 2.00: Ver 2.00
~W
STRT.M 58.0000:
STOP.M 221.0000:
STEP.M 0.1250:
NULL. -999.2500:
UWI. DF318:
~C
DEPT.M :
DEN.GM/CC :
SP.MV :
AC.US/MT :
GR.API :
CALI.CM :
RXO.OHMM :
RI. :
RML.OHMM :
~A
# ...
   98.0000     2.2780    -5.8210   432.0630    91.7910    24.5020     6.8160     6.2520     8.0410 
   98.1250     2.2810    -5.6270   432.0430   101.7740    24.5140     6.6820     6.1590     7.8540 
   98.2500     2.2960    -5.4440   432.9490   110.1240    24.4940     6.5700     6.0790     7.7090 
   98.3750     2.3180    -5.2470   433.6420   109.0290    24.4960     6.4960     6.0720     7.6880 
   98.5000     2.3380    -5.0560   432.5550   103.7860    24.4430     6.4730     6.1560     7.8040 
   98.6250     2.3460    -4.8840   429.8700   100.0280    24.3840     6.5760     6.3320     8.0550 
   98.7500     2.3380    -4.7840   426.9200   100.5170    24.4020     6.8670     6.5730     8.4000 
   98.8750     2.3180    -4.7340   425.4590   101.7220    24.5060     7.0110     6.8260     8.7520 
   99.0000     2.2910    -4.7730   426.8100    98.1070    24.5980     7.1170     7.0410     9.0440 
   99.1250     2.2690    -4.8770   429.8810    93.5570    24.6180     7.3430     7.2010     9.2540 
   99.2500     2.2550    -4.9590   433.2580    93.0650    24.5430     7.6560     7.3030     9.3710 
   99.3750     2.2460    -5.1300   435.7890    91.8890    24.4010     7.8470     7.3220     9.3340 
   99.5000     2.2330    -5.3350   437.0730    86.5190    24.3120     7.9550     7.2430     9.1180 
   99.6250     2.2150    -5.4990   437.6190    81.8400    24.2970     7.9790     7.0750     8.7460 
   99.7500     2.2040    -5.5930   437.0350    82.6850    24.3510     7.7360     6.9100     8.3980 
   99.8750     2.2160    -5.5760   433.1330    87.4100    24.4520     7.5260     6.9740     8.4700 
  100.0000     2.2600    -5.4300   420.1860    90.2780    24.5750     7.5130     7.4180     9.1780 
  100.1250     2.3270    -5.1920   396.2760    89.9780    24.6720     8.3520     8.3240    10.5780 
  100.2500     2.4050    -4.8940   363.9160    86.8510    24.7280    11.0820     9.6130    12.4500 
  100.3750     2.4750    -4.5880   332.0880    82.2870    24.7440    15.2820    10.8340    13.9440 
  100.5000     2.5050    -4.2770   316.8570    79.0850    24.7180    16.5180    11.3000    14.0930 
  100.6250     2.4890    -4.0350   323.9270    79.1540    24.7030    13.6840    10.7310    12.7370 
  100.7500     2.4430    -3.8760   349.9360    84.2420    24.6730    10.0830     9.4840    10.6680 
  100.8750     2.3880    -3.8120   383.8800    91.7790    24.6530     8.2690     8.2240     8.9400 
  101.0000     2.3410    -3.8670   411.5460    96.3190    24.6890     7.4220     7.3430     7.9250 
  101.1250     2.3060    -3.9290   427.4360    97.5180    24.7310     6.9540     6.9150     7.5890 
  101.2500     2.2850    -4.0240   433.0520    98.1270    24.6940     6.7710     6.8880     7.7640 
  101.3750     2.2780    -4.0830   432.5550    97.8800    24.6370     6.8310     7.1840     8.2760 
  101.5000     2.2760    -4.1960   429.1670    94.2860    24.6440     7.0570     7.6230     8.8960 
  101.6250     2.2710    -4.2810   424.8550    89.7660    24.6890     7.3100     8.0910     9.4980 
  101.7500     2.2620    -4.3480   417.6800    87.6880    24.7410     7.5820     8.4730     9.9500 
  101.8750     2.2590    -4.3830   413.5860    87.3390    24.7890     7.8250     8.6100    10.0420 
  102.0000     2.2670    -4.4070   412.3010    87.3320    24.7990     7.8360     8.4640     9.7360 
  102.1250     2.2800    -4.4420   412.4340    88.0210    24.7690     7.5230     8.0680     9.0980 
  102.2500     2.2900    -4.4540   413.2880    90.1300    24.7180     7.1220     7.5620     8.3520 
  102.3750     2.2900    -4.5150   413.4200    91.2160    24.6910     6.9810     7.1950     7.8660 
  102.5000     2.2770    -4.5700   410.5480    89.3220    24.7100     7.0760     7.1550     7.8770 
  102.6250     2.2580    -4.6760   404.7910    85.3940    24.7350     7.5150     7.5840     8.5530 
  102.7500     2.2440    -4.8200   398.3900    79.8230    24.7310     8.8490     8.6100    10.0310 
  102.8750     2.2390    -5.0050   394.8960    74.2140    24.6920    12.3400    10.4900    12.5670 
  103.0000     2.2320    -5.2030   397.9470    70.0490    24.6720    16.1840    13.1060    15.9360 
  103.1250     2.2130    -5.4480   405.8110    69.0570    24.6470    18.7040    16.1530    19.6750 
  103.2500     2.1880    -5.7480   415.3570    70.5880    24.5720    20.3320    18.9080    22.7930 
  103.3750     2.1730    -6.0670   423.5950    70.8100    24.4700    21.0430    20.0440    23.5800 
  103.5000     2.1750    -6.4200   428.8860    70.5650    24.4160    19.7920    19.2900    21.9980 
  103.6250     2.1850    -6.7800   431.7780    72.4100    24.3990    16.6540    17.1990    19.0410 
  103.7500     2.1960    -7.1190   432.1660    74.7980    24.3500    13.2090    14.7270    15.9840 
  103.8750     2.2070    -7.4060   428.7950    74.2210    24.2710    10.8130    12.7190    13.8000 
  104.0000     2.2200    -7.6200   419.6880    71.9280    24.1970     9.8660    11.4400    12.6440 
  104.1250     2.2400    -7.7470   408.1180    70.8410    24.1720     9.9520    10.9650    12.5330 
  104.2500     2.2680    -7.8120   399.4970    71.8370    24.2180    10.9090    11.3130    13.4290 
  104.3750     2.2880    -7.8010   398.9890    73.0700    24.2920    12.8300    12.6460    15.4330 
  104.5000     2.2780    -7.7430   409.0530    71.7090    24.2680    15.3850    14.8500    18.3300 
  104.6250     2.2410    -7.6330   423.2310    67.9110    24.1840    18.8420    17.9160    22.0220 
  104.7500     2.1960    -7.4960   435.2240    64.9260    24.1650    23.1670    21.7480    26.3030 
  104.8750     2.1580    -7.3260   440.9200    65.8140    24.2400    28.0480    26.1410    30.7940 
  105.0000     2.1380    -7.1390   440.0920    66.4600    24.3490    33.1030    30.5800    34.9910 
  105.1250     2.1310    -6.9820   437.4620    64.1010    24.4170    36.6960    34.6860    38.6040 
  105.2500     2.1310    -6.8240   435.4640    60.9250    24.4420    38.5740    38.1530    41.4730 
  105.3750     2.1360    -6.7030   434.8730    60.8640    24.4380    38.8090    40.3130    42.9430 
  105.5000     2.1400    -6.5630   435.6430    62.4900    24.4540    38.7940    40.4010    42.0290 
  105.6250     2.1380    -6.4290   437.2690    63.1250    24.5070    38.3130    37.3750    37.5870 
  105.7500     2.1320    -6.2620   439.7960    62.8770    24.5830    37.3930    31.1650    30.0230 
  105.8750     2.1290    -6.1030   443.1300    65.3110    24.6540    33.8090    23.4910    21.9810 
  106.0000     2.1470    -5.9440   446.3050    72.6910    24.6530    26.0620    16.8380    15.8680 
  106.1250     2.1940    -5.7590   447.5400    83.2090    24.5740    16.5370    12.0450    11.2640 
  106.2500     2.2640    -5.5630   445.3560    93.4210    24.4420     9.4280     9.0280     8.5260 
  106.3750     2.3240    -5.3790   439.4470   100.6990    24.3380     7.0340     7.5200     7.3540 
  106.5000     2.3390    -5.2360   431.1190   104.2470    24.3340     6.8410     6.9000     7.0950 
  106.6250     2.3290    -5.1770   423.7020   103.0160    24.3160     7.2610     6.9950     7.5430 
  106.7500     2.3220    -5.2230   419.6000    97.9000    24.2500     7.8420     7.7630     8.6290 
  106.8750     2.3190    -5.3860   419.8850    92.1610    24.1600     8.6610     9.3630    10.4970 
  107.0000     2.2970    -5.6880   424.3970    87.6900    24.0960    10.4790    11.7800    13.1560 
  107.1250     2.2560    -6.1070   430.3530    81.7710    24.0040    14.9700    15.1490    16.7450 
  107.2500     2.2120    -6.6250   435.6500    74.1300    23.9360    22.7120    19.4730    21.2530 
  107.3750     2.1820    -7.1720   438.8470    69.0880    23.9090    29.2430    24.2410    26.1150 
  107.5000     2.1670    -7.7800   439.1750    69.1750    23.9080    30.9870    28.2200    30.0720 
  107.6250     2.1590    -8.3320   437.7560    70.5300    23.9030    30.5170    30.5990    32.3700 
  107.7500     2.1550    -8.8740   435.5810    67.4400    23.8890    30.4990    31.3570    33.1580 
  107.8750     2.1540    -9.3240   433.6590    63.5570    23.9010    29.7520    30.8600    32.9250 
