~V
VERS. 2.00: Ver 2.00
~W
STRT.M 57.0000:
STOP.M 261.0000:
STEP.M 0.1250:
NULL. -999.2500:
UWI. DF317:
~C
DEPT.M :
DEN.GM/CC :
SP.MV :
AC.US/MT :
GR.API :
CALI.CM :
RXO.OHMM :
RI. :
RML.OHMM :
~A
   57.0000  -999.2500    27.0930  -999.2500  -999.2500  -999.2500  -999.2500  -999.2500  -999.2500 
   57.1250  -999.2500    27.2360  -999.2500  -999.2500  -999.2500  -999.2500  -999.2500  -999.2500 
   57.2500  -999.2500    27.3080  -999.2500  -999.2500  -999.2500  -999.2500  -999.2500  -999.2500 
   57.3750  -999.2500    27.3740  -999.2500  -999.2500  -999.2500  -999.2500  -999.2500  -999.2500 
   57.5000  -999.2500    27.4670  -999.2500  -999.2500  -999.2500  -999.2500  -999.2500  -999.2500 
   57.6250  -999.2500    27.5900  -999.2500  -999.2500  -999.2500  -999.2500  -999.2500  -999.2500 
   57.7500  -999.2500    27.8100  -999.2500  -999.2500  -999.2500  -999.2500  -999.2500  -999.2500 
   57.8750  -999.2500    28.0870  -999.2500  -999.2500  -999.2500  -999.2500  -999.2500  -999.2500 
   58.0000  -999.2500    28.3690  -999.2500  -999.2500  -999.2500  -999.2500  -999.2500  -999.2500 
   58.1250  -999.2500    28.6520  -999.2500  -999.2500  -999.2500  -999.2500  -999.2500  -999.2500 
   58.2500  -999.2500    28.9280  -999.2500  -999.2500  -999.2500  -999.2500  -999.2500  -999.2500 
   58.3750  -999.2500    29.1520  -999.2500  -999.2500  -999.2500  -999.2500  -999.2500  -999.2500 
   58.5000  -999.2500    29.3160  -999.2500  -999.2500  -999.2500  -999.2500  -999.2500  -999.2500 
   58.6250  -999.2500    29.4320  -999.2500  -999.2500  -999.2500  -999.2500  -999.2500  -999.2500 
   58.7500  -999.2500    29.4130  -999.2500  -999.2500  -999.2500  -999.2500  -999.2500  -999.2500 
   58.8750  -999.2500    29.2950  -999.2500  -999.2500  -999.2500  -999.2500  -999.2500  -999.2500 
   59.0000  -999.2500    29.1140  -999.2500  -999.2500  -999.2500  -999.2500  -999.2500  -999.2500 
   59.1250  -999.2500    28.8470  -999.2500  -999.2500  -999.2500  -999.2500  -999.2500  -999.2500 
   59.2500  -999.2500    28.5130  -999.2500  -999.2500  -999.2500  -999.2500  -999.2500  -999.2500 
   59.3750  -999.2500    28.1480  -999.2500  -999.2500  -999.2500  -999.2500  -999.2500  -999.2500 
   59.5000  -999.2500    27.7560  -999.2500  -999.2500  -999.2500  -999.2500  -999.2500  -999.2500 
   59.6250  -999.2500    27.3640  -999.2500  -999.2500  -999.2500  -999.2500  -999.2500  -999.2500 
   59.7500  -999.2500    27.0150  -999.2500  -999.2500  -999.2500  -999.2500  -999.2500  -999.2500 
   59.8750  -999.2500    26.6720  -999.2500  -999.2500  -999.2500  -999.2500  -999.2500  -999.2500 
   60.0000  -999.2500    26.3290  -999.2500  -999.2500  -999.2500  -999.2500  -999.2500  -999.2500 
   60.1250  -999.2500    25.9860  -999.2500  -999.2500  -999.2500  -999.2500  -999.2500  -999.2500 
   60.2500  -999.2500    25.5890  -999.2500  -999.2500  -999.2500  -999.2500  -999.2500  -999.2500 
   60.3750  -999.2500    25.1470  -999.2500  -999.2500  -999.2500  -999.2500  -999.2500  -999.2500 
   60.5000  -999.2500    24.6550  -999.2500  -999.2500  -999.2500  -999.2500  -999.2500  -999.2500 
   60.6250  -999.2500    24.1010  -999.2500  -999.2500  -999.2500  -999.2500  -999.2500  -999.2500 
   60.7500  -999.2500    23.4850  -999.2500  -999.2500  -999.2500  -999.2500  -999.2500  -999.2500 
   60.8750  -999.2500    22.8170  -999.2500  -999.2500  -999.2500  -999.2500  -999.2500  -999.2500 
   61.0000  -999.2500    22.0850  -999.2500  -999.2500  -999.2500  -999.2500  -999.2500  -999.2500 
   61.1250  -999.2500    21.3260  -999.2500  -999.2500  -999.2500  -999.2500  -999.2500  -999.2500 
   61.2500  -999.2500    20.5490  -999.2500  -999.2500  -999.2500  -999.2500  -999.2500  -999.2500 
   61.3750  -999.2500    19.7490  -999.2500  -999.2500  -999.2500  -999.2500  -999.2500  -999.2500 
   61.5000  -999.2500    18.9530  -999.2500    46.2810    23.9540     2.0800     0.2090     1.8450 
   61.6250  -999.2500    18.1470  -999.2500    46.2810    23.9540     2.0800     0.2090     1.8450 
   61.7500  -999.2500    17.3380  -999.2500    45.5280    24.3300     2.0880     0.2030     1.8530 
   61.8750  -999.2500    16.5400  -999.2500    46.9760    25.0200     2.0980     0.2000     1.8490 
   62.0000  -999.2500    15.7970  -999.2500    47.5280    25.3640     2.1040     0.2010     1.8280 
   62.1250  -999.2500    15.1280  -999.2500    47.5330    25.3990     2.1070     0.1990     1.7650 
   62.2500  -999.2500    14.6030  -999.2500    50.7410    25.4240     2.1100     0.1990     1.6730 
   62.3750  -999.2500    14.2280   176.6560    54.3420    25.4120     2.1170     0.2010     1.5880 
   62.5000  -999.2500    14.0130   176.6560    54.9770    25.3970     2.1240     0.2060     1.5000 
   62.6250  -999.2500    13.9570   176.6560    53.8950    25.4090     2.1270     0.2120     1.4250 
   62.7500  -999.2500    14.0160   176.6560    54.6250    25.3940     2.1120     0.2140     1.3580 
   62.8750  -999.2500    14.1520   176.6560    55.1420    25.4410     2.0910     0.2140     1.3010 
   63.0000  -999.2500    14.3330   176.6560    53.6380    25.4420     2.0780     0.2110     1.2570 
   63.1250  -999.2500    14.5060   176.6560    52.0390    25.4080     2.0750     0.2110     1.2260 
   63.2500  -999.2500    14.6230   176.6560    54.2130    25.4140     2.0720     0.2140     1.1920 
   63.3750  -999.2500    14.6490   176.6560    57.1120    25.4070     2.0700     0.2180     1.1470 
   63.5000  -999.2500    14.5330   176.6560    56.9450    25.4030     2.0730     0.2200     1.1470 
   63.6250  -999.2500    14.2310   176.6560    54.3900    25.4160     2.0780     0.2190     1.1590 
   63.7500  -999.2500    13.7230   176.6560    53.1540    25.4230     2.0820     0.2150     1.1060 
   63.8750  -999.2500    13.0970   176.6560    53.9640    25.3960     2.0870     0.2100     1.0360 
   64.0000  -999.2500    12.3460   176.6560    54.7280    25.3000     2.0980     0.2060     0.9620 
   64.1250  -999.2500    11.4740   176.6560    56.6170    25.2480     2.1140     0.2040     0.8940 
   64.2500  -999.2500    10.4750   162.2820    59.9540    25.2790     2.1500     0.1950     0.8480 
   64.3750  -999.2500     9.3910   139.5210    61.3290    25.1620     2.2190     0.1870     0.8180 
   64.5000  -999.2500     8.2470   130.0890    59.8670    24.9690     2.3130     0.1800     0.8110 
   64.6250  -999.2500     7.0700   147.5220    57.3320    24.7810     2.4030     0.1720     0.8210 
   64.7500  -999.2500     5.8540   176.8070    57.9520    24.6340     2.4600     0.1650     0.7710 
   64.8750  -999.2500     4.5750   197.6960    60.0580    24.5110     2.5080     0.1540     0.5900 
   65.0000  -999.2500     3.2220   216.1060    61.1690    24.4770     2.5580     0.1370     0.3540 
   65.1250  -999.2500     1.7810   253.8250    62.9790    24.3470     2.6030     0.1240     0.1700 
   65.2500  -999.2500     0.2270   317.4450    68.0840    24.3690     2.6180     0.1130     0.0500 
   65.3750  -999.2500    -1.4580   373.1070    71.0390    24.2220     2.6360     0.1100    -0.0110 
   65.5000  -999.2500    -3.2940   398.7590    68.5860    24.0590     2.7030     0.1290    -0.0050 
   65.6250  -999.2500    -5.2640   399.4190    67.4740    23.9960     2.8180     0.1920     0.0920 
   65.7500  -999.2500    -7.2070   395.9570    77.2320    23.9950     3.1030     0.3490     0.3290 
   65.8750  -999.2500    -9.0100   400.2320    91.4110    24.0280     3.7700     0.6240     0.7270 
   66.0000  -999.2500   -10.6800   412.6840   102.4610    23.8290     4.4550     1.0580     1.3230 
   66.1250  -999.2500   -12.1880   430.7320   109.8810    23.7440     4.5930     1.6600     2.0980 
   66.2500  -999.2500   -13.4750   443.9560   112.9090    23.8100     4.4880     2.4010     2.9210 
   66.3750  -999.2500   -14.5120   451.6500   110.6480    24.1360     4.4990     3.1600     3.6440 
   66.5000  -999.2500   -15.2610   457.4160   104.7910    24.4230     4.7620     3.8430     4.1730 
   66.6250  -999.2500   -15.7560   460.6000    98.5540    24.4480     4.9890     4.4020     4.5160 
   66.7500  -999.2500   -16.0960   457.6980    94.6760    24.2070     5.1600     4.8940     4.8130 
   66.8750  -999.2500   -16.3760   450.6820    92.5450    24.1810     5.0890     5.3540     5.1550 
