~V
VERS. 2.00: Ver 2.00
~W
STRT.M 65.0000:
STOP.M 277.0000:
STEP.M 0.1250:
NULL. -999.2500:
UWI. DF311:
~C
DEPT.M :
DEN.GM/CC :
SP.MV :
AC.US/MT :
GR.API :
CALI.CM :
RXO.OHMM :
RI. :
RML.OHMM :
~A
   65.0000  -999.2500   -16.0670  -999.2500    55.6670    25.3230     2.8200    -0.0220     0.3240 
   65.1250  -999.2500   -14.8790  -999.2500    57.1320    25.3230     2.9710    -0.0160     0.3250 
   65.2500  -999.2500   -13.6400  -999.2500    56.7450    25.3360     2.8150    -0.0040     0.3260 
   65.3750  -999.2500   -12.5920  -999.2500    56.1290    25.3550     2.4340     0.0090     0.3230 
   65.5000  -999.2500   -11.8710  -999.2500    54.4610    25.3660     2.1180     0.0150     0.3100 
   65.6250  -999.2500   -11.5720  -999.2500    51.5810    25.3930     1.9680     0.0100     0.2870 
   65.7500  -999.2500   -11.6110  -999.2500    48.6040    25.4860     1.9790     0.0020     0.2660 
   65.8750  -999.2500   -11.9390  -999.2500    48.2440    25.6620     2.0590    -0.0020     0.2540 
   66.0000  -999.2500   -12.5480  -999.2500    51.4800    25.7480     2.2340    -0.0010     0.2540 
   66.1250  -999.2500   -13.3850  -999.2500    54.9240    25.6640     2.3120     0.0070     0.2630 
   66.2500  -999.2500   -14.2100  -999.2500    54.4360    25.5570     2.3200     0.0190     0.2710 
   66.3750  -999.2500   -14.8930  -999.2500    50.6230    25.4990     2.2500     0.0340     0.2730 
   66.5000  -999.2500   -15.4090  -999.2500    47.2080    25.4890     2.1990     0.0440     0.2710 
   66.6250  -999.2500   -15.7700  -999.2500    47.0300    25.4460     2.2020     0.0460     0.2680 
   66.7500  -999.2500   -16.0250  -999.2500    51.5800    25.4270     2.2770     0.0420     0.2640 
   66.8750  -999.2500   -16.2340  -999.2500    59.6690    25.4200     2.3440     0.0360     0.2600 
   67.0000  -999.2500   -16.4640  -999.2500    64.2910    25.4630     2.3730     0.0330     0.2560 
   67.1250  -999.2500   -16.9200  -999.2500    59.8100    25.5440     2.3610     0.0350     0.2540 
   67.2500  -999.2500   -17.7050  -999.2500    55.6050    25.5890     2.3190     0.0380     0.2540 
   67.3750  -999.2500   -18.6640  -999.2500    58.2960    25.5220     2.2070     0.0410     0.2560 
   67.5000  -999.2500   -19.5930  -999.2500    62.4440    25.4510     2.0410     0.0410     0.2600 
   67.6250  -999.2500   -20.3710  -999.2500    58.6250    25.4240     1.9470     0.0400     0.2630 
   67.7500  -999.2500   -21.0760  -999.2500    52.1510    25.4090     1.9190     0.0390     0.2660 
   67.8750  -999.2500   -21.7300  -999.2500    48.7560    25.3950     2.0270     0.0400     0.2760 
   68.0000  -999.2500   -22.2950  -999.2500    48.0180    25.3900     2.2380     0.0420     0.2970 
   68.1250  -999.2500   -22.6040  -999.2500    47.8480    25.3900     2.3690     0.0390     0.3270 
   68.2500  -999.2500   -22.5820  -999.2500    49.6880    25.3940     2.3970     0.0280     0.3400 
   68.3750  -999.2500   -22.3140  -999.2500    51.2350    25.4030     2.3660     0.0050     0.2890 
   68.5000  -999.2500   -21.9110  -999.2500    49.3770    25.4110     2.3080    -0.0290     0.1480 
   68.6250  -999.2500   -21.5410  -999.2500    45.5550    25.4280     2.1590    -0.0630    -0.0280 
   68.7500  -999.2500   -21.2920  -999.2500    44.4990    25.4840     1.9130    -0.0890    -0.1570 
   68.8750  -999.2500   -21.2260  -999.2500    44.7610    25.6060     1.6600    -0.1040    -0.2240 
   69.0000  -999.2500   -21.4350  -999.2500    44.7700    25.7680     1.5110    -0.1060    -0.2430 
   69.1250  -999.2500   -22.0590  -999.2500    49.6440    25.6380     1.7140    -0.0780    -0.2090 
   69.2500  -999.2500   -22.9940  -999.2500    57.6260    25.0990     2.6520     0.0120    -0.1080 
   69.3750  -999.2500   -24.1070  -999.2500    64.7400    24.3050     4.4250     0.2300     0.1210 
   69.5000  -999.2500   -25.3330  -999.2500    68.0060    23.7780     6.4180     0.6890     0.6170 
   69.6250  -999.2500   -26.5840  -999.2500    69.3030    23.5980     7.3770     1.5920     1.7500 
   69.7500  -999.2500   -27.7760  -999.2500    69.2420    23.5280     7.6820     2.8590     3.4690 
   69.8750  -999.2500   -28.8590  -999.2500    66.9930    23.3810     7.7290     4.2140     5.0230 
   70.0000  -999.2500   -29.7500  -999.2500    64.8810    23.1400     7.6540     5.3240     5.7380 
   70.1250  -999.2500   -30.3540  -999.2500    65.1250    22.9990     7.4560     6.0000     5.8600 
   70.2500  -999.2500   -30.7680  -999.2500    66.7380    22.9390     7.2710     6.3730     5.8790 
   70.3750  -999.2500   -31.0960  -999.2500    67.4230    22.9280     7.1430     6.5300     5.8750 
   70.5000  -999.2500   -31.3970  -999.2500    66.8640    22.9570     7.0350     6.5560     5.8660 
   70.6250  -999.2500   -31.6900  -999.2500    66.1230    23.0850     6.9590     6.5450     5.8850 
   70.7500  -999.2500   -31.9950  -999.2500    67.3470    23.2800     6.9630     6.5670     5.9570 
   70.8750  -999.2500   -32.2900  -999.2500    70.2640    23.3910     7.0530     6.6350     6.0850 
   71.0000  -999.2500   -32.5980  -999.2500    71.9190    23.4260     7.2150     6.7300     6.2510 
   71.1250  -999.2500   -32.9340  -999.2500    70.3080    23.5390     7.5230     6.8360     6.4380 
   71.2500  -999.2500   -33.2790  -999.2500    68.6780    23.7000     7.9170     6.9410     6.6260 
   71.3750  -999.2500   -33.6460  -999.2500    68.7950    23.8800     8.2820     7.0410     6.8090 
   71.5000  -999.2500   -34.0140  -999.2500    68.7910    24.0640     8.5310     7.1360     6.9810 
   71.6250  -999.2500   -34.3690  -999.2500    66.9030    24.1440     8.6900     7.2200     7.1310 
   71.7500  -999.2500   -34.7030  -999.2500    64.9080    24.1770     8.8130     7.2760     7.2500 
   71.8750  -999.2500   -35.0050  -999.2500    64.6320    24.1910     8.9180     7.2870     7.3210 
   72.0000  -999.2500   -35.2580  -999.2500    66.2800    24.1670     8.9560     7.2390     7.3340 
   72.1250  -999.2500   -35.4610  -999.2500    68.5210    24.0670     8.8830     7.1360     7.2940 
   72.2500  -999.2500   -35.6360  -999.2500    70.0840    24.0220     8.7260     7.0180     7.2340 
   72.3750  -999.2500   -35.7750  -999.2500    69.8140    23.9730     8.5170     6.9190     7.1880 
   72.5000  -999.2500   -35.9050  -999.2500    66.5640    23.9480     8.3400     6.8650     7.1870 
   72.6250  -999.2500   -35.9920  -999.2500    62.1500    23.9410     8.3260     6.8650     7.2510 
   72.7500  -999.2500   -36.0110  -999.2500    61.7490    23.9430     8.5030     6.9000     7.3550 
   72.8750  -999.2500   -35.9850  -999.2500    64.9780    23.9260     8.7630     6.9530     7.4760 
   73.0000  -999.2500   -35.8990  -999.2500    66.1850    23.9140     8.9250     7.0120     7.5980 
   73.1250  -999.2500   -35.7370  -999.2500    63.8500    23.9220     8.8490     7.0710     7.7130 
   73.2500  -999.2500   -35.5230  -999.2500    61.7160    23.9440     8.7210     7.1260     7.8180 
   73.3750  -999.2500   -35.2640  -999.2500    62.9800    23.9650     8.7050     7.1750     7.9110 
   73.5000  -999.2500   -34.9590  -999.2500    66.7830    23.9850     8.8160     7.2150     7.9890 
   73.6250  -999.2500   -34.6740  -999.2500    69.9890    24.0180     8.8640     7.2330     8.0350 
   73.7500  -999.2500   -34.4530  -999.2500    70.3910    24.0680     8.8530     7.2250     8.0480 
   73.8750  -999.2500   -34.2730  -999.2500    67.8220    24.1410     8.8090     7.1900     8.0310 
   74.0000  -999.2500   -34.1660  -999.2500    64.8570    24.2220     8.7380     7.1430     8.0070 
   74.1250  -999.2500   -34.1140  -999.2500    63.3810    24.3000     8.6840     7.1290     8.0280 
   74.2500  -999.2500   -34.0750  -999.2500    64.0420    24.2470     8.6670     7.1770     8.1240 
   74.3750  -999.2500   -34.0490  -999.2500    66.0460    24.0420     8.7120     7.2880     8.2960 
   74.5000  -999.2500   -34.0320  -999.2500    67.2600    23.8530     8.8420     7.4160     8.4970 
   74.6250  -999.2500   -33.9970  -999.2500    66.2790    23.8610     9.0810     7.4810     8.6280 
   74.7500  -999.2500   -33.9500  -999.2500    65.1590    23.8450     9.2580     7.4450     8.6310 
   74.8750  -999.2500   -33.9300  -999.2500    66.1610    23.7340     9.1380     7.3220     8.5140 
