~V
VERS. 2.00: Ver 2.00
~W
STRT.M 60.0000:
STOP.M 247.0000:
STEP.M 0.1250:
NULL. -999.2500:
UWI. DF315:
~C
DEPT.M :
DEN.GM/CC :
AC.US/MT :
GR.API :
RML.OHMM :
RI. :
RXO.OHMM :
CALI.CM :
SP.MV :
~A
# ...
  240.0000     2.2540   393.1560    92.2330     5.9130     5.7060     9.4520    24.6730   -10.2290 
  240.1250     2.2610   378.2660    92.2330     5.7540     5.5740    12.0330    24.6610   -10.2490 
  240.2500     2.2950   352.7610    92.2330     5.6740     5.5280    16.3610    24.6590   -10.2900 
  240.3750     2.3570   320.4530    92.2330     5.6380     5.5300    22.5910    24.6600   -10.3180 
  240.5000     2.4320   288.0300    92.2330     5.6240     5.5430    29.8800    24.6620   -10.3270 
  240.6250     2.4920   265.0090    92.2330     5.6300     5.5490    33.7470    24.6610   -10.3040 
  240.7500     2.5160   262.5910    92.2330     5.6510     5.5500    33.4200    24.6580   -10.2870 
  240.8750     2.4970   278.7010    92.2330     5.6780     5.5510    28.3440    24.6590   -10.2480 
  241.0000     2.4470   307.0170    92.2330     5.6990     5.5540    19.9260    24.6700   -10.1260 
  241.1250     2.3880   338.3610    92.2330     5.7090     5.5560    12.9270    24.6960    -9.9470 
  241.2500     2.3400   362.7020    92.2330     5.7140     5.5560     9.6420    24.7070    -9.7630 
  241.3750     2.3060   377.1650    92.2330     5.7170     5.5540     8.5360    24.7070    -9.6100 
  241.5000     2.2890   383.5550    92.2330     5.7190     5.5510     8.1650    24.6970    -9.4670 
  241.6250     2.2830   385.8820    92.2330     5.7190     5.5480     8.0400    24.6780    -9.3120 
  241.7500     2.2820   386.6840    92.2330     5.7180     5.5460     8.0410    24.6660    -9.1430 
  241.8750     2.2820   386.4310    92.2330     5.7180     5.5460     8.0770    24.6630    -8.9650 
  242.0000     2.2840   385.8460    92.2330     5.7180     5.5460     8.0300    24.6630    -8.8130 
  242.1250     2.2870   387.0000    92.2330     5.7180     5.5460     7.8100    24.6640    -8.7170 
  242.2500     2.2910   391.5970    92.2330     5.7180     5.5460     7.5010    24.6610    -8.6270 
  242.3750     2.2930   397.3550    92.2330     5.7180     5.5460     7.2740    24.6380    -8.5370 
  242.5000     2.2950   401.6340    92.2330     5.7180     5.5460     7.2260    24.5770    -8.4840 
  242.6250     2.2950   402.6790    92.2330     5.7180     5.5460     7.3470    24.5160    -8.4590 
  242.7500     2.2920   399.5210    92.2330     5.7180     5.5460     7.5110    24.4920    -8.3190 
  242.8750     2.2880   393.4540    92.2330     5.7180     5.5460     7.7790    24.4910    -8.1050 
  243.0000     2.2850   384.4780    92.2330     5.7180     5.5460     8.3480    24.4920    -7.8920 
  243.1250     2.2900   371.2190    92.2330     5.7180     5.5460     9.3600    24.4890    -7.6630 
  243.2500     2.3060   352.4790    92.2330     5.7180     5.5460    10.6520    24.4870    -7.4310 
  243.3750     2.3300   333.6800    92.2330     5.7180     5.5460    11.8600    24.4850    -7.1850 
  243.5000     2.3550   322.6190    92.2330     5.7180     5.5460    12.4200    24.4840    -6.9270 
  243.6250     2.3740   324.9200    92.2330     5.7180     5.5460    11.6310    24.4840    -6.7080 
  243.7500     2.3820   340.6150    92.2330     5.7180     5.5460    10.0840    24.4800    -6.7080 
  243.8750     2.3810   359.2200    92.2330     5.7180     5.5460     9.0790    24.4650    -6.7080 
  244.0000     2.3740   373.1810    92.2330     5.7180     5.5460     8.7930    24.4260  -999.2500 
  244.1250     2.3640   379.5130    92.2330     5.7180     5.5460     8.7430    24.3920  -999.2500 
  244.2500     2.3550   379.8680    92.2330     5.7180     5.5460     8.7650    24.3500  -999.2500 
  244.3750     2.3490   379.0510    92.2330     5.7180     5.5460     8.8370    24.2910  -999.2500 
  244.5000     2.3440   378.6740    92.2330     5.7180     5.5460     8.9580    24.1850  -999.2500 
  244.6250     2.3410   378.6440    92.2330     5.7180     5.5460     9.0030    24.0980  -999.2500 
  244.7500     2.3360   378.6660    92.2330     5.7180     5.5460     9.0370    23.9570  -999.2500 
  244.8750     2.3280   378.8440    92.2330     5.7180     5.5460     9.0530    23.6240  -999.2500 
  245.0000     2.3170   378.9550    92.2330     5.7180     5.5460     8.9820    23.0330  -999.2500 
  245.1250     2.3060   378.7850    92.2330     5.7180     5.5460     8.8030    22.3560  -999.2500 
  245.2500     2.2980   378.4040    92.2330     5.7180     5.5460     8.6710    22.0780  -999.2500 
  245.3750     2.2930   377.6400    92.2330     5.7180     5.5460     8.6270    22.0170  -999.2500 
  245.5000     2.2900   376.7580    92.2330     5.7180     5.5460     8.6230    22.0170  -999.2500 
  245.6250     2.2880  -999.2500    92.2330     5.7180     5.5460     8.6220    22.0190  -999.2500 
  245.7500     2.2880  -999.2500    92.2330     5.7180     5.5460     8.6220    22.0170  -999.2500 
  245.8750     2.2880  -999.2500    92.2330     5.7180     5.5460     8.6220    22.0120  -999.2500 
  246.0000     2.2900  -999.2500    92.2330     5.7180     5.5460     8.6220    22.0110  -999.2500 
  246.1250     2.2910  -999.2500    92.2330     5.7180     5.5460     8.6190    22.0100  -999.2500 
  246.2500     2.2900  -999.2500    92.2330     5.7180     5.5460     8.6150    22.0050  -999.2500 
  246.3750     2.2880  -999.2500    92.2330     5.7180     5.5460     8.6130    22.0040  -999.2500 
  246.5000     2.2860  -999.2500    92.2330     5.7180     5.5460     8.6130    22.0040  -999.2500 
  246.6250     2.2840  -999.2500    92.2330     5.7080     5.5460     8.6130    22.0040  -999.2500 
  246.7500     2.2830  -999.2500  -999.2500  -999.2500  -999.2500  -999.2500  -999.2500  -999.2500 
  246.8750     2.2820  -999.2500  -999.2500  -999.2500  -999.2500  -999.2500  -999.2500  -999.2500 
  247.0000     2.2810  -999.2500  -999.2500  -999.2500  -999.2500  -999.2500  -999.2500  -999.2500 
