~V
VERS. 2.00: Ver 2.00
~W
STRT.M 60.0000:
STOP.M 262.0000:
STEP.M 0.1250:
NULL. -999.2500:
UWI. DF319:
~C
DEPT.M :
GR.API :
RML.OHMM :
RI. :
RXO.OHMM :
CALI.CM :
AC.US/MT :
DEN.GM/CC :
SP.MV :
~A
# ...
  210.0000    77.7190    17.9090    17.4340    19.0700    24.4900   354.4160     2.2870   -20.6790 
  210.1250    79.2600    16.9580    16.5200    19.2070    24.4900   343.9050     2.3130   -20.7110 
  210.2500    81.8460    15.8510    15.4280    18.2640    24.4900   345.0270     2.3300   -20.7310 
  210.3750    84.6060    14.9670    14.4690    16.5950    24.4900   356.7700     2.3350   -20.7050 
  210.5000    84.9940    14.7000    14.0330    15.3800    24.4900   372.3900     2.3310   -20.6850 
  210.6250    80.8310    15.5700    14.6010    16.3970    24.4900   379.9390     2.3260   -20.7060 
  210.7500    76.3520    17.3140    16.0700    20.0200    24.4900   376.5790     2.3220   -20.7120 
  210.8750    74.1340    19.5130    18.1300    25.4100    24.4900   368.4600     2.3160   -20.6950 
  211.0000    72.6290    21.6550    20.1990    30.8450    24.4890   364.7930     2.3030   -20.6970 
  211.1250    69.8740    22.6580    21.4280    32.2350    24.4870   370.8470     2.2830   -20.6950 
  211.2500    68.9610    22.2040    21.5500    29.2870    24.4850   379.2550     2.2630   -20.6540 
  211.3750    71.6670    20.9170    20.7570    24.9350    24.4860   385.6180     2.2520   -20.6270 
  211.5000    75.1820    19.4090    19.5130    21.5520    24.4870   386.8590     2.2550   -20.6420 
  211.6250    76.6100    18.0110    18.1560    20.3370    24.4660   378.0530     2.2740   -20.6240 
  211.7500    75.9440    16.5790    16.7140    20.6410    24.4240   363.7970     2.2990   -20.5660 
  211.8750    75.4520    14.9220    15.0710    20.2830    24.3830   355.6510     2.3220   -20.5400 
  212.0000    77.0710    13.0270    13.2200    18.2600    24.3660   362.8080     2.3370   -20.5440 
  212.1250    79.6760    11.1350    11.3520    14.3030    24.3660   379.8490     2.3450   -20.5260 
  212.2500    82.8950     9.5590     9.7410    10.5940    24.3660   391.2410     2.3530   -20.5050 
  212.3750    87.0880     8.4480     8.5400     8.6500    24.3660   393.9230     2.3630   -20.5110 
  212.5000    91.9230     7.7990     7.7750     8.1350    24.3660   392.7400     2.3770   -20.5140 
  212.6250    94.3690     7.5520     7.4350     8.1790    24.3660   392.4940     2.3880   -20.4820 
  212.7500    94.1330     7.5160     7.3480     8.2450    24.3660   393.5390     2.3940   -20.4530 
  212.8750    93.5470     7.6060     7.4260     8.3170    24.3660   395.1300     2.3950   -20.4510 
  213.0000    94.1270     7.7830     7.6110     8.4970    24.3660   395.2470     2.3910   -20.4530 
  213.1250    94.4450     8.0570     7.8910     8.8180    24.3660   391.8110     2.3860   -20.4300 
  213.2500    93.5940     8.4020     8.2400     9.2460    24.3650   385.7560     2.3850   -20.4160 
  213.3750    92.4130     8.7770     8.6280     9.7890    24.3640   378.0530     2.3890   -20.4160 
  213.5000    91.6090     9.1110     8.9960    10.3240    24.3610   368.3270     2.4010   -20.4040 
  213.6250    88.6100     9.2930     9.2360    10.7340    24.3610   358.3910     2.4190   -20.3920 
  213.7500    85.1800     9.2870     9.2940    10.8380    24.3580   353.7660     2.4340   -20.3980 
  213.8750    85.8400     9.0960     9.1490    10.4540    24.3570   356.2920     2.4440   -20.3990 
  214.0000    89.7720     8.7730     8.8330     9.8640    24.3570   362.2460     2.4460   -20.3670 
  214.1250    89.7460     8.4200     8.4170     9.3580    24.3570   365.9700     2.4410   -20.3720 
  214.2500    86.2260     8.1440     8.0200     8.9590    24.3570   372.1850     2.4340   -20.4280 
  214.3750    85.1100     8.0030     7.7110     8.6420    24.3570   380.5380     2.4310   -20.4710 
  214.5000    86.6320     8.0120     7.5310     8.4430    24.3570   387.3060     2.4160   -20.4830 
  214.6250    85.3370     8.1680     7.5050     8.6460    24.3550   386.1290     2.4060   -20.5180 
  214.7500    84.0490     8.4080     7.5960     9.1060    24.3380   377.0210     2.4030   -20.5720 
  214.8750    86.0620     8.7160     7.7950     9.6050    24.2950   368.5290     2.4080   -20.6340 
  215.0000    89.9560     9.1190     8.1190    10.0750    24.2440   364.7060     2.4210   -20.6970 
  215.1250    89.4550     9.7630     8.6760    10.7090    24.2170   363.0310     2.4340   -20.7320 
  215.2500    84.4530    10.7900     9.5540    12.0530    24.1880   362.9820     2.4360   -20.7610 
  215.3750    77.2940    12.3450    10.8640    14.2730    24.0970   366.9920     2.4220   -20.8180 
  215.5000    70.0520    14.4770    12.6620    17.4570    23.9380   371.4800     2.3900   -20.8800 
  215.6250    66.2400    17.1010    14.9340    20.9510    23.9180   371.5730     2.3470   -20.9640 
  215.7500    65.9270    19.7930    17.3600    23.7610    24.1050   368.1000     2.3050   -21.0690 
  215.8750    69.0150    22.1790    19.6330    25.4870    24.2760   367.0970     2.2730   -21.1330 
  216.0000    74.5660    23.9850    21.4790    26.7770    24.3500   370.0240     2.2540   -21.1850 
  216.1250    77.9570    25.0710    22.6950    27.5680    24.3600   375.0070     2.2470   -21.2720 
  216.2500    75.9370    25.7420    23.4710    27.8640    24.3540   379.9040     2.2470   -21.3530 
  216.3750    70.5220    26.2320    23.9910    27.9630    24.3500   382.7430     2.2480   -21.3740 
  216.5000    67.4260    26.7010    24.3980    28.2150    24.3480   382.9250     2.2480   -21.3930 
  216.6250    67.1480    27.1790    24.7360    28.8100    24.3480   381.5550     2.2450   -21.4200 
  216.7500    65.8500    27.5920    24.9790    29.5220    24.3420   380.3010     2.2420   -21.4350 
  216.8750    63.1800    27.8480    25.0800    30.2790    24.3260   376.0390     2.2430   -21.4600 
  217.0000    62.2320    27.8640    25.0020    30.5940    24.2980   363.4660     2.2510   -21.4840 
  217.1250    65.7470    27.5140    24.6820    30.1690    24.2810   344.9200     2.2690   -21.4980 
  217.2500    69.9040    26.8110    24.1310    28.5770    24.2630   329.0390     2.2890   -21.5000 
  217.3750    72.8090    25.7800    23.3570    27.2690    24.2270   327.4010     2.3060   -21.4970 
  217.5000    74.9760    24.5250    22.4150    26.0390    24.1800   337.5440     2.3150   -21.5150 
  217.6250    77.5820    23.3010    21.4720    24.8070    24.1090   351.1300     2.3120   -21.5410 
  217.7500    79.4510    22.4430    20.7880    23.6410    24.0170   356.0180     2.3050   -21.5390 
  217.8750    79.4900    22.2670    20.6220    22.7250    23.8940   349.7560     2.3010   -21.5150 
  218.0000    78.4850    22.9860    21.1680    22.5820    23.7300   341.3620     2.3140   -21.5150 
  218.1250    76.5130    24.5800    22.4940    23.2140    23.6210   326.4930     2.3590   -21.5380 
  218.2500    72.4090    26.2970    24.0220    23.5810    23.5290   298.5640     2.4320   -21.5180 
  218.3750    67.1400    27.1380    24.9630    23.4050    23.4370   268.8950     2.5130   -21.4800 
  218.5000    64.8570    26.1060    24.4490    22.0090    23.3170   255.6710     2.5740   -21.4290 
  218.6250    70.4580    22.5150    21.7020    21.2180    23.2580   258.4440     2.5890   -21.3120 
  218.7500    78.8870    17.4770    17.6120    20.6400    23.2190   279.9220     2.5700   -21.1430 
  218.8750    82.4050    12.7210    13.3300    16.9980    23.2120   325.5910     2.5340   -20.9640 
  219.0000    78.2450     9.1870     9.8270    11.1420    23.3730   375.7970     2.4980   -20.7890 
  219.1250    70.7600     7.2270     7.6580     7.1200    23.8280   407.0810     2.4690   -20.5660 
  219.2500    65.3530     6.2850     6.4800     6.1530    24.2240   413.6610     2.4480   -20.3610 
  219.3750    62.8240     6.0280     6.0330     6.2370    24.4160   406.0870     2.4290   -20.2300 
  219.5000    62.1470     6.1860     6.0700     6.6940    24.4670   400.0040     2.4120   -20.1420 
  219.6250    60.7050     6.5350     6.3770     6.8300    24.4410   404.1170     2.3950   -20.0550 
  219.7500    58.4590     6.8570     6.6940     6.8030    24.3360   415.0130     2.3830   -20.0160 
  219.8750    57.8400     7.0320     6.8860     6.7580    24.1490   419.2990     2.3790   -20.0520 
