~V
VERS. 2.00: Ver 2.00
~W
STRT.M 57.0000:
STOP.M 261.0000:
STEP.M 0.1250:
NULL. -999.2500:
UWI. DF317:
~C
DEPT.M :
DEN.GM/CC :
SP.MV :
AC.US/MT :
GR.API :
CALI.CM :
RXO.OHMM :
RI. :
RML.OHMM :
~A
# ...
   87.0000     2.2890   -15.1950   446.0480    96.8300    23.9600     5.4690     6.2870     8.8990 
   87.1250     2.3000   -15.2620   447.0490    96.9730    24.0030     4.9030     6.2750     8.9630 
   87.2500     2.2930   -15.3290   445.5180    89.2320    24.0860     5.1760     6.4530     9.3460 
   87.3750     2.2720   -15.3900   443.2420    79.7480    23.9110     5.8680     6.7890     9.9520 
   87.5000     2.2460   -15.4510   441.4940    73.9870    23.8570     6.3750     7.2290    10.6960 
   87.6250     2.2260   -15.5190   441.0880    72.4610    23.8910     6.5690     7.7320    11.4910 
   87.7500     2.2140   -15.5830   442.5570    72.8560    23.8890     6.7550     8.2380    12.2420 
   87.8750     2.2070   -15.6220   444.5240    72.2150    24.0650     6.9780     8.6640    12.8100 
   88.0000     2.2040   -15.6480   445.7820    70.2960    24.1130     7.1520     8.9470    13.1370 
   88.1250     2.2040   -15.6590   446.1320    68.2550    24.2140     7.4290     9.0630    13.2250 
   88.2500     2.2080   -15.6500   445.8230    69.7670    24.0840     7.9810     9.0080    13.1020 
   88.3750     2.2130   -15.6340   445.0480    73.9440    24.0490     8.1600     8.8480    12.8420 
   88.5000     2.2170   -15.6150   443.4110    77.2770    23.8000     7.8330     8.6350    12.5400 
   88.6250     2.2230   -15.5860   441.1370    78.0000    23.6520     7.2550     8.4450    12.3340 
   88.7500     2.2320   -15.5470   439.6850    78.0950    23.6240     6.7230     8.3800    12.3510 
   88.8750     2.2390   -15.5060   439.9520    78.0340    23.6610     6.4000     8.4700    12.6180 
   89.0000     2.2340   -15.4560   441.5420    76.8400    23.8750     6.6630     8.7170    13.1210 
   89.1250     2.2150   -15.3960   443.3160    75.1950    24.1360     7.3870     9.0950    13.7760 
   89.2500     2.1920   -15.3310   442.2190    73.4460    24.0650     7.9460     9.5160    14.4360 
   89.3750     2.1780   -15.2740   437.3240    70.4740    24.0810     8.1320     9.8740    14.9700 
   89.5000     2.1760   -15.2040   430.7030    67.6630    23.9410     8.3510    10.1100    15.3110 
   89.6250     2.1810   -15.1220   425.3390    67.8930    23.7240     8.4410    10.1990    15.4210 
   89.7500     2.1850   -15.0470   422.4440    70.2920    23.5940     8.2530    10.1790    15.3800 
   89.8750     2.1870   -14.9760   420.5730    72.4210    23.5580     8.1270    10.2150    15.4650 
   90.0000     2.1860   -14.8950   419.1130    73.4890    23.6040     8.1660    10.4370    15.8530 
   90.1250     2.1850   -14.8050   416.0650    72.6310    23.6020     8.2010    10.9230    16.6620 
   90.2500     2.2010   -14.6900   400.2400    68.9210    23.6070     8.4150    11.7720    18.0090 
   90.3750     2.2440   -14.5360   361.8040    66.3830    23.6320     9.4680    12.9240    19.7260 
   90.5000     2.3080   -14.3690   301.8280    67.0180    23.7760    12.8390    14.2520    21.5390 
   90.6250     2.3630   -14.2070   237.3600    68.9440    24.0190    18.5300    15.5050    23.0660 
   90.7500     2.3810   -14.0290   197.7520    70.7970    24.1530    22.8770    16.3040    23.8070 
   90.8750     2.3740   -13.8440   191.2570    72.1260    24.1990    22.9990    16.4670    23.6180 
   91.0000     2.3580   -13.6780   214.3430    71.2420    23.9490    19.4850    15.9640    22.5370 
   91.1250     2.3300   -13.5360   258.9200    68.6250    23.6300    14.4530    14.8970    20.7520 
   91.2500     2.2840   -13.4080   314.3460    67.0620    23.3750    10.7580    13.3860    18.4600 
   91.3750     2.2360   -13.2920   365.2570    66.8940    23.3890     9.0330    11.7100    16.0430 
   91.5000     2.2040   -13.1850   401.6670    67.3090    23.4600     8.4980    10.0770    13.7870 
   91.6250     2.1960   -13.0720   422.0050    69.8810    23.3340     8.2390     8.6510    11.8630 
   91.7500     2.2120   -12.9690   433.4690    76.1060    23.3120     7.7730     7.5930    10.4700 
   91.8750     2.2380   -12.8770   444.5730    82.4570    23.2570     6.9030     6.9160     9.6630 
   92.0000     2.2580   -12.7900   453.9720    86.3300    23.1900     5.7210     6.6500     9.5050 
   92.1250     2.2580   -12.7060   455.9990    86.9670    23.3190     4.8440     6.7780     9.8980 
   92.2500     2.2350   -12.6330   449.9510    82.4970    23.4980     5.2660     7.2350    10.6740 
   92.3750     2.2060   -12.5720   445.0280    75.2780    23.6000     6.3650     7.7760    11.4400 
   92.5000     2.1830   -12.5020   445.8480    70.6370    23.6440     7.3560     8.1900    11.8920 
   92.6250     2.1770   -12.4080   450.3950    72.4340    23.7150     7.8440     8.2950    11.8050 
   92.7500     2.1940   -12.2920   454.0340    79.8130    23.8980     7.9160     7.9690    11.0910 
   92.8750     2.2190   -12.1670   456.4280    86.5320    23.9700     7.4690     7.3840    10.0540 
   93.0000     2.2380   -12.0280   459.2100    91.3810    24.1390     6.3050     6.7090     8.9810 
   93.1250     2.2460   -11.8830   460.2100    94.3430    24.1150     5.0580     6.1150     8.1610 
   93.2500     2.2540   -11.7610   448.7670    94.7470    24.1420     4.7170     5.7260     7.7280 
   93.3750     2.2800   -11.6450   426.2690    94.8540    23.9790     5.0110     5.4880     7.5100 
   93.5000     2.3200   -11.5750   406.9740    97.0990    23.9400     5.2720     5.3560     7.4330 
   93.6250     2.3510   -11.5540   406.2570   101.4500    23.9140     5.0490     5.2960     7.4590 
   93.7500     2.3540   -11.5730   422.5150   104.9630    24.1690     4.8540     5.2850     7.5050 
   93.8750     2.3300   -11.6050   434.2740   105.0850    24.1800     4.7210     5.2920     7.5170 
   94.0000     2.2880   -11.6470   435.3910   102.5690    24.1480     4.8070     5.3250     7.5450 
   94.1250     2.2460   -11.7300   433.6170    99.0800    24.1340     4.7880     5.3800     7.5760 
   94.2500     2.2270   -11.8010   438.4400    97.5490    24.3240     4.7910     5.4340     7.5930 
   94.3750     2.2280   -11.8800   445.5130    99.6270    24.6690     5.0800     5.4900     7.6100 
   94.5000     2.2300   -11.9360   447.2930   102.4050    25.2920     5.2690     5.5450     7.6260 
   94.6250     2.2280   -11.9740   442.8090   102.4930    24.8510     5.0910     5.5890     7.6350 
   94.7500     2.2410   -12.0020   438.9130    98.7570    24.2820     5.0210     5.6360     7.6860 
   94.8750     2.2700   -12.0260   439.4180    95.2690    24.2330     5.0290     5.6920     7.7750 
   95.0000     2.2990   -12.0550   439.2990    94.7800    24.1350     4.8960     5.7520     7.8690 
   95.1250     2.3140   -12.0420   430.6100    94.8410    24.1750     4.8150     5.7940     7.9400 
   95.2500     2.3170   -12.0290   415.0460    94.6680    23.8990     5.1540     5.7790     7.9260 
   95.3750     2.3150   -12.0290   407.0600    95.4130    23.6710     5.3660     5.6590     7.7730 
   95.5000     2.3130   -12.0480   413.5930    97.7170    23.6180     5.2270     5.4170     7.4870 
   95.6250     2.3120   -12.0720   428.6120    99.2940    23.6460     4.8220     5.1000     7.1100 
   95.7500     2.3140   -12.0780   438.6690    97.0690    23.7310     4.5830     4.7850     6.7590 
   95.8750     2.3200   -12.0780   442.5640    94.9650    23.7460     4.6900     4.5530     6.5460 
   96.0000     2.3330   -12.0640   441.6100    97.8300    23.6680     4.6930     4.4710     6.5750 
   96.1250     2.3460   -12.0290   434.6720   102.8420    23.8600     4.4220     4.6260     6.9970 
   96.2500     2.3420   -12.0140   420.4700   100.7650    23.8540     4.3400     5.1570     8.0010 
   96.3750     2.3100   -11.9990   407.7330    91.8220    23.8830     4.7510     6.0540     9.5480 
   96.5000     2.2620   -11.9740   402.8800    83.4590    23.8500     5.4880     7.3070    11.5360 
   96.6250     2.2210   -11.9380   396.6970    79.7540    23.5080     6.1990     8.7990    13.7340 
   96.7500     2.2050   -11.9130   372.2010    79.0630    23.2120     6.7020    10.2470    15.6270 
   96.8750     2.2060   -11.9160   335.3590    80.6830    22.8100     7.1640    11.2530    16.6860 
