~V
VERS. 2.00: Ver 2.00
~W
STRT.M 51.0000:
STOP.M 228.0000:
STEP.M 0.1250:
NULL. -999.2500:
UWI. DF314:
~C
DEPT.M :
DEN.GM/CC :
AC.US/MT :
GR.API :
CALI.CM :
RXO.OHMM :
RI. :
RML.OHMM :
SP.MV :
~A
# ...
  221.0000     2.3140   355.8080    69.2050    25.0910     7.0760     6.7620     8.3610   -15.7290 
  221.1250     2.2810   360.3350    69.2050    25.1250     6.4350     6.3350     7.5360   -15.9560 
  221.2500     2.2540   365.7600    69.2050    25.1360     6.3570     6.0230     7.0830   -16.0770 
  221.3750     2.2340   372.5900    69.2050    25.1230     6.5400     5.7640     6.9750   -16.0930 
  221.5000     2.2260   372.4630    69.2050    25.0920     6.4120     5.4840     6.9710   -16.0770 
  221.6250     2.2310   360.8920    69.2050    25.0730     5.4040     5.1460     6.7550   -16.0640 
  221.7500     2.2490   350.2830    69.2050    25.0760     4.1510     4.7930     6.2680   -16.0460 
  221.8750     2.2740   348.2310    69.2050    25.0830     3.3790     4.4830     5.6350   -15.9860 
  222.0000     2.2980   351.0460    69.2050    25.1010     3.2450     4.2540     5.0490   -15.8720 
  222.1250     2.3140   351.8540    69.2050    25.1690     3.4110     4.1250     4.6870   -15.7430 
  222.2500     2.3230   348.3110    69.2050    25.2350     3.5370     4.0430     4.5640   -15.6760 
  222.3750     2.3320   342.7760    69.2050    25.2250     3.6100     3.9720     4.6430   -15.6920 
  222.5000     2.3450   339.3540    69.2050    25.1340     3.6920     3.9030     4.8570   -15.7690 
  222.6250     2.3620   341.4420    69.2050    25.1280     3.7760     3.8640     5.1310   -15.8600 
  222.7500     2.3810   347.5670    69.2050    25.2730     3.8210     3.8720     5.3660   -15.9120 
  222.8750     2.4000   355.6170    69.2050    25.4030     3.8340     3.9190     5.4770   -15.9070 
  223.0000     2.4150   363.4590    69.2050    25.3540     3.8380     3.9750     5.3870   -15.8650 
  223.1250     2.4240   368.8180    69.2050    25.1810     3.8450     4.0010     5.0820   -15.8280 
  223.2500     2.4230   370.8390    69.2050    25.0810     3.8760     3.9960     4.7410   -15.8300 
  223.3750     2.4130   369.8830    69.2050    25.0770     3.9880     3.9790     4.5260   -15.8760 
  223.5000     2.4000   367.5660    69.2050    25.0900     4.2400     3.9680     4.5140   -15.9230 
  223.6250     2.3900   365.6380    69.2050    25.0990     4.5580     3.9680     4.6530   -15.9470 
  223.7500     2.3840   364.5860    69.2050    25.0980     4.6690     3.9700     4.7870   -15.9430 
  223.8750     2.3840   364.6610    69.2050    25.0820     4.4590     3.9720     4.8550   -15.8900 
  224.0000     2.3870   366.5260    69.2050    25.0640     4.1030     3.9720     4.8630   -15.7730 
  224.1250     2.3930   370.4720    69.2050    25.0580     3.8970     3.9720     4.8630   -15.6110 
  224.2500     2.4020   374.3730    69.2050    25.0590     3.8610     3.9720     4.8630   -15.4450 
  224.3750     2.4110   375.9170    69.2050    25.0650     3.8960     3.9720     4.8630   -15.2960 
  224.5000     2.4170   373.6030    69.2050    25.0740     3.9250     3.9720     4.8630   -15.1650 
  224.6250     2.4180   367.4140    69.2050    25.0670     3.9180     3.9720     4.8630   -15.0540 
  224.7500     2.4150   360.1310    69.2050    25.0430     3.8950     3.9720     4.8630   -14.9640 
  224.8750     2.4100   353.7460    69.2050    25.0230     3.8900     3.9720     4.8630   -14.9240 
  225.0000     2.4040   349.3550    69.2050    25.0330     3.9210     3.9720     4.8630   -14.9420 
  225.1250     2.3960   347.4870    69.2050    25.0640     3.9730     3.9720     4.8630   -15.0010 
  225.2500     2.3880   347.4620    69.2050    25.0840     4.0160     3.9720     4.8630   -15.0700 
  225.3750     2.3810   348.7180    69.2050    25.0850     4.0350     3.9720     4.8630   -15.1290 
  225.5000     2.3780   350.2840    69.2050    25.0780     4.0490     3.9720     4.8630   -15.1870 
  225.6250     2.3780   350.8140    69.2050    25.0750     4.1010     3.9720     4.8630   -15.2570 
  225.7500     2.3810   350.2750    69.2050    25.0770     4.1990     3.9720     4.8630   -15.3260 
  225.8750     2.3850   349.6960    69.2050    25.0810     4.3180     3.9720     4.8630   -15.3690 
  226.0000     2.3810   350.2260    69.2050    25.0870     4.4330     3.9720     4.8630   -15.3480 
  226.1250     2.3620   352.3870    69.2050    25.0860     4.5300     3.9720     4.8630   -15.2750 
  226.2500     2.3160   355.2230    69.2050    25.0400     4.6070     3.9720     4.8630   -15.1970 
  226.3750     2.2390   357.6850    69.2050    24.9460     4.6890     3.9720     4.8630   -15.1070 
  226.5000     2.1380   358.7550    69.2050    24.8400     4.8340     3.9720     4.8630   -15.0340 
  226.6250     2.0390   357.5900    69.2050    24.8390     5.0710     3.9720     4.8630   -14.9790 
  226.7500     1.9600   355.0830    69.2050    24.2110     5.3000     3.9720     4.8630   -14.9240 
  226.8750     1.9100   352.5160    69.2050    22.0310     5.4310     3.9720     4.8630   -14.8830 
  227.0000     1.8880   351.1840    69.2050    18.7740     5.4620     3.9720     4.8630   -14.8840 
  227.1250     1.8780   351.8290    69.2050    16.4930     5.4540     3.9720     4.8630   -14.9190 
  227.2500     1.8730   353.0010    69.2050    15.8280     5.4500     3.9720     4.8630   -14.9390 
  227.3750     1.8700   352.7510    69.2050    15.8950     5.4500     3.9720     4.8630   -14.9390 
  227.5000     1.8690   349.6790    69.2050    15.8870     5.4480     3.9720     4.8630   -14.9390 
  227.6250     1.8690   344.0590    69.2050    15.8780     5.4480     3.9720     4.8630  -999.2500 
  227.7500     1.8700   338.9190    69.2050    15.8790     5.4480     3.9720     4.8630  -999.2500 
  227.8750     1.8760   336.7400    69.2050    15.8800     5.4490     3.9720     4.8630  -999.2500 
  228.0000     1.8960   337.8870    69.2050    15.8800     5.4500     3.9720     4.8630  -999.2500 
