~V
VERS. 2.00: Ver 2.00
~W
STRT.M 56.0000:
STOP.M 209.0000:
STEP.M 0.1250:
NULL. -999.2500:
UWI. DF316:
~C
DEPT.M :
GR.API :
CALI.CM :
RXO.OHMM :
RI. :
RML.OHMM :
SP.MV :
DEN.GM/CC :
AC.US/MT :
~A
# ...
   86.0000    55.1650    25.1370    16.6990    16.0490    21.5700   -15.1630     2.2320   444.3610 
   86.1250    57.0640    25.0040    16.5870    15.8120    20.7540   -15.2770     2.2300   447.9700 
   86.2500    60.3960    25.2630    16.7340    15.1560    19.2080   -15.4090     2.2340   447.9580 
   86.3750    64.7700    25.3170    16.6830    13.9530    17.1270   -15.5650     2.2510   444.7800 
   86.5000    69.7860    25.2830    15.4390    12.3890    14.9150   -15.7330     2.2770   441.1950 
   86.6250    75.7250    25.0500    12.7210    10.7330    13.0050   -15.9040     2.3080   435.7400 
   86.7500    82.1750    24.7470     9.7320     9.1320    11.4890   -16.0620     2.3380   424.4110 
   86.8750    87.8310    24.4290     8.0160     7.8270    10.4190   -16.1870     2.3540   409.2690 
   87.0000    89.9410    24.2540     7.2200     6.8930     9.6230   -16.2860     2.3480   400.1860 
   87.1250    87.0830    24.1120     6.5910     6.2830     9.0190   -16.3440     2.3260   402.9480 
   87.2500    82.4390    24.1780     6.6260     5.8000     8.5860   -16.3520     2.3080   412.7110 
   87.3750    79.2640    24.5050     7.0950     5.4740     8.2040   -16.2930     2.3010   419.7180 
   87.5000    79.4170    24.8280     6.8700     5.3160     7.9460   -16.2090     2.3040   422.5010 
   87.6250    82.7200    25.0070     6.5110     5.2880     7.7900   -16.1060     2.3150   424.9860 
   87.7500    85.9040    24.9940     6.2790     5.5360     7.9580   -15.9810     2.3280   430.8680 
   87.8750    87.1470    24.9920     5.9540     6.1000     8.5760   -15.8320     2.3350   438.8730 
   88.0000    85.1950    24.9950     6.0860     6.8450     9.6300   -15.6670     2.3320   442.7280 
   88.1250    81.4600    25.0380     7.2420     7.9050    10.8910   -15.4950     2.3140   439.2850 
   88.2500    77.3560    25.1900     9.1970     9.1460    12.2810   -15.3100     2.2840   431.9760 
   88.3750    73.3950    25.3850    10.8460    10.1810    13.2740   -15.1530     2.2460   428.0120 
   88.5000    70.9060    25.3320    11.7710    10.6620    13.6590   -15.0070     2.2110   427.5530 
   88.6250    69.9770    25.2970    11.9620    10.4120    13.3050   -14.8710     2.2030   427.6090 
   88.7500    71.7840    25.0760    11.3200     9.5450    12.3480   -14.7640     2.2230   427.0280 
   88.8750    74.9660    25.0500     9.9640     8.3560    10.8790   -14.7030     2.2540   426.4230 
   89.0000    79.1880    24.9820     8.6710     7.1760     9.4490   -14.6830     2.2800   427.5950 
   89.1250    83.3130    24.9220     7.5730     6.1130     8.3150   -14.6820     2.2990   431.4610 
   89.2500    85.1870    24.9110     6.6650     5.2850     7.4990   -14.7080     2.3210   436.4280 
   89.3750    84.9510    24.9330     6.0810     4.8560     7.0050   -14.7380     2.3460   439.8500 
   89.5000    85.4530    25.0150     6.0110     4.7600     6.7800   -14.7600     2.3660   440.4990 
   89.6250    86.4520    25.0270     5.9800     4.8900     6.7890   -14.7710     2.3680   437.9940 
   89.7500    86.1070    25.0110     5.9260     5.1150     6.9140   -14.7600     2.3600   433.7730 
   89.8750    85.7370    24.9850     5.8280     5.3620     7.1970   -14.7230     2.3540   430.0170 
   90.0000    87.0690    24.8930     5.8340     5.6950     7.4910   -14.6660     2.3520   427.7980 
   90.1250    87.8430    24.8750     5.9680     6.1110     7.7810   -14.6020     2.3480   428.7340 
   90.2500    85.9490    24.8630     6.2120     6.5100     8.0410   -14.5290     2.3370   432.3070 
   90.3750    83.8020    24.8870     6.3730     6.7970     8.4330   -14.4610     2.3260   433.3650 
   90.5000    84.6890    24.9630     6.8310     6.9100     8.6770   -14.3990     2.3210   429.6080 
   90.6250    86.3760    25.0160     7.2930     6.8670     8.7890   -14.3430     2.3220   425.8660 
   90.7500    87.3060    25.0220     7.4730     6.7680     8.7480   -14.2900     2.3250   426.7680 
   90.8750    89.0910    25.0140     7.3330     6.4920     8.8300   -14.2410     2.3300   429.6590 
   91.0000    90.5580    25.0010     7.1870     6.2010     8.9960   -14.1850     2.3340   430.6240 
   91.1250    89.6720    24.8940     7.1470     6.0890     9.3800   -14.1200     2.3320   429.6780 
   91.2500    87.2260    24.8420     7.2890     6.2030     9.9560   -14.0550     2.3220   426.6580 
   91.3750    84.1600    24.8910     7.8220     6.6930    10.7050   -13.9820     2.3070   421.8120 
   91.5000    78.8720    24.9270     9.0710     7.5130    11.5790   -13.8910     2.2980   416.2740 
   91.6250    72.2170    24.9930    10.8030     8.4080    12.3690   -13.7860     2.3020   407.3680 
   91.7500    67.8170    25.0060    12.2170     9.1370    12.8540   -13.6790     2.3100   395.0030 
   91.8750    66.8310    24.9020    12.2090     9.5200    12.7830   -13.5700     2.3120   381.5950 
   92.0000    69.1490    24.6890    10.5260     9.5210    12.3470   -13.4780     2.3070   367.1640 
   92.1250    74.2390    24.5920     8.9740     9.1880    11.6520   -13.3960     2.3030   342.7350 
   92.2500    80.2180    24.5170     8.5740     8.5660    10.8520   -13.3160     2.3070   313.2320 
   92.3750    83.8710    24.3000     8.0910     7.9040    10.0240   -13.2250     2.3120   315.9750 
   92.5000    83.8540    24.5290     7.7440     7.2840     9.4100   -13.1330     2.3100   358.2980 
   92.6250    81.9290    24.6600     7.5030     6.8360     8.8740   -13.0270     2.3040   407.4460 
   92.7500    82.4350    24.6000     7.3530     6.5090     8.5360   -12.9060     2.3010   429.6190 
   92.8750    87.6510    24.5520     7.4050     6.2440     8.4620   -12.7850     2.3030   424.3530 
   93.0000    91.5170    24.4520     7.4790     6.2950     8.8110   -12.6610     2.3050   420.5630 
   93.1250    90.4460    24.3590     7.4820     6.5120     9.4490   -12.5240     2.3030   428.0420 
   93.2500    87.8280    24.1690     7.5140     6.8760    10.2420   -12.3770     2.3110   439.9740 
   93.3750    83.8190    24.3970     7.9940     7.2750    10.9050   -12.2160     2.3390   431.7590 
   93.5000    76.7770    24.5550     9.4140     7.4520    11.2140   -12.0460     2.3880   391.8220 
   93.6250    72.0710    24.6510    14.7860     7.3960    11.1130   -11.8630     2.4440   333.0950 
   93.7500    78.2950    24.6710    21.1180     7.0520    10.5770   -11.6590     2.4760   290.3260 
   93.8750    92.0030    24.6670    18.8290     6.5120     9.5680   -11.4310     2.4690   301.4760 
   94.0000    98.1090    24.6750    10.8920     5.8490     8.5170   -11.1880     2.4330   350.9080 
   94.1250    95.5970    24.6870     6.5210     5.2790     7.7510   -10.9410     2.4030   404.4910 
   94.2500    90.8290    24.7100     5.8650     4.9900     7.4410   -10.6900     2.3950   432.8670 
   94.3750    87.2120    24.7530     6.0070     4.9780     7.5520   -10.4360     2.4010   429.3280 
   94.5000    84.0700    24.7360     7.2160     5.1090     7.8120   -10.1690     2.4050   413.1410 
   94.6250    82.5390    24.7060     8.3850     5.3200     8.0700    -9.9060     2.3980   400.0040 
   94.7500    83.3450    24.7250     8.5240     5.5110     8.2530    -9.6610     2.3900   400.9970 
   94.8750    82.9950    24.9410     7.5850     5.5200     8.2200    -9.4310     2.3900   414.4810 
   95.0000    81.4860    24.9630     7.4360     5.4560     8.0030    -9.1910     2.4030   423.7660 
   95.1250    82.3330    24.8820     7.6880     5.3130     7.7060    -8.9460     2.4260   422.3130 
   95.2500    86.6300    24.8440     8.8820     5.1630     7.3450    -8.6880     2.4390   417.3980 
   95.3750    91.0610    24.8790     9.2570     5.0000     7.1930    -8.4330     2.4310   417.1670 
   95.5000    90.4600    24.9580     8.0680     5.0850     7.3070    -8.1840     2.4070   418.7000 
   95.6250    86.9580    24.8830     6.8240     5.4240     7.8020    -7.9210     2.3770   419.8020 
   95.7500    82.6610    24.8380     7.0320     6.0020     8.6770    -7.6540     2.3470   420.9610 
   95.8750    79.2500    24.8340     7.9750     7.1510    10.3640    -7.3720     2.3270   424.7470 
