~V
VERS. 2.00: Ver 2.00
~W
STRT.M 58.0000:
STOP.M 221.0000:
STEP.M 0.1250:
NULL. -999.2500:
UWI. DF318:
~C
DEPT.M :
DEN.GM/CC :
SP.MV :
AC.US/MT :
GR.API :
CALI.CM :
RXO.OHMM :
RI. :
RML.OHMM :
~A
# ...
  198.0000     2.3910   -15.4840   397.9360    53.9660    24.0850     6.3910     5.9590     7.2480 
  198.1250     2.3830   -15.2720   395.1150    53.4180    24.1190     6.4690     6.0740     7.4100 
  198.2500     2.3830   -15.1310   393.6450    56.1920    24.1730     6.3760     6.0970     7.4190 
  198.3750     2.3890   -15.0630   394.4900    59.1020    24.2090     6.2140     6.0050     7.2560 
  198.5000     2.3900   -14.9970   398.2720    58.8380    24.2270     6.0240     5.8590     7.0310 
  198.6250     2.3830   -14.9680   403.0590    55.9450    24.2900     5.8630     5.7260     6.8540 
  198.7500     2.3810   -14.9550   406.3160    53.8760    24.4210     5.8390     5.6690     6.8180 
  198.8750     2.3930   -14.9820   405.7950    54.8850    24.5040     6.0610     5.7380     6.9790 
  199.0000     2.4160   -15.0740   400.6690    56.4190    24.4780     6.4010     5.8950     7.2580 
  199.1250     2.4360   -15.2020   394.2070    57.3270    24.4360     6.6210     6.0920     7.5590 
  199.2500     2.4450   -15.3580   389.4970    58.6830    24.3830     6.5690     6.2630     7.7830 
  199.3750     2.4410   -15.5240   388.3160    60.0650    24.3210     6.4280     6.3490     7.8630 
  199.5000     2.4190   -15.7330   390.6880    60.2740    24.2790     6.5230     6.3600     7.8440 
  199.6250     2.3930   -15.9410   394.2380    59.1830    24.2780     6.7200     6.3170     7.7690 
  199.7500     2.3820   -16.1500   397.5980    57.8910    24.2820     6.8630     6.2400     7.6650 
  199.8750     2.3930   -16.3290   400.2940    57.2850    24.2840     6.9870     6.1530     7.5610 
  200.0000     2.4030   -16.4130   402.0690    57.3020    24.2740     7.0930     6.0930     7.4980 
  200.1250     2.3950   -16.4570   402.4500    58.0850    24.2490     7.0210     6.0860     7.5140 
  200.2500     2.3780   -16.4520   400.7740    58.8040    24.2370     6.9210     6.1500     7.6350 
  200.3750     2.3690   -16.3880   397.1930    60.0080    24.2520     7.2490     6.2880     7.8600 
  200.5000     2.3700   -16.2780   393.4440    61.9430    24.2580     7.6210     6.4490     8.0970 
  200.6250     2.3730   -16.1650   391.6680    64.1900    24.2590     7.5280     6.5830     8.2720 
  200.7500     2.3710   -16.0680   392.5320    65.8020    24.2640     7.0730     6.6620     8.3510 
  200.8750     2.3640   -16.0070   395.1720    64.7310    24.2700     6.9710     6.6840     8.3480 
  201.0000     2.3570   -16.0310   397.6260    60.6820    24.2690     7.1070     6.6780     8.3140 
  201.1250     2.3580   -16.0840   398.7550    56.1850    24.2650     7.2810     6.6510     8.2590 
  201.2500     2.3650   -16.1590   399.0210    56.4600    24.2560     7.3340     6.5960     8.1620 
  201.3750     2.3690   -16.2560   399.6330    62.2850    24.2360     7.1870     6.4880     7.9810 
  201.5000     2.3580   -16.3460   401.5320    66.2340    24.2200     6.8650     6.3320     7.7310 
  201.6250     2.3410   -16.3810   403.9050    66.2650    24.2120     6.4620     6.1490     7.4570 
  201.7500     2.3280   -16.3050   405.5690    68.7640    24.2090     6.1380     5.9770     7.2210 
  201.8750     2.3280   -16.1240   405.7530    78.6090    24.1980     6.0750     5.8600     7.0820 
  202.0000     2.3440   -15.7860   404.5670    87.5220    24.1490     6.1000     5.8070     7.0330 
  202.1250     2.3710   -15.3520   403.3720    88.1820    24.1210     6.1230     5.8060     7.0500 
  202.2500     2.3940   -14.8910   403.1940    82.0160    24.1060     6.1170     5.8370     7.0970 
  202.3750     2.3980   -14.4260   404.4430    75.7790    24.0800     6.0560     5.8650     7.1270 
  202.5000     2.3880   -14.0470   406.9720    72.6120    24.0580     5.9220     5.8610     7.1080 
  202.6250     2.3800   -13.7490   410.0420    72.5500    24.0270     5.7360     5.8100     7.0230 
  202.7500     2.3750   -13.5990   413.4330    74.6160    23.9780     5.5930     5.7110     6.8780 
  202.8750     2.3630   -13.5770   417.1400    75.9360    23.9360     5.5570     5.5810     6.7020 
  203.0000     2.3480   -13.7450   420.7310    73.9860    23.9140     5.6280     5.4610     6.5570 
  203.1250     2.3450   -14.0310   423.0110    69.3850    23.9340     5.7410     5.3830     6.4860 
  203.2500     2.3600   -14.3930   422.7090    65.4660    23.9480     5.8580     5.3660     6.5090 
  203.3750     2.3820   -14.8070   419.2760    63.6430    23.9420     5.9550     5.4160     6.6280 
  203.5000     2.4000   -15.1950   413.3220    62.5280    23.9290     6.0690     5.5070     6.7940 
  203.6250     2.4160   -15.5940   407.1410    61.4940    23.9590     6.1700     5.6150     6.9700 
  203.7500     2.4260   -15.9650   402.1660    60.2210    24.0980     6.2710     5.7220     7.1300 
  203.8750     2.4260   -16.2930   398.9390    57.6710    24.2450     6.4210     5.8130     7.2520 
  204.0000     2.4190   -16.5400   397.4080    55.1910    24.3020     6.5950     5.8870     7.3340 
  204.1250     2.4200   -16.7570   396.6850    53.3200    24.3060     6.7300     5.9500     7.3900 
  204.2500     2.4270   -16.9480   396.1040    51.6200    24.3000     6.8420     6.0150     7.4410 
  204.3750     2.4280   -17.1340   394.9470    50.9640    24.3060     7.0430     6.1050     7.5300 
  204.5000     2.4190   -17.3120   392.3080    52.2960    24.3020     7.2600     6.2400     7.6920 
  204.6250     2.4110   -17.4530   388.1590    54.1140    24.2820     7.4280     6.4390     7.9480 
  204.7500     2.4130   -17.5550   382.8270    53.4570    24.2670     7.5850     6.7060     8.2910 
  204.8750     2.4250   -17.6620   377.0420    52.4670    24.2490     7.8490     7.0040     8.6510 
  205.0000     2.4370   -17.7480   372.2880    53.9520    24.2240     8.1950     7.2510     8.9110 
  205.1250     2.4410   -17.8230   370.1000    55.8480    24.2200     8.3410     7.3700     8.9770 
  205.2500     2.4390   -17.8430   371.6280    55.5380    24.2330     8.0930     7.3160     8.8060 
  205.3750     2.4310   -17.7790   376.9370    54.7010    24.2500     7.5630     7.0710     8.4070 
  205.5000     2.4180   -17.6490   384.8950    55.7020    24.2620     7.1370     6.7190     7.9040 
  205.6250     2.4100   -17.4600   393.1100    57.5190    24.2610     6.8710     6.3150     7.3730 
  205.7500     2.4110   -17.2440   400.6840    57.9620    24.2560     6.5830     5.9060     6.8650 
  205.8750     2.4170   -16.9510   407.7500    57.9200    24.2550     6.1020     5.5380     6.4310 
  206.0000     2.4160   -16.6550   414.6340    58.0860    24.2410     5.6310     5.2380     6.0920 
  206.1250     2.4130   -16.3510   420.7990    55.9950    24.1870     5.3560     5.0270     5.8710 
  206.2500     2.4130   -16.0690   425.0360    51.3940    24.1200     5.3130     4.9170     5.7780 
  206.3750     2.4120   -15.8240   426.4070    49.0300    24.0800     5.4490     4.9240     5.8230 
  206.5000     2.4060   -15.5590   424.4300    50.1350    24.0680     5.6090     5.0090     5.9490 
  206.6250     2.4040   -15.2970   420.3860    50.4160    24.0710     5.7620     5.1420     6.1120 
  206.7500     2.4070   -15.0240   415.1850    47.5620    24.0870     5.9150     5.2820     6.2630 
  206.8750     2.4100   -14.7770   409.7590    46.8430    24.1040     6.0320     5.3800     6.3460 
  207.0000     2.4060   -14.5600   405.4860    50.0420    24.1220     6.1160     5.4180     6.3500 
  207.1250     2.3970   -14.3570   403.2120    53.3570    24.1290     6.1620     5.4020     6.2920 
  207.2500     2.3860   -14.1810   402.9260    53.9900    24.1290     6.1400     5.3560     6.2080 
  207.3750     2.3720   -14.0310   403.5580    53.4800    24.1280     6.0360     5.3130     6.1490 
  207.5000     2.3600   -14.0470   403.4780    55.3530    24.1230     6.0320     5.2930     6.1360 
  207.6250     2.3540   -14.1630   402.4860    59.8290    24.1060     6.2050     5.3060     6.1690 
  207.7500     2.3510   -14.3550   401.5220    65.2070    24.1000     6.4380     5.3630     6.2560 
  207.8750     2.3510   -14.6310   401.2470    70.2210    24.1600     6.5500     5.4970     6.4350 
