~V
VERS. 2.00: Ver 2.00
~W
STRT.M 60.0000:
STOP.M 248.0000:
STEP.M 0.1250:
NULL. -999.2500:
UWI. DF313:
~C
DEPT.M :
DEN.GM/CC :
SP.MV :
AC.US/MT :
GR.API :
CALI.CM :
RXO.OHMM :
RI. :
RML.OHMM :
~A
# ...
  100.0000     2.1060   -10.6630   458.9270    64.3840    25.3190    22.5590    16.0910    20.5930 
  100.1250     2.1060   -10.7060   448.3060    66.0230    25.2870    22.6480    16.5940    21.6180 
  100.2500     2.1080   -10.7950   435.6740    69.1490    25.2590    22.1750    17.0560    22.4520 
  100.3750     2.1240   -10.9310   422.4870    71.6230    25.2640    21.4360    17.3580    23.0080 
  100.5000     2.1690   -11.1170   410.6610    71.1310    25.3050    20.5700    17.3670    23.0890 
  100.6250     2.2310   -11.3400   400.8230    68.3140    25.3840    19.7590    16.8600    22.3270 
  100.7500     2.2760   -11.6140   392.0450    68.5170    25.4550    19.0760    15.5470    20.2530 
  100.8750     2.2970   -11.9320   381.9320    73.3220    25.3730    17.8620    13.7560    17.4460 
  101.0000     2.3210   -12.2630   366.8190    78.4560    25.0900    15.6200    12.0020    14.8230 
  101.1250     2.3860   -12.5900   346.7620    79.6040    24.7540    13.2530    10.8220    13.2900 
  101.2500     2.4850   -12.9150   324.7350    77.9620    24.5920    13.5660    10.8010    13.7410 
  101.3750     2.5860   -13.2190   306.5060    75.3150    24.5810    18.8360    12.0890    16.1880 
  101.5000     2.6430   -13.4990   301.0980    70.7320    24.6220    31.1020    14.8630    20.6770 
  101.6250     2.6090   -13.7550   310.7260    66.2250    24.7130    49.2610    18.8530    26.5220 
  101.7500     2.5080   -13.9720   334.1390    66.2580    24.8890    59.0450    22.2320    30.4860 
  101.8750     2.3790   -14.1580   366.1790    72.0080    24.9780    51.0510    22.6460    29.4750 
  102.0000     2.2660   -14.2980   399.1020    78.5480    24.8760    33.1330    19.9760    24.4410 
  102.1250     2.2060   -14.3780   426.4630    81.9470    24.6690    19.1820    16.1250    18.7720 
  102.2500     2.1960   -14.4300   445.9390    82.2930    24.5240    13.8020    12.9440    14.7960 
  102.3750     2.2190   -14.4630   457.9970    81.8230    24.4430    11.9110    10.7820    12.3800 
  102.5000     2.2510   -14.4650   464.2080    80.9420    24.4290    10.8550     9.4690    11.1040 
  102.6250     2.2720   -14.4330   467.9030    79.1280    24.5660     9.9700     8.7790    10.5830 
  102.7500     2.2760   -14.3410   470.5130    78.4720    24.8240     9.7660     8.5700    10.5610 
  102.8750     2.2630   -14.2130   472.7400    79.8360    25.0530    10.0290     8.6050    10.7510 
  103.0000     2.2390   -14.0710   474.7660    80.8590    25.2180    10.2820     8.7780    11.0470 
  103.1250     2.2160   -13.9080   476.5080    80.1130    25.3370    10.3930     9.0120    11.3680 
  103.2500     2.2090   -13.7050   477.7360    81.1130    25.3780    10.5020     9.1900    11.5500 
  103.3750     2.2210   -13.4750   478.2100    84.7150    25.3460    10.6140     9.1950    11.4460 
  103.5000     2.2520   -13.2220   477.6350    87.4880    25.2770    10.6030     8.9470    10.9740 
  103.6250     2.2880   -12.9690   476.2170    87.3640    25.2060    10.3090     8.4350    10.1470 
  103.7500     2.3130   -12.7150   474.1800    88.6120    25.1550     9.5690     7.7310     9.1100 
  103.8750     2.3190   -12.4650   471.8940    93.2820    25.1240     8.5950     7.0470     8.1640 
  104.0000     2.3050   -12.2520   469.9360    96.9660    25.1050     7.7300     6.5330     7.5190 
  104.1250     2.2810   -12.0720   468.7050    95.6130    25.0960     7.3480     6.2750     7.2770 
  104.2500     2.2630   -11.9240   468.2630    90.4000    25.0960     7.8780     6.3390     7.4990 
  104.3750     2.2590   -11.8000   468.2640    86.0730    25.0710     9.0690     6.6570     8.0390 
  104.5000     2.2640   -11.6950   467.9570    84.6580    25.0050    10.2890     7.1880     8.7970 
  104.6250     2.2620   -11.6140   466.8670    84.6950    24.9250    10.9010     7.8680     9.6660 
  104.7500     2.2460   -11.5750   465.0640    83.2150    24.8890    11.1670     8.6310    10.5730 
  104.8750     2.2280   -11.5690   463.0660    80.0770    24.8830    12.0490     9.4020    11.4840 
  105.0000     2.2290   -11.5990   461.6670    77.9970    24.8660    13.3540    10.1170    12.3400 
  105.1250     2.2560   -11.6880   461.1480    78.7780    24.8360    13.9500    10.6650    12.9950 
  105.2500     2.2870   -11.8230   461.4030    80.7760    24.8290    13.3700    10.8430    13.1830 
  105.3750     2.3100   -11.9990   462.1010    80.9550    24.8330    12.5820    10.6110    12.8480 
  105.5000     2.3270   -12.1970   462.8580    80.7570    24.8090    11.7070     9.9760    11.9940 
  105.6250     2.3380   -12.3650   463.3820    83.4340    24.7360    10.4500     9.0360    10.7410 
  105.7500     2.3380   -12.4650   463.5000    87.8820    24.5670     9.2380     7.9840     9.3320 
  105.8750     2.3250   -12.4710   463.0670    90.8710    24.2830     8.5280     7.0630     8.1110 
  106.0000     2.2970   -12.3540   461.8570    92.4240    23.9010     8.0900     6.4440     7.3650 
  106.1250     2.2550   -12.1210   459.9640    93.1750    23.4510     7.9440     6.2730     7.3610 
  106.2500     2.2100   -11.7900   457.4860    89.1350    23.0800     9.4660     6.8360     8.5460 
  106.3750     2.1750   -11.4100   454.6580    80.8360    23.0140    14.2050     8.2740    11.0360 
  106.5000     2.1560   -11.0350   451.9580    73.3100    23.3890    22.5220    10.8560    15.0630 
  106.6250     2.1550   -10.7180   449.9650    68.9460    24.1140    31.3830    14.7300    20.6270 
  106.7500     2.1640   -10.5450   449.1110    65.6230    24.7950    36.1300    19.5070    26.8170 
  106.8750     2.1770   -10.5260   449.4520    63.1610    25.1640    37.1710    23.5620    31.3410 
  107.0000     2.1820   -10.6340   450.4360    63.3580    25.2650    36.3090    25.6390    32.7630 
  107.1250     2.1750   -10.8400   450.8200    65.0310    25.2710    34.2940    25.6910    31.6440 
  107.2500     2.1700   -11.1260   449.7040    64.9520    25.2880    31.9060    24.6160    29.7310 
  107.3750     2.1710   -11.4250   446.8450    65.2460    25.2790    30.0510    23.4780    28.2790 
  107.5000     2.1750   -11.7010   442.8720    67.3490    25.2610    28.8100    22.5960    27.4830 
  107.6250     2.1750   -11.9130   439.3560    68.2520    25.2570    27.7110    22.0330    27.2170 
  107.7500     2.1700   -11.9360   437.3530    64.5320    25.2460    26.3490    21.7560    27.2470 
  107.8750     2.1650   -11.7880   437.2430    59.5770    25.2170    24.8630    21.5950    27.2620 
  108.0000     2.1620   -11.5170   438.7820    57.6810    25.1950    23.5780    21.4570    27.1350 
  108.1250     2.1650   -11.1570   440.7550    58.6890    25.1920    22.7500    21.3140    26.8710 
  108.2500     2.1680   -10.6980   442.3620    59.5080    25.1850    22.2370    21.1840    26.5460 
  108.3750     2.1670   -10.1960   443.1690    60.4940    25.1680    21.5990    21.0820    26.2510 
  108.5000     2.1590    -9.6940   443.1670    62.6490    25.1510    20.9090    21.0160    26.0390 
  108.6250     2.1510    -9.2350   443.0520    65.4390    25.1410    20.6130    20.9990    25.9490 
  108.7500     2.1460    -8.8710   443.4450    67.9710    25.1440    21.1000    21.0590    26.0430 
  108.8750     2.1440    -8.6040   444.6320    69.7810    25.1590    21.9910    21.1960    26.3250 
  109.0000     2.1430    -8.4290   445.9080    70.1940    25.1800    22.9360    21.4260    26.8110 
  109.1250     2.1440    -8.3450   445.1640    68.2260    25.1840    23.8030    21.7240    27.4000 
  109.2500     2.1520    -8.3780   439.5600    66.9500    25.1810    24.5250    21.8400    27.5730 
  109.3750     2.1780    -8.5280   426.1440    68.0580    25.2030    25.1750    21.4740    26.8620 
  109.5000     2.2390    -8.8010   401.4650    69.7620    25.2440    26.0790    20.6170    25.3840 
  109.6250     2.3500    -9.1870   368.4540    70.2110    25.2660    27.1330    19.6750    23.9360 
  109.7500     2.4890    -9.7050   331.6200    69.1060    25.2320    28.1220    19.4660    23.8310 
  109.8750     2.6150   -10.3030   297.7010    66.3810    25.1690    31.6990    20.5370    25.6660 
