~V
VERS. 2.00: Ver 2.00
~W
STRT.M 60.0000:
STOP.M 248.0000:
STEP.M 0.1250:
NULL. -999.2500:
UWI. DF313:
~C
DEPT.M :
DEN.GM/CC :
SP.MV :
AC.US/MT :
GR.API :
CALI.CM :
RXO.OHMM :
RI. :
RML.OHMM :
~A
# ...
   80.0000     2.2340   -15.3170   456.2190    76.6530    24.2320    11.2450    10.2460    13.0800 
   80.1250     2.2570   -15.2260   459.6940    80.8090    23.9670     9.8740     9.1260    11.4350 
   80.2500     2.2760   -15.1010   462.5230    84.3200    23.9400     8.8550     8.1910    10.1970 
   80.3750     2.2870   -14.9600   464.2610    86.1450    24.0890     8.2020     7.4580     9.3060 
   80.5000     2.2900   -14.8150   464.1830    86.3940    24.3160     7.9120     6.9460     8.7830 
   80.6250     2.2800   -14.6520   462.4140    85.8230    24.5510     7.7690     6.6560     8.6360 
   80.7500     2.2650   -14.4510   459.1840    83.6450    24.7530     7.5950     6.5640     8.8010 
   80.8750     2.2590   -14.2370   454.7870    79.7470    24.8700     7.5750     6.5100     8.9650 
   81.0000     2.2710   -14.0240   448.9710    76.0800    24.8970     7.6900     6.3320     8.7870 
   81.1250     2.3070   -13.8170   441.4560    74.9000    24.8820     7.3810     5.9160     8.0360 
   81.2500     2.3540   -13.6180   432.0480    77.4080    24.8900     6.2150     5.3020     6.8510 
   81.3750     2.3970   -13.4170   421.5880    80.0390    24.9560     5.0700     4.7580     5.8530 
   81.5000     2.4140   -13.2110   412.9500    78.9640    25.0300     4.9450     4.4980     5.4910 
   81.6250     2.3890   -13.0050   409.0700    73.7770    25.0380     6.7510     4.6900     6.0560 
   81.7500     2.3400   -12.7920   411.5280    66.8070    24.9560    12.1940     5.6620     8.0310 
   81.8750     2.2830   -12.5720   419.6530    61.3120    24.8620    20.7560     7.5880    11.5180 
   82.0000     2.2320   -12.3430   430.5070    58.8090    24.8490    28.6980    10.6420    16.5760 
   82.1250     2.2050   -12.1390   439.7000    59.8970    24.9810    31.8160    14.5360    22.4120 
   82.2500     2.1980   -11.9700   445.0130    63.1920    25.2240    30.4590    17.7660    26.2010 
   82.3750     2.2000   -11.8400   446.1470    64.4070    25.4280    28.5280    18.9710    26.3700 
   82.5000     2.1950   -11.7290   444.1740    64.2690    25.4810    26.3270    18.3650    24.1420 
   82.6250     2.1890   -11.6020   441.5440    65.4640    25.3390    24.1060    17.0810    21.6760 
   82.7500     2.1890   -11.4860   439.4510    67.7380    25.0990    23.2520    16.1020    20.3770 
   82.8750     2.1910   -11.3700   438.3130    69.0250    24.9590    23.5160    15.6940    20.2260 
   83.0000     2.1860   -11.2870   438.1080    70.3780    24.9950    24.2930    15.8570    21.0040 
   83.1250     2.1760   -11.2300   438.4570    71.3980    25.1700    25.1280    16.4860    22.3480 
   83.2500     2.1720   -11.1970   439.3400    68.9190    25.3840    25.4550    17.3480    23.6720 
   83.3750     2.1780   -11.1870   440.8680    66.0290    25.4810    25.1320    18.0790    24.4550 
   83.5000     2.1850   -11.1970   443.1530    66.2130    25.3870    24.5310    18.5070    24.6030 
   83.6250     2.1810   -11.2420   445.7670    67.8490    25.2380    24.0710    18.6820    24.4220 
   83.7500     2.1670   -11.3290   448.2400    65.7980    25.3900    23.6820    18.8470    24.4790 
   83.8750     2.1480   -11.4220   450.1730    62.7810    25.8170    23.4540    19.2200    25.0380 
   84.0000     2.1320   -11.4970   451.3590    62.3470    26.2300    23.7680    19.7450    25.8570 
   84.1250     2.1310   -11.5660   452.1110    64.9950    26.3890    24.5030    19.9970    26.1240 
   84.2500     2.1520   -11.6460   452.6370    67.3120    26.2630    24.6710    19.0530    24.3900 
   84.3750     2.1900   -11.7580   453.0000    68.5970    26.0640    22.8390    16.7620    20.7050 
   84.5000     2.2390   -11.9190   453.1390    72.0000    25.8750    18.2340    13.6690    16.1250 
   84.6250     2.2880   -12.1270   453.2070    78.9410    25.6670    12.2200    10.6410    11.9630 
   84.7500     2.3190   -12.3400   453.5050    88.2040    25.4220     8.1210     8.4130     9.1640 
   84.8750     2.3240   -12.5540   454.3100    93.4610    25.2030     6.7430     7.0010     7.5820 
   85.0000     2.3020   -12.7540   455.6530    92.3480    25.0680     7.0950     6.3200     7.0330 
   85.1250     2.2660   -12.9200   456.9800    87.7840    24.9960     7.9180     6.2710     7.3370 
   85.2500     2.2340   -13.0230   457.7730    84.3520    24.9240     8.5100     6.8320     8.3910 
   85.3750     2.2170   -13.0600   457.7990    82.6970    24.8520     9.1620     7.7420     9.7700 
   85.5000     2.2160   -13.0140   457.2100    79.0560    24.8060    10.2380     8.7350    11.0610 
   85.6250     2.2220   -12.9080   456.5110    73.2890    24.8180    11.4220     9.4630    11.8070 
   85.7500     2.2270   -12.7860   455.7700    70.5660    24.8830    11.5270     9.5410    11.5900 
   85.8750     2.2360   -12.6640   454.5810    73.9020    24.9190    10.4530     9.0710    10.6930 
   86.0000     2.2530   -12.5460   451.6910    80.6640    24.9280     9.1010     8.2950     9.5080 
   86.1250     2.2720   -12.4380   445.9240    84.8910    24.9630     8.3450     7.4850     8.4180 
   86.2500     2.2840   -12.3490   435.7880    82.9560    25.0430     8.3720     6.8880     7.7460 
   86.3750     2.2970   -12.2850   419.8020    78.4650    25.0980     8.6950     6.5880     7.5530 
   86.5000     2.3270   -12.2630   396.0420    74.0310    25.0920     9.2210     6.6430     7.8880 
   86.6250     2.3920   -12.2610   366.9470    69.6540    25.0450    10.2500     7.1000     8.8010 
   86.7500     2.4910   -12.2500   336.3140    65.1250    25.0010    12.7840     8.1370    10.5320 
   86.8750     2.6010   -12.2310   309.9020    62.0610    24.9990    17.3690     9.8250    13.1490 
   87.0000     2.6750   -12.2240   296.3840    62.2470    25.0300    23.6690    12.2980    16.7710 
   87.1250     2.6510   -12.2120   298.0600    65.2620    25.0440    30.0550    15.5560    21.3030 
   87.2500     2.5600   -12.1600   314.4080    68.0960    25.0110    34.7310    19.2480    26.1200 
   87.3750     2.4500   -12.0630   341.2320    70.2280    24.9450    37.6360    22.4240    29.9220 
   87.5000     2.3500   -11.8920   371.8370    70.3770    24.8720    38.2300    24.2500    31.6620 
   87.6250     2.2660   -11.6570   399.0680    67.1880    24.8620    35.9360    24.4550    31.2190 
   87.7500     2.2000   -11.3930   419.6640    60.7210    25.0510    31.6920    23.4620    29.5080 
   87.8750     2.1610   -11.1540   433.0170    56.2000    25.3230    27.8710    22.2880    27.9330 
   88.0000     2.1450   -10.9370   439.7280    56.2360    25.4800    25.4740    21.4160    27.0340 
   88.1250     2.1440   -10.7420   442.8670    59.0720    25.4660    24.9660    21.0390    26.9100 
   88.2500     2.1480   -10.6250   443.7310    61.7570    25.4500    26.2640    21.1340    27.3200 
   88.3750     2.1470   -10.5770   442.8920    62.3890    25.5350    27.6680    21.3290    27.6450 
   88.5000     2.1430   -10.6120   440.2510    61.1950    25.6550    27.9120    21.3460    27.5160 
   88.6250     2.1460   -10.7480   436.2890    60.3610    25.7120    26.7690    21.0720    26.8980 
   88.7500     2.1580   -10.9690   431.5060    61.8420    25.6550    25.0790    20.5890    26.0640 
   88.8750     2.1660   -11.2300   426.5950    63.8050    25.5410    24.0750    20.1340    25.3890 
   89.0000     2.1570   -11.5180   422.4100    63.8430    25.4580    24.3390    19.8270    25.0080 
   89.1250     2.1350   -11.8220   419.3200    61.1480    25.4130    25.5620    19.6710    24.8600 
   89.2500     2.1200   -12.0860   417.4520    59.2030    25.3490    26.2290    19.5270    24.6910 
   89.3750     2.1220   -12.2880   416.7670    60.8710    25.2980    25.5150    19.2120    24.2310 
   89.5000     2.1360   -12.4320   417.2690    63.8420    25.3390    23.9630    18.6530    23.4000 
   89.6250     2.1480   -12.5170   418.4120    63.3020    25.4580    22.3010    17.9150    22.3340 
   89.7500     2.1560   -12.5480   419.3780    60.9860    25.5190    20.6980    17.1880    21.3410 
   89.8750     2.1500   -12.5420   418.5580    62.5910    25.4730    19.6240    16.6560    20.6850 
