~V
VERS. 2.00: Ver 2.00
~W
STRT.M 100.0000:
STOP.M 292.0000:
STEP.M 0.1250:
NULL. -999.2500:
UWI. DF310:
~C
DEPT.M :
AC.US/MT :
DEN.GM/CC :
GR.API :
CALI.CM :
RXO.OHMM :
RI. :
RML.OHMM :
SP.MV :
~A
# ...
  210.0000   408.0150     2.2520    62.4800    23.0120    60.1680    76.1850    80.8220   -28.9440 
  210.1250   406.8570     2.2520    67.0790    23.0540    61.8940    86.6990    92.1770   -28.9800 
  210.2500   405.8810     2.2520    69.9900    23.0650    62.2540    91.6240    97.2190   -29.0360 
  210.3750   405.0170     2.2530    67.7730    23.0870    63.3960    92.3960    97.6000   -29.1150 
  210.5000   404.3970     2.2520    62.9450    23.1280    65.2080    91.1610    95.9470   -29.2010 
  210.6250   404.4730     2.2480    59.4730    23.1480    66.7480    89.2650    93.7960   -29.2720 
  210.7500   405.1740     2.2490    58.7260    23.1550    66.8820    87.1960    91.4870   -29.3290 
  210.8750   406.1680     2.2530    59.4570    23.1550    66.3140    84.9420    88.9090   -29.3490 
  211.0000   407.1890     2.2520    60.3640    23.1530    65.2720    82.5880    86.1090   -29.3560 
  211.1250   408.3110     2.2480    64.2170    23.1500    63.3410    80.4850    83.3730   -29.3460 
  211.2500   409.7370     2.2450    70.2610    23.1460    60.8680    78.9370    81.0410   -29.3170 
  211.3750   411.4660     2.2460    71.4580    23.1440    59.3490    77.9800    79.2080   -29.2940 
  211.5000   413.1720     2.2480    66.1260    23.1440    58.5650    77.1820    78.9260   -29.2770 
  211.6250   414.0520     2.2550    60.5070    23.1440    57.6170    75.5050    77.2150   -29.2600 
  211.7500   413.5930     2.2660    61.0910    23.1480    56.1450    72.3190    73.9650   -29.2490 
  211.8750   411.7350     2.2780    63.4840    23.1660    54.7060    67.6130    69.1650   -29.2620 
  212.0000   409.0290     2.2880    65.0210    23.2170    52.0840    62.0760    63.5170   -29.2650 
  212.1250   406.5170     2.2920    64.0920    23.3020    47.2150    56.8850    58.2220   -29.3000 
  212.2500   404.7010     2.2920    61.9300    23.4340    43.6400    52.7990    54.0550   -29.3650 
  212.3750   403.2640     2.2890    61.8060    23.5730    43.6420    50.0570    51.2580   -29.4390 
  212.5000   401.8230     2.2840    63.5940    23.6920    45.9230    48.6670    49.8400   -29.4930 
  212.6250   400.9930     2.2760    64.8420    23.7690    47.7620    48.9190    50.0980   -29.5670 
  212.7500   401.7040     2.2630    63.2550    23.7970    47.6220    50.8530    52.0700   -29.6580 
  212.8750   403.7790     2.2480    61.4180    23.8020    47.1840    55.0040    56.3040   -29.7470 
  213.0000   405.7510     2.2350    61.8930    23.8020    50.4660    62.2650    63.7100   -29.8500 
  213.1250   405.9540     2.2210    64.2850    23.8020    64.7590    74.5610    76.2520   -29.9590 
  213.2500   404.6270     2.2070    65.2220    23.8010    89.2510    91.7010    93.7350   -30.0730 
  213.3750   401.8430     2.2000    63.6930    23.7820   112.5490   112.3650   114.8130   -30.1920 
  213.5000   396.8980     2.2080    61.2430    23.7240   123.7340   132.7460   135.6010   -30.3260 
  213.6250   389.9610     2.2300    58.7910    23.6170   126.5500   145.3300   148.4360   -30.4470 
  213.7500   385.0150     2.2510    55.6190    23.5280   130.4490   146.9820   150.1210   -30.5730 
  213.8750   385.6330     2.2610    53.5960    23.4400   132.4190   138.8510   141.8280   -30.6830 
  214.0000   391.6520     2.2600    54.6730    23.3270   123.7900   125.1630   127.8660   -30.7810 
  214.1250   398.5610     2.2560    58.3460    23.1930   103.0700   110.4640   112.8740   -30.8690 
  214.2500   402.5280     2.2560    60.6090    23.0970    84.3340    97.6390    99.7910   -30.9330 
  214.3750   403.7920     2.2620    60.0220    23.0630    75.1760    87.4710    89.4200   -30.9760 
  214.5000   403.8360     2.2710    59.2580    23.0590    73.4850    79.7930    81.5890   -31.0120 
  214.6250   403.1740     2.2800    59.7380    23.0590    72.0930    74.1600    75.8430   -31.0440 
  214.7500   401.9680     2.2850    59.7570    23.0590    67.2830    69.5150    71.1060   -31.0430 
  214.8750   400.7330     2.2890    59.3970    23.0590    61.2320    65.4350    66.9440   -31.0600 
  215.0000   400.0120     2.2920    60.8630    23.0580    56.6070    61.8420    63.2790   -31.0700 
  215.1250   400.1330     2.2920    63.8440    23.0420    54.0430    59.1020    60.4840   -31.0630 
  215.2500   401.2220     2.2850    64.9800    23.0080    52.2940    57.3440    58.6910   -31.0610 
  215.3750   403.4180     2.2750    63.6860    22.9760    50.6580    56.6150    57.9470   -31.0890 
  215.5000   406.0060     2.2680    60.6660    22.9630    49.7740    56.8520    58.1890   -31.1250 
  215.6250   406.9980     2.2700    58.4300    22.9650    50.5310    58.1450    59.5080   -31.1620 
  215.7500   405.7110     2.2690    58.1990    22.9760    53.0670    60.3650    61.7720   -31.2440 
  215.8750   403.2400     2.2610    59.2980    22.9960    55.5650    63.6580    65.1310   -31.3330 
  216.0000   401.6290     2.2450    61.2650    22.9960    57.3160    68.3260    69.8920   -31.4450 
  216.1250   402.6560     2.2320    63.8340    23.0160    60.2510    75.2080    76.9120   -31.5720 
  216.2500   405.5050     2.2230    65.7160    23.0340    66.2540    84.4840    86.3740   -31.7260 
  216.3750   408.8510     2.2170    64.0280    23.0460    74.9500    96.2280    98.3520   -31.8850 
  216.5000   411.5140     2.2130    60.6160    23.0480    83.7670   109.7630   112.1580   -32.0490 
  216.6250   412.6950     2.2100    57.8770    23.0370    89.4970   122.8460   125.5030   -32.2230 
  216.7500   412.5700     2.2100    56.6850    23.0000    90.5470   132.3190   135.1650   -32.3600 
  216.8750   411.1460     2.2140    56.4450    22.9350    87.7890   135.9080   138.8260   -32.4960 
  217.0000   408.4570     2.2210    57.4110    22.8490    84.0770   133.3790   136.2460   -32.6380 
  217.1250   405.1500     2.2280    59.6700    22.8010    81.5000   126.6160   129.3480   -32.8070 
  217.2500   402.4340     2.2330    62.4770    22.7840    78.3160   119.8170   122.4130   -32.9520 
  217.3750   400.0920     2.2350    65.1830    22.7830    74.5600   115.5880   118.1000   -33.0830 
  217.5000   396.2490     2.2360    65.8410    22.7830    73.8240   115.4150   117.9230   -33.2150 
  217.6250   388.9760     2.2370    62.8080    22.7830    78.8940   120.2880   122.8940   -33.3460 
  217.7500   381.2640     2.2390    58.1240    22.7800    84.8660   128.5470   131.3180   -33.4890 
  217.8750   377.7510     2.2390    55.2590    22.7570    88.1060   138.2900   141.2560   -33.6050 
  218.0000   381.1510     2.2360    57.0720    22.6990    87.7440   146.8030   149.9390   -33.7180 
  218.1250   389.6520     2.2330    61.2570    22.6090    84.9610   150.6340   153.8470   -33.8030 
  218.2500   396.7890     2.2360    63.0640    22.5260    81.8810   149.5270   152.7170   -33.8850 
  218.3750   399.3410     2.2450    62.7170    22.4320    78.5670   144.0230   147.1030   -33.9430 
  218.5000   397.8580     2.2520    61.1130    22.3370    74.8690   134.8180   137.7140   -33.9890 
  218.6250   395.6970     2.2520    58.4090    22.2600    71.3980   122.1440   124.7870   -34.0300 
  218.7500   395.3880     2.2540    57.1160    22.2220    69.0050   107.6530   110.0060   -34.0750 
  218.8750   396.3960     2.2650    60.7140    22.2030    65.5100    92.8580    94.9150   -34.1160 
  219.0000   396.9400     2.2810    65.6430    22.1900    58.9450    79.4000    81.1880   -34.1390 
  219.1250   395.8460     2.2950    66.4970    22.1750    52.1650    68.9820    70.5620   -34.1430 
  219.2500   394.2540     2.3020    69.3260    22.1680    47.7260    61.4230    62.8520   -34.1360 
  219.3750   393.2960     2.3030    74.9420    22.1670    45.7210    56.2850    57.6110   -34.1630 
  219.5000   393.2530     2.3020    76.0300    22.1680    44.8330    52.9590    54.2190   -34.1720 
  219.6250   393.6520     2.3040    69.2950    22.1700    44.5310    50.9540    52.1740   -34.1720 
  219.7500   393.9150     2.3120    62.5290    22.1730    44.3670    49.5260    50.7160   -34.1600 
  219.8750   394.0220     2.3200    61.8790    22.1770    43.8550    48.4350    49.6040   -34.1450 
