~V
VERS. 2.00: Ver 2.00
~W
STRT.M 60.0000:
STOP.M 262.0000:
STEP.M 0.1250:
NULL. -999.2500:
UWI. DF319:
~C
DEPT.M :
GR.API :
RML.OHMM :
RI. :
RXO.OHMM :
CALI.CM :
AC.US/MT :
DEN.GM/CC :
SP.MV :
~A
# ...
  220.0000    60.5240     7.0190     6.8890     6.7770    23.8940   411.9880     2.3840   -20.0740 
  220.1250    65.6030     6.7670     6.6800     6.6650    23.6500   401.8240     2.3920   -20.0820 
  220.2500    70.7850     6.3700     6.3330     6.5070    23.6310   399.0460     2.3970   -20.1290 
  220.3750    76.5730     5.9210     5.9020     6.2640    23.8560   404.6910     2.3980   -20.1670 
  220.5000    80.0500     5.4830     5.4550     5.9920    24.1360   410.2210     2.3980   -20.1540 
  220.6250    78.5360     5.1790     5.1180     5.8750    24.3040   412.6090     2.3990   -20.1690 
  220.7500    75.6730     5.1650     5.0280     5.9590    24.3600   415.7760     2.4010   -20.2120 
  220.8750    75.0020     5.6100     5.3390     6.2500    24.3730   418.7050     2.4000   -20.2500 
  221.0000    80.1870     6.6230     6.1750     7.0980    24.3750   411.7240     2.3990   -20.3060 
  221.1250    89.7530     8.2270     7.6200     9.2950    24.3740   389.0550     2.4010   -20.3780 
  221.2500    98.5930    10.0680     9.3490    12.7070    24.3720   356.8030     2.4080   -20.4310 
  221.3750   103.2740    11.6180    10.9460    16.1920    24.3700   333.3260     2.4150   -20.4990 
  221.5000   105.4640    12.3860    11.9320    18.1760    24.3680   328.4880     2.4180   -20.5630 
  221.6250   109.7530    11.9640    11.8350    17.2530    24.3700   339.8440     2.4110   -20.5840 
  221.7500   112.8260    10.8160    10.9590    14.3060    24.3710   358.0370     2.4000   -20.6020 
  221.8750   113.3660     9.4730     9.7460    11.4260    24.3700   372.7200     2.3900   -20.6120 
  222.0000   112.7210     8.3530     8.5950    10.0060    24.3680   380.6520     2.3840   -20.5810 
  222.1250   113.8080     7.6780     7.7600     9.2830    24.3700   383.9990     2.3830   -20.5410 
  222.2500   117.8320     7.3360     7.2140     8.3380    24.3720   386.0850     2.3830   -20.5230 
  222.3750   121.5460     7.2140     6.9070     7.7410    24.3740   386.4430     2.3840   -20.4860 
  222.5000   121.5850     7.2190     6.7730     7.4980    24.3720   383.5280     2.3830   -20.4470 
  222.6250   115.7770     7.3170     6.7880     7.5030    24.3640   379.0550     2.3800   -20.4440 
  222.7500   111.0440     7.5300     6.9320     7.7530    24.3530   376.7380     2.3770   -20.4590 
  222.8750   112.4210     7.9550     7.2630     8.3940    24.3490   377.5110     2.3740   -20.4830 
  223.0000   117.1610     8.7540     7.8920     9.5510    24.3480   376.5040     2.3730   -20.5260 
  223.1250   117.6800    10.1730     9.0600    11.7070    24.3480   371.5020     2.3700   -20.5810 
  223.2500   113.8120    12.1960    10.8060    14.8700    24.3480   366.3870     2.3600   -20.6480 
  223.3750   109.8540    14.6990    13.0930    18.9510    24.3480   368.9120     2.3390   -20.7240 
  223.5000   107.5080    17.4560    15.6830    23.4560    24.3480   374.5590     2.3120   -20.8130 
  223.6250   104.5450    19.8590    18.0570    27.1080    24.3480   371.1460     2.2950   -20.9410 
  223.7500    99.6780    21.3990    19.7200    29.2260    24.3480   353.0520     2.2970   -21.0390 
  223.8750    94.2960    21.8660    20.4360    28.6700    24.3480   333.4150     2.3160   -21.0680 
  224.0000    91.3300    21.4620    20.3200    26.4200    24.3480   331.6140     2.3380   -21.1120 
  224.1250    93.9640    20.6950    19.7540    24.3110    24.3480   348.2260     2.3440   -21.2050 
  224.2500    96.7840    20.1330    19.2570    23.2870    24.3480   369.4780     2.3310   -21.2460 
  224.3750    95.5330    20.0010    19.0730    23.2100    24.3480   381.4010     2.3060   -21.2370 
  224.5000    93.9550    20.3120    19.2770    23.7470    24.3480   384.6930     2.2830   -21.2650 
  224.6250    98.6920    20.9490    19.8530    24.5210    24.3480   384.9720     2.2720   -21.2920 
  224.7500   103.6250    21.5940    20.5520    24.5290    24.3480   385.4600     2.2680   -21.2740 
  224.8750   101.9070    21.9650    21.1230    24.4260    24.3480   387.3990     2.2700   -21.2740 
  225.0000    94.5610    21.8110    21.2970    24.6150    24.3480   389.5560     2.2720   -21.2950 
  225.1250    89.1360    20.9080    20.7790    24.5430    24.3480   389.5170     2.2730   -21.2910 
  225.2500    88.5440    19.4970    19.7000    23.7170    24.3480   386.7200     2.2750   -21.2830 
  225.3750    90.8030    17.8670    18.2810    20.9680    24.3480   380.5340     2.2770   -21.3300 
  225.5000    91.8100    16.3210    16.8090    16.9380    24.3480   365.3710     2.2840   -21.3740 
  225.6250    89.2590    15.1160    15.5570    13.9520    24.3460   337.4940     2.2960   -21.3650 
  225.7500    86.3260    14.2340    14.5800    12.6970    24.3130   305.9070     2.3140   -21.4080 
  225.8750    85.4740    13.5960    13.8390    12.3320    24.1990   297.9900     2.3320   -21.5010 
  226.0000    85.7910    13.1070    13.2580    12.2390    23.9850   320.1070     2.3430   -21.5760 
  226.1250    86.7940    12.7520    12.8030    12.4910    23.8690   354.6180     2.3390   -21.6400 
  226.2500    89.4200    12.5960    12.4970    12.9580    23.9410   379.4290     2.3240   -21.7620 
  226.3750    93.7270    12.8030    12.4730    13.5900    24.2020   384.8420     2.3060   -21.8980 
  226.5000    97.7090    13.5430    12.9320    14.5590    24.4090   381.5310     2.2930   -22.0030 
  226.6250    97.0230    15.3060    14.3100    16.6100    24.4790   375.2770     2.2880   -22.1100 
  226.7500    91.7860    18.2680    16.8610    20.3700    24.4810   369.4410     2.2850   -22.2470 
  226.8750    86.0110    22.8870    20.9520    26.3370    24.4810   371.2940     2.2790   -22.3620 
  227.0000    83.8090    29.1780    26.8190    34.3770    24.4810   379.4760     2.2690   -22.4490 
  227.1250    83.7750    37.3740    34.4830    43.6020    24.4790   387.3390     2.2580   -22.5660 
  227.2500    79.7700    45.7100    42.6610    53.8160    24.4790   390.8360     2.2500   -22.6840 
  227.3750    72.3420    52.2190    49.8330    64.1230    24.4800   391.3320     2.2430   -22.7600 
  227.5000    67.9800    55.6740    54.3770    72.8300    24.4810   392.1730     2.2370   -22.8270 
  227.6250    70.6600    54.6640    54.6310    77.0260    24.4540   392.5480     2.2330   -22.9400 
  227.7500    75.4590    50.6990    51.6400    69.9820    24.3900   391.1020     2.2330   -23.0320 
  227.8750    79.1530    45.6850    46.9340    55.7130    24.3190   388.2760     2.2410   -23.1000 
  228.0000    82.7030    41.4000    42.3110    44.8200    24.2850   385.9660     2.2530   -23.1750 
  228.1250    84.4620    39.2710    39.4890    40.0910    24.2770   385.6810     2.2630   -23.2300 
  228.2500    83.6210    39.1720    38.7620    38.8430    24.2730   387.5810     2.2650   -23.2450 
  228.3750    81.7810    40.7940    39.9640    41.5940    24.2690   387.9180     2.2590   -23.2240 
  228.5000    80.4350    43.6900    42.5880    46.6070    24.2680   383.8080     2.2500   -23.2180 
  228.6250    78.9490    47.3230    46.0600    51.2780    24.2610   377.2110     2.2440   -23.2070 
  228.7500    78.5430    51.4890    49.7830    54.3450    24.2380   374.2440     2.2430   -23.1810 
  228.8750    80.0360    56.3060    53.7410    55.5920    24.1960   379.0780     2.2470   -23.1460 
  229.0000    80.7390    62.1580    58.2960    55.0690    24.1490   385.6920     2.2500   -23.1440 
  229.1250    80.8140    69.7190    64.1820    57.5570    24.1170   389.1000     2.2500   -23.1840 
  229.2500    81.4230    77.4650    71.3230    67.2500    24.1160   388.3190     2.2450   -23.2330 
  229.3750    79.5200    85.9430    79.1410    84.2640    24.1710   386.3970     2.2380   -23.2960 
  229.5000    73.9730    93.8930    86.5860   103.4500    24.2370   385.4870     2.2300   -23.3890 
  229.6250    70.0710    99.5750    92.2030   115.2680    24.2520   385.3520     2.2270   -23.4920 
  229.7500    69.8260   102.6250    95.6210   113.6750    24.2350   385.8630     2.2280   -23.5560 
  229.8750    69.3980   103.1870    96.8880   103.5270    24.2210   386.6880     2.2320   -23.6430 
