~V
VERS. 2.00: Ver 2.00
~W
STRT.M 100.0000:
STOP.M 292.0000:
STEP.M 0.1250:
NULL. -999.2500:
UWI. DF310:
~C
DEPT.M :
AC.US/MT :
DEN.GM/CC :
GR.API :
CALI.CM :
RXO.OHMM :
RI. :
RML.OHMM :
SP.MV :
~A
# ...
  270.0000   373.7450     2.3930    47.3640    22.6440     6.2450     5.4210     6.5570   -13.0780 
  270.1250   371.8700     2.4010    47.9640    22.6430     6.4060     5.4660     6.6120   -13.0980 
  270.2500   374.2450     2.4050    49.1830    22.6400     6.3590     5.5360     6.6790   -13.1390 
  270.3750   376.9740     2.4060    50.6510    22.6400     6.2930     5.6150     6.7790   -13.1990 
  270.5000   378.9820     2.4140    51.8780    22.6460     6.2790     5.6920     6.9110   -13.2460 
  270.6250   379.8450     2.4300    52.0420    22.6640     6.2650     5.7630     7.0540   -13.2930 
  270.7500   378.2520     2.4440    51.9740    22.6890     6.3940     5.8400     7.1760   -13.3710 
  270.8750   373.9870     2.4480    52.4620    22.7150     6.7260     5.9330     7.2810   -13.4440 
  271.0000   367.9710     2.4430    52.0170    22.7340     7.1370     6.0390     7.3960   -13.5080 
  271.1250   362.0370     2.4350    50.4050    22.7440     7.3630     6.1410     7.5390   -13.5770 
  271.2500   358.0170     2.4280    49.6220    22.7470     7.4840     6.2140     7.6640   -13.6270 
  271.3750   355.7740     2.4210    49.1810    22.7440     7.5120     6.2510     7.7190   -13.6410 
  271.5000   354.7810     2.4150    46.9250    22.7470     7.4420     6.2560     7.6950   -13.6580 
  271.6250   354.7630     2.4090    44.7750    22.7520     7.3660     6.2460     7.6170   -13.6790 
  271.7500   355.8570     2.4040    46.7730    22.7620     7.3890     6.2420     7.5390   -13.6700 
  271.8750   357.5860     2.4070    49.8380    22.7760     7.4130     6.2520     7.4910   -13.6560 
  272.0000   359.3940     2.4180    50.3190    22.7830     7.2880     6.2740     7.4790   -13.6490 
  272.1250   360.8480     2.4260    48.4580    22.7800     7.1330     6.2980     7.4900   -13.6370 
  272.2500   361.5100     2.4270    48.3130    22.7700     7.0530     6.3150     7.5110   -13.6150 
  272.3750   361.0260     2.4230    50.6340    22.7580     7.0580     6.3300     7.5400   -13.6230 
  272.5000   359.0080     2.4180    52.2520    22.7520     7.1580     6.3540     7.5880   -13.6550 
  272.6250   355.5530     2.4140    50.9000    22.7530     7.3460     6.4090     7.6720   -13.6690 
  272.7500   351.5100     2.4140    47.9810    22.7600     7.5180     6.4990     7.7870   -13.7010 
  272.8750   348.2910     2.4210    47.1130    22.7730     7.6650     6.6150     7.9000   -13.7750 
  273.0000   346.8600     2.4310    48.0610    22.7810     7.8900     6.7370     7.9660   -13.8350 
  273.1250   347.5420     2.4350    48.3370    22.7830     8.0660     6.8420     7.9520   -13.8850 
  273.2500   349.5330     2.4280    47.5610    22.7820     8.0890     6.9190     7.8980   -13.9570 
  273.3750   350.6110     2.4150    46.3160    22.7810     7.9040     6.9720     7.8700   -14.0090 
  273.5000   349.5120     2.4110    46.4590    22.7740     7.6250     7.0090     7.9200   -14.0270 
  273.6250   346.7700     2.4190    48.3920    22.7460     7.5340     7.0350     8.0280   -14.0640 
  273.7500   345.0180     2.4310    50.5760    22.6900     7.7360     7.0430     8.0950   -14.0850 
  273.8750   346.1260     2.4340    52.0940    22.6420     7.9940     7.0250     8.0780   -14.0700 
  274.0000   349.7650     2.4260    52.0100    22.6220     8.0830     6.9840     8.0100   -14.0510 
  274.1250   354.0460     2.4230    50.0160    22.6190     7.9440     6.9280     7.9950   -14.0280 
  274.2500   356.5110     2.4260    47.9620    22.6090     7.7970     6.8740     8.0900   -13.9930 
  274.3750   356.5940     2.4320    47.0890    22.5880     7.6980     6.8270     8.2620   -13.9550 
  274.5000   354.8240     2.4370    47.0300    22.5440     7.7310     6.7850     8.4190   -13.9480 
  274.6250   352.2670     2.4470    46.4050    22.4780     7.9640     6.7520     8.4430   -13.9260 
  274.7500   350.1370     2.4570    45.9850    22.3950     8.1770     6.7340     8.3030   -13.9200 
  274.8750   349.0370     2.4610    45.6060    22.2710     8.1280     6.7330     8.0450   -13.9350 
  275.0000   349.0180     2.4560    44.5610    22.1190     7.8340     6.7430     7.7920   -13.9660 
  275.1250   349.6960     2.4460    43.6660    22.0590     7.5530     6.7500     7.7550   -14.0190 
  275.2500   350.4010     2.4310    44.5590    22.1050     7.4180     6.7460     7.9480   -14.0610 
  275.3750   350.8890     2.4130    46.1170    22.2280     7.4300     6.7230     8.2300   -14.0940 
  275.5000   351.6420     2.4020    47.2610    22.3740     7.6140     6.6780     8.4080   -14.1090 
  275.6250   353.0970     2.3990    47.2640    22.4330     7.7700     6.6150     8.2970   -14.1340 
  275.7500   354.6500     2.4000    46.6880    22.4420     7.8630     6.5500     8.0020   -14.1520 
  275.8750   355.2380     2.4050    46.8010    22.4410     7.8720     6.4980     7.7420   -14.1600 
  276.0000   355.1450     2.4220    46.5240    22.4440     7.8530     6.4640     7.6930   -14.1550 
  276.1250   355.6300     2.4500    45.7270    22.4470     7.9650     6.4470     7.8690   -14.1230 
  276.2500   356.9320     2.4710    46.0550    22.4450     7.9710     6.4350     8.0710   -14.0910 
  276.3750   356.9930     2.4770    47.1520    22.4430     7.9830     6.4300     8.2140   -14.0680 
  276.5000   354.7370     2.4680    46.3700    22.4360     8.2380     6.4340     8.3290   -14.0360 
  276.6250   351.5880     2.4580    43.4530    22.4120     8.8600     6.4470     8.4700   -13.9770 
  276.7500   350.4300     2.4550    42.7420    22.3790     9.0600     6.4720     8.6250   -13.8960 
  276.8750   350.9440     2.4570    44.5820    22.3640     8.6450     6.5070     8.7310   -13.8030 
  277.0000   351.0660     2.4600    46.3310    22.3650     8.0170     6.5410     8.6690   -13.7040 
  277.1250   349.7090     2.4600    45.9970    22.3650     7.7410     6.5410     8.3950   -13.6090 
  277.2500   347.8140     2.4510    45.2520    22.3430     7.6900     6.4810     8.0270   -13.4990 
  277.3750   346.6890     2.4320    46.3900    22.2920     7.5970     6.3470     7.6080   -13.3420 
  277.5000   347.0810     2.4070    48.3500    22.2540     7.3770     6.1410     7.1290   -13.1580 
  277.6250   350.8420     2.3850    49.0580    22.2440     7.1050     5.8820     6.6200   -12.9410 
  277.7500   361.3950     2.3720    47.9440    22.2800     6.5790     5.6130     6.1700   -12.7060 
  277.8750   376.3320     2.3690    47.5140    22.3930     5.8770     5.3620     5.8190   -12.4500 
  278.0000   390.1930     2.3760    48.1610    22.5790     5.3130     5.1520     5.5450   -12.1700 
  278.1250   397.9130     2.3830    47.8720    22.6760     5.0990     5.0080     5.3140   -11.8660 
  278.2500   397.9290     2.3870    45.6300    22.7050     5.0800     4.9240     5.0800   -11.5780 
  278.3750   394.8300     2.3870    43.4450    22.7050     5.1580     4.8910     4.8590   -11.3570 
  278.5000   391.4330     2.3830    42.7520    22.7060     5.3130     4.8960     4.7280   -11.1780 
  278.6250   389.0760     2.3820    43.1550    22.7080     5.5580     4.9280     4.7750   -11.0410 
  278.7500   388.7320     2.3860    43.6870    22.7080     5.7050     4.9610     4.9430   -10.9310 
  278.8750   390.3700     2.3940    44.0410    22.7080     5.6150     4.9790     5.1910   -10.8470 
  279.0000   393.1940     2.4030    44.0950    22.7070     5.3690     4.9750     5.4880   -10.8030 
  279.1250   395.1190     2.4100    43.9160    22.7060     5.1910     4.9670     5.7780   -10.7950 
  279.2500   392.5600     2.4140    44.0260    22.7030     5.3680     4.9920     6.0160   -10.8030 
  279.3750   384.9210     2.4190    44.6060    22.7020     5.9570     5.0750     6.1860   -10.7950 
  279.5000   373.9380     2.4260    45.2150    22.7020     6.6800     5.2210     6.2940   -10.7910 
  279.6250   362.9310     2.4310    45.3210    22.7040     7.0410     5.4220     6.3810   -10.7950 
  279.7500   355.3030     2.4280    44.5810    22.7050     7.1170     5.6370     6.5400   -10.8090 
  279.8750   351.1720     2.4160    45.2010    22.7050     7.1610     5.8220     6.7920   -10.8230 
