~V
VERS. 2.00: Ver 2.00
~W
STRT.M 60.0000:
STOP.M 247.0000:
STEP.M 0.1250:
NULL. -999.2500:
UWI. DF315:
~C
DEPT.M :
DEN.GM/CC :
AC.US/MT :
GR.API :
RML.OHMM :
RI. :
RXO.OHMM :
CALI.CM :
SP.MV :
~A
# ...
  200.0000     2.3890   389.1180   124.0330     8.1770     7.5190     8.2810    24.7380    -9.5950 
  200.1250     2.3960   389.5160   131.6430     8.4180     7.7000     8.4570    24.7380    -9.7640 
  200.2500     2.4030   386.3690   132.6670     8.8990     8.0400     8.8730    24.7380    -9.9330 
  200.3750     2.4070   378.9720   129.7640     9.6550     8.5480     9.7490    24.7380   -10.0800 
  200.5000     2.4050   369.8130   126.7450    10.6340     9.1930    10.9350    24.7380   -10.2110 
  200.6250     2.3950   364.3800   122.6190    11.5190     9.9150    12.1370    24.7380   -10.3760 
  200.7500     2.3800   364.9090   119.1130    12.3220    10.6210    13.0010    24.7380   -10.5590 
  200.8750     2.3630   370.1360   118.5020    12.9710    11.2590    13.5030    24.7360   -10.7190 
  201.0000     2.3510   375.8140   119.3550    13.4470    11.8160    13.9530    24.7340   -10.8280 
  201.1250     2.3450   378.2160   118.9850    13.7850    12.3050    14.5720    24.7310   -10.9180 
  201.2500     2.3430   378.0350   117.3620    14.0960    12.7650    15.4770    24.7350   -10.9950 
  201.3750     2.3430   377.0540   115.3900    14.4490    13.2030    16.1960    24.7370   -11.0690 
  201.5000     2.3410   376.5910   112.8270    14.8580    13.6070    16.5280    24.7380   -11.1390 
  201.6250     2.3370   377.3260   110.3090    15.2800    13.9600    16.8380    24.7380   -11.1860 
  201.7500     2.3330   378.9420   109.1630    15.6660    14.2970    17.2500    24.7360   -11.2460 
  201.8750     2.3320   380.6260   108.2450    16.0490    14.7000    17.8600    24.7300   -11.3330 
  202.0000     2.3340   381.4030   106.8750    16.5830    15.3080    18.6560    24.7150   -11.4500 
  202.1250     2.3370   380.9770   105.1740    17.7200    16.4120    19.4200    24.7060   -11.5920 
  202.2500     2.3370   379.9320   102.4680    19.7860    18.1790    20.8390    24.7040   -11.7610 
  202.3750     2.3290   378.9390    97.8620    22.9520    20.7410    23.7760    24.7030   -11.9540 
  202.5000     2.3110   378.5950    91.2930    27.0030    24.0300    28.8600    24.7010   -12.1700 
  202.6250     2.2880   379.0150    86.2380    31.1270    27.6390    35.6100    24.7040   -12.4070 
  202.7500     2.2700   378.1520    84.5330    34.1560    30.7330    41.9780    24.7030   -12.6460 
  202.8750     2.2630   374.4520    84.5420    35.2690    32.5600    45.2660    24.6760   -12.8770 
  203.0000     2.2680   369.0710    85.0930    34.3160    32.6750    41.8460    24.6330   -13.0800 
  203.1250     2.2800   364.0970    86.6790    31.8260    31.0730    33.6660    24.6110   -13.2610 
  203.2500     2.2910   361.8620    88.6200    29.0730    28.8250    29.7350    24.6060   -13.4340 
  203.3750     2.2980   365.3590    88.6250    26.8020    26.7140    28.1010    24.6060   -13.5920 
  203.5000     2.3020   372.9390    88.6050    25.4060    25.3490    27.0840    24.6060   -13.7450 
  203.6250     2.3080   375.9920    89.9210    25.7750    25.5250    26.2730    24.6060   -13.9370 
  203.7500     2.3140   370.5300    91.3340    28.3250    27.7050    26.5500    24.6060   -14.1750 
  203.8750     2.3170   360.4920    90.1410    34.3180    32.7250    30.3100    24.6060   -14.4450 
  204.0000     2.3100   353.0860    83.6380    45.1050    41.5560    40.9880    24.6160   -14.7280 
  204.1250     2.2890   355.0190    73.0840    61.4630    55.5710    61.4250    24.6500   -15.0040 
  204.2500     2.2610   367.2700    64.6410    81.9020    73.1470    87.8320    24.7000   -15.2890 
  204.3750     2.2340   384.3830    63.1740   102.7860    91.6380   113.3280    24.7300   -15.5930 
  204.5000     2.2160   396.6350    65.9470   118.9640   107.1490   126.2530    24.7380   -15.9000 
  204.6250     2.2100   395.7230    67.0730   124.3460   114.5910   121.6670    24.7360   -16.1450 
  204.7500     2.2100   385.3870    68.4310   121.1010   114.4140   112.2240    24.7250   -16.3180 
  204.8750     2.2140   366.1690    70.2140   113.8800   109.3720   102.5110    24.6980   -16.4540 
  205.0000     2.2180   338.8700    71.3870   106.9790   103.0730    94.4950    24.6790   -16.6140 
  205.1250     2.2210   312.2230    71.1800   102.6350    98.2360    90.2310    24.6710   -16.8090 
  205.2500     2.2260   296.5040    70.5570   100.2160    95.1880    89.1330    24.6630   -16.9800 
  205.3750     2.2340   291.0320    68.3190    98.6700    93.3540    90.1460    24.6330   -17.0870 
  205.5000     2.2480   288.3830    64.7640    96.8350    91.8310    92.1010    24.5530   -17.1390 
  205.6250     2.2700   287.3780    64.3580    93.5750    89.6920    93.5430    24.3850   -17.2150 
  205.7500     2.2970   293.6030    67.1950    89.0140    86.8000    95.0060    24.2270   -17.3340 
  205.8750     2.3230   305.9460    69.9970    84.1860    83.5950    91.8440    24.1630   -17.4670 
  206.0000     2.3390   316.5640    72.2000    80.3220    80.9500    80.4340    24.1550   -17.5540 
  206.1250     2.3330   318.3530    72.8600    79.9160    80.2360    74.0120    24.1590   -17.5930 
  206.2500     2.3080   318.3340    71.5540    82.9930    81.9360    74.8410    24.1850   -17.6540 
  206.3750     2.2720   324.9510    69.2290    90.0030    86.2580    76.0970    24.2460   -17.7790 
  206.5000     2.2370   341.7070    67.6750   100.3770    92.9400    79.6530    24.2910   -17.9380 
  206.6250     2.2120   363.8010    66.3850   110.0040   101.1830    85.9080    24.3070   -18.0590 
  206.7500     2.1980   381.1050    65.5140   118.7750   108.9810    94.5830    24.3240   -18.1300 
  206.8750     2.1920   390.4390    65.8470   124.3930   114.2810   102.9440    24.4010   -18.1980 
  207.0000     2.1910   394.6290    68.0050   125.2910   115.5250   109.8820    24.5630   -18.3230 
  207.1250     2.1940   396.4150    71.8880   120.8610   112.3530   110.8770    24.7680   -18.4870 
  207.2500     2.1990   395.8170    76.1670   113.9750   105.5130   104.8220    24.8630   -18.6310 
  207.3750     2.2050   393.5200    77.4600   107.1360    99.4110    91.9150    24.8870   -18.7470 
  207.5000     2.2110   391.7270    72.5460   102.1900    94.7930    79.4960    24.8880   -18.8480 
  207.6250     2.2170   391.4240    64.9700   100.1400    92.6890    76.8650    24.8930   -18.9380 
  207.7500     2.2230   391.0710    61.6070    99.9380    92.3160    80.1950    24.9190   -19.0700 
  207.8750     2.2280   388.0040    62.6640   100.5410    92.8430    82.9090    24.9730   -19.2310 
  208.0000     2.2320   380.7050    64.8900   101.0270    93.4940    81.1980    25.0120   -19.3790 
  208.1250     2.2330   372.3290    65.5170   100.9950    93.8910    78.0390    25.0270   -19.5040 
  208.2500     2.2320   369.4400    66.9020   101.1840    94.5280    76.5590    25.0290   -19.6010 
  208.3750     2.2280   374.5250    69.3970   102.8250    96.3820    77.6680    25.0290   -19.6810 
  208.5000     2.2230   383.9480    72.0360   107.1780   100.5110    80.1720    25.0290   -19.8000 
  208.6250     2.2160   390.0390    74.5910   115.5610   108.0830    83.6140    25.0290   -19.9950 
  208.7500     2.2070   390.6400    75.7130   127.0820   118.4160    93.6200    25.0290   -20.1510 
  208.8750     2.1980   388.4790    75.5050   140.6450   130.6500   109.1100    25.0290   -20.2420 
  209.0000     2.1920   386.9050    74.2860   154.7850   143.5820   125.4120    25.0290   -20.3310 
  209.1250     2.1900   386.9400    70.1930   167.9360   155.8180   131.5800    25.0290   -20.4510 
  209.2500     2.1930   387.7090    64.6680   179.7390   166.8030   127.1160    25.0290   -20.5570 
  209.3750     2.1990   388.9480    62.7310   190.6490   176.7340   126.3430    25.0290   -20.6530 
  209.5000     2.2050   390.3540    66.4830   201.2920   186.1270   140.4250    25.0250   -20.7400 
  209.6250     2.2110   390.9780    68.0270   211.3810   194.9150   166.2170    25.0030   -20.7900 
  209.7500     2.2150   389.4480    63.7090   219.5590   202.1920   177.2320    24.9590   -20.8220 
  209.8750     2.2190   385.3050    58.7990   224.2570   206.6790   177.1050    24.9210   -20.8360 
