~V
VERS. 2.00: Ver 2.00
~W
STRT.M 60.0000:
STOP.M 248.0000:
STEP.M 0.1250:
NULL. -999.2500:
UWI. DF313:
~C
DEPT.M :
DEN.GM/CC :
SP.MV :
AC.US/MT :
GR.API :
CALI.CM :
RXO.OHMM :
RI. :
RML.OHMM :
~A
# ...
  110.0000     2.6880   -10.9330   276.5350    63.0810    25.0900    43.6450    23.2030    29.6260 
  110.1250     2.6760   -11.5590   271.6970    62.2070    25.0120    69.3330    27.1470    34.9960 
  110.2500     2.6060   -12.1890   283.8670    65.2600    24.9420    89.4640    30.4030    38.5250 
  110.3750     2.5070   -12.7790   309.9840    69.6330    24.8710    78.8300    30.2840    36.7200 
  110.5000     2.4100   -13.2740   344.5900    74.7000    24.8000    47.9270    26.1370    29.8940 
  110.6250     2.3460   -13.6640   379.0680    78.8530    24.7480    24.4250    20.0010    21.7330 
  110.7500     2.3230   -13.9490   408.2400    80.0060    24.7300    15.5030    14.6600    15.5640 
  110.8750     2.3340   -14.1610   429.0820    80.7850    24.7010    11.6550    10.9110    11.5290 
  111.0000     2.3580   -14.3000   439.4820    83.2540    24.6490     9.3240     8.5040     9.0710 
  111.1250     2.3720   -14.3720   442.4560    87.0120    24.5980     7.3940     7.0270     7.6510 
  111.2500     2.3740   -14.3620   440.3610    90.8830    24.5820     6.2720     6.2580     6.9810 
  111.3750     2.3740   -14.3080   435.7330    94.0240    24.6100     6.0910     5.8990     6.7310 
  111.5000     2.3780   -14.2210   430.8540    96.4320    24.6690     6.5960     5.8550     6.8200 
  111.6250     2.3660   -14.0850   426.8810    97.8840    24.7260     7.4100     6.0780     7.2190 
  111.7500     2.3370   -13.8870   423.5890    96.9050    24.7450     8.2880     6.5710     7.9360 
  111.8750     2.3120   -13.6610   420.0690    92.5870    24.7380     9.2680     7.2430     8.8640 
  112.0000     2.3190   -13.4720   415.3360    87.1590    24.7370    10.4580     8.0300     9.9260 
  112.1250     2.3650   -13.3530   409.9510    83.3430    24.7570    11.6530     8.8350    11.0090 
  112.2500     2.4080   -13.2890   405.4110    81.7870    24.7810    12.3860     9.4830    11.8800 
  112.3750     2.4220   -13.2550   403.5210    81.8300    24.8100    12.7200     9.8460    12.3710 
  112.5000     2.3960   -13.2630   406.0140    85.8320    24.8480    12.7760     9.8690    12.4080 
  112.6250     2.3500   -13.2980   411.6830    90.3890    24.8830    12.3630     9.5910    12.0500 
  112.7500     2.3140   -13.3180   418.8380    88.8950    24.9220    11.5020     9.1190    11.4730 
  112.8750     2.2980   -13.3160   425.6260    85.7980    24.9900    10.8520     8.6500    10.9550 
  113.0000     2.3000   -13.2740   430.5350    87.8700    25.0650    10.6110     8.3040    10.6580 
  113.1250     2.3030   -13.1580   433.8520    93.5230    25.0910    10.5360     8.1570    10.6760 
  113.2500     2.2980   -12.9560   436.3300    92.9660    25.0410    10.7220     8.2950    11.1290 
  113.3750     2.2860   -12.6850   438.6770    87.1480    24.9650    11.3850     8.6780    11.9290 
  113.5000     2.2730   -12.3310   440.8380    81.7770    24.8830    12.3540     9.2400    12.9450 
  113.6250     2.2620   -11.9320   441.8050    78.3030    24.8210    13.2740     9.8490    13.9360 
  113.7500     2.2620   -11.5640   440.3660    76.0300    24.8160    13.7880    10.2910    14.5320 
  113.8750     2.2780   -11.2240   435.9640    75.1570    24.8580    13.6560    10.4690    14.6490 
  114.0000     2.3100   -10.8930   429.3630    75.5910    24.9030    12.8620    10.4020    14.3930 
  114.1250     2.3440   -10.5840   423.4800    77.3080    24.9320    12.0250    10.1650    13.9430 
  114.2500     2.3610   -10.3260   420.7260    79.6430    24.9710    12.3800     9.7790    13.3560 
  114.3750     2.3590   -10.1260   422.2220    81.7460    25.0030    13.6350     9.2630    12.6080 
  114.5000     2.3380    -9.9900   427.1390    84.7290    24.9770    14.0120     8.6260    11.6760 
  114.6250     2.3030    -9.9190   431.7060    88.0030    24.8970    12.2040     7.9230    10.6340 
  114.7500     2.2710    -9.9170   432.9960    88.1410    24.8470     9.4090     7.2820     9.7240 
  114.8750     2.2630    -9.9460   429.6550    85.2330    24.8580     8.0140     6.8290     9.1700 
  115.0000     2.2920    -9.9930   422.5200    83.0930    24.8810     8.1930     6.6370     9.0810 
  115.1250     2.3540   -10.0650   415.6880    83.9310    24.8780     9.0270     6.7290     9.4440 
  115.2500     2.4060   -10.1370   412.4450    84.4350    24.8950     9.9830     7.0980    10.1500 
  115.3750     2.4160   -10.1810   414.5570    83.3780    24.9360    11.0910     7.5750    10.8760 
  115.5000     2.3790   -10.2020   421.8140    81.5160    24.9490    11.9520     8.0000    11.3670 
  115.6250     2.3180   -10.1870   430.1220    79.9720    24.9150    11.9360     8.2660    11.5280 
  115.7500     2.2690   -10.0760   435.9840    78.3470    24.8740    11.0790     8.3730    11.4720 
  115.8750     2.2410    -9.9030   437.0250    75.8920    24.8500    10.4480     8.4510    11.4590 
  116.0000     2.2340    -9.7170   432.4410    73.9280    24.8210    10.5730     8.5800    11.6110 
  116.1250     2.2530    -9.5470   425.6730    73.4590    24.8050    11.2990     8.7720    11.9110 
  116.2500     2.2890    -9.3890   420.1670    75.9310    24.8680    12.0200     8.8990    12.1120 
  116.3750     2.3280    -9.2480   418.8560    78.6910    24.9650    12.2630     8.7670    11.8820 
  116.5000     2.3550    -9.1100   423.7700    81.0100    25.0170    11.7430     8.2670    11.0640 
  116.6250     2.3660    -8.9850   432.5470    86.0000    24.9810    10.1980     7.4640     9.7810 
  116.7500     2.3670    -8.8800   442.4030    92.5140    24.9290     7.9700     6.5710     8.4080 
  116.8750     2.3600    -8.7810   450.5110    95.0350    24.9560     6.2340     5.8230     7.3290 
  117.0000     2.3440    -8.6680   454.3900    93.7690    25.0340     5.5020     5.3190     6.6940 
  117.1250     2.3200    -8.5220   454.6110    94.1910    25.0940     5.5360     5.0730     6.4990 
  117.2500     2.3000    -8.3630   452.3400    96.0330    25.1020     5.9160     5.0780     6.6770 
  117.3750     2.2960    -8.2170   449.0470    93.3250    25.0920     6.2780     5.2130     6.9910 
  117.5000     2.3050    -8.0890   446.0430    88.5850    25.0860     6.4330     5.3900     7.2780 
  117.6250     2.3220    -7.9730   443.8490    87.1750    25.0890     6.3470     5.5340     7.4410 
  117.7500     2.3370    -7.8860   442.4880    88.4650    25.0900     6.1810     5.6030     7.4660 
  117.8750     2.3450    -7.8230   441.8600    88.5700    25.0810     6.1080     5.6290     7.4490 
  118.0000     2.3430    -7.7610   442.1070    87.6200    25.0570     6.1630     5.6450     7.4470 
  118.1250     2.3360    -7.6740   443.2410    86.3920    25.0240     6.3110     5.6690     7.4800 
  118.2500     2.3270    -7.5730   445.2590    85.1900    24.9910     6.4460     5.6880     7.5010 
  118.3750     2.3180    -7.4660   447.8160    84.7010    24.9690     6.5030     5.6620     7.4230 
  118.5000     2.3120    -7.3640   450.0180    83.2320    24.9540     6.5070     5.5650     7.2110 
  118.6250     2.3070    -7.2770   450.9720    80.5740    24.9440     6.4860     5.4180     6.9320 
  118.7500     2.2950    -7.2210   450.2400    83.9440    24.9530     6.4730     5.3310     6.8410 
  118.8750     2.2760    -7.1890   448.0220    92.8420    24.9900     6.7030     5.4380     7.1950 
  119.0000     2.2530    -7.1840   445.1540    96.4140    25.0400     7.6250     5.8440     8.1540 
  119.1250     2.2320    -7.2160   442.8050    88.6230    25.0810     9.8110     6.5850     9.7010 
  119.2500     2.2170    -7.2590   441.4970    79.4580    25.0670    13.5380     7.5670    11.4890 
  119.3750     2.2140    -7.2800   441.1330    78.0440    24.9880    16.4680     8.3750    12.6780 
  119.5000     2.2190    -7.2880   441.1250    79.9020    24.8780    16.0360     8.6230    12.6320 
  119.6250     2.2160    -7.2900   440.8560    81.1570    24.8110    12.5350     8.2790    11.5350 
  119.7500     2.1990    -7.2480   440.3340    82.6690    24.8450     9.4490     7.8000    10.5040 
  119.8750     2.1730    -7.1980   440.0330    82.5660    24.9050     8.8360     7.7350    10.5050 
