~V
VERS. 2.00: Ver 2.00
~W
STRT.M 56.0000:
STOP.M 209.0000:
STEP.M 0.1250:
NULL. -999.2500:
UWI. DF316:
~C
DEPT.M :
GR.API :
CALI.CM :
RXO.OHMM :
RI. :
RML.OHMM :
SP.MV :
DEN.GM/CC :
AC.US/MT :
~A
# ...
  156.0000    82.8200    23.2990     7.1170     6.3260     7.2750   -13.5770     2.3910   394.1600 
  156.1250    79.6870    23.0350     7.5480     6.5460     7.5270   -13.5800     2.4100   389.5690 
  156.2500    76.8030    22.8410     7.8010     6.8080     7.8300   -13.5900     2.4350   385.7350 
  156.3750    75.9090    22.5230     7.5440     7.3210     8.4190   -13.6180     2.4550   382.4730 
  156.5000    75.1260    22.3480     7.4650     7.9720     9.1670   -13.6560     2.4620   377.3950 
  156.6250    73.8440    22.2190     7.8390     8.6450     9.9410   -13.6960     2.4500   369.9280 
  156.7500    73.4770    22.1740     8.5400     9.2350    10.6200   -13.7520     2.4240   363.1960 
  156.8750    74.7610    22.1150     8.8580     9.4420    10.8580   -13.7930     2.3930   364.8450 
  157.0000    75.8010    22.4170     8.6100     9.3660    10.7710   -13.8330     2.3680   372.5150 
  157.1250    75.0280    22.7550     8.2840     9.1880    10.5660   -13.8760     2.3580   380.0510 
  157.2500    71.8660    22.8190     7.8920     8.8800    10.2120   -13.9140     2.3560   382.7770 
  157.3750    70.2120    22.8150     7.5240     8.5250     9.8030   -13.9200     2.3530   383.4560 
  157.5000    70.0300    22.7500     7.4140     8.1670     9.3920   -13.9010     2.3440   385.2480 
  157.6250    70.6580    22.7910     7.5950     7.9430     9.1340   -13.8470     2.3350   386.9140 
  157.7500    71.2380    22.8140     7.6630     7.8740     9.0550   -13.7520     2.3320   388.1190 
  157.8750    71.7710    22.7990     7.4450     7.9550     9.1480   -13.6330     2.3330   390.4660 
  158.0000    73.2260    22.6730     7.2940     8.1310     9.3500   -13.5020     2.3400   394.0600 
  158.1250    73.4580    22.6100     7.5690     8.3300     9.5790   -13.3390     2.3630   391.2500 
  158.2500    71.7280    22.6110     8.4670     8.7020    10.0080   -13.1540     2.3990   374.4050 
  158.3750    71.4020    22.5730    10.1790     9.3520    10.7550   -12.9440     2.4270   350.1270 
  158.5000    74.1890    22.5040    10.1250    10.1430    11.6640   -12.7250     2.4300   340.0950 
  158.6250    77.2840    22.4820     8.5270    10.8930    12.5270   -12.5060     2.4020   352.0810 
  158.7500    76.0220    22.3920     8.0290    11.4610    13.1800   -12.2910     2.3660   372.7560 
  158.8750    71.5710    22.3710     9.2060    11.7860    13.5540   -12.0890     2.3420   379.1110 
  159.0000    68.5350    22.3510    10.1030    11.8770    13.6590   -11.8920     2.3430   369.3610 
  159.1250    69.0240    22.2530    10.0310    11.6110    13.3530   -11.7210     2.3640   355.6370 
  159.2500    72.3020    22.2000     9.4580    11.1660    12.8410   -11.5660     2.3800   351.3160 
  159.3750    75.9180    22.1910     8.0960    10.6880    12.2910   -11.4410     2.3800   364.6690 
  159.5000    77.7600    22.2020     6.8030    10.3170    11.8650   -11.3330     2.3720   385.0410 
  159.6250    75.9140    22.2000     6.5090    10.1550    11.6780   -11.2440     2.3690   397.9930 
  159.7500    71.2920    22.2000     7.2270    10.0470    11.5540   -11.1680     2.3680   396.5340 
  159.8750    69.6320    22.2000     8.2680     9.8110    11.2830   -11.1010     2.3660   387.8230 
  160.0000    72.4320    22.2000     9.4860     9.4840    10.9070   -11.0490     2.3630   384.5740 
  160.1250    75.4480    22.2050     9.4560     9.1130    10.4800   -11.0130     2.3700   387.8550 
  160.2500    76.3010    22.2950     7.8390     8.6570     9.9560   -11.0020     2.3850   392.9980 
  160.3750    78.2940    22.4920     6.6020     8.0960     9.3100   -11.0240     2.3940   394.2550 
  160.5000    81.4780    22.7930     6.4540     7.8480     9.0250   -11.0600     2.3870   391.8240 
  160.6250    81.3410    23.0460     6.6220     7.9910     9.1900   -11.1200     2.3700   389.4040 
  160.7500    77.6450    23.1060     7.0460     8.5880     9.8760   -11.2070     2.3590   387.6080 
  160.8750    72.5520    23.1090     8.4550     9.8530    11.3310   -11.3200     2.3590   382.3540 
  161.0000    67.7090    23.0520    10.5250    11.6430    13.3890   -11.4350     2.3640   372.6020 
  161.1250    65.8780    22.9410    12.9340    14.0170    16.1190   -11.5470     2.3690   358.4580 
  161.2500    67.4200    22.9570    15.6190    16.9540    19.4970   -11.6470     2.3680   340.4730 
  161.3750    68.8350    23.0960    18.2840    20.1560    23.1800   -11.7150     2.3620   325.4950 
  161.5000    67.9250    23.2430    19.9660    22.9960    26.4450   -11.7700     2.3500   322.3830 
  161.6250    67.0080    23.3900    20.9820    25.1360    28.9070   -11.8000     2.3420   329.6900 
  161.7500    67.5680    23.4340    21.6420    26.7050    30.7110   -11.8090     2.3390   337.4820 
  161.8750    66.4930    23.4470    22.1300    27.5390    31.6700   -11.7850     2.3340   341.8080 
  162.0000    63.9530    23.4800    22.4750    28.0180    32.2210   -11.7530     2.3240   349.1710 
  162.1250    63.2060    23.6410    23.1430    28.4840    32.7560   -11.7180     2.3080   360.4820 
  162.2500    65.5910    23.7000    24.0920    29.0150    33.3680   -11.6810     2.2960   372.7350 
  162.3750    67.2740    23.7180    24.2440    29.7690    34.2340   -11.6560     2.2960   383.7970 
  162.5000    64.4430    23.7340    24.9140    30.5190    35.0970   -11.6400     2.3100   385.6670 
  162.6250    58.7180    23.7400    27.7570    30.8860    35.5180   -11.6240     2.3350   370.1180 
  162.7500    54.2380    23.7630    33.2510    30.8520    35.4800   -11.6080     2.3580   339.0050 
  162.8750    53.2310    23.7390    35.4650    30.3800    34.9370   -11.5890     2.3680   314.0870 
  163.0000    54.1210    23.7350    33.7530    29.7870    34.2550   -11.5740     2.3610   312.8300 
  163.1250    56.2850    23.7460    29.6490    28.9750    33.3210   -11.5530     2.3340   333.5030 
  163.2500    57.3730    23.8380    27.2520    28.0880    32.3010   -11.5310     2.2980   362.2880 
  163.3750    57.2810    23.9150    26.7910    27.4040    31.5140   -11.4980     2.2660   381.6520 
  163.5000    58.2680    23.9400    27.4430    26.9310    30.9710   -11.4630     2.2470   389.9930 
  163.6250    59.9340    24.0070    27.4660    26.7560    30.7690   -11.4340     2.2450   391.0750 
  163.7500    60.5640    24.0390    26.6760    26.7080    30.7140   -11.4080     2.2510   390.0390 
  163.8750    59.7440    24.0320    25.3770    26.6960    30.7000   -11.4020     2.2530   390.7050 
  164.0000    60.0330    23.9800    24.5920    26.9770    31.0240   -11.4030     2.2490   392.6720 
  164.1250    61.4670    23.9410    25.7230    27.3330    31.4330   -11.4170     2.2450   394.0210 
  164.2500    63.5560    23.9440    27.4170    27.6620    31.8110   -11.4370     2.2450   394.6280 
  164.3750    65.8930    24.0090    27.6250    27.5880    31.7260   -11.4770     2.2450   394.6630 
  164.5000    66.1700    24.0120    25.8040    27.2040    31.2850   -11.5310     2.2460   392.3230 
  164.6250    64.0390    24.0020    24.4110    26.7240    30.7330   -11.6020     2.2520   386.9870 
  164.7500    61.5120    23.9430    23.6290    26.3570    30.3110   -11.6890     2.2630   381.7380 
  164.8750    60.2110    23.9400    22.4220    26.3520    30.3050   -11.7960     2.2710   380.2470 
  165.0000    58.6130    23.9780    21.7490    26.7960    30.8160   -11.9030     2.2750   382.5120 
  165.1250    56.8700    24.0190    22.9910    27.7330    31.8930   -12.0100     2.2850   384.9910 
  165.2500    56.0940    24.0210    26.2410    29.1850    33.5620   -12.1160     2.3110   380.7490 
  165.3750    54.9270    23.9950    30.6270    30.7950    35.4150   -12.2230     2.3500   360.7930 
  165.5000    53.1830    23.9420    34.2430    31.8460    36.6230   -12.3300     2.3890   331.1600 
  165.6250    51.5470    23.9430    36.0070    32.0580    36.8660   -12.4300     2.4070   305.8160 
  165.7500    50.9810    24.0090    34.5460    31.3900    36.0990   -12.5220     2.4040   297.4040 
  165.8750    50.1530    24.0120    30.3370    30.2690    34.8100   -12.6010     2.3910   309.1190 
