~V
VERS. 2.00: Ver 2.00
~W
STRT.M 60.0000:
STOP.M 248.0000:
STEP.M 0.1250:
NULL. -999.2500:
UWI. DF313:
~C
DEPT.M :
DEN.GM/CC :
SP.MV :
AC.US/MT :
GR.API :
CALI.CM :
RXO.OHMM :
RI. :
RML.OHMM :
~A
# ...
  220.0000     2.3360   -11.2940   443.8680    24.1850    24.3950     3.0850     2.9330     3.4190 
  220.1250     2.3360   -11.1690   440.3780    23.7700    24.3290     3.0850     2.9610     3.5000 
  220.2500     2.3470   -11.0850   436.8290    23.6470    24.2570     3.0990     3.0320     3.6540 
  220.3750     2.3620   -11.0410   433.9770    23.8810    24.2130     3.1350     3.1190     3.8160 
  220.5000     2.3700   -11.0200   432.5520    24.5630    24.1800     3.2060     3.1940     3.9270 
  220.6250     2.3670   -11.0350   432.5260    24.5210    24.1460     3.3080     3.2290     3.9450 
  220.7500     2.3600   -11.0930   433.8040    23.8300    24.1410     3.4070     3.2030     3.8490 
  220.8750     2.3520   -11.1750   436.1230    23.3270    24.1890     3.4430     3.1360     3.6940 
  221.0000     2.3510   -11.2760   439.0680    23.2160    24.2810     3.3880     3.0550     3.5320 
  221.1250     2.3570   -11.3950   441.8930    23.2890    24.3680     3.2630     2.9870     3.4150 
  221.2500     2.3580   -11.4920   444.0030    24.2800    24.3740     3.1290     2.9550     3.3830 
  221.3750     2.3480   -11.5440   444.9560    25.4620    24.3130     3.0390     2.9550     3.4190 
  221.5000     2.3340   -11.5820   444.4590    24.8700    24.2480     3.0190     2.9770     3.4940 
  221.6250     2.3290   -11.5900   443.1140    22.9160    24.2490     3.0580     3.0100     3.5750 
  221.7500     2.3350   -11.5290   441.4960    22.5520    24.3240     3.0820     3.0390     3.6260 
  221.8750     2.3430   -11.4310   440.0540    23.6160    24.3820     3.0590     3.0570     3.6390 
  222.0000     2.3480   -11.3250   438.8370    23.8910    24.3720     3.0570     3.0620     3.6220 
  222.1250     2.3500   -11.2240   437.3800    23.3890    24.3310     3.1450     3.0620     3.5930 
  222.2500     2.3530   -11.1580   435.2760    23.5710    24.3560     3.2880     3.0700     3.5840 
  222.3750     2.3570   -11.1600   432.4770    24.5020    24.4230     3.3810     3.1010     3.6170 
  222.5000     2.3610   -11.2260   429.5070    25.9260    24.4560     3.4390     3.1570     3.6980 
  222.6250     2.3630   -11.3460   427.2130    28.4210    24.4320     3.5540     3.2350     3.8130 
  222.7500     2.3650   -11.5380   426.0960    31.0840    24.3990     3.7620     3.3200     3.9320 
  222.8750     2.3710   -11.7700   426.1860    30.8910    24.4030     3.9500     3.3940     4.0280 
  223.0000     2.3770   -11.9930   427.1240    27.9830    24.4220     4.0380     3.4500     4.0930 
  223.1250     2.3760   -12.1760   428.1740    25.1540    24.4300     4.0250     3.4870     4.1300 
  223.2500     2.3680   -12.3050   428.9910    26.1430    24.4320     3.9740     3.5090     4.1460 
  223.3750     2.3600   -12.3800   429.5100    28.4600    24.4310     3.9480     3.5260     4.1560 
  223.5000     2.3550   -12.3720   429.8590    28.5720    24.4180     3.9380     3.5400     4.1580 
  223.6250     2.3510   -12.2980   430.2220    26.7020    24.3850     3.9030     3.5430     4.1480 
  223.7500     2.3460   -12.1850   430.6040    25.4760    24.3440     3.8150     3.5280     4.1090 
  223.8750     2.3400   -12.0380   430.8840    25.9070    24.3220     3.7090     3.4920     4.0420 
  224.0000     2.3330   -11.8870   430.8580    26.5680    24.3390     3.6050     3.4360     3.9460 
  224.1250     2.3300   -11.7670   430.5270    26.8160    24.3990     3.5100     3.3680     3.8340 
  224.2500     2.3380   -11.6710   429.9900    26.9600    24.4640     3.4530     3.2990     3.7220 
  224.3750     2.3570   -11.5930   429.3930    27.4520    24.5020     3.4560     3.2400     3.6310 
  224.5000     2.3760   -11.5520   428.8120    28.0810    24.5010     3.5170     3.2040     3.5760 
  224.6250     2.3800   -11.5600   428.1670    28.0190    24.4610     3.6170     3.1970     3.5740 
  224.7500     2.3710   -11.5760   427.3310    27.5780    24.3870     3.6870     3.2280     3.6370 
  224.8750     2.3640   -11.6050   426.2520    28.5260    24.3150     3.6520     3.2850     3.7440 
  225.0000     2.3640   -11.6430   425.0300    30.5070    24.2840     3.5070     3.3610     3.8730 
  225.1250     2.3720   -11.6810   423.9450    32.2550    24.3160     3.3750     3.4460     3.9970 
  225.2500     2.3760   -11.7170   423.2470    32.3990    24.3800     3.4560     3.5230     4.0900 
  225.3750     2.3660   -11.7360   423.1100    30.8140    24.4270     3.7160     3.5810     4.1440 
  225.5000     2.3470   -11.7470   423.6620    28.7100    24.4520     3.9880     3.6100     4.1590 
  225.6250     2.3350   -11.7420   424.6280    27.9730    24.4770     4.1250     3.6110     4.1380 
  225.7500     2.3420   -11.7090   425.6850    29.7520    24.5120     4.0960     3.5860     4.0900 
  225.8750     2.3590   -11.6600   426.4130    30.4880    24.5430     3.9980     3.5490     4.0320 
  226.0000     2.3750   -11.6020   426.2260    30.1000    24.5640     3.8770     3.5070     3.9740 
  226.1250     2.3790   -11.5410   425.0170    29.8130    24.5690     3.7720     3.4680     3.9220 
  226.2500     2.3730   -11.5030   422.9160    29.2420    24.5740     3.7290     3.4390     3.8870 
  226.3750     2.3640   -11.5140   420.4110    27.9490    24.6130     3.7440     3.4250     3.8740 
  226.5000     2.3620   -11.5610   418.4200    27.6150    24.6820     3.7820     3.4290     3.8910 
  226.6250     2.3720   -11.6140   417.6300    29.7610    24.7370     3.8010     3.4520     3.9370 
  226.7500     2.3830   -11.6950   418.2490    31.5160    24.6960     3.7830     3.4890     4.0040 
  226.8750     2.3850   -11.8000   419.9170    30.3150    24.5820     3.7500     3.5290     4.0660 
  227.0000     2.3800   -11.9190   421.7540    27.7370    24.4800     3.7120     3.5600     4.1050 
  227.1250     2.3730   -12.0410   422.8700    26.6550    24.4470     3.6780     3.5750     4.1090 
  227.2500     2.3690   -12.1590   422.9590    27.6540    24.4520     3.6690     3.5660     4.0760 
  227.3750     2.3690   -12.2400   422.2050    28.0470    24.4180     3.7010     3.5420     4.0210 
  227.5000     2.3680   -12.2790   421.0990    27.4690    24.3630     3.7480     3.5080     3.9580 
  227.6250     2.3620   -12.3040   420.1510    27.6520    24.3380     3.7510     3.4700     3.8960 
  227.7500     2.3530   -12.2960   419.4930    28.4090    24.3590     3.6770     3.4350     3.8470 
  227.8750     2.3490   -12.2460   419.0660    28.2300    24.3970     3.5900     3.4060     3.8150 
  228.0000     2.3530   -12.1770   418.8770    27.0930    24.4400     3.5380     3.3850     3.8000 
  228.1250     2.3570   -12.1020   419.1420    26.5510    24.4750     3.5280     3.3730     3.7960 
  228.2500     2.3550   -11.9830   420.3510    27.8730    24.4730     3.5520     3.3720     3.8010 
  228.3750     2.3530   -11.8490   423.0660    29.9750    24.4470     3.5940     3.3770     3.8110 
  228.5000     2.3520   -11.7240   427.9050    31.6760    24.3540     3.6420     3.3850     3.8240 
  228.6250     2.3400   -11.6210   434.2060    31.2150    24.1420     3.6830     3.3900     3.8320 
  228.7500     2.3170   -11.5880   441.0090    29.4170    24.0020     3.6660     3.3830     3.8150 
  228.8750     2.2940   -11.6360   447.0300    29.0790    24.1450     3.5570     3.3620     3.7660 
  229.0000     2.2880   -11.7240   450.6740    29.8970    24.4670     3.4070     3.3260     3.6930 
  229.1250     2.3030   -11.8030   451.7680    30.7070    24.6920     3.3280     3.2810     3.6140 
  229.2500     2.3170   -11.9060   450.6580    30.9570    24.7200     3.3650     3.2380     3.5530 
  229.3750     2.3160   -12.0140   448.1620    31.0430    24.7370     3.4210     3.2080     3.5220 
  229.5000     2.2990   -12.1040   445.2380    31.4860    24.7810     3.4540     3.1970     3.5210 
  229.6250     2.2820   -12.1630   442.6740    33.2620    24.8110     3.4970     3.2050     3.5470 
  229.7500     2.2800   -12.1600   440.7790    35.7570    24.8170     3.5840     3.2280     3.5920 
  229.8750     2.2870   -12.0960   439.6630    36.9430    24.8170     3.6830     3.2530     3.6380 
