~V
VERS. 2.00: Ver 2.00
~W
STRT.M 56.0000:
STOP.M 209.0000:
STEP.M 0.1250:
NULL. -999.2500:
UWI. DF316:
~C
DEPT.M :
GR.API :
CALI.CM :
RXO.OHMM :
RI. :
RML.OHMM :
SP.MV :
DEN.GM/CC :
AC.US/MT :
~A
# ...
  116.0000    62.8270    24.9800    32.4740    29.2250    32.5330     5.7430     2.1500   414.8760 
  116.1250    62.8400    24.9810    33.0690    28.9490    32.2960     5.7510     2.1500   420.7960 
  116.2500    61.6140    24.9770    32.5960    28.6900    32.3960     5.7620     2.1510   425.5890 
  116.3750    59.9390    25.0090    30.5680    28.1480    32.6620     5.7660     2.1580   427.1270 
  116.5000    58.9660    25.1650    28.9610    27.3750    33.1420     5.7640     2.1770   423.9970 
  116.6250    60.6470    25.2270    28.0180    26.7040    33.7260     5.7560     2.2100   416.9340 
  116.7500    62.9360    24.9680    27.2550    26.3390    34.4040     5.7240     2.2440   405.4340 
  116.8750    61.9400    24.6260    31.7690    26.3070    34.6380     5.6760     2.2650   389.2290 
  117.0000    58.4840    24.2910    36.6890    26.2550    34.6550     5.6130     2.2720   377.3420 
  117.1250    54.7350    24.1960    34.1590    26.2330    34.3150     5.5050     2.2660   383.9050 
  117.2500    51.2190    24.8870    27.3040    26.1970    33.7580     5.3610     2.2470   401.6050 
  117.3750    49.9130    25.2150    28.3750    26.2290    33.1770     5.1470     2.2120   420.7990 
  117.5000    53.7360    25.2770    31.1940    26.6000    33.0740     4.8760     2.1750   431.0800 
  117.6250    60.2960    25.2630    32.3000    27.2050    33.4290     4.5510     2.1550   431.3090 
  117.7500    64.0640    25.2190    31.7960    28.1440    34.2860     4.1480     2.1510   425.9380 
  117.8750    62.4240    25.2020    31.6370    29.5360    35.5690     3.6530     2.1530   424.2230 
  118.0000    59.3930    25.2640    33.0590    30.9100    36.6900     3.0780     2.1560   429.7500 
  118.1250    57.4740    25.4310    33.1600    31.8020    37.2820     2.4460     2.1610   440.6710 
  118.2500    56.4980    25.2930    31.6760    31.9530    37.4210     1.7480     2.1690   449.1030 
  118.3750    55.8680    25.2480    32.5600    31.2510    37.2510     1.0040     2.1800   448.1920 
  118.5000    56.6440    25.1910    33.4090    30.1880    36.8970     0.2090     2.1980   442.5110 
  118.6250    58.5180    25.1070    31.1110    28.8410    36.2660    -0.6380     2.2180   435.4080 
  118.7500    58.8530    24.4720    26.5710    27.1260    35.1600    -1.5050     2.2260   426.8940 
  118.8750    57.8150    24.3360    22.2650    25.0660    33.6520    -2.3970     2.2110   416.2720 
  119.0000    58.0030    24.3880    22.7540    22.6240    31.3360    -3.3160     2.1840   410.3040 
  119.1250    60.8870    24.6770    23.5080    19.8730    28.0470    -4.2570     2.1730   414.9720 
  119.2500    65.1350    24.6560    20.9430    16.9780    23.9790    -5.2250     2.1850   426.3340 
  119.3750    68.7470    24.2680    17.4210    14.2760    19.8430    -6.1790     2.2070   432.9180 
  119.5000    72.6060    23.7410    13.4660    11.8970    16.2940    -7.0880     2.2290   430.6240 
  119.6250    78.4910    23.5540    10.1890    10.0080    13.6020    -7.9440     2.2530   425.7380 
  119.7500    84.6200    23.5590     7.9060     8.8040    11.7640    -8.7430     2.2800   422.5780 
  119.8750    85.2320    23.4480     6.8390     8.0060    10.7310    -9.4530     2.3060   414.7750 
  120.0000    81.7350    23.0980     5.8650     7.4400    10.2520   -10.0710     2.3310   392.0320 
  120.1250    80.9510    22.6010     6.0820     7.0580    10.1420   -10.5930     2.3470   360.5660 
  120.2500    84.3770    22.4570     6.7500     6.7000     9.9790   -10.9980     2.3520   342.3470 
  120.3750    86.5010    22.7790     6.8270     6.5370     9.6750   -11.2990     2.3470   356.4160 
  120.5000    87.9400    23.2850     6.3170     6.5450     9.3090   -11.5250     2.3430   382.2210 
  120.6250    90.8180    23.7940     6.0490     6.6360     8.9760   -11.6970     2.3460   403.6130 
  120.7500    94.2750    23.9390     5.9500     6.7890     8.8200   -11.8220     2.3520   417.3630 
  120.8750    94.3360    23.9360     6.0370     6.9740     8.6670   -11.9010     2.3550   425.8900 
  121.0000    93.4820    23.8750     6.1550     7.1020     8.5550   -11.9430     2.3530   428.9650 
  121.1250    93.9270    23.7050     6.2190     7.0530     8.4080   -11.9640     2.3460   427.6770 
  121.2500    93.5650    23.6310     6.2440     6.7610     8.2040   -11.9750     2.3370   424.3630 
  121.3750    94.5550    23.7160     6.6860     6.3350     7.6830   -11.9940     2.3310   422.1550 
  121.5000    97.7050    23.7110     6.7010     5.8880     7.0570   -12.0140     2.3330   422.3400 
  121.6250    99.8500    23.6290     5.8320     5.5210     6.4340   -12.0150     2.3470   426.8470 
  121.7500    97.2510    23.3520     4.6980     5.3350     6.0170   -12.0050     2.3620   435.5430 
  121.8750    92.7660    23.3050     4.4470     5.2360     5.8400   -11.9880     2.3670   442.8170 
  122.0000    93.4350    23.3040     4.7400     5.2990     6.0190   -11.9690     2.3590   442.8050 
  122.1250    97.8940    23.4180     5.1960     5.4330     6.4240   -11.9500     2.3440   435.6290 
  122.2500   102.7510    23.4630     5.7660     5.6480     6.9990   -11.9240     2.3340   426.9630 
  122.3750   104.4580    23.3930     5.9690     5.9400     7.6060   -11.8890     2.3310   420.0600 
  122.5000   101.3840    23.1900     6.0280     6.1450     8.0720   -11.8410     2.3280   415.4960 
  122.6250    96.6950    22.8980     5.8770     6.3540     8.2810   -11.7990     2.3160   411.6990 
  122.7500    95.0000    22.5700     5.5870     6.5960     8.2430   -11.7580     2.3010   407.5390 
  122.8750    97.1170    22.3010     5.1870     6.8050     8.1560   -11.7280     2.2920   405.8740 
  123.0000    98.7080    22.1480     4.9980     6.9990     7.9910   -11.7020     2.2960   407.0420 
  123.1250    98.3200    21.9780     4.8900     7.0440     7.8140   -11.6730     2.3120   407.6490 
  123.2500    97.4790    21.9190     4.9920     7.0880     7.6500   -11.6470     2.3300   404.5130 
  123.3750    96.3110    22.0340     5.3410     7.1010     7.5700   -11.6080     2.3420   399.7480 
  123.5000    94.5200    22.4010     5.9890     7.0350     7.4940   -11.5630     2.3490   394.8550 
  123.6250    93.6470    22.7180     6.7020     6.8770     7.5200   -11.5090     2.3520   387.3100 
  123.7500    94.8250    22.7940     6.7950     6.6070     7.5510   -11.4420     2.3540   382.7530 
  123.8750    97.7790    22.7200     6.1230     6.3310     7.6660   -11.3470     2.3530   390.3340 
  124.0000    97.9950    22.5520     5.6160     6.1590     7.8470   -11.2260     2.3470   404.2020 
  124.1250    96.0750    22.5460     5.6330     6.0000     8.1300   -11.0800     2.3370   412.8030 
  124.2500    93.6860    22.5950     5.8560     5.8550     8.3670   -10.9170     2.3290   411.2140 
  124.3750    89.7080    22.9220     6.3720     5.7300     8.6620   -10.7340     2.3250   405.4700 
  124.5000    86.6290    23.2110     7.0600     5.8810     9.1070   -10.5510     2.3260   402.6950 
  124.6250    88.6240    23.3860     7.5090     6.3280     9.8160   -10.3690     2.3290   404.0090 
  124.7500    92.5780    23.4100     7.2650     6.9970    11.0690   -10.1780     2.3340   407.9720 
  124.8750    89.8250    23.3010     6.8410     8.2530    13.2290    -9.9710     2.3440   406.6650 
  125.0000    82.6730    22.9330     6.8630    10.1810    16.2910    -9.7440     2.3540   392.0400 
  125.1250    74.4250    22.4630     7.7510    12.9610    20.2950    -9.5120     2.3470   368.5670 
  125.2500    65.2050    22.0050     8.9490    16.7390    25.3120    -9.2810     2.3180   352.3970 
  125.3750    58.5640    21.7930     9.7160    21.4220    30.8550    -9.0640     2.2750   360.0680 
  125.5000    59.4460    21.5620    10.4260    26.2460    36.3430    -8.8540     2.2370   381.2160 
  125.6250    64.5760    21.3190    11.9700    30.6340    40.9770    -8.6470     2.2130   400.7250 
  125.7500    67.5360    20.9800    15.0810    33.7540    43.9770    -8.4530     2.1970   409.9910 
  125.8750    65.7470    20.7500    19.4430    34.2310    43.8120    -8.2780     2.1850   408.5560 
