~V
VERS. 2.00: Ver 2.00
~W
STRT.M 61.0000:
STOP.M 296.0000:
STEP.M 0.1250:
NULL. -999.2500:
UWI. DF312:
~C
DEPT.M :
DEN.GM/CC :
AC.US/MT :
GR.API :
CALI.CM :
RXO.OHMM :
RI. :
RML.OHMM :
SP.MV :
~A
   61.0000  -999.2500  -999.2500  -999.2500  -999.2500  -999.2500  -999.2500  -999.2500   152.0990 
   61.1250  -999.2500  -999.2500  -999.2500  -999.2500  -999.2500  -999.2500  -999.2500   150.3240 
   61.2500  -999.2500  -999.2500  -999.2500  -999.2500  -999.2500  -999.2500  -999.2500   148.0640 
   61.3750  -999.2500  -999.2500  -999.2500  -999.2500  -999.2500  -999.2500  -999.2500   145.1940 
   61.5000  -999.2500  -999.2500  -999.2500  -999.2500  -999.2500  -999.2500  -999.2500   141.7120 
   61.6250  -999.2500  -999.2500  -999.2500  -999.2500  -999.2500  -999.2500  -999.2500   137.5830 
   61.7500  -999.2500  -999.2500  -999.2500  -999.2500  -999.2500  -999.2500  -999.2500   133.7650 
   61.8750  -999.2500  -999.2500  -999.2500  -999.2500  -999.2500  -999.2500  -999.2500   132.2200 
   62.0000  -999.2500  -999.2500    60.3540    25.0640     1.4330     0.9500    28.8760   132.0000 
   62.1250  -999.2500  -999.2500    60.3540    25.0640     1.4330     0.9500    28.8760   133.4360 
   62.2500  -999.2500  -999.2500    60.3540    25.0640     1.4330     0.9500    28.8760   140.0870 
   62.3750  -999.2500  -999.2500    61.8960    25.3340     1.4280     0.9420    28.2730   145.0000 
   62.5000  -999.2500  -999.2500    63.6700    25.6780     1.4610     0.9420    27.8180   149.2280 
   62.6250  -999.2500  -999.2500    63.0560    25.8440     1.4990     0.9720    28.5500   153.0250 
   62.7500  -999.2500  -999.2500    61.6190    25.8780     1.4890     1.0180    30.0470   156.1730 
   62.8750  -999.2500  -999.2500    61.0250    25.8800     1.4390     1.0660    31.6980   158.6490 
   63.0000  -999.2500  -999.2500    61.4680    25.8640     1.3770     1.1030    32.8730   160.2520 
   63.1250  -999.2500  -999.2500    60.4400    25.8730     1.3290     1.1250    33.0830   159.4640 
   63.2500  -999.2500  -999.2500    57.2960    25.8650     1.3040     1.1380    32.5360   152.6370 
   63.3750  -999.2500  -999.2500    53.0210    25.8540     1.3150     1.1420    31.4630   146.4940 
   63.5000  -999.2500  -999.2500    48.0770    25.8350     1.3730     1.1370    30.0930   139.8560 
   63.6250  -999.2500  -999.2500    45.0850    25.8280     1.4790     1.1280    28.6330   132.2530 
   63.7500  -999.2500  -999.2500    44.4290    25.8480     1.5720     1.1210    27.2810   124.0310 
   63.8750  -999.2500  -999.2500    45.8750    25.8580     1.6070     1.1210    26.1330   115.4310 
   64.0000  -999.2500  -999.2500    48.1650    25.8670     1.5970     1.1250    25.1970   106.6910 
   64.1250  -999.2500  -999.2500    49.5710    25.8430     1.5660     1.1240    24.4150    97.5850 
   64.2500  -999.2500  -999.2500    49.0460    25.8490     1.5180     1.1110    23.6950    88.4340 
   64.3750  -999.2500  -999.2500    47.4570    25.8660     1.4560     1.0940    23.0570    79.9590 
   64.5000  -999.2500  -999.2500    47.0930    25.8710     1.4220     1.0840    22.6130    72.2910 
   64.6250  -999.2500  -999.2500    47.7730    25.7870     1.4320     1.0880    22.6520    65.4300 
   64.7500  -999.2500  -999.2500    48.9090    25.6970     1.4670     1.0950    23.0750    59.3760 
   64.8750  -999.2500  -999.2500    50.9820    25.5180     1.5510     1.0800    22.8110    54.1490 
   65.0000  -999.2500  -999.2500    54.0320    25.1780     1.7120     1.0000    20.1050    49.8590 
   65.1250  -999.2500  -999.2500    55.9060    24.7030     1.9190     0.7840    14.1910    47.0790 
   65.2500  -999.2500  -999.2500    55.5410    24.2650     2.0320     0.4950     7.8840    45.3870 
   65.3750  -999.2500  -999.2500    54.9700    24.0470     1.9790     0.2460     3.4250    44.2220 
   65.5000  -999.2500  -999.2500    55.2300    24.0340     1.8370     0.0900     1.2310    43.2870 
   65.6250  -999.2500  -999.2500    56.8710    24.1840     1.8490     0.0220     0.5030    42.0360 
   65.7500  -999.2500  -999.2500    60.1100    24.3500     2.2390     0.0110     0.3070    39.7570 
   65.8750  -999.2500  -999.2500    65.4330    24.5090     3.3240     0.0690     0.4880    36.2600 
   66.0000  -999.2500  -999.2500    73.3830    24.7420     5.1380     0.2490     1.0790    31.9830 
   66.1250  -999.2500  -999.2500    82.0950    25.2800     6.9810     0.7220     2.3120    27.2880 
   66.2500  -999.2500  -999.2500    87.8940    25.5790     7.6150     1.6210     4.0220    22.3290 
   66.3750  -999.2500  -999.2500    88.6770    25.3620     7.2920     2.9490     5.6950    17.1440 
   66.5000  -999.2500  -999.2500    85.4850    24.8520     6.9070     4.3680     6.6780    12.0050 
   66.6250  -999.2500  -999.2500    85.4810    24.3110     6.7580     5.3410     6.6390     7.6130 
   66.7500  -999.2500  -999.2500    89.3500    23.8920     6.7260     5.8800     6.2030     4.5060 
   66.8750  -999.2500  -999.2500    93.5270    23.6620     6.7650     6.1750     5.8580     2.6830 
   67.0000  -999.2500  -999.2500    96.6810    23.5150     6.9090     6.4040     5.8150     1.5580 
   67.1250  -999.2500  -999.2500   100.7130    23.2910     7.0960     6.7240     6.1550     0.6510 
   67.2500  -999.2500  -999.2500   104.8080    23.0580     7.3860     7.2230     6.8130    -0.1880 
   67.3750  -999.2500  -999.2500   105.8200    23.0540     8.0460     7.9240     7.7280    -0.9980 
   67.5000  -999.2500  -999.2500   101.7480    23.4180     9.0230     8.7390     8.7350    -1.8300 
   67.6250  -999.2500  -999.2500    94.1490    23.9050     9.5820     9.3720     9.4850    -2.6260 
   67.7500  -999.2500  -999.2500    87.6380    24.2130     9.2720     9.5760     9.7550    -3.2820 
   67.8750  -999.2500  -999.2500    86.6160    24.3240     8.3570     9.3230     9.5460    -3.7650 
   68.0000  -999.2500  -999.2500    90.7700    24.4670     7.3140     8.8010     9.0730    -4.1130 
   68.1250  -999.2500  -999.2500    94.2650    24.5810     6.6530     8.2980     8.6490    -4.3760 
   68.2500  -999.2500  -999.2500    95.2820    24.6600     6.5710     7.9920     8.4450    -4.5500 
   68.3750  -999.2500  -999.2500    97.7420    24.6880     6.7880     7.9050     8.4630    -4.5880 
   68.5000  -999.2500  -999.2500   103.0370    24.6910     6.9530     7.9580     8.6090    -4.5140 
   68.6250  -999.2500  -999.2500   104.9020    24.6600     6.9080     8.0140     8.7350    -4.4660 
   68.7500  -999.2500  -999.2500   100.8930    24.5670     6.8410     7.9780     8.7510    -4.5750 
   68.8750  -999.2500  -999.2500    95.9630    24.4610     6.7880     7.8560     8.6710    -4.9010 
   69.0000  -999.2500  -999.2500    93.9780    24.3510     6.6810     7.7290     8.5850    -5.4040 
   69.1250  -999.2500  -999.2500    93.3670    24.3200     6.7330     7.7300     8.6380    -6.1060 
   69.2500  -999.2500  -999.2500    92.1490    24.3340     7.2060     7.9170     8.8890    -6.9760 
   69.3750  -999.2500  -999.2500    89.7200    24.3690     8.0030     8.3030     9.3410    -7.9660 
   69.5000  -999.2500  -999.2500    85.5520    24.3800     8.5540     8.8470     9.9390    -9.0050 
   69.6250  -999.2500  -999.2500    79.9160    24.4540     8.5830     9.4290    10.5500   -10.0060 
   69.7500  -999.2500  -999.2500    74.6950    24.7560     8.6160     9.8590    10.9860   -10.8500 
   69.8750  -999.2500  -999.2500    71.2420    25.3990     8.8670     9.9710    11.0910   -11.3520 
   70.0000  -999.2500  -999.2500    70.9520    26.0840     9.0170     9.6690    10.7660   -11.4320 
   70.1250  -999.2500  -999.2500    75.3010    26.2880     8.2510     8.9240     9.9490   -10.9690 
   70.2500  -999.2500  -999.2500    82.1390    26.1190     7.1280     7.9510     8.8720   -10.1330 
   70.3750  -999.2500  -999.2500    90.8870    25.7810     6.3180     6.9590     7.8010    -9.1080 
   70.5000  -999.2500  -999.2500   100.2960    25.5470     5.9490     6.1770     7.0140    -8.0330 
   70.6250  -999.2500  -999.2500   104.9570    25.4460     5.9400     5.8980     6.7080    -7.0620 
   70.7500  -999.2500  -999.2500   103.2210    25.3750     6.9120     6.1860     6.9360    -6.2980 
   70.8750  -999.2500  -999.2500    97.6240    25.3250    10.5420     7.0910     7.8920    -5.9720 
