~V
VERS. 2.00: Ver 2.00
~W
STRT.M 60.0000:
STOP.M 248.0000:
STEP.M 0.1250:
NULL. -999.2500:
UWI. DF313:
~C
DEPT.M :
DEN.GM/CC :
SP.MV :
AC.US/MT :
GR.API :
CALI.CM :
RXO.OHMM :
RI. :
RML.OHMM :
~A
# ...
  180.0000     2.2720   -17.1010   370.4760    65.4310    24.5130    16.4950    14.9000    18.1010 
  180.1250     2.2690   -17.2750   371.3450    65.8620    24.5110    16.9380    14.7070    17.9900 
  180.2500     2.2810   -17.4640   372.9440    63.7750    24.5700    17.7200    14.9170    18.5010 
  180.3750     2.3010   -17.6380   374.8730    63.1420    24.6360    18.5940    15.4110    19.3540 
  180.5000     2.3120   -17.7940   376.6370    66.4100    24.6410    19.6130    16.0320    20.2710 
  180.6250     2.3040   -17.9520   378.0580    69.0850    24.6060    20.4860    16.6030    20.9870 
  180.7500     2.2930   -18.1200   379.1920    67.0650    24.5820    20.7050    16.9670    21.3230 
  180.8750     2.2940   -18.2880   380.1290    65.2300    24.5820    20.5730    17.1610    21.4190 
  181.0000     2.3030   -18.4600   380.7890    64.9860    24.6100    20.5710    17.2760    21.4460 
  181.1250     2.3060   -18.6480   381.0660    64.5790    24.6530    20.8270    17.4130    21.5600 
  181.2500     2.3030   -18.8490   380.9130    65.6590    24.6750    21.1430    17.6560    21.8690 
  181.3750     2.2940   -19.0780   380.4750    67.2350    24.6960    21.3260    17.9980    22.3330 
  181.5000     2.2790   -19.3480   380.1210    65.6080    24.7370    21.4580    18.4140    22.8910 
  181.6250     2.2700   -19.6360   380.1640    62.2570    24.7780    21.8940    18.8780    23.4900 
  181.7500     2.2760   -19.9180   380.6760    64.1130    24.7770    23.1360    19.3880    24.1070 
  181.8750     2.2920   -20.2030   381.4890    68.8480    24.7460    24.9910    19.9280    24.7160 
  182.0000     2.2990   -20.4930   382.1990    69.3210    24.6900    27.1890    20.4470    25.2410 
  182.1250     2.2930   -20.7640   382.3720    65.1870    24.6100    29.4110    20.8430    25.5660 
  182.2500     2.2920   -20.9870   381.6370    62.6900    24.5580    30.4640    20.9680    25.5290 
  182.3750     2.3070   -21.1730   379.6820    63.0780    24.5700    29.3840    20.8550    25.2110 
  182.5000     2.3340   -21.3270   376.1400    64.8920    24.6300    26.8580    20.6240    24.8040 
  182.6250     2.3530   -21.4780   371.5280    66.3240    24.6900    25.0120    20.4820    24.6070 
  182.7500     2.3490   -21.6570   366.6290    65.8180    24.7140    25.9560    20.7340    25.0350 
  182.8750     2.3250   -21.8500   362.6100    63.9610    24.7230    28.9100    21.5040    26.1860 
  183.0000     2.2920   -22.0530   361.1410    61.8820    24.7250    32.5150    22.8430    28.0630 
  183.1250     2.2640   -22.2770   362.4610    60.2550    24.7210    35.9810    24.6910    30.5150 
  183.2500     2.2480   -22.5290   366.1210    59.1070    24.7220    39.6720    26.8680    33.2260 
  183.3750     2.2440   -22.7710   370.8990    60.7820    24.7330    43.4770    28.9940    35.7380 
  183.5000     2.2460   -22.9860   374.9510    65.0640    24.7660    45.9820    30.8110    37.7760 
  183.6250     2.2480   -23.1800   377.0550    67.4340    24.7790    46.3340    32.1880    39.2460 
  183.7500     2.2480   -23.3520   376.8190    65.4520    24.7020    45.6360    33.0870    40.1690 
  183.8750     2.2490   -23.5120   374.5360    63.2430    24.5820    45.6070    33.7370    40.8630 
  184.0000     2.2500   -23.6820   370.8480    64.2000    24.4880    46.3730    34.3330    41.5820 
  184.1250     2.2530   -23.8750   366.9230    67.0480    24.4000    47.4480    35.0270    42.4880 
  184.2500     2.2590   -24.1180   363.5100    68.7140    24.2310    48.1800    35.8360    43.5580 
  184.3750     2.2630   -24.3940   361.1570    67.7480    24.0920    48.9670    36.5710    44.5060 
  184.5000     2.2520   -24.6970   360.2950    65.1500    24.1410    51.2040    37.0010    45.0040 
  184.6250     2.2240   -25.0220   360.3810    62.1830    24.3810    54.7520    36.9280    44.7950 
  184.7500     2.2090   -25.3550   360.7390    59.9630    24.6220    55.3130    36.2610    43.8100 
  184.8750     2.2240   -25.6540   360.7130    60.5930    24.7250    51.1650    35.3630    42.5870 
  185.0000     2.2580   -25.8750   360.1240    63.2810    24.7440    45.4060    34.5800    41.5980 
  185.1250     2.2840   -25.9920   359.8530    65.0300    24.7850    42.1600    34.1490    41.1160 
  185.2500     2.2990   -25.9420   360.9940    64.3710    24.8130    43.3880    34.1210    41.1090 
  185.3750     2.3110   -25.7850   364.2640    63.3210    24.7410    46.9240    34.1810    41.0510 
  185.5000     2.3160   -25.5270   369.6380    63.6170    24.6110    49.6750    34.0170    40.4810 
  185.6250     2.3070   -25.1380   375.4920    64.3170    24.5520    48.5610    33.4430    39.2410 
  185.7500     2.2900   -24.6290   380.5430    63.2480    24.6450    43.5860    32.5520    37.6910 
  185.8750     2.2780   -24.0920   384.0980    61.4950    24.7770    39.3410    31.8080    36.5830 
  186.0000     2.2730   -23.5370   386.2130    61.3150    24.8690    37.9880    31.5380    36.3250 
  186.1250     2.2730   -22.9670   388.0130    62.7580    24.9050    38.8690    31.7800    36.8620 
  186.2500     2.2790   -22.4300   390.2780    63.3490    24.9280    40.5500    32.1460    37.5830 
  186.3750     2.2980   -21.9170   393.3590    63.2540    24.9670    42.2860    31.9390    37.5190 
  186.5000     2.3250   -21.4370   397.0270    64.6800    24.9910    42.3590    30.6160    35.9460 
  186.6250     2.3420   -20.9960   400.2740    67.4280    24.9740    38.1320    27.9650    32.6200 
  186.7500     2.3490   -20.5810   402.0170    68.3820    24.9330    30.3080    24.1970    27.8650 
  186.8750     2.3610   -20.2030   401.3270    68.5480    24.8960    24.0280    20.2580    22.9270 
  187.0000     2.3830   -19.8980   397.5290    70.5720    24.8520    20.3820    16.8370    18.7130 
  187.1250     2.3980   -19.6970   392.0270    75.4650    24.7850    17.5760    14.4000    15.8600 
  187.2500     2.3900   -19.6300   386.4520    79.5540    24.7170    15.1240    13.4110    15.0300 
  187.3750     2.3580   -19.7060   382.4110    78.3950    24.6870    15.0370    13.8550    16.1490 
  187.5000     2.3120   -19.9060   381.1860    72.2220    24.6890    19.8330    15.9980    19.4270 
  187.6250     2.2730   -20.2090   382.1190    64.4590    24.7020    32.0570    20.0700    24.9940 
  187.7500     2.2630   -20.5840   384.5930    61.0010    24.7070    51.2350    25.5600    31.9330 
  187.8750     2.2890   -20.9500   388.3550    63.9340    24.7120    65.3750    29.3250    35.9330 
  188.0000     2.3360   -21.2570   394.0810    70.1090    24.7270    65.2670    28.2250    33.1000 
  188.1250     2.3690   -21.4720   401.9240    75.7660    24.7480    50.1840    22.6340    25.0500 
  188.2500     2.3700   -21.5560   411.5230    78.6240    24.7570    29.6380    16.2590    17.2200 
  188.3750     2.3510   -21.5090   421.5870    79.8640    24.7570    14.9960    11.5130    11.8720 
  188.5000     2.3410   -21.3610   429.7600    81.0830    24.8070     8.4070     8.5090     8.7340 
  188.6250     2.3620   -21.1430   434.5750    80.9470    24.9600     6.4980     6.8020     7.1600 
  188.7500     2.3920   -20.8790   435.4970    79.3930    25.1760     6.4390     6.0640     6.7230 
  188.8750     2.4070   -20.6030   433.0520    78.5770    25.3300     6.5720     5.8550     6.8490 
  189.0000     2.4010   -20.3630   428.5630    79.2860    25.3490     6.6880     5.9760     7.2600 
  189.1250     2.3950   -20.1910   424.2810    80.0150    25.2320     6.9020     6.2460     7.7200 
  189.2500     2.4040   -20.1180   421.5780    77.4000    25.0350     7.2840     6.5120     8.0430 
  189.3750     2.4180   -20.1000   421.0970    75.2080    24.8740     7.6670     6.6910     8.1930 
  189.5000     2.4210   -20.1090   422.8270    76.2200    24.7870     7.8080     6.7570     8.1770 
  189.6250     2.4110   -20.1300   425.3410    78.0860    24.7520     7.6290     6.7160     8.0240 
  189.7500     2.4030   -20.1710   427.4070    78.7850    24.7320     7.3210     6.5950     7.7910 
  189.8750     2.4000   -20.2150   427.9400    79.9840    24.7190     7.1190     6.4500     7.5710 
