~V
VERS. 2.00: Ver 2.00
~W
STRT.M 60.0000:
STOP.M 248.0000:
STEP.M 0.1250:
NULL. -999.2500:
UWI. DF313:
~C
DEPT.M :
DEN.GM/CC :
SP.MV :
AC.US/MT :
GR.API :
CALI.CM :
RXO.OHMM :
RI. :
RML.OHMM :
~A
# ...
  230.0000     2.2920   -12.0000   439.4230    37.2770    24.8100     3.7560     3.2700     3.6680 
  230.1250     2.2880   -11.9190   439.7410    37.4930    24.7960     3.7660     3.2700     3.6690 
  230.2500     2.2830   -11.8420   440.2730    36.4490    24.7840     3.6920     3.2490     3.6320 
  230.3750     2.2840   -11.7610   440.5830    34.8780    24.7480     3.5880     3.2160     3.5770 
  230.5000     2.2910   -11.6890   440.1680    33.8200    24.6770     3.5050     3.1820     3.5230 
  230.6250     2.3030   -11.6270   439.0900    33.4550    24.5780     3.4650     3.1550     3.4830 
  230.7500     2.3160   -11.5670   437.7090    32.8960    24.4600     3.4410     3.1450     3.4700 
  230.8750     2.3230   -11.5170   436.5620    32.6390    24.3310     3.4120     3.1520     3.4810 
  231.0000     2.3210   -11.4800   436.0640    32.3590    24.2170     3.3970     3.1720     3.5160 
  231.1250     2.3130   -11.4680   435.6940    31.7920    24.1530     3.4110     3.2020     3.5700 
  231.2500     2.3110   -11.4760   434.4610    31.8860    24.1570     3.4500     3.2420     3.6330 
  231.3750     2.3190   -11.4830   431.3620    32.4370    24.2260     3.4960     3.2860     3.6870 
  231.5000     2.3320   -11.5050   425.8410    32.6500    24.3550     3.5400     3.3310     3.7200 
  231.6250     2.3390   -11.5530   419.4310    31.4080    24.4970     3.5770     3.3750     3.7380 
  231.7500     2.3440   -11.6360   414.0200    29.6090    24.5900     3.6180     3.4250     3.7690 
  231.8750     2.3470   -11.7550   411.4280    28.9620    24.6100     3.7550     3.4890     3.8370 
  232.0000     2.3430   -11.8870   413.3790    28.8970    24.5730     4.2210     3.5650     3.9390 
  232.1250     2.3260   -11.9800   419.1070    28.8780    24.5210     5.3120     3.6380     4.0490 
  232.2500     2.3100   -12.0440   427.8410    28.1120    24.4990     6.9840     3.6750     4.1060 
  232.3750     2.3010   -12.1240   438.6870    28.1760    24.4950     8.0050     3.6550     4.0720 
  232.5000     2.2940   -12.1850   450.9020    28.7990    24.4920     7.3720     3.5770     3.9460 
  232.6250     2.2820   -12.2000   463.2870    29.6470    24.4940     5.5070     3.4560     3.7590 
  232.7500     2.2760   -12.1980   474.6460    30.1730    24.4990     4.0040     3.3250     3.5700 
  232.8750     2.2860   -12.1820   483.4730    29.7850    24.4940     3.3980     3.2150     3.4250 
  233.0000     2.3050   -12.1470   487.4560    29.6780    24.4510     3.2820     3.1440     3.3430 
  233.1250     2.3150   -12.1270   486.5400    29.9750    24.3890     3.2860     3.1110     3.3200 
  233.2500     2.3150   -12.1480   481.3040    30.3280    24.4170     3.3000     3.1090     3.3380 
  233.3750     2.3150   -12.2000   473.3150    30.4180    24.5090     3.3410     3.1180     3.3700 
  233.5000     2.3160   -12.2750   464.6880    31.0160    24.5630     3.4070     3.1320     3.4020 
  233.6250     2.3060   -12.3830   457.1920    32.4480    24.5120     3.4690     3.1480     3.4300 
  233.7500     2.2960   -12.4820   451.4380    33.9590    24.4010     3.4920     3.1660     3.4530 
  233.8750     2.3010   -12.5420   447.4330    33.9580    24.3100     3.4950     3.1870     3.4730 
  234.0000     2.3220   -12.5830   445.1380    31.6000    24.2470     3.4910     3.2080     3.4890 
  234.1250     2.3390   -12.6090   444.0440    28.6590    24.2150     3.4670     3.2280     3.5000 
  234.2500     2.3410   -12.5920   443.9350    28.4150    24.1740     3.4090     3.2410     3.5020 
  234.3750     2.3320   -12.5320   444.5160    29.4900    24.1140     3.3650     3.2440     3.4960 
  234.5000     2.3220   -12.4550   445.3890    29.3920    24.0610     3.3740     3.2390     3.4850 
  234.6250     2.3250   -12.3460   446.0970    27.8950    24.0260     3.4300     3.2290     3.4730 
  234.7500     2.3390   -12.2380   446.4040    27.0380    23.9740     3.4800     3.2210     3.4670 
  234.8750     2.3570   -12.1630   446.1930    27.0160    23.9230     3.5050     3.2170     3.4630 
  235.0000     2.3670   -12.1120   445.3000    28.3480    23.9570     3.5230     3.2200     3.4610 
  235.1250     2.3650   -12.1020   443.8020    30.1450    24.0880     3.5420     3.2310     3.4640 
  235.2500     2.3600   -12.1860   441.8060    29.3580    24.1810     3.5360     3.2550     3.4860 
  235.3750     2.3560   -12.3560   439.6610    26.4670    24.1320     3.5190     3.2890     3.5300 
  235.5000     2.3440   -12.5980   438.1890    25.2060    23.9940     3.5360     3.3320     3.5910 
  235.6250     2.3050   -12.9140   438.0680    27.0220    23.9400     3.6000     3.3740     3.6520 
  235.7500     2.2510   -13.2480   439.6120    28.3810    24.0990     3.6920     3.4040     3.6870 
  235.8750     2.2020   -13.5150   442.5460    28.0750    24.4240     3.7840     3.4140     3.6840 
  236.0000     2.1730   -13.6940   445.9410    28.1160    24.8520     3.8500     3.4000     3.6450 
  236.1250     2.1650   -13.7800   448.5430    28.7060    25.2680     3.8540     3.3670     3.5850 
  236.2500     2.1690   -13.7420   449.6820    29.0070    25.4580     3.7910     3.3270     3.5230 
  236.3750     2.1800   -13.6210   449.3310    29.3870    25.3600     3.7280     3.2930     3.4800 
  236.5000     2.1870   -13.4510   448.1100    30.5260    25.1850     3.7250     3.2740     3.4670 
  236.6250     2.1780   -13.2430   447.2120    30.7440    25.3640     3.8430     3.2710     3.4800 
  236.7500     2.1630   -13.0310   447.2950    29.1570    25.9510     4.1430     3.2780     3.5040 
  236.8750     2.1470   -12.8920   448.3760    28.1310    26.4470     4.4880     3.2870     3.5200 
  237.0000     2.1380   -12.8630   449.6530    28.5860    26.8360     4.6640     3.2930     3.5200 
  237.1250     2.1520   -12.9440   449.8750    29.5330    27.2750     4.5730     3.2980     3.5110 
  237.2500     2.2020   -13.1320   448.2330    27.7690    27.5650     4.3660     3.3090     3.5100 
  237.3750     2.2820   -13.3960   444.5290    24.7620    27.4400     4.2690     3.3300     3.5280 
  237.5000     2.3570   -13.7230   439.0690    23.8890    27.0880     4.2900     3.3660     3.5720 
  237.6250     2.3870   -14.0910   433.0960    25.3050    26.8630     4.3690     3.4200     3.6390 
  237.7500     2.3860   -14.4980   427.4920    26.7120    26.7890     4.4630     3.4910     3.7260 
  237.8750     2.3790   -14.9210   422.9040    26.8330    26.7380     4.5330     3.5690     3.8190 
  238.0000     2.3740   -15.3290   419.8310    26.8330    26.6580     4.5510     3.6470     3.9070 
  238.1250     2.3660   -15.6710   417.8360    26.8330    26.5900     4.5510     3.7170     3.9780 
  238.2500     2.3590   -15.9260   416.3550    26.8330    26.6220     4.6160     3.7710     4.0250 
  238.3750     2.3600   -16.1010   414.7440    26.8330    26.6500     4.7390     3.8080     4.0520 
  238.5000     2.3710   -16.1850   412.4680    26.8330    26.5870     4.8590     3.8300     4.0610 
  238.6250     2.3870   -16.1770   409.6250    26.8330    26.4120     4.9120     3.8380     4.0580 
  238.7500     2.3960   -16.0870   406.4890    26.8330    26.1940     4.8670     3.8390     4.0530 
  238.8750     2.3890   -15.9610   403.3510    26.8330    26.0040     4.8060     3.8380     4.0500 
  239.0000     2.3650   -15.8070   400.3470    26.8330    25.8320     4.7960     3.8400     4.0490 
  239.1250     2.3380   -15.6650   397.2670    26.8330    25.6290     4.8380     3.8430     4.0430 
  239.2500     2.3220   -15.5530   393.7710    26.8330    25.4300     4.8670     3.8490     4.0330 
  239.3750     2.3210   -15.4540   389.5910    26.8330    25.3590     4.8570     3.8650     4.0370 
  239.5000     2.3260   -15.3740   384.7080    26.8330    25.3790     4.8360     3.9020     4.0760 
  239.6250     2.3330   -15.3660   379.8390    26.8330    25.4190     4.8330     3.9680     4.1640 
  239.7500     2.3410   -15.4380   375.8090    26.8330    25.4940     4.8800     4.0690     4.3010 
  239.8750     2.3450   -15.5210   373.2820    26.8330    25.5830     5.0490     4.1830     4.4500 
