~V
VERS. 2.00: Ver 2.00
~W
STRT.M 60.0000:
STOP.M 247.0000:
STEP.M 0.1250:
NULL. -999.2500:
UWI. DF315:
~C
DEPT.M :
DEN.GM/CC :
AC.US/MT :
GR.API :
RML.OHMM :
RI. :
RXO.OHMM :
CALI.CM :
SP.MV :
~A
# ...
  120.0000     2.2790   437.7300    99.5990     9.6410     8.6370     8.7890    24.8130   -14.8320 
  120.1250     2.2920   443.4390   103.7430     8.7760     7.9280     8.2390    24.8070   -14.7920 
  120.2500     2.3070   447.9870   108.0330     8.0010     7.3180     7.6970    24.7930   -14.7280 
  120.3750     2.3200   449.5950   110.7950     7.5100     6.9710     7.2770    24.7620   -14.6870 
  120.5000     2.3260   446.3470   111.4950     7.5210     7.0450     7.2790    24.7020   -14.6120 
  120.6250     2.3180   433.7150   109.2950     8.3820     7.7640     7.9190    24.5780   -14.5660 
  120.7500     2.3000   410.9430   101.7940     9.9540     9.0710     9.1510    24.4900   -14.5350 
  120.8750     2.2760   382.2500    89.5090    12.0190    10.8410    11.1740    24.4480   -14.4960 
  121.0000     2.2510   359.9320    77.4620    14.2410    12.7880    13.6780    24.4330   -14.4780 
  121.1250     2.2340   361.1890    71.2670    15.9890    14.4100    15.4130    24.4330   -14.4210 
  121.2500     2.2280   382.7320    70.0050    16.9530    15.3940    15.6590    24.4690   -14.3950 
  121.3750     2.2290   411.1870    72.1940    17.2310    15.7450    14.5340    24.4840   -14.3870 
  121.5000     2.2350   432.9000    76.4890    17.2480    15.7880    13.2240    24.4650   -14.3800 
  121.6250     2.2380   441.9860    78.0720    17.4980    15.9600    13.4750    24.4520   -14.3780 
  121.7500     2.2330   445.6840    73.8860    18.0470    16.3810    14.9220    24.4690   -14.3650 
  121.8750     2.2220   449.3370    69.0780    18.6820    16.9030    16.6660    24.5660   -14.3330 
  122.0000     2.2060   453.5010    68.3030    19.0910    17.2710    17.6440    24.7950   -14.3250 
  122.1250     2.1920   455.4590    73.0490    18.9630    17.1970    16.6390    25.0070   -14.3490 
  122.2500     2.1820   454.8340    80.0250    18.4120    16.7330    14.6630    25.0370   -14.3430 
  122.3750     2.1760   453.1040    85.7560    17.6650    16.0570    12.9820    24.8740   -14.3550 
  122.5000     2.1740   451.8430    87.8850    16.9430    15.3700    12.2700    24.6370   -14.4100 
  122.6250     2.1750   451.1700    87.4260    16.3420    14.7850    12.2230    24.5200   -14.4010 
  122.7500     2.1790   449.9850    88.5540    15.7620    14.2360    12.2140    24.4690   -14.4160 
  122.8750     2.1870   447.7680    90.0330    15.0920    13.6330    11.8640    24.4520   -14.4870 
  123.0000     2.2000   444.6260    88.6340    14.2810    12.9230    11.2520    24.4470   -14.5080 
  123.1250     2.2150   441.2290    86.2030    13.3910    12.1460    10.5070    24.4470   -14.4790 
  123.2500     2.2290   438.2470    86.7260    12.5880    11.4390     9.8840    24.4470   -14.4870 
  123.3750     2.2370   435.9890    91.2540    12.0030    10.9260     9.5100    24.4450   -14.4390 
  123.5000     2.2360   434.6710    96.8700    11.7180    10.6840     9.4070    24.4240   -14.3370 
  123.6250     2.2270   435.3280    98.3890    11.8260    10.7950     9.5960    24.3590   -14.2870 
  123.7500     2.2140   437.3940    95.2520    12.2470    11.2010     9.9600    24.2710   -14.1880 
  123.8750     2.2020   439.0970    89.6190    12.9760    11.8900    10.4120    24.2120   -14.0150 
  124.0000     2.1910   438.8960    85.5000    13.9690    12.8580    11.1180    24.1700   -13.8310 
  124.1250     2.1820   437.1650    83.5680    15.3190    14.1400    12.3750    24.1540   -13.6990 
  124.2500     2.1750   435.7760    80.7510    16.8620    15.6400    14.4480    24.1620   -13.5470 
  124.3750     2.1700   435.4120    76.0200    18.5020    17.2500    17.2450    24.2070   -13.3710 
  124.5000     2.1680   436.2750    69.6770    20.1850    18.7970    20.3950    24.3060   -13.1840 
  124.6250     2.1720   437.5870    64.8940    21.4140    20.0070    22.8810    24.3330   -12.9960 
  124.7500     2.1790   437.6170    63.0270    22.0950    20.7740    23.5540    24.2960   -12.8660 
  124.8750     2.1880   435.9340    63.4260    22.3270    21.1100    22.9380    24.2430   -12.7690 
  125.0000     2.1950   433.7390    64.6740    22.3500    21.1530    22.1400    24.2130   -12.6830 
  125.1250     2.1980   433.0420    64.4100    22.4580    21.1310    21.6280    24.1890   -12.5980 
  125.2500     2.2000   433.7710    63.2430    22.7930    21.2720    21.5610    24.1490   -12.5550 
  125.3750     2.2020   435.3200    61.5110    23.3770    21.7010    21.8880    24.1200   -12.5630 
  125.5000     2.2020   437.7000    60.8050    24.1940    22.4730    22.5460    24.1580   -12.5980 
  125.6250     2.1900   441.6770    62.1880    25.2630    23.6370    23.7280    24.3020   -12.6130 
  125.7500     2.1650   446.3720    62.9060    26.5370    25.0830    25.2030    24.4410   -12.6100 
  125.8750     2.1310   449.0600    61.7650    27.9930    26.7240    26.4940    24.4400   -12.6660 
  126.0000     2.1070   445.1980    61.3610    29.6030    28.4420    26.7730    24.2730   -12.7560 
  126.1250     2.1250   428.2190    64.4040    31.2940    30.0600    25.8760    23.9900   -12.8370 
  126.2500     2.1880   399.6080    66.9000    32.8600    31.4130    24.7990    23.8290   -12.9180 
  126.3750     2.2850   365.8490    66.8180    34.0980    32.3450    24.0790    23.7200   -13.0360 
  126.5000     2.3810   336.1600    67.4740    34.6500    32.7180    23.7150    23.5500   -13.1650 
  126.6250     2.4310   319.6150    69.9750    34.2650    32.2980    23.3500    23.2250   -13.3350 
  126.7500     2.4280   316.0620    72.0910    32.9430    31.1400    23.1280    23.0650   -13.5280 
  126.8750     2.3860   323.7620    73.4000    31.0040    29.2770    22.8110    23.1750   -13.6580 
  127.0000     2.3330   340.3580    74.4060    28.8030    26.8570    22.0230    23.4770   -13.7570 
  127.1250     2.2900   362.4510    75.9860    25.8530    24.1580    19.9270    23.7270   -13.9040 
  127.2500     2.2630   383.3120    78.3380    23.0570    21.5850    17.1560    23.8970   -14.0320 
  127.3750     2.2490   397.1870    81.1690    20.6890    19.3940    14.5880    23.9430   -14.0960 
  127.5000     2.2390   401.0210    80.7870    18.8610    17.7250    12.7630    23.9210   -14.1480 
  127.6250     2.2290   400.4160    76.1640    17.7260    16.6900    12.1210    23.8390   -14.1980 
  127.7500     2.2190   403.5880    72.3480    17.0680    16.1170    11.9090    23.6990   -14.2300 
  127.8750     2.2100   409.9580    72.1800    16.7960    15.8810    11.8460    23.5680   -14.2580 
  128.0000     2.2050   414.4930    75.1920    16.8950    15.8460    11.7700    23.4590   -14.3070 
  128.1250     2.2070   415.5280    76.7910    17.0630    15.8890    11.6530    23.3880   -14.3330 
  128.2500     2.2140   416.9910    75.0980    17.0800    15.9050    11.5890    23.3950   -14.3040 
  128.3750     2.2220   419.2380    73.6190    17.0280    15.8620    11.6200    23.4720   -14.2970 
  128.5000     2.2300   420.9070    75.3700    16.9160    15.7640    11.6730    23.5440   -14.3370 
  128.6250     2.2340   421.3350    75.9600    16.7720    15.6320    11.5870    23.5620   -14.3330 
  128.7500     2.2320   421.6650    72.1880    16.6360    15.5020    11.3520    23.5530   -14.2880 
  128.8750     2.2230   422.7350    66.9060    16.5260    15.3900    11.2420    23.5470   -14.2850 
  129.0000     2.2100   423.8530    63.8610    16.4380    15.2970    11.3440    23.5200   -14.2640 
  129.1250     2.1980   421.1080    63.8210    16.3370    15.2000    11.6760    23.4330   -14.1750 
  129.2500     2.1930   413.6390    65.7340    16.1960    15.0720    12.0430    23.3040   -14.1140 
  129.3750     2.1940   404.3770    68.0950    16.0020    14.9010    12.3130    23.0890   -14.0530 
  129.5000     2.1990   397.4650    69.6550    15.7750    14.6940    12.2970    22.7530   -13.9220 
  129.6250     2.2060   399.6170    72.5950    15.5640    14.4930    11.7950    22.4070   -13.7800 
  129.7500     2.2160   409.2320    76.6160    15.4250    14.3490    11.6360    22.1830   -13.6720 
  129.8750     2.2290   420.2990    78.1500    15.3860    14.2960    11.6780    22.1080   -13.5040 
