~V
VERS. 2.00: Ver 2.00
~W
STRT.M 100.0000:
STOP.M 292.0000:
STEP.M 0.1250:
NULL. -999.2500:
UWI. DF310:
~C
DEPT.M :
AC.US/MT :
DEN.GM/CC :
GR.API :
CALI.CM :
RXO.OHMM :
RI. :
RML.OHMM :
SP.MV :
~A
# ...
  110.0000   436.3050     2.1810    62.9770    22.8890     9.0980     7.1680     9.8750   -33.8610 
  110.1250   437.1040     2.1940    62.2360    22.8890     9.1750     7.1470     9.8330   -33.7590 
  110.2500   438.7140     2.1890    63.6400    22.8890     9.0690     7.0840     9.6820   -33.6780 
  110.3750   439.6920     2.1710    66.4910    22.8890     8.8270     6.9890     9.4910   -33.6200 
  110.5000   439.9170     2.1570    70.0300    22.8890     8.5960     6.8900     9.3350   -33.5840 
  110.6250   440.6940     2.1590    72.6830    22.8930     8.5830     6.8300     9.2750   -33.5700 
  110.7500   442.4380     2.1690    71.4790    22.9200     8.7110     6.8240     9.3010   -33.5930 
  110.8750   443.8880     2.1760    67.0960    22.9840     8.8580     6.8620     9.3880   -33.6410 
  111.0000   443.4280     2.1750    63.1910    23.0380     8.9870     6.9170     9.4990   -33.6990 
  111.1250   440.8160     2.1690    62.2780    23.0570     9.0930     6.9560     9.5870   -33.7440 
  111.2500   438.2720     2.1640    62.9830    23.0590     9.1210     6.9680     9.6240   -33.7760 
  111.3750   436.9640     2.1620    62.2010    23.0600     9.0290     6.9550     9.5930   -33.8150 
  111.5000   436.3760     2.1610    61.1750    23.0630     8.8670     6.9230     9.4920   -33.8550 
  111.6250   435.1370     2.1590    61.2440    23.0700     8.7200     6.8820     9.3340   -33.8760 
  111.7500   433.4290     2.1580    61.3700    23.0720     8.6080     6.8450     9.1750   -33.8730 
  111.8750   432.4680     2.1570    61.0730    23.0710     8.5300     6.8230     9.0750   -33.8440 
  112.0000   433.0020     2.1580    60.8660    23.0710     8.4960     6.8190     9.0690   -33.7850 
  112.1250   434.3770     2.1600    61.7910    23.0740     8.5630     6.8360     9.1560   -33.7020 
  112.2500   435.1310     2.1590    63.5040    23.0760     8.6770     6.8630     9.2660   -33.5990 
  112.3750   435.0190     2.1550    63.3270    23.0740     8.7800     6.8950     9.3440   -33.4550 
  112.5000   434.7880     2.1480    62.4830    23.0610     8.8400     6.9240     9.3570   -33.2850 
  112.6250   435.5340     2.1450    63.7040    23.0310     8.8280     6.9200     9.2830   -33.1050 
  112.7500   437.4170     2.1490    66.2410    22.9930     8.7530     6.8680     9.1330   -32.9160 
  112.8750   440.3640     2.1640    66.0240    22.9760     8.6740     6.7590     8.9190   -32.7140 
  113.0000   444.1790     2.1860    63.0110    22.9740     8.6190     6.6020     8.6630   -32.5340 
  113.1250   448.2190     2.2000    61.9440    22.9740     8.2980     6.4240     8.4060   -32.3770 
  113.2500   451.4900     2.2000    64.0170    22.9760     7.6970     6.2730     8.2050   -32.2630 
  113.3750   453.5890     2.1840    66.2730    22.9800     7.3550     6.1870     8.1000   -32.2080 
  113.5000   454.7970     2.1600    66.0220    22.9820     7.5930     6.1850     8.1020   -32.1810 
  113.6250   455.5310     2.1330    63.1190    22.9580     8.1090     6.2570     8.1940   -32.1530 
  113.7500   455.9090     2.1130    60.4870    22.8820     8.3450     6.3480     8.2970   -32.0860 
  113.8750   455.7870     2.1060    58.8330    22.7630     8.3630     6.4100     8.3470   -31.9470 
  114.0000   455.3820     2.1110    58.2590    22.6570     8.3220     6.4040     8.2910   -31.7110 
  114.1250   455.7960     2.1270    58.8990    22.6180     8.3340     6.2910     8.1000   -31.3740 
  114.2500   457.0050     2.1510    61.2100    22.5780     8.3170     6.1260     7.8650   -30.9030 
  114.3750   455.5240     2.1830    65.0230    22.4790     8.1220     5.9990     7.7070   -30.2580 
  114.5000   444.8370     2.2240    69.9240    22.3220     7.7860     5.9940     7.7340   -29.5030 
  114.6250   420.0730     2.2820    74.9620    22.2460     7.8540     6.1560     8.0150   -28.6790 
  114.7500   393.1950     2.3450    79.1600    22.2260     9.0270     6.3880     8.4180   -27.8590 
  114.8750   379.4310     2.3920    82.3870    22.2090    11.2690     6.5500     8.7460   -27.1100 
  115.0000   386.2890     2.3980    83.5880    22.1410    12.3020     6.5000     8.7600   -26.4950 
  115.1250   406.5570     2.3670    84.0270    21.9930    10.3100     6.1680     8.3040   -26.0410 
  115.2500   422.8760     2.3300    85.8130    21.8950     7.6700     5.7350     7.6620   -25.7660 
  115.3750   429.9220     2.2990    87.8310    21.8620     6.3270     5.3710     7.1230   -25.7420 
  115.5000   431.1700     2.2650    87.3290    21.8590     5.9720     5.2040     6.8840   -25.9340 
  115.6250   432.1310     2.2180    82.9080    21.8570     6.2110     5.3320     7.0680   -26.3320 
  115.7500   434.0500     2.1670    77.2600    21.8390     6.8220     5.6560     7.5300   -26.8770 
  115.8750   435.3070     2.1270    73.0770    21.7880     7.5630     6.0400     8.0850   -27.5190 
  116.0000   434.4320     2.1080    70.6620    21.7180     8.0240     6.3330     8.5240   -28.1640 
  116.1250   430.9500     2.1150    71.4330    21.6850     7.9780     6.4290     8.6810   -28.7900 
  116.2500   426.6440     2.1330    74.6600    21.6750     7.7420     6.3940     8.6330   -29.3780 
  116.3750   422.9650     2.1490    76.3980    21.6760     7.5100     6.3140     8.5010   -29.8920 
  116.5000   420.5180     2.1560    76.3710    21.6770     7.4380     6.2680     8.4230   -30.3290 
  116.6250   419.4140     2.1520    76.6060    21.6780     7.6920     6.3310     8.5270   -30.6750 
  116.7500   418.5440     2.1420    77.6760    21.6780     8.1500     6.5220     8.8240   -30.9580 
  116.8750   414.1590     2.1320    75.7230    21.6780     8.6160     6.8570     9.3120   -31.1800 
  117.0000   398.8970     2.1400    70.7060    21.6780     9.0580     7.3360     9.9850   -31.3690 
  117.1250   364.5170     2.1940    65.7440    21.6780    10.0600     7.9280    10.8060   -31.5260 
  117.2500   322.5570     2.2890    62.4030    21.6780    12.4120     8.5170    11.6130   -31.6410 
  117.3750   293.3670     2.3830    61.2680    21.6780    16.3620     8.9750    12.2060   -31.7180 
  117.5000   294.6080     2.4140    61.9700    21.6780    19.9140     9.1810    12.3870   -31.7630 
  117.6250   329.0660     2.3480    63.7440    21.6780    19.1230     9.0290    12.0170   -31.7840 
  117.7500   370.4790     2.2510    65.6300    21.6780    15.0950     8.6580    11.3640   -31.7750 
  117.8750   400.6910     2.1780    66.2350    21.6780    11.2930     8.2160    10.6910   -31.7260 
  118.0000   414.4330     2.1450    65.6690    21.6920     9.5090     7.8270    10.1840   -31.6130 
  118.1250   417.0520     2.1420    65.1850    21.7880     9.1650     7.5440     9.8940   -31.4360 
  118.2500   418.4960     2.1510    65.0920    22.0070     9.1570     7.3070     9.6630   -31.2140 
  118.3750   421.5410     2.1650    63.8260    22.2640     9.1360     7.0530     9.3640   -30.9000 
  118.5000   425.3130     2.1770    62.3640    22.4230     8.9120     6.7650     8.9580   -30.5000 
  118.6250   427.2340     2.1840    64.8750    22.4810     8.3750     6.4890     8.5420   -30.0500 
  118.7500   426.6680     2.1880    71.7890    22.5190     7.8210     6.2930     8.2600   -29.5730 
  118.8750   424.6940     2.1900    77.0350    22.5510     7.5450     6.2130     8.1740   -29.0940 
  119.0000   422.9380     2.1900    77.2370    22.5900     7.5980     6.2480     8.2660   -28.6760 
  119.1250   422.4420     2.1950    73.2330    22.6070     7.7570     6.3740     8.4520   -28.3360 
  119.2500   422.7890     2.2030    68.1170    22.6130     7.8880     6.5230     8.6150   -28.0840 
  119.3750   423.5340     2.2120    64.6000    22.6130     8.0570     6.6520     8.7170   -27.9500 
  119.5000   424.4470     2.2160    64.7080    22.6130     8.2580     6.7440     8.7680   -27.9040 
  119.6250   425.7190     2.2070    67.4750    22.6130     8.3610     6.8030     8.8010   -27.8860 
  119.7500   427.7190     2.1870    68.4870    22.6130     8.3680     6.8540     8.8350   -27.8590 
  119.8750   430.6300     2.1620    67.8320    22.6140     8.5060     6.8830     8.8410   -27.7930 
