~V
VERS. 2.00: Ver 2.00
~W
STRT.M 61.0000:
STOP.M 296.0000:
STEP.M 0.1250:
NULL. -999.2500:
UWI. DF312:
~C
DEPT.M :
DEN.GM/CC :
AC.US/MT :
GR.API :
CALI.CM :
RXO.OHMM :
RI. :
RML.OHMM :
SP.MV :
~A
# ...
  231.0000     2.6570   351.5050    87.9620    24.5100    10.3820    11.7730    12.9550   -10.4050 
  231.1250     2.6470   369.0810    93.9000    24.4890     9.2980     9.8670    11.1350    -9.9400 
  231.2500     2.6200   382.8160    97.5940    24.4630     8.3540     8.8640    10.2380    -9.5900 
  231.3750     2.5770   391.7140    99.7520    24.3980     7.9050     8.5240    10.0150    -9.3100 
  231.5000     2.5370   393.9250   101.3240    24.3210     8.4100     8.7260    10.4270    -9.0930 
  231.6250     2.5230   387.2170   101.1040    24.3550     9.9020     9.5440    11.4970    -8.9730 
  231.7500     2.5240   374.3270    98.1900    24.4680    11.4310    10.9350    12.8030    -8.9450 
  231.8750     2.5260   358.2150    94.7770    24.5710    12.3660    12.8830    14.1750    -8.9360 
  232.0000     2.5220   342.3300    92.6270    24.6130    13.7020    15.1690    15.6340    -8.9120 
  232.1250     2.5180   331.0950    90.7890    24.5730    16.1760    17.0770    16.8850    -8.8620 
  232.2500     2.5240   326.9580    87.6380    24.5090    17.8720    17.7930    17.2800    -8.7720 
  232.3750     2.5370   331.4830    83.7110    24.4130    16.4940    16.9770    16.4480    -8.6770 
  232.5000     2.5420   344.4160    83.1630    24.2250    12.9580    14.9890    14.6610    -8.5990 
  232.6250     2.5260   363.5140    88.6010    24.0400    10.3420    12.6070    12.4960    -8.4960 
  232.7500     2.5040   383.0920    94.9400    23.8650     8.9900    10.5030    10.5650    -8.3130 
  232.8750     2.4890   399.5050    97.6280    23.6700     8.1600     8.8790     9.1180    -8.0980 
  233.0000     2.4830   411.0870    96.1990    23.5330     7.3330     7.7530     8.2060    -7.8960 
  233.1250     2.4720   417.5840    90.1130    23.5140     6.6990     7.1260     7.8250    -7.6980 
  233.2500     2.4500   421.1220    80.7360    23.5260     6.4450     6.8440     7.7890    -7.5500 
  233.3750     2.4220   422.5340    76.3610    23.5470     6.5470     6.8420     8.0050    -7.4310 
  233.5000     2.4060   422.1120    82.9720    23.5900     6.9020     7.0560     8.3790    -7.3200 
  233.6250     2.4160   419.8510    95.1250    23.6460     7.3150     7.4030     8.7800    -7.2650 
  233.7500     2.4350   416.6580   100.5790    23.7530     7.6470     7.7250     9.0770    -7.3360 
  233.8750     2.4470   413.1880    99.8150    23.8480     7.9360     7.9310     9.2310    -7.5100 
  234.0000     2.4440   409.5170    98.9520    23.9080     8.1980     8.0350     9.3200    -7.7530 
  234.1250     2.4330   404.8990   103.7000    23.9440     8.3310     8.1860     9.5360    -8.0660 
  234.2500     2.4250   399.4050   111.0330    23.9430     8.6670     8.5160     9.9990    -8.3960 
  234.3750     2.4200   394.3820   113.6380    23.9280     9.7650     9.0520    10.6940    -8.7290 
  234.5000     2.4090   392.0100   108.1850    23.9220    11.7750     9.7000    11.4650    -9.0820 
  234.6250     2.3940   394.2590    99.1800    23.8740    12.9650    10.2120    12.0150    -9.4110 
  234.7500     2.3850   399.1840    93.9090    23.8340    12.1530    10.3970    12.1870    -9.6580 
  234.8750     2.3860   404.0960    93.0550    23.8420    10.2660    10.2400    11.9950    -9.8480 
  235.0000     2.3950   406.7670    95.4790    23.8930     9.2290     9.8760    11.6050   -10.0260 
  235.1250     2.4010   406.7730    99.2000    23.8680     9.7350     9.4990    11.2560   -10.1890 
  235.2500     2.4000   406.3860   100.3360    23.8140    10.3340     9.2380    11.0850   -10.3010 
  235.3750     2.3950   407.0950    98.8790    23.7750    10.2460     9.1240    11.1000   -10.3670 
  235.5000     2.3940   409.0700    98.9610    23.8280     9.7690     9.1340    11.2410   -10.4100 
  235.6250     2.4030   411.2460   100.9680    23.9130     9.6280     9.2280    11.4470   -10.4830 
  235.7500     2.4150   412.6420   101.1280    23.9590     9.8490     9.3640    11.6790   -10.6190 
  235.8750     2.4240   413.1610    99.6730    23.9730    10.1820     9.5450    11.9320   -10.7800 
  236.0000     2.4270   413.1740    99.3330    23.9720    10.4850     9.7580    12.1780   -10.9050 
  236.1250     2.4230   413.1740    99.6890    23.9710    10.8120     9.9370    12.3290   -11.0130 
  236.2500     2.4120   413.3420    99.1030    23.9300    11.0670    10.0230    12.3610   -11.1570 
  236.3750     2.3980   413.4270    98.7090    23.8150    11.1880    10.0350    12.3400   -11.3340 
  236.5000     2.3880   412.6550   100.3730    23.6370    11.1280    10.0830    12.4190   -11.5140 
  236.6250     2.3950   409.5300   101.2010    23.5090    11.2290    10.3420    12.8110   -11.6550 
  236.7500     2.4190   404.1610    98.4650    23.4530    11.8850    10.8460    13.5030   -11.7340 
  236.8750     2.4430   398.1350    94.6840    23.4710    13.6820    11.5280    14.3300   -11.7540 
  237.0000     2.4490   394.3340    93.1450    23.5560    15.8470    12.1860    14.9910   -11.7440 
  237.1250     2.4320   396.0050    95.0440    23.7040    16.1380    12.4630    15.0910   -11.6980 
  237.2500     2.4170   401.7890    98.2170    23.7880    14.1670    12.2780    14.6470   -11.6210 
  237.3750     2.4130   408.7060   100.4970    23.8350    11.8220    11.7660    13.8700   -11.5240 
  237.5000     2.4180   413.6380   100.1070    23.8760    10.4980    11.1790    13.0850   -11.4100 
  237.6250     2.4230   414.9750    96.5180    23.9430    10.2700    10.7720    12.6190   -11.2850 
  237.7500     2.4270   414.6220    93.6350    24.0270    10.3930    10.6090    12.5040   -11.1460 
  237.8750     2.4260   414.1800    93.8480    24.0950    10.5220    10.6470    12.6480   -10.9750 
  238.0000     2.4170   414.1930    96.2160    24.1400    10.6080    10.7750    12.8940   -10.7560 
  238.1250     2.4070   414.0010    98.4020    24.1890    10.5690    10.8530    13.0630   -10.4970 
  238.2500     2.4050   412.9960    99.0350    24.2400    10.4160    10.7930    13.0460   -10.2620 
  238.3750     2.4140   411.3350    97.6330    24.2700    10.1200    10.5550    12.7920   -10.0850 
  238.5000     2.4280   409.6860    97.8070    24.2620     9.8320    10.1430    12.3170    -9.9490 
  238.6250     2.4310   408.6800   102.0990    24.1970     9.6550     9.6530    11.7590    -9.8440 
  238.7500     2.4170   407.7980   106.7430    24.1000     9.5730     9.3010    11.4010    -9.8310 
  238.8750     2.4030   405.9510   107.0290    24.0170     9.7040     9.2950    11.5300    -9.9790 
  239.0000     2.4090   402.3410   103.4840    23.9640    10.5190     9.8160    12.4080   -10.3010 
  239.1250     2.4320   397.4270   101.6750    23.8610    13.4770    11.1800    14.4450   -10.7690 
  239.2500     2.4380   393.1400   101.7140    23.7470    19.1750    13.5050    17.6740   -11.3140 
  239.3750     2.4110   390.4760    99.9460    23.7000    25.2360    17.0140    22.1530   -11.8750 
  239.5000     2.3650   389.2080    93.7590    23.7370    28.8270    21.7840    27.6320   -12.4140 
  239.6250     2.3310   388.4610    85.2420    23.8290    32.3100    27.3550    33.0050   -12.9100 
  239.7500     2.3170   387.9680    81.2930    23.8910    39.1850    31.9230    36.4470   -13.3060 
  239.8750     2.3140   388.4800    82.7140    23.9190    42.9490    33.4690    36.5590   -13.5340 
  240.0000     2.3160   390.5540    84.2630    23.9210    36.3050    31.1290    33.1780   -13.5620 
  240.1250     2.3270   393.6620    81.8750    23.9520    22.8060    26.0510    27.5090   -13.4090 
  240.2500     2.3480   396.0810    81.9800    24.0780    14.5480    20.9060    21.9190   -13.1360 
  240.3750     2.3790   396.7570    88.3230    24.2590    11.4900    16.7950    17.5430   -12.7970 
  240.5000     2.4100   395.6390    95.6360    24.3620    10.8060    13.9920    14.7120   -12.4140 
  240.6250     2.4210   393.2720    97.5070    24.3980    10.7840    12.5200    13.4150   -11.9970 
  240.7500     2.4080   390.5480    97.2820    24.4160    10.7250    11.8860    12.9850   -11.6070 
  240.8750     2.3850   387.9370    99.0540    24.4180    10.6660    11.8030    13.0110   -11.2960 
