~V
VERS. 2.00: Ver 2.00
~W
STRT.M 100.0000:
STOP.M 292.0000:
STEP.M 0.1250:
NULL. -999.2500:
UWI. DF310:
~C
DEPT.M :
AC.US/MT :
DEN.GM/CC :
GR.API :
CALI.CM :
RXO.OHMM :
RI. :
RML.OHMM :
SP.MV :
~A
# ...
  230.0000   393.9610     2.5540    78.0390    22.9120    10.3100     8.5890    10.5790   -16.2990 
  230.1250   409.2640     2.5030    76.8550    22.8510     8.0090     6.7630     8.1020   -15.9880 
  230.2500   417.2940     2.4710    71.7240    22.7470     6.4420     5.5300     6.7790   -15.6890 
  230.3750   417.8890     2.4700    66.1420    22.6700     5.4090     4.8090     6.3900   -15.3990 
  230.5000   412.5010     2.4870    64.2990    22.6400     4.8980     4.4910     6.5670   -15.1550 
  230.6250   406.1070     2.4930    67.6730    22.6460     4.7230     4.4830     6.8520   -14.9430 
  230.7500   404.4500     2.4800    72.8600    22.6680     4.7240     4.6030     6.9100   -14.7680 
  230.8750   408.3160     2.4570    78.4410    22.7220     4.8900     4.7440     6.6960   -14.6610 
  231.0000   413.9080     2.4370    84.1090    22.7770     5.1390     4.8370     6.3700   -14.5940 
  231.1250   415.4030     2.4310    88.0540    22.8010     5.2520     4.8550     6.2370   -14.5360 
  231.2500   412.3290     2.4370    87.9410    22.8080     5.1990     4.8440     6.3700   -14.4810 
  231.3750   407.6060     2.4460    84.1150    22.8180     5.1150     4.8470     6.6820   -14.4490 
  231.5000   404.6570     2.4440    79.3640    22.8250     5.1290     4.8870     7.0110   -14.4050 
  231.6250   405.4520     2.4330    76.6240    22.8280     5.3130     4.9640     7.1900   -14.3470 
  231.7500   407.9850     2.4260    76.6080    22.8240     5.5010     5.0450     7.1950   -14.2800 
  231.8750   409.6070     2.4260    76.4650    22.8230     5.5920     5.1040     7.0630   -14.2010 
  232.0000   408.1630     2.4260    74.6100    22.8240     5.5680     5.1300     6.8930   -14.1030 
  232.1250   403.5140     2.4200    72.6920    22.8270     5.5130     5.1360     6.8130   -14.0150 
  232.2500   399.2520     2.4150    74.4380    22.8280     5.5800     5.1410     6.8620   -13.9570 
  232.3750   398.1210     2.4170    79.7600    22.8270     5.8070     5.1440     6.9960   -13.8900 
  232.5000   400.3630     2.4260    84.8650    22.8240     6.0170     5.1300     7.0950   -13.8410 
  232.6250   403.3740     2.4330    86.0270    22.8270     6.0430     5.0970     7.0780   -13.8290 
  232.7500   403.8000     2.4340    83.4320    22.8260     5.9590     5.0710     7.0100   -13.8410 
  232.8750   399.6070     2.4310    81.4590    22.8240     5.8540     5.0950     7.0220   -13.8880 
  233.0000   389.7440     2.4320    81.2850    22.8100     5.8160     5.2180     7.2570   -13.9930 
  233.1250   375.2810     2.4450    81.8890    22.7770     6.0350     5.5040     7.8300   -14.1490 
  233.2500   362.8310     2.4570    83.7610    22.7400     6.5680     5.9430     8.6260   -14.3230 
  233.3750   358.4180     2.4540    85.7820    22.7250     7.3620     6.5190     9.5380   -14.5410 
  233.5000   363.6960     2.4280    87.2060    22.7220     8.3660     7.1900    10.4610   -14.7740 
  233.6250   374.1560     2.3900    87.6130    22.7230     9.4040     7.8450    11.2510   -15.0170 
  233.7500   382.1090     2.3630    87.0110    22.7210    10.0850     8.3650    11.8150   -15.2800 
  233.8750   385.0200     2.3530    86.8360    22.7190    10.4660     8.7300    12.1730   -15.5470 
  234.0000   383.7260     2.3550    87.3090    22.7190    11.0890     9.0270    12.4600   -15.8140 
  234.1250   380.4260     2.3590    87.6170    22.7190    12.0780     9.4250    12.8750   -16.0900 
  234.2500   377.4090     2.3660    85.6450    22.7190    13.0850    10.0770    13.6070   -16.3780 
  234.3750   374.5950     2.3710    80.7530    22.7190    16.1030    11.1580    14.9100   -16.6930 
  234.5000   370.0570     2.3660    74.9010    22.7200    21.5250    12.8930    17.0700   -17.0560 
  234.6250   362.5090     2.3430    71.0030    22.7230    25.5040    15.8400    20.7300   -17.4320 
  234.7500   356.3930     2.3100    70.8400    22.7250    27.9940    20.4400    26.2860   -17.8240 
  234.8750   356.6550     2.2770    70.8850    22.7230    35.4970    27.4210    34.4470   -18.2440 
  235.0000   363.9300     2.2570    68.9640    22.7200    51.8830    37.3680    45.9270   -18.6630 
  235.1250   373.2380     2.2500    65.5730    22.7200    71.0220    50.3980    61.3650   -19.0780 
  235.2500   379.4380     2.2500    62.3590    22.7220    80.2310    64.1350    78.4110   -19.4960 
  235.3750   382.3830     2.2500    58.9710    22.7220    82.4820    75.7490    93.1800   -19.8950 
  235.5000   383.7940     2.2480    55.8090    22.7200    83.8210    82.9060   101.6360   -20.2310 
  235.6250   384.6330     2.2460    54.6180    22.7180    83.4610    85.0410   102.9320   -20.5480 
  235.7500   385.0710     2.2430    57.2780    22.7100    79.8800    85.1300   101.8600   -20.8380 
  235.8750   385.3690     2.2370    61.5050    22.6890    76.1690    84.9110   100.7540   -21.0690 
  236.0000   385.9110     2.2270    63.3850    22.6670    74.4590    85.1050   100.2530   -21.2710 
  236.1250   386.8680     2.2130    61.4750    22.6490    75.4420    85.8630   100.5310   -21.4490 
  236.2500   388.1260     2.2000    58.7710    22.6400    78.0860    86.9120   101.4790   -21.6060 
  236.3750   389.6300     2.1930    58.8630    22.6360    80.2860    88.0010   102.9100   -21.7280 
  236.5000   391.1970     2.1940    61.3590    22.6340    80.7460    88.9260   104.4620   -21.8470 
  236.6250   392.4570     2.1980    63.5620    22.6360    79.5020    89.5820   105.5500   -21.9480 
  236.7500   393.2790     2.2020    64.8420    22.6380    76.4590    90.0470   105.9030   -22.0450 
  236.8750   393.6950     2.2070    64.2330    22.6380    72.7810    90.3300   105.6230   -22.1520 
  237.0000   393.7870     2.2120    60.8370    22.6250    70.4890    90.4370   105.1150   -22.2650 
  237.1250   393.7580     2.2110    57.9750    22.6020    69.4280    90.3620   104.7840   -22.3690 
  237.2500   393.8890     2.2130    58.3980    22.5750    68.1200    90.1580   104.5670   -22.4540 
  237.3750   394.0110     2.2260    59.4540    22.5600    66.4570    89.8170   104.1560   -22.5610 
  237.5000   393.4940     2.2470    59.2050    22.5530    65.6570    89.2970   103.2410   -22.6610 
  237.6250   391.9300     2.2530    58.7220    22.5560    65.4760    88.5690   101.7600   -22.7390 
  237.7500   390.4480     2.2410    58.2800    22.5600    64.2400    87.8290   100.2180   -22.7960 
  237.8750   390.2050     2.2220    55.8110    22.5520    61.9970    87.3460    99.0130   -22.8660 
  238.0000   391.4770     2.2110    53.8550    22.5430    59.9280    87.2990    98.2510   -22.9270 
  238.1250   393.5940     2.2130    55.7630    22.5390    59.5800    87.6750    97.7010   -22.9700 
  238.2500   395.5640     2.2210    59.7840    22.5390    61.2320    88.1080    96.9570   -23.0210 
  238.3750   396.9470     2.2300    61.3910    22.5390    63.9820    88.3010    95.8820   -23.0460 
  238.5000   397.3650     2.2350    60.0370    22.5390    65.2350    88.1530    94.5410   -23.0760 
  238.6250   396.2470     2.2380    57.3200    22.5390    63.6110    87.9800    93.3150   -23.1070 
  238.7500   393.9940     2.2390    56.1240    22.5390    62.2860    88.4480    92.8250   -23.1370 
  238.8750   391.5050     2.2330    56.3850    22.5390    63.9590    89.9720    93.5320   -23.1370 
  239.0000   390.0160     2.2210    56.3060    22.5390    67.6550    92.2850    95.2220   -23.1400 
  239.1250   390.6350     2.2110    54.8100    22.5390    70.9920    93.7610    96.0670   -23.1340 
  239.2500   392.6630     2.2070    53.5310    22.5390    74.3130    92.3110    93.5570   -23.1310 
  239.3750   395.1140     2.2060    55.6030    22.5390    76.2320    86.7990    86.5640   -23.1340 
  239.5000   397.2150     2.2060    59.4380    22.5390    72.2870    76.4360    77.9650   -23.1220 
  239.6250   398.6080     2.2110    61.0540    22.5390    60.3750    66.3660    68.3020   -23.1190 
  239.7500   399.4360     2.2200    60.1070    22.5390    48.3850    58.6020    60.3750   -23.1370 
  239.8750   399.8560     2.2270    59.4950    22.5360    41.3340    53.6980    55.1810   -23.1970 
