~V
VERS. 2.00: Ver 2.00
~W
STRT.M 60.0000:
STOP.M 248.0000:
STEP.M 0.1250:
NULL. -999.2500:
UWI. DF313:
~C
DEPT.M :
DEN.GM/CC :
SP.MV :
AC.US/MT :
GR.API :
CALI.CM :
RXO.OHMM :
RI. :
RML.OHMM :
~A
# ...
  120.0000     2.1500    -7.1480   440.7690    79.0620    24.9190    10.9200     8.4180    11.9710 
  120.1250     2.1350    -7.0820   442.6200    72.4930    24.8610    16.3050    10.1400    15.1630 
  120.2500     2.1260    -7.0090   445.2130    67.0140    24.7140    25.9620    13.3400    20.4150 
  120.3750     2.1230    -6.9570   447.8800    64.4870    24.5560    35.3590    17.4950    26.5790 
  120.5000     2.1270    -6.9140   449.9300    63.2590    24.5600    39.3040    21.5010    31.7210 
  120.6250     2.1300    -6.8560   451.3680    62.9750    24.8350    37.6330    24.0890    34.1040 
  120.7500     2.1350    -6.7850   452.5090    65.7190    25.2160    34.6440    24.8110    33.8380 
  120.8750     2.1480    -6.6950   453.6940    67.5470    25.4390    32.6030    24.8890    33.2320 
  121.0000     2.1670    -6.5860   454.9930    64.6700    25.5120    32.0680    25.1310    33.4150 
  121.1250     2.1760    -6.4720   456.0910    58.8350    25.5930    33.7880    25.8760    34.6420 
  121.2500     2.1660    -6.3850   456.7270    55.7440    25.8310    36.7310    27.0490    36.5570 
  121.3750     2.1460    -6.3230   456.9200    56.5460    26.1320    38.2920    28.1360    38.2010 
  121.5000     2.1290    -6.2740   456.8220    58.1150    26.2840    37.8560    28.6880    38.8190 
  121.6250     2.1250    -6.2340   456.0710    59.4020    26.1620    36.3270    28.4610    38.1080 
  121.7500     2.1280    -6.2420   453.1390    60.8460    25.9090    34.3790    27.5380    36.4160 
  121.8750     2.1250    -6.2860   445.6600    62.7710    25.7920    32.8480    26.5340    34.8110 
  122.0000     2.1100    -6.3530   430.5650    64.3860    25.7890    33.3270    25.9250    33.9860 
  122.1250     2.1020    -6.4420   409.9570    64.3220    25.7130    36.8390    26.0170    34.2740 
  122.2500     2.1270    -6.5540   388.2010    62.9390    25.5770    40.9510    26.9090    35.6540 
  122.3750     2.1870    -6.6980   371.5240    62.1060    25.6760    40.9340    28.0900    37.2790 
  122.5000     2.2540    -6.8550   367.5110    61.7340    25.9690    36.1040    28.9920    38.3040 
  122.6250     2.2750    -7.0150   375.5050    61.5830    26.0140    29.8250    29.0230    37.9450 
  122.7500     2.2480    -7.1660   391.8790    61.4620    25.5600    26.3340    27.6240    35.5970 
  122.8750     2.2050    -7.3110   410.7300    61.2280    25.1880    26.5070    25.2910    32.1720 
  123.0000     2.1810    -7.4740   425.5150    61.4690    25.2560    28.6950    22.6810    28.6490 
  123.1250     2.1830    -7.6800   434.1260    62.2930    25.5250    28.8340    20.3600    25.7350 
  123.2500     2.1880    -7.8860   437.2350    63.3380    25.4890    24.8830    18.7490    23.8940 
  123.3750     2.1830    -8.0460   436.9760    62.8870    25.1850    21.3160    17.8280    22.9840 
  123.5000     2.1730    -8.1790   435.7090    61.8800    24.9210    20.7370    17.5170    22.8310 
  123.6250     2.1720    -8.3140   435.1500    63.0010    24.9230    22.0980    17.6480    23.1790 
  123.7500     2.1830    -8.4230   435.7600    65.6330    25.1170    24.1010    18.0780    23.8040 
  123.8750     2.1940    -8.5000   437.4360    65.4300    25.2150    27.0230    18.5890    24.4220 
  124.0000     2.1980    -8.5600   439.7720    63.5100    25.1630    30.1380    18.9920    24.7840 
  124.1250     2.1950    -8.6010   442.0430    64.1930    25.0770    30.7270    19.1480    24.7460 
  124.2500     2.1920    -8.6130   443.7350    64.6980    25.1110    27.0640    19.0570    24.4010 
  124.3750     2.1900    -8.6190   444.4490    60.3190    25.1920    22.6330    18.9130    24.0620 
  124.5000     2.1870    -8.6300   443.7270    54.6940    25.1760    20.2420    18.8460    23.9030 
  124.6250     2.1880    -8.6320   441.7610    54.5030    25.0720    20.6290    18.9360    24.0090 
  124.7500     2.1850    -8.6800   438.7750    60.2800    25.0850    23.0000    19.2280    24.3930 
  124.8750     2.1710    -8.7960   435.2010    64.4190    25.2570    25.1510    19.6040    24.8690 
  125.0000     2.1500    -8.9720   431.6450    65.0520    25.4280    25.8100    19.9070    25.2300 
  125.1250     2.1470    -9.1800   428.5760    63.9480    25.4470    24.9810    19.9540    25.2420 
  125.2500     2.1700    -9.4380   426.1110    63.5620    25.3340    23.5930    19.5360    24.6340 
  125.3750     2.2010    -9.7260   424.0920    63.9310    25.2440    22.1840    18.7480    23.5520 
  125.5000     2.2200   -10.0280   422.2500    64.3570    25.2340    20.6600    17.7690    22.2500 
  125.6250     2.2120   -10.3210   420.4650    63.8350    25.2530    19.1720    16.8130    21.0300 
  125.7500     2.1820   -10.5960   418.9770    62.4190    25.2070    18.2990    16.0850    20.1780 
  125.8750     2.1350   -10.8610   418.2210    62.0160    25.1440    18.1130    15.6350    19.7230 
  126.0000     2.0910   -11.0850   418.7350    64.0340    25.1320    18.3940    15.4720    19.6440 
  126.1250     2.0750   -11.2480   420.1720    67.2390    25.1750    18.8010    15.5590    19.8570 
  126.2500     2.0860   -11.3610   421.8800    68.7120    25.3090    18.9780    15.8270    20.2290 
  126.3750     2.1120   -11.4620   423.0520    67.7210    25.4940    18.9440    16.1310    20.5750 
  126.5000     2.1420   -11.5400   423.0140    65.4210    25.5380    18.9080    16.3970    20.8030 
  126.6250     2.1650   -11.5960   422.1980    62.8230    25.2840    18.9770    16.5990    20.9010 
  126.7500     2.1760   -11.5980   421.3360    59.9760    24.9480    19.1800    16.7560    20.9300 
  126.8750     2.1800   -11.5200   421.1580    56.8730    24.8710    19.6290    16.9140    20.9960 
  127.0000     2.1790   -11.3780   422.1710    54.7560    25.0180    20.3690    17.0850    21.1300 
  127.1250     2.1730   -11.1940   423.9670    55.1770    25.1610    21.1310    17.2430    21.2940 
  127.2500     2.1690   -10.9860   426.0480    58.5060    25.1770    21.3220    17.3230    21.3800 
  127.3750     2.1780   -10.7760   427.8870    60.5890    25.1090    20.8140    17.2940    21.3240 
  127.5000     2.2010   -10.5840   428.8550    60.5510    24.9780    20.0630    17.1530    21.1250 
  127.6250     2.2180   -10.4430   428.7100    60.7970    24.8370    19.8740    16.9400    20.8510 
  127.7500     2.2130   -10.3930   427.2970    62.4970    24.8000    20.6690    16.7160    20.5960 
  127.8750     2.2030   -10.4070   424.6440    64.9410    24.8940    21.4250    16.5290    20.3980 
  128.0000     2.2100   -10.4980   420.7710    66.8250    25.0310    21.3180    16.4160    20.2950 
  128.1250     2.2240   -10.6870   416.0770    67.0520    25.1040    20.4250    16.4460    20.3950 
  128.2500     2.2130   -10.9400   410.7100    65.9940    25.1050    19.5750    16.7640    20.9280 
  128.3750     2.1860   -11.2030   404.8350    65.3340    25.1140    19.7400    17.4260    21.9760 
  128.5000     2.1770   -11.4920   398.7950    65.1400    25.1250    21.7990    18.4920    23.6000 
  128.6250     2.2090   -11.8220   393.2370    63.6260    25.0880    25.8000    19.9710    25.7420 
  128.7500     2.2590   -12.1470   388.8430    61.2890    25.0140    29.5160    21.7980    28.1870 
  128.8750     2.3060   -12.4530   386.2470    61.5370    24.9560    30.9720    23.6310    30.4350 
  129.0000     2.3380   -12.7320   386.3020    63.6010    24.8860    31.7420    25.1110    32.0010 
  129.1250     2.3360   -12.9750   388.7010    65.4710    24.7650    35.6830    25.9660    32.5850 
  129.2500     2.3100   -13.1610   393.0490    68.1800    24.6310    42.9520    26.1600    32.2420 
  129.3750     2.2760   -13.2740   398.5200    70.2830    24.5250    45.1490    26.1620    31.6800 
  129.5000     2.2420   -13.3130   403.7940    69.5750    24.4040    39.8200    26.2390    31.2600 
  129.6250     2.2030   -13.2860   407.7620    66.7970    24.2530    33.5410    26.3980    30.9900 
  129.7500     2.1680   -13.2050   410.1000    63.0470    24.1260    33.7250    26.4080    30.6140 
  129.8750     2.1520   -13.1000   411.3300    60.1270    24.0500    35.5570    26.0360    29.8510 
