~V
VERS. 2.00: Ver 2.00
~W
STRT.M 60.0000:
STOP.M 247.0000:
STEP.M 0.1250:
NULL. -999.2500:
UWI. DF315:
~C
DEPT.M :
DEN.GM/CC :
AC.US/MT :
GR.API :
RML.OHMM :
RI. :
RXO.OHMM :
CALI.CM :
SP.MV :
~A
# ...
   70.0000  -999.2500  -999.2500    99.9050     8.0620     8.3060     7.1700    24.5880   -21.0690 
   70.1250  -999.2500  -999.2500    99.0030     7.8680     8.0530     7.2620    24.5650   -21.0630 
   70.2500  -999.2500  -999.2500    96.7460     7.7270     8.0000     7.2320    24.5580   -21.0630 
   70.3750  -999.2500  -999.2500    96.3250     7.5770     8.0710     6.9740    24.5430   -21.0720 
   70.5000  -999.2500  -999.2500    96.3490     7.3980     8.1850     6.8140    24.5030   -21.1060 
   70.6250  -999.2500  -999.2500    95.3020     7.2130     8.2640     6.8650    24.4380   -21.0970 
   70.7500  -999.2500  -999.2500    94.0640     7.0510     8.2660     7.0250    24.3780   -21.1030 
   70.8750  -999.2500  -999.2500    94.1760     6.9070     8.1700     7.1920    24.2600   -21.1320 
   71.0000  -999.2500  -999.2500    96.1260     6.7520     7.9710     7.2320    24.0840   -21.1240 
   71.1250  -999.2500  -999.2500    99.6280     6.5610     7.6870     6.9220    23.9280   -21.1520 
   71.2500  -999.2500  -999.2500   104.0090     6.3580     7.3930     6.5440    23.9610   -21.1790 
   71.3750  -999.2500  -999.2500   109.4980     6.2130     7.1540     6.3350    24.2160   -21.1470 
   71.5000  -999.2500  -999.2500   113.0640     6.2290     7.0240     6.3690    24.6130   -21.1000 
   71.6250  -999.2500  -999.2500   111.3000     6.5110     7.0450     6.6610    24.9700   -21.1100 
   71.7500  -999.2500  -999.2500   106.2420     6.9500     7.1780     7.0280    25.1060   -21.1210 
   71.8750  -999.2500  -999.2500   101.4730     7.3920     7.3780     7.3090    25.1300   -21.1090 
   72.0000  -999.2500  -999.2500    98.3050     7.6810     7.5800     7.4070    25.1060   -21.0880 
   72.1250  -999.2500  -999.2500    96.6350     7.6970     7.6920     7.5020    25.0400   -21.0590 
   72.2500  -999.2500  -999.2500    97.0810     7.5090     7.6700     7.5570    24.9630   -21.0300 
   72.3750  -999.2500  -999.2500   101.0600     7.1790     7.4910     7.5980    24.9300   -20.9960 
   72.5000  -999.2500  -999.2500   108.0100     6.7540     7.1720     7.5500    24.9260   -20.9780 
   72.6250  -999.2500  -999.2500   116.2260     6.2940     6.7720     7.1540    24.9260   -20.9490 
   72.7500  -999.2500  -999.2500   123.7030     5.9380     6.4170     6.9130    24.9260   -20.9010 
   72.8750  -999.2500  -999.2500   128.1870     5.8420     6.2240     6.8810    24.9260   -20.8910 
   73.0000  -999.2500  -999.2500   127.6980     6.1180     6.2980     7.2460    24.9260   -20.8920 
   73.1250  -999.2500  -999.2500   120.1340     6.8740     6.7670     9.0560    24.9250   -20.8450 
   73.2500  -999.2500  -999.2500   108.5570     8.0200     7.5980    11.7940    24.9190   -20.8100 
   73.3750  -999.2500  -999.2500    97.6260     9.4850     8.7610    14.9430    24.8950   -20.8110 
   73.5000  -999.2500  -999.2500    91.9210    11.1600    10.1810    17.7240    24.8470   -20.8010 
   73.6250  -999.2500  -999.2500    90.5930    12.9020    11.7450    16.4580    24.7850   -20.8010 
   73.7500  -999.2500  -999.2500    86.2000    14.5570    13.2900    15.9790    24.6300   -20.8280 
   73.8750  -999.2500  -999.2500    79.1880    16.0240    14.7080    16.8920    24.2400   -20.8370 
   74.0000  -999.2500  -999.2500    74.2700    17.2270    15.9140    18.0780    23.6900   -20.8370 
   74.1250  -999.2500  -999.2500    74.1110    18.0500    16.7840    18.3340    23.4160   -20.8790 
   74.2500  -999.2500  -999.2500    75.7910    18.5020    17.3170    17.9160    23.4870   -20.9200 
   74.3750  -999.2500  -999.2500    76.9340    18.5970    17.5120    17.4940    23.9610   -20.9470 
   74.5000  -999.2500  -999.2500    75.5360    18.4440    17.4420    17.6280    24.7660   -21.0020 
   74.6250  -999.2500  -999.2500    71.5850    18.2410    17.2510    18.0000    25.3830   -21.0890 
   74.7500  -999.2500  -999.2500    69.9620    18.1690    17.1000    17.9540    25.6640   -21.1820 
   74.8750  -999.2500  -999.2500    73.9880    18.2500    17.0360    17.5190    25.6920   -21.2570 
   75.0000  -999.2500  -999.2500    80.6990    18.3280    16.9920    17.0500    25.6290   -21.3620 
   75.1250  -999.2500  -999.2500    83.7650    18.0020    16.7200    17.1270    25.4890   -21.5000 
   75.2500  -999.2500  -999.2500    83.9210    17.0240    16.0050    17.5450    25.2770   -21.6400 
   75.3750  -999.2500  -999.2500    85.7880    15.3700    14.7550    17.6680    25.0520   -21.7800 
   75.5000  -999.2500  -999.2500    91.5880    13.2980    13.0740    16.5360    24.9290   -21.9240 
   75.6250  -999.2500  -999.2500    97.1510    11.2800    11.2530    13.3710    24.8910   -22.0410 
   75.7500  -999.2500  -999.2500    99.4580     9.6470     9.6310     9.5610    24.8720   -22.1070 
   75.8750  -999.2500  -999.2500   100.8850     8.4590     8.3530     7.9320    24.8840   -22.1950 
   76.0000  -999.2500  -999.2500   103.6690     7.6370     7.4390     7.3310    24.9180   -22.2900 
   76.1250  -999.2500  -999.2500   107.0950     7.1110     6.8980     6.8500    24.9590   -22.3080 
   76.2500  -999.2500  -999.2500   110.0280     6.7900     6.6180     6.4480    24.9770   -22.3170 
   76.3750  -999.2500   413.3010   112.2340     6.6800     6.5460     6.2300    24.9820   -22.3400 
   76.5000  -999.2500   413.3010   112.9780     6.7840     6.6260     6.3490    24.9760   -22.3140 
   76.6250  -999.2500   413.3010   110.0780     7.0540     6.8000     7.0610    24.9600   -22.2670 
   76.7500  -999.2500   413.3010   105.7850     7.3110     6.9740     7.8660    24.9380   -22.2780 
   76.8750  -999.2500   414.7620   102.6950     7.4030     7.0720     8.3560    24.9280   -22.2520 
   77.0000  -999.2500   427.5970   102.9990     7.2540     7.0490     8.2270    24.9210   -22.2050 
   77.1250  -999.2500   448.1860   105.5910     6.8970     6.9030     7.3410    24.9170   -22.2140 
   77.2500  -999.2500   463.3810   105.9200     6.5420     6.7320     7.0590    24.9090   -22.1860 
   77.3750  -999.2500   469.0810   102.3190     6.3540     6.6230     7.0360    24.8890   -22.1630 
   77.5000  -999.2500   467.2170    98.7450     6.4390     6.6420     7.0420    24.8440   -22.2050 
   77.6250  -999.2500   461.8800    99.6720     6.8350     6.8230     7.1230    24.7730   -22.2410 
   77.7500  -999.2500   456.7810    99.4850     7.3730     7.0880     7.4570    24.6680   -22.2410 
   77.8750  -999.2500   453.3770    95.6410     7.8840     7.3410     7.8150    24.5780   -22.2460 
   78.0000  -999.2500   451.9700    91.3750     8.2020     7.4820     8.0100    24.5040   -22.2590 
   78.1250  -999.2500   452.5180    91.5390     8.1570     7.4050     7.8510    24.3630   -22.2610 
   78.2500  -999.2500   454.9920    94.9700     7.8070     7.1340     7.5510    24.1620   -22.2660 
   78.3750  -999.2500   459.0550    99.9280     7.2680     6.7260     6.8920    24.0230   -22.2380 
   78.5000  -999.2500   463.0260   105.7610     6.6910     6.2670     6.2830    24.0320   -22.1800 
   78.6250     0.0000   464.5370   108.1100     6.2370     5.8500     5.9220    24.2480   -22.1330 
   78.7500     0.0000   463.4340   106.1690     5.9710     5.5380     5.6050    24.5750   -22.0790 
   78.8750     0.0000   460.6120   102.4560     5.9190     5.3770     5.4090    24.8100   -22.0490 
   79.0000     2.3370   456.2260    98.9020     6.0820     5.3950     5.3800    24.8910   -22.0090 
   79.1250     2.3530   447.7460    98.9380     6.4580     5.6220     5.6440    24.8810   -21.9210 
   79.2500     2.3660   434.7470   101.0620     6.9340     5.9880     6.1830    24.8540   -21.8660 
   79.3750     2.3710   421.5770   101.5720     7.3930     6.4230     7.0280    24.8430   -21.8660 
   79.5000     2.3620   416.3820    98.3510     7.7090     6.8440     7.8910    24.8420   -21.8440 
   79.6250     2.3410   425.1530    94.3390     7.7980     7.1510     8.3540    24.8230   -21.7830 
   79.7500     2.3180   439.8610    90.6480     7.7470     7.3380     8.3900    24.7590   -21.7710 
   79.8750     2.3000   452.5220    85.8900     7.7040     7.4440     8.3310    24.6500   -21.7860 
