~V
VERS. 2.00: Ver 2.00
~W
STRT.M 60.0000:
STOP.M 262.0000:
STEP.M 0.1250:
NULL. -999.2500:
UWI. DF319:
~C
DEPT.M :
GR.API :
RML.OHMM :
RI. :
RXO.OHMM :
CALI.CM :
AC.US/MT :
DEN.GM/CC :
SP.MV :
~A
# ...
   90.0000    93.8170     6.2730     5.3100     5.8280    24.0740  -999.2500  -999.2500   -40.0210 
   90.1250    92.5900     6.2830     5.2960     5.7290    24.3010  -999.2500  -999.2500   -40.0820 
   90.2500    90.7530     6.3770     5.3370     5.8410    24.3640  -999.2500  -999.2500   -40.1580 
   90.3750    90.0600     6.4690     5.3660     6.1250    24.3660  -999.2500  -999.2500   -40.2800 
   90.5000    91.0580     6.4580     5.3140     6.3930    24.3660  -999.2500  -999.2500   -40.4230 
   90.6250    91.0350     6.2520     5.1220     6.5060    24.3660  -999.2500  -999.2500   -40.5390 
   90.7500    91.9860     5.9230     4.8450     6.2760    24.3660  -999.2500  -999.2500   -40.6190 
   90.8750    94.5900     5.6240     4.5870     5.7800    24.3660  -999.2500  -999.2500   -40.6710 
   91.0000    96.9260     5.5790     4.4960     5.5880    24.3660  -999.2500  -999.2500   -40.7350 
   91.1250    98.4340     6.0850     4.7880     6.2240    24.3660  -999.2500  -999.2500   -40.8780 
   91.2500    98.1310     7.1180     5.4780     8.2690    24.3660  -999.2500  -999.2500   -41.0280 
   91.3750    94.4890     8.5140     6.4910    11.4290    24.3660  -999.2500  -999.2500   -41.1310 
   91.5000    86.7800     9.9290     7.6120    14.9690    24.3660  -999.2500  -999.2500   -41.2350 
   91.6250    78.8610    10.7820     8.4460    17.1890    24.3630  -999.2500  -999.2500   -41.4030 
   91.7500    76.7610    10.8260     8.7430    15.7480    24.3390  -999.2500  -999.2500   -41.6590 
   91.8750    79.7170    10.1660     8.4850    11.6250    24.2560  -999.2500  -999.2500   -41.9750 
   92.0000    83.6650     9.2250     7.8920     8.9430    24.0840  -999.2500  -999.2500   -42.2970 
   92.1250    83.9570     8.5210     7.3130     8.5140    23.8660  -999.2500  -999.2500   -42.5670 
   92.2500    81.9550     8.2240     6.9660     8.8150    23.7230  -999.2500  -999.2500   -42.8340 
   92.3750    80.0750     8.2990     6.8880     9.1720    23.6700  -999.2500  -999.2500   -43.1430 
   92.5000    79.2540     8.6240     7.0270     9.5850    23.6510  -999.2500  -999.2500   -43.4570 
   92.6250    77.4600     9.0350     7.2850    10.6320    23.6430  -999.2500  -999.2500   -43.7300 
   92.7500    74.7890     9.3570     7.5220    12.0900    23.6350  -999.2500  -999.2500   -43.9480 
   92.8750    73.7730     9.4930     7.6610    13.2620    23.6050  -999.2500  -999.2500   -44.1070 
   93.0000    76.3150     9.4120     7.6650    13.5900    23.5730  -999.2500  -999.2500   -44.1950 
   93.1250    79.6990     9.1590     7.5380    12.6230    23.6750  -999.2500  -999.2500   -44.2760 
   93.2500    80.6860     8.8880     7.3620    10.4750    23.9120  -999.2500  -999.2500   -44.3570 
   93.3750    79.4340     8.6940     7.1940     9.4020    24.1140  -999.2500  -999.2500   -44.3690 
   93.5000    77.8000     8.5930     7.0570     9.2540    24.1750  -999.2500  -999.2500   -44.3180 
   93.6250    76.1060     8.5280     6.9300     9.4900    24.1620  -999.2500  -999.2500   -44.2560 
   93.7500    74.2710     8.4220     6.7780     9.6300    24.1600  -999.2500  -999.2500   -44.1710 
   93.8750    74.5290     8.2640     6.5970     9.4920    24.1610  -999.2500  -999.2500   -44.0350 
   94.0000    77.2070     8.1020     6.4160     8.9040    24.1600  -999.2500  -999.2500   -43.9270 
   94.1250    79.1850     8.0310     6.2920     8.1220    24.1590  -999.2500  -999.2500   -43.8280 
   94.2500    78.3670     8.0780     6.2500     7.6680    24.1570  -999.2500  -999.2500   -43.6980 
   94.3750    77.9310     8.2060     6.2790     7.9700    24.1560  -999.2500  -999.2500   -43.5910 
   94.5000    78.7860     8.3340     6.3400     8.7470    24.1380  -999.2500  -999.2500   -43.5180 
   94.6250    79.0530     8.3650     6.3780     8.9720    24.0830  -999.2500  -999.2500   -43.4280 
   94.7500    78.1160     8.2960     6.3700     8.8610    24.0010  -999.2500  -999.2500   -43.3260 
   94.8750    77.2740     8.1840     6.3310     8.7110    23.9580  -999.2500  -999.2500   -43.2560 
   95.0000    77.1020     8.1160     6.2970     8.7340    23.9480  -999.2500  -999.2500   -43.1700 
   95.1250    76.8810     8.1880     6.3170     9.0610    23.9480  -999.2500  -999.2500   -43.0770 
   95.2500    74.6320     8.3820     6.3950     9.3510    23.9480  -999.2500  -999.2500   -43.0110 
   95.3750    70.1700     8.6370     6.5140     9.5400    23.9470  -999.2500  -999.2500   -42.9230 
   95.5000    67.1850     8.8710     6.6380     9.5680    23.9470  -999.2500  -999.2500   -42.7670 
   95.6250    68.7080     9.0010     6.7310     9.5220    23.9420  -999.2500  -999.2500   -42.5720 
   95.7500    71.3280     9.0390     6.7840     9.5040    23.9010  -999.2500  -999.2500   -42.3800 
   95.8750    73.2250     9.0230     6.8050     9.5150    23.7920  -999.2500  -999.2500   -42.1460 
   96.0000    74.4780     8.9920     6.7980     9.5410    23.6730  -999.2500  -999.2500   -41.8700 
   96.1250    74.5010     8.9410     6.7550     9.2950    23.6160  -999.2500  -999.2500   -41.5270 
   96.2500    74.8780     8.8300     6.6610     9.1340    23.5980  -999.2500  -999.2500   -41.1500 
   96.3750    76.4960     8.6120     6.5000     9.2340    23.5650  -999.2500  -999.2500   -40.7820 
   96.5000    79.1700     8.2850     6.2790     9.1040    23.4830  -999.2500  -999.2500   -40.4600 
   96.6250    82.3430     7.9180     6.0380     8.7260    23.3720  -999.2500  -999.2500   -40.1490 
   96.7500    86.9370     7.6340     5.8460     8.3260    23.2720  -999.2500  -999.2500   -39.8130 
   96.8750    91.0680     7.5120     5.7500     8.0870    23.1240  -999.2500  -999.2500   -39.5000 
   97.0000    89.2160     7.5790     5.7730     8.1500    22.9820  -999.2500  -999.2500   -39.2330 
   97.1250    81.9900     7.7990     5.9110     8.6340    22.9370  -999.2500  -999.2500   -39.0060 
   97.2500    76.5710     8.0310     6.0860     9.2680    22.9520  -999.2500  -999.2500   -38.7760 
   97.3750    75.6110     8.1530     6.2170     9.4360    22.9900  -999.2500  -999.2500   -38.5090 
   97.5000    76.7060     8.0730     6.2270     9.1290    23.1460  -999.2500  -999.2500   -38.1590 
   97.6250    77.5660     7.7300     6.0450     8.5440    23.5540  -999.2500  -999.2500   -37.7240 
   97.7500    82.8380     7.2340     5.7220     7.8760    24.0400  -999.2500  -999.2500   -37.2950 
   97.8750    94.7070     6.7070     5.3340     7.1100    24.2580  -999.2500  -999.2500   -36.8760 
   98.0000   108.5580     6.2720     4.9760     6.2770    24.2950  -999.2500  -999.2500   -36.4440 
   98.1250   115.5270     6.0370     4.7420     5.6890    24.2950  -999.2500  -999.2500   -35.9950 
   98.2500   114.6460     5.9830     4.6420     5.5400    24.2950  -999.2500  -999.2500   -35.5740 
   98.3750   111.0790     6.0680     4.6610     5.7550    24.2950  -999.2500  -999.2500   -35.2310 
   98.5000   110.5240     6.2190     4.7560     6.0310    24.2950  -999.2500  -999.2500   -34.9730 
   98.6250   114.5320     6.3490     4.8720     5.9650    24.2950  -999.2500  -999.2500   -34.7910 
   98.7500   118.4720     6.4140     4.9610     5.6740    24.2950  -999.2500  -999.2500   -34.6650 
   98.8750   118.1920     6.4160     5.0060     5.5370    24.2950  -999.2500  -999.2500   -34.5840 
   99.0000   114.3930     6.3790     5.0090     5.4840    24.2950  -999.2500  -999.2500   -34.5400 
   99.1250   110.8850     6.3260     4.9770     5.4480    24.2950  -999.2500  -999.2500   -34.5120 
   99.2500   110.0430     6.2550     4.9190     5.5090    24.2950  -999.2500  -999.2500   -34.4630 
   99.3750   110.8220     6.1440     4.8260     5.5230    24.2950  -999.2500  -999.2500   -34.4150 
   99.5000   113.8340     5.9770     4.6860     5.2630    24.2950  -999.2500  -999.2500   -34.3990 
   99.6250   118.1550     5.7630     4.4960     5.0840    24.2940  -999.2500  -999.2500   -34.4010 
   99.7500   120.0220     5.5530     4.2970     4.9500    24.2920  -999.2500  -999.2500   -34.3840 
   99.8750   121.0680     5.4150     4.1430     4.8050    24.2910  -999.2500  -999.2500   -34.3990 
