~V
VERS. 2.00: Ver 2.00
~W
STRT.M 60.0000:
STOP.M 247.0000:
STEP.M 0.1250:
NULL. -999.2500:
UWI. DF315:
~C
DEPT.M :
DEN.GM/CC :
AC.US/MT :
GR.API :
RML.OHMM :
RI. :
RXO.OHMM :
CALI.CM :
SP.MV :
~A
# ...
  180.0000     2.3760   373.8800    79.6290    11.4180    10.5230    13.3310    24.7180    -9.6370 
  180.1250     2.3590   384.4630    81.5700    11.3540    10.4970    12.4120    24.6360    -9.6790 
  180.2500     2.3620   391.2540    81.6970    10.9890    10.2250    11.6120    24.4960    -9.6890 
  180.3750     2.3800   392.8740    82.1860    10.5020     9.8680    11.0280    24.3170    -9.7000 
  180.5000     2.4010   392.1590    83.8120    10.0900     9.5750    10.6590    24.2060    -9.7660 
  180.6250     2.4160   392.5500    82.2870     9.9550     9.4640    10.5710    24.1780    -9.8630 
  180.7500     2.4210   393.4630    77.8560    10.1130     9.5310    10.8880    24.1780    -9.9430 
  180.8750     2.4180   393.1680    74.4620    10.5230     9.7690    11.5180    24.2080    -9.9850 
  181.0000     2.4060   391.4180    75.4600    11.1040    10.1650    12.1750    24.3190   -10.0100 
  181.1250     2.3830   388.7990    78.1920    11.8000    10.7390    12.6640    24.5340   -10.0510 
  181.2500     2.3560   386.6350    79.3880    12.5890    11.4660    13.3360    24.6870   -10.1100 
  181.3750     2.3310   385.7820    77.5010    13.5040    12.3440    14.3740    24.7170   -10.1520 
  181.5000     2.3140   385.7570    73.6730    14.5660    13.3660    15.8970    24.6540   -10.1260 
  181.6250     2.3070   384.3570    73.2160    15.7460    14.5170    17.5610    24.5870   -10.0880 
  181.7500     2.3040   379.7490    74.9740    16.9000    15.7040    18.7360    24.6080   -10.1070 
  181.8750     2.3030   371.7740    74.7600    17.8840    16.8330    19.8340    24.7350   -10.1640 
  182.0000     2.3010   361.6240    69.6380    18.5940    17.8070    21.1770    24.8360   -10.1680 
  182.1250     2.3010   352.9660    64.1930    18.9710    18.5300    22.4600    24.8440   -10.1380 
  182.2500     2.3010   350.1860    64.2000    19.1890    19.0730    23.3130    24.8230   -10.1070 
  182.3750     2.2990   355.2430    66.5610    19.4780    19.5590    23.4680    24.7910   -10.1000 
  182.5000     2.2950   365.7210    65.7190    20.1310    20.1670    22.8520    24.7570   -10.1440 
  182.6250     2.2900   372.9950    61.5360    21.5110    21.1480    23.1490    24.7090   -10.2110 
  182.7500     2.2840   369.0280    60.6880    23.5340    22.5540    24.5330    24.6560   -10.2570 
  182.8750     2.2740   351.6930    63.4970    25.9460    24.3340    26.5560    24.6470   -10.2620 
  183.0000     2.2570   324.5960    65.6400    28.3350    26.3230    28.2030    24.7440   -10.2720 
  183.1250     2.2310   298.1640    64.2630    30.2300    28.2760    29.5700    24.8630   -10.3380 
  183.2500     2.2020   283.0660    61.9880    31.6630    30.0460    31.4210    24.9130   -10.4220 
  183.3750     2.1820   282.5990    60.2140    32.9960    31.7000    33.6970    24.9120   -10.4780 
  183.5000     2.1850   290.4700    58.5520    34.7910    33.5230    37.2340    24.8820   -10.4740 
  183.6250     2.2300   293.3150    56.9360    37.7850    36.0880    41.7740    24.8400   -10.4320 
  183.7500     2.3140   284.4900    53.9660    42.0940    39.6710    47.2680    24.7810   -10.4280 
  183.8750     2.4220   266.5460    49.7400    47.6220    44.3420    53.0690    24.6890   -10.4510 
  184.0000     2.5290   247.2750    46.2470    53.8640    49.7910    59.5270    24.6200   -10.4490 
  184.1250     2.6060   231.9260    45.0500    59.5530    55.0670    66.6170    24.5520   -10.4030 
  184.2500     2.6520   220.0640    45.1350    63.2120    58.8930    70.1080    24.4510   -10.3610 
  184.3750     2.6690   212.5550    45.0260    63.7670    60.2610    71.1870    24.3300   -10.3410 
  184.5000     2.6570   212.2070    46.0300    61.0490    58.7810    72.7810    24.1820   -10.3520 
  184.6250     2.6110   223.3410    49.1850    55.8720    54.7080    68.3450    23.9750   -10.3360 
  184.7500     2.5450   244.1640    52.0950    50.3420    49.7430    58.3410    23.8100   -10.2780 
  184.8750     2.4720   272.7000    55.0900    45.5890    45.0120    48.9350    23.7470   -10.2290 
  185.0000     2.4030   304.0160    59.4190    42.0740    41.1850    43.4800    23.7360   -10.2360 
  185.1250     2.3460   331.6890    64.1550    39.9360    38.6590    41.3060    23.7400   -10.2230 
  185.2500     2.3060   353.5910    65.9710    38.7000    37.1470    39.9880    23.7770   -10.1470 
  185.3750     2.2850   368.6130    63.8230    38.1250    36.4470    38.8790    23.8770   -10.0520 
  185.5000     2.2860   375.1700    61.1960    38.0570    36.3310    38.6600    24.0410    -9.9910 
  185.6250     2.3030   372.4560    61.0720    38.4440    36.6030    39.6820    24.3180    -9.9730 
  185.7500     2.3200   366.5130    61.5870    39.0450    36.9910    41.8110    24.6110    -9.9330 
  185.8750     2.3230   362.2590    60.8920    39.6130    37.3410    43.6040    24.7870    -9.8480 
  186.0000     2.3100   361.5310    60.0670    39.8790    37.5330    43.8880    24.8410    -9.7110 
  186.1250     2.2870   363.4410    62.4290    39.6270    37.4680    43.3030    24.8410    -9.5810 
  186.2500     2.2680   365.7030    66.7650    39.0330    37.2060    41.7200    24.8410    -9.5030 
  186.3750     2.2590   367.4660    67.8470    38.3520    36.8160    40.3940    24.8410    -9.4620 
  186.5000     2.2590   367.8390    63.7860    37.7100    36.3780    39.8770    24.8420    -9.3750 
  186.6250     2.2620   365.4940    59.6870    37.2390    35.9580    39.7130    24.8440    -9.2360 
  186.7500     2.2630   362.0320    60.7640    36.7560    35.5940    39.4350    24.8440    -9.1370 
  186.8750     2.2610   359.6790    64.9660    36.3240    35.3320    38.9130    24.8420    -9.0880 
  187.0000     2.2570   359.3880    68.2210    36.2600    35.2410    38.0530    24.8410    -9.0700 
  187.1250     2.2520   360.9700    70.5590    36.7270    35.4560    37.6520    24.8410    -9.0360 
  187.2500     2.2480   363.4770    72.6960    37.5330    35.9450    37.9270    24.8350    -8.9840 
  187.3750     2.2450   366.1480    73.5460    38.2160    36.5100    38.5880    24.8140    -8.9320 
  187.5000     2.2480   366.9080    71.6520    38.1500    36.6800    38.8890    24.7890    -8.9290 
  187.6250     2.2590   361.4110    67.0250    36.7650    35.5160    38.8270    24.7780    -8.9600 
  187.7500     2.2760   351.2660    63.9150    33.6420    32.6610    37.5240    24.7750    -8.9420 
  187.8750     2.2970   343.3360    64.6150    29.3660    28.2290    33.9680    24.7750    -8.8910 
  188.0000     2.3190   342.9480    68.9370    24.8410    22.9970    27.4960    24.7750    -8.8560 
  188.1250     2.3410   350.6160    73.7600    19.6360    18.2210    18.9920    24.7810    -8.8880 
  188.2500     2.3640   360.1070    77.0760    15.7250    14.5940    12.9810    24.7940    -8.9570 
  188.3750     2.3890   367.6250    79.3560    13.1440    12.2050    10.5980    24.8020    -8.9940 
  188.5000     2.4140   371.2320    80.8200    11.6780    10.8550    10.4200    24.7930    -8.9660 
  188.6250     2.4330   370.8690    80.0720    11.1320    10.3570    10.9350    24.7650    -8.9370 
  188.7500     2.4420   371.1870    78.4340    11.1480    10.3060    11.4610    24.7550    -8.9660 
  188.8750     2.4400   372.9680    77.6500    11.5060    10.4810    11.5860    24.7550    -9.0360 
  189.0000     2.4320   374.7960    77.8640    11.7840    10.6990    10.8860    24.7540    -9.1060 
  189.1250     2.4220   375.0090    76.5510    11.8950    10.8160    10.5370    24.7500    -9.1110 
  189.2500     2.4160   374.0410    74.4840    11.8660    10.8110    10.1970    24.7480    -9.0700 
  189.3750     2.4150   372.9240    75.8190    11.7560    10.7270     9.6600    24.7470    -9.0510 
  189.5000     2.4140   371.9710    78.0190    11.6520    10.6390     9.2940    24.7470    -9.1060 
  189.6250     2.4130   370.5250    75.3620    11.6430    10.6290     9.5360    24.7470    -9.1890 
  189.7500     2.4100   368.8290    70.8700    11.7330    10.7080    10.2330    24.7470    -9.2100 
  189.8750     2.4060   368.1800    70.1280    11.8990    10.8610    10.9910    24.7470    -9.2000 
