~V
VERS. 2.00: Ver 2.00
~W
STRT.M 61.0000:
STOP.M 296.0000:
STEP.M 0.1250:
NULL. -999.2500:
UWI. DF312:
~C
DEPT.M :
DEN.GM/CC :
AC.US/MT :
GR.API :
CALI.CM :
RXO.OHMM :
RI. :
RML.OHMM :
SP.MV :
~A
# ...
   81.0000  -999.2500  -999.2500    71.5650    25.1780     9.9190     8.9290    10.3470   -14.3800 
   81.1250  -999.2500  -999.2500    74.8700    25.1710     9.7070     8.6120     9.9930   -13.8490 
   81.2500  -999.2500  -999.2500    78.8260    25.2450     9.2560     8.3050     9.6800   -13.2820 
   81.3750  -999.2500  -999.2500    84.9500    25.2880     8.9420     8.0900     9.5010   -12.7520 
   81.5000  -999.2500  -999.2500    91.7650    25.2650     9.1070     8.0230     9.5130   -12.2990 
   81.6250  -999.2500  -999.2500    95.4770    25.2070     9.6980     8.1420     9.7390   -12.0110 
   81.7500  -999.2500  -999.2500    93.4910    25.1710    10.2740     8.3880    10.0840   -11.8760 
   81.8750  -999.2500  -999.2500    88.1780    25.1580    10.5950     8.7060    10.4680   -11.8860 
   82.0000  -999.2500  -999.2500    84.4590    25.1520    10.6450     9.0350    10.8170   -12.0960 
   82.1250  -999.2500  -999.2500    83.6700    25.1380    10.6170     9.3140    11.0670   -12.4940 
   82.2500  -999.2500  -999.2500    82.3560    25.1040    10.6950     9.5190    11.2200   -12.9110 
   82.3750  -999.2500  -999.2500    79.7760    25.1240    10.8080     9.6410    11.2740   -13.2710 
   82.5000  -999.2500  -999.2500    77.4200    25.1950    10.8590     9.6740    11.2240   -13.5120 
   82.6250  -999.2500  -999.2500    77.7190    25.2530    10.8710     9.6040    11.0470   -13.6170 
   82.7500  -999.2500  -999.2500    79.0810    25.1690    10.8810     9.4670    10.7920   -13.6550 
   82.8750  -999.2500  -999.2500    79.7740    25.0050    10.9030     9.3050    10.5160   -13.6440 
   83.0000  -999.2500  -999.2500    79.2900    24.9060    10.9230     9.1630    10.2940   -13.6000 
   83.1250  -999.2500  -999.2500    78.6550    24.9240    10.9200     9.0950    10.2040   -13.5440 
   83.2500  -999.2500  -999.2500    79.1250    24.9940    10.9010     9.0970    10.2270   -13.4850 
   83.3750  -999.2500  -999.2500    79.9430    25.1320    10.8960     9.1420    10.3250   -13.4630 
   83.5000  -999.2500  -999.2500    80.5210    25.3280    10.8810     9.1980    10.4450   -13.5230 
   83.6250  -999.2500  -999.2500    79.4590    25.5190    10.8220     9.2320    10.5490   -13.6110 
   83.7500  -999.2500  -999.2500    76.3280    25.6060    10.7650     9.2400    10.6260   -13.7100 
   83.8750  -999.2500  -999.2500    74.7130    25.5780    10.7520     9.2210    10.6660   -13.8380 
   84.0000  -999.2500  -999.2500    75.9950    25.5120    10.8070     9.1680    10.6330   -13.9080 
   84.1250  -999.2500  -999.2500    77.6540    25.4950    10.8550     9.0410    10.4430   -13.9320 
   84.2500  -999.2500  -999.2500    78.5460    25.5060    10.8100     8.8270    10.1070   -13.9570 
   84.3750  -999.2500  -999.2500    78.2380    25.5370    10.6650     8.5880     9.7510   -13.9030 
   84.5000  -999.2500  -999.2500    76.1310    25.5870    10.5510     8.5050     9.6590   -13.7480 
   84.6250  -999.2500  -999.2500    73.4240    25.7930    10.9360     8.9820    10.4380   -13.4410 
   84.7500  -999.2500  -999.2500    73.3950    25.8970    12.7190    10.3600    12.4900   -12.9410 
   84.8750  -999.2500  -999.2500    74.3780    25.8700    17.9310    13.0650    16.1270   -12.2730 
   85.0000  -999.2500  -999.2500    71.7130    25.6970    28.1720    17.3600    21.0310   -11.4590 
   85.1250  -999.2500  -999.2500    67.2930    25.4970    38.7230    22.4620    25.2600   -10.5150 
   85.2500  -999.2500  -999.2500    66.1430    25.3470    40.3500    25.2940    26.4250    -9.5320 
   85.3750  -999.2500  -999.2500    69.8590    25.2450    32.3340    23.7390    23.7790    -8.5740 
   85.5000  -999.2500  -999.2500    78.1510    25.1710    21.6480    19.1470    18.7150    -7.6710 
   85.6250  -999.2500  -999.2500    86.5570    25.0940    14.2680    14.5810    13.8230    -6.9130 
   85.7500  -999.2500  -999.2500    90.5480    24.9600    10.7730    11.3290    10.4980    -6.3070 
   85.8750  -999.2500  -999.2500    90.4180    24.7260     9.0940     9.3330     8.7280    -5.8940 
   86.0000  -999.2500  -999.2500    88.7790    24.4210     8.4480     8.2960     8.1010    -5.6840 
   86.1250  -999.2500  -999.2500    88.2950    24.1270     8.3490     8.0230     8.2610    -5.6270 
   86.2500  -999.2500  -999.2500    89.2380    23.9750     8.4000     8.1240     8.7020    -5.6290 
   86.3750  -999.2500  -999.2500    90.7840    23.9750     8.5190     8.3540     9.1430    -5.6880 
   86.5000  -999.2500  -999.2500    90.7660    24.0530     8.5910     8.5120     9.3760    -5.7820 
   86.6250  -999.2500  -999.2500    88.9370    24.2120     8.5090     8.4180     9.2220    -5.8390 
   86.7500  -999.2500  -999.2500    89.3450    24.4480     8.3630     8.0630     8.7440    -5.9440 
   86.8750  -999.2500  -999.2500    92.9370    24.7050     8.3070     7.5270     8.0790    -6.0500 
   87.0000  -999.2500  -999.2500    96.6190    24.8520     8.3370     7.0030     7.4710    -6.1500 
   87.1250  -999.2500  -999.2500    95.3910    24.8800     8.4850     6.7960     7.3390    -6.3400 
   87.2500  -999.2500  -999.2500    91.7910    24.7340     9.3180     7.1130     7.9810    -6.6420 
   87.3750  -999.2500  -999.2500    90.8190    24.4710    12.3250     8.1960     9.7030    -7.0550 
   87.5000  -999.2500  -999.2500    90.6800    24.2350    19.0350    10.3360    12.7410    -7.5780 
   87.6250  -999.2500  -999.2500    85.2580    24.1600    29.2160    13.9720    17.0870    -8.2730 
   87.7500  -999.2500   435.1800    76.3580    24.2760    38.0780    18.3930    21.3500    -9.0850 
   87.8750  -999.2500   435.1800    69.3690    24.3960    40.3650    21.8150    23.7660    -9.9860 
   88.0000  -999.2500   446.6680    64.2860    24.4940    33.7850    22.0610    23.1120   -11.0140 
   88.1250  -999.2500   456.2390    59.5730    24.5980    22.3670    18.8600    19.5540   -12.0970 
   88.2500  -999.2500   464.9410    57.8060    24.6120    14.6470    15.0640    15.4540   -13.1200 
   88.3750  -999.2500   475.2870    59.7610    24.5200    11.2950    11.9980    12.2070   -14.0520 
   88.5000  -999.2500   486.1580    63.3500    24.3920    10.2460     9.9630    10.2810   -14.8570 
   88.6250  -999.2500   494.1310    68.0840    24.3170    10.1230     8.9730     9.6690   -15.4160 
   88.7500  -999.2500   499.2130    73.4650    24.3700    10.2790     8.6640     9.7750   -15.7770 
   88.8750  -999.2500   502.8020    76.5190    24.4660    10.5020     8.7990    10.2090   -15.9690 
   89.0000  -999.2500   505.2190    74.4230    24.4910    10.5750     9.0960    10.6210   -15.9220 
   89.1250  -999.2500   504.5550    70.1500    24.4310    10.4070     9.2850    10.7490   -15.6550 
   89.2500  -999.2500   499.9330    68.7810    24.4490    10.0770     9.3030    10.6390   -15.2770 
   89.3750  -999.2500   492.4360    69.8110    24.5610     9.7700     9.2120    10.4260   -14.8550 
   89.5000  -999.2500   484.7770    72.4040    24.5930     9.7920     9.1080    10.2540   -14.4900 
   89.6250  -999.2500   480.9540    76.8000    24.4000    10.3200     9.0830    10.2430   -14.3290 
   89.7500  -999.2500   481.7920    80.4800    24.1960    10.9290     9.1480    10.3740   -14.3250 
   89.8750  -999.2500   484.5920    80.0830    24.0560    11.3490     9.2740    10.5810   -14.4070 
   90.0000     2.1200   483.9580    75.4260    23.9740    11.4230     9.4010    10.7530   -14.5610 
   90.1250     2.1200   473.1510    71.4190    23.9360    11.3010     9.4180    10.7350   -14.7480 
   90.2500     2.1480   453.3950    70.4360    23.9360    11.3060     9.2770    10.5320   -15.0060 
   90.3750     2.1650   429.4690    70.6470    24.1000    11.5000     9.0600    10.2900   -15.3340 
   90.5000     2.1680   407.3430    71.8240    24.4820    11.6800     8.9760    10.2800   -15.5980 
   90.6250     2.1760   390.3320    73.6420    24.8100    11.7850     9.3330    10.8750   -15.7080 
   90.7500     2.2100   375.6330    73.7700    24.8870    12.6320    10.1770    12.0540   -15.7110 
   90.8750     2.2650   362.1130    70.7800    24.9430    15.9170    11.4130    13.5420   -15.6680 
