~V
VERS. 2.00: Ver 2.00
~W
STRT.M 51.0000:
STOP.M 228.0000:
STEP.M 0.1250:
NULL. -999.2500:
UWI. DF314:
~C
DEPT.M :
DEN.GM/CC :
AC.US/MT :
GR.API :
CALI.CM :
RXO.OHMM :
RI. :
RML.OHMM :
SP.MV :
~A
# ...
  111.0000     2.2640   424.2730    62.0790    24.8840    28.1490    21.0520    22.4820   -11.5530 
  111.1250     2.3140   411.4160    63.3510    24.8290    29.4390    23.3090    24.9020   -11.4860 
  111.2500     2.3460   404.9570    64.4840    24.8000    34.7730    25.3800    27.1230   -11.5600 
  111.3750     2.3460   406.3310    65.1310    24.7560    42.9110    27.2300    29.1070   -11.8380 
  111.5000     2.3150   415.8380    63.9840    24.7170    48.3030    28.6030    30.5790   -12.2890 
  111.6250     2.2620   432.2450    61.1470    24.7340    45.1880    28.9340    30.9350   -12.7620 
  111.7500     2.2100   449.6520    59.7360    24.7800    38.1750    28.5360    30.3070   -13.1630 
  111.8750     2.1690   462.8740    60.7800    24.8340    32.4840    27.4660    28.8350   -13.4770 
  112.0000     2.1410   468.1450    62.0270    24.9060    29.3920    26.0120    27.3450   -13.7010 
  112.1250     2.1260   463.8140    62.5750    25.0230    27.9180    25.0540    26.7620   -13.8690 
  112.2500     2.1170   455.2650    64.4110    25.1770    27.8130    24.7140    26.9320   -13.9520 
  112.3750     2.1140   447.8010    66.5950    25.3160    29.6220    24.8530    27.4530   -13.8380 
  112.5000     2.1190   445.1580    67.8860    25.3930    32.5190    25.1330    27.7550   -13.4450 
  112.6250     2.1290   447.4480    70.3650    25.4110    34.1820    25.0860    27.2160   -12.9400 
  112.7500     2.1420   449.2640    74.5410    25.4040    33.0060    24.5690    25.9130   -12.4570 
  112.8750     2.1550   445.9630    77.3840    25.3500    29.2330    23.7010    24.2850   -11.9220 
  113.0000     2.1730   435.1800    76.9880    25.2480    25.1740    22.7680    23.0060   -11.3260 
  113.1250     2.2070   417.0460    75.8980    25.1820    24.5680    22.2250    22.8760   -10.6920 
  113.2500     2.2560   396.3290    75.8880    25.2010    27.0830    22.3700    23.8940   -10.0820 
  113.3750     2.3100   376.9060    74.7780    25.2580    29.7580    23.4140    25.8480    -9.6580 
  113.5000     2.3510   362.4370    71.1750    25.2780    30.1750    25.4970    28.4320    -9.5220 
  113.6250     2.3530   357.6450    67.7540    25.2300    29.2980    28.7280    31.4570    -9.6430 
  113.7500     2.3210   362.6740    65.6730    25.1620    30.5190    32.3500    34.4650    -9.8620 
  113.8750     2.2670   376.5130    62.9380    25.1100    36.0080    35.1870    36.6180   -10.1960 
  114.0000     2.2120   396.2890    59.9500    25.1450    43.5920    35.8310    36.7240   -10.6380 
  114.1250     2.1730   418.1060    60.9480    25.3020    42.8220    33.3730    33.9030   -11.2510 
  114.2500     2.1510   438.0400    66.5170    25.4470    33.8460    29.6190    29.9880   -12.0090 
  114.3750     2.1390   453.8610    71.9990    25.4860    25.5080    26.3810    26.8530   -12.7390 
  114.5000     2.1330   464.1500    73.0840    25.4480    24.3320    24.8930    25.7130   -13.3870 
  114.6250     2.1280   467.3200    69.0570    25.4350    32.3190    26.1380    27.5920   -13.9710 
  114.7500     2.1230   464.7790    64.3720    25.4420    48.3110    29.7260    31.7720   -14.4650 
  114.8750     2.1180   457.5520    60.8090    25.4230    67.4370    36.0030    38.5150   -14.7440 
  115.0000     2.1140   447.3510    57.6710    25.3830    77.6890    44.7420    47.8860   -14.7670 
  115.1250     2.1110   437.1520    53.8420    25.3670    73.5680    53.8540    57.6570   -14.5670 
  115.2500     2.1070   429.9930    51.8390    25.3910    68.6160    61.0020    65.3230   -14.1680 
  115.3750     2.1010   426.6120    52.4420    25.4360    69.6150    65.2970    69.9290   -13.5800 
  115.5000     2.0960   424.4200    54.6500    25.4640    72.9660    67.1000    71.8610   -12.9040 
  115.6250     2.0930   416.0390    56.7200    25.4420    73.5820    67.0830    71.8440   -12.1360 
  115.7500     2.0990   396.5140    59.1640    25.3900    71.5100    66.2280    70.9270   -11.3280 
  115.8750     2.1210   365.7850    60.2320    25.3490    68.4950    64.9690    69.5770   -10.6190 
  116.0000     2.1660   329.7140    57.2970    25.3420    66.2010    64.0120    68.5500   -10.0410 
  116.1250     2.2390   299.9460    53.7900    25.3300    66.9080    64.9210    69.5250    -9.4340 
  116.2500     2.3220   284.3560    54.3530    25.2780    72.3700    68.5110    73.3750    -8.7950 
  116.3750     2.3960   284.8020    56.5250    25.1960    87.2320    74.8450    80.1670    -8.2750 
  116.5000     2.4350   297.4450    56.0240    25.0820   121.5840    82.7060    88.5970    -8.0100 
  116.6250     2.4220   315.1710    54.5250    24.8970   170.0810    88.6790    95.0020    -8.0890 
  116.7500     2.3720   331.6740    55.5820    24.6760   177.5710    89.5850    95.9740    -8.4110 
  116.8750     2.3080   347.3060    57.7470    24.5370   133.4790    84.6720    90.7060    -8.9110 
  117.0000     2.2480   366.1580    58.9720    24.5950    81.9290    76.1720    81.5900    -9.5140 
  117.1250     2.2080   393.3280    58.6010    24.8310    60.7560    68.0150    72.8430   -10.2560 
  117.2500     2.1840   425.8710    58.3470    25.0500    53.2830    62.6240    67.0620   -11.0610 
  117.3750     2.1710   457.1400    59.0240    25.1400    50.9310    60.2340    64.4990   -11.7280 
  117.5000     2.1630   479.5150    60.7220    25.0820    53.0740    59.6320    63.8540   -12.0400 
  117.6250     2.1580   486.4440    60.8790    24.9480    59.7450    58.3340    62.4620   -11.8990 
  117.7500     2.1530   482.6490    59.3430    24.8680    60.8140    54.6110    58.4700   -11.5930 
  117.8750     2.1470   474.6330    58.2760    24.8950    51.0150    48.6100    52.0340   -11.2190 
  118.0000     2.1400   469.0580    59.7140    24.9640    36.9940    41.8070    44.7390   -10.7660 
  118.1250     2.1330   470.6300    63.2230    24.9660    29.5020    36.0590    38.5750   -10.2320 
  118.2500     2.1280   476.7620    64.7270    24.9520    27.3610    31.9370    34.1540    -9.7320 
  118.3750     2.1260   483.0930    63.6230    24.9980    27.3570    29.2990    31.3260    -9.4960 
  118.5000     2.1290   485.5810    62.1550    25.0860    27.4220    27.6820    29.5920    -9.6900 
  118.6250     2.1370   482.3440    64.1070    25.1300    26.5990    26.5580    28.3860   -10.2080 
  118.7500     2.1500   476.8950    68.1770    25.1310    24.8860    25.3900    27.1340   -10.7570 
  118.8750     2.1680   472.6750    71.0490    25.1370    22.5890    23.8810    25.5160   -11.2510 
  119.0000     2.1870   471.5940    71.6280    25.1510    20.6830    21.7950    23.2790   -11.7840 
  119.1250     2.2020   472.5810    69.9730    25.1430    20.4110    19.0710    20.3580   -12.2990 
  119.2500     2.2080   471.3600    69.6780    25.1240    20.2620    16.2890    17.3750   -12.7040 
  119.3750     2.2020   464.7990    72.0810    25.1090    18.2120    14.0250    14.9460   -12.8950 
  119.5000     2.1860   452.5430    74.6050    25.0970    15.0650    12.6920    13.5180   -12.7750 
  119.6250     2.1670   437.8800    73.4650    25.0720    15.4800    12.7260    13.5540   -12.5330 
  119.7500     2.1560   426.1020    69.5820    25.0480    21.8980    14.0980    15.0250   -12.3660 
  119.8750     2.1640   419.2990    65.5710    25.0530    32.2610    17.0190    18.1570   -12.2390 
  120.0000     2.1950   415.9050    61.0990    25.1160    40.1780    21.7270    23.2060   -11.9590 
  120.1250     2.2500   410.5500    55.7120    25.2100    40.8860    28.1910    30.1380   -11.6290 
  120.2500     2.3130   399.0110    53.2680    25.2380    39.1340    34.2460    36.6300   -11.3660 
  120.3750     2.3690   381.3240    53.9490    25.1590    39.2920    36.7390    39.3040   -11.1530 
  120.5000     2.4050   362.0270    56.5100    25.0070    41.9450    33.5800    35.9170   -10.9780 
  120.6250     2.4120   350.1990    62.1890    24.8570    38.9130    25.9040    27.6850   -10.8400 
  120.7500     2.4000   350.5870    71.9000    24.7710    27.2040    18.0840    19.2990   -10.6440 
  120.8750     2.3770   362.9520    81.2260    24.7860    13.9450    12.0510    12.8290   -10.4410 
