~V
VERS. 2.00: Ver 2.00
~W
STRT.M 65.0000:
STOP.M 277.0000:
STEP.M 0.1250:
NULL. -999.2500:
UWI. DF311:
~C
DEPT.M :
DEN.GM/CC :
SP.MV :
AC.US/MT :
GR.API :
CALI.CM :
RXO.OHMM :
RI. :
RML.OHMM :
~A
# ...
  155.0000     2.3120   -31.3850   440.6220    78.7200    22.2790     7.2030     5.1490     7.2030 
  155.1250     2.3200   -31.3160   438.5150    83.3320    22.2850     7.1050     5.2750     7.3780 
  155.2500     2.3230   -31.2230   433.4860    84.4280    22.2960     7.5460     5.4890     7.6560 
  155.3750     2.3170   -31.1160   426.1980    81.6510    22.3110     8.2870     5.7750     8.0280 
  155.5000     2.3080   -30.9090   417.8160    76.8880    22.3220     8.8500     6.0730     8.4150 
  155.6250     2.3090   -30.5320   411.8490    73.8390    22.3410     9.0770     6.2510     8.6070 
  155.7500     2.3250   -29.9970   411.6980    75.4770    22.3930     8.8620     6.2120     8.4520 
  155.8750     2.3570   -29.3110   418.0800    81.6550    22.4880     8.3100     5.9280     7.9230 
  156.0000     2.3950   -28.5180   428.0650    88.9360    22.6210     7.5040     5.4630     7.1610 
  156.1250     2.4170   -27.6880   436.0440    91.0440    22.8680     6.6440     4.9580     6.4300 
  156.2500     2.4130   -26.8710   438.7770    88.2010    23.1930     6.0380     4.5480     5.9120 
  156.3750     2.3900   -26.0900   435.8490    83.6070    23.4090     5.6330     4.2880     5.6560 
  156.5000     2.3670   -25.3880   428.2880    80.6440    23.4780     5.2710     4.1880     5.6410 
  156.6250     2.3510   -24.8270   418.1000    81.4340    23.4930     4.9290     4.2340     5.8020 
  156.7500     2.3300   -24.4180   409.7920    85.8820    23.5320     4.7650     4.3300     5.9800 
  156.8750     2.3070   -24.1380   407.6930    96.0140    23.5860     4.8090     4.4010     6.0620 
  157.0000     2.2950   -23.9730   413.7820   107.6300    23.6620     4.8630     4.3900     5.9860 
  157.1250     2.3040   -23.9170   424.7760   106.7130    23.7660     4.6760     4.2730     5.7490 
  157.2500     2.3190   -23.8750   432.3520    94.0240    23.9780     4.3680     4.1000     5.4510 
  157.3750     2.3300   -23.8480   432.9930    81.7120    24.2970     4.1840     3.9230     5.1810 
  157.5000     2.3420   -23.8510   429.2350    79.1330    24.6920     4.1630     3.7920     5.0070 
  157.6250     2.3520   -23.8460   427.2420    81.2540    24.9950     4.2400     3.7450     4.9830 
  157.7500     2.3540   -23.8720   428.2120    79.8750    25.1850     4.3130     3.7680     5.0730 
  157.8750     2.3480   -23.9350   428.6000    77.3830    25.0430     4.4970     3.8380     5.2300 
  158.0000     2.3410   -23.9910   425.3580    78.7160    24.4880     4.7510     3.9220     5.3880 
  158.1250     2.3400   -24.0540   419.6900    83.8170    23.8050     4.7680     3.9740     5.4730 
  158.2500     2.3410   -24.1220   416.2200    87.0440    23.4240     4.5310     3.9730     5.4660 
  158.3750     2.3400   -24.1960   416.7270    88.5270    23.3690     4.2720     3.9150     5.3770 
  158.5000     2.3390   -24.2780   419.9690    90.3520    23.4970     4.1340     3.8170     5.2410 
  158.6250     2.3370   -24.3680   423.1220    90.9910    23.6350     4.1000     3.7080     5.1060 
  158.7500     2.3300   -24.4490   424.7030    89.5790    23.6770     4.0840     3.6180     5.0090 
  158.8750     2.3240   -24.5160   425.1020    88.7420    23.6460     4.0840     3.5610     4.9650 
  159.0000     2.3260   -24.5590   425.1900    89.3440    23.5210     4.1570     3.5390     4.9710 
  159.1250     2.3390   -24.5690   425.1080    88.7740    23.3810     4.3260     3.5540     5.0200 
  159.2500     2.3490   -24.5490   424.2710    88.2810    23.3900     4.4420     3.5890     5.0840 
  159.3750     2.3510   -24.4880   422.5010    88.3290    23.6020     4.4090     3.6290     5.1380 
  159.5000     2.3520   -24.3940   420.3920    88.0390    23.9690     4.3140     3.6600     5.1600 
  159.6250     2.3560   -24.2730   418.8580    87.2120    24.3250     4.2950     3.6670     5.1350 
  159.7500     2.3610   -24.1160   417.9870    86.5310    24.4830     4.3400     3.6540     5.0800 
  159.8750     2.3630   -23.9590   417.4900    85.7410    24.4100     4.3980     3.6310     5.0180 
  160.0000     2.3650   -23.8390   417.0880    86.1090    24.1710     4.4330     3.6070     4.9680 
  160.1250     2.3700   -23.7230   416.4280    89.8230    23.9440     4.4350     3.5920     4.9380 
  160.2500     2.3750   -23.6530   415.2720    94.1810    23.7730     4.4230     3.5900     4.9210 
  160.3750     2.3770   -23.6240   413.7970    95.9150    23.6820     4.4190     3.6040     4.9140 
  160.5000     2.3740   -23.6190   412.6960    97.3790    23.6100     4.4650     3.6260     4.9150 
  160.6250     2.3640   -23.6770   412.9700   100.2150    23.5800     4.5570     3.6380     4.9090 
  160.7500     2.3540   -23.7560   414.5800   101.4630    23.5600     4.5980     3.6220     4.8760 
  160.8750     2.3500   -23.8450   417.2000    99.7130    23.5190     4.5440     3.5740     4.8030 
  161.0000     2.3520   -23.9420   420.3780    97.8660    23.4360     4.4110     3.4960     4.6930 
  161.1250     2.3560   -24.0520   423.3140    98.8360    23.3940     4.2490     3.4010     4.5670 
  161.2500     2.3600   -24.1770   425.0360    98.3850    23.3650     4.1120     3.3100     4.4560 
  161.3750     2.3660   -24.3070   425.0660    94.7630    23.3130     4.0600     3.2360     4.3760 
  161.5000     2.3730   -24.4370   423.7730    90.5840    23.2310     4.0560     3.1880     4.3330 
  161.6250     2.3770   -24.5590   422.2070    90.5440    23.1270     3.9870     3.1690     4.3180 
  161.7500     2.3760   -24.6810   421.3890    94.2320    23.0620     3.8910     3.1660     4.3070 
  161.8750     2.3710   -24.8070   421.7690    98.7800    23.0240     3.8340     3.1660     4.2860 
  162.0000     2.3640   -24.9490   423.2990   100.8830    23.0110     3.7970     3.1620     4.2460 
  162.1250     2.3520   -25.0980   425.2080   100.1800    23.0110     3.7260     3.1510     4.1920 
  162.2500     2.3430   -25.2390   426.3250    98.9780    23.0110     3.6420     3.1410     4.1450 
  162.3750     2.3450   -25.4020   426.2420    96.0750    23.0030     3.6360     3.1390     4.1190 
  162.5000     2.3560   -25.5710   425.4000    91.6030    22.9810     3.7110     3.1460     4.1190 
  162.6250     2.3680   -25.7370   424.8680    89.4610    22.9250     3.8120     3.1620     4.1410 
  162.7500     2.3750   -25.9400   425.2910    91.6110    22.8530     3.8650     3.1800     4.1610 
  162.8750     2.3790   -26.1520   426.5320    93.9580    22.7800     3.8230     3.1940     4.1620 
  163.0000     2.3830   -26.3580   427.8730    92.5280    22.7440     3.7360     3.1980     4.1400 
  163.1250     2.3960   -26.5960   428.2430    88.9330    22.7350     3.7110     3.1940     4.1070 
  163.2500     2.4140   -26.8400   427.3670    87.2120    22.7140     3.7360     3.1940     4.0930 
  163.3750     2.4230   -27.0890   425.4880    88.3060    22.6690     3.7240     3.2090     4.1140 
  163.5000     2.4140   -27.3460   423.1900    90.4530    22.6250     3.6900     3.2440     4.1740 
  163.6250     2.3970   -27.6090   421.1370    91.3500    22.5920     3.7100     3.2970     4.2610 
  163.7500     2.3890   -27.8890   419.5210    91.0060    22.6010     3.7270     3.3500     4.3430 
  163.8750     2.3910   -28.1790   418.2190    90.0210    22.6810     3.7450     3.3860     4.3990 
  164.0000     2.3920   -28.4690   417.1730    89.7860    22.8420     3.7770     3.3910     4.4140 
  164.1250     2.3830   -28.7660   416.7630    89.4400    23.0270     3.8020     3.3550     4.3760 
  164.2500     2.3710   -29.0600   417.1220    87.9990    23.1010     3.8230     3.2970     4.3090 
  164.3750     2.3660   -29.3550   417.6350    87.1830    23.1170     3.8390     3.2560     4.2700 
  164.5000     2.3620   -29.6640   416.9450    89.0620    23.1170     3.8640     3.2900     4.3470 
  164.6250     2.3550   -29.9830   413.4270    89.9930    23.1320     4.0390     3.5020     4.6940 
  164.7500     2.3520   -30.2960   407.0730    85.1950    23.1650     4.5760     3.9330     5.3700 
  164.8750     2.3620   -30.6170   397.3190    76.8700    23.2080     5.7780     4.5800     6.3730 
