~V
VERS. 2.00: Ver 2.00
~W
STRT.M 61.0000:
STOP.M 296.0000:
STEP.M 0.1250:
NULL. -999.2500:
UWI. DF312:
~C
DEPT.M :
DEN.GM/CC :
AC.US/MT :
GR.API :
CALI.CM :
RXO.OHMM :
RI. :
RML.OHMM :
SP.MV :
~A
# ...
  111.0000     2.1970   436.0160    77.0890    22.8970     8.7590     8.1390     9.8260   -11.1790 
  111.1250     2.1970   437.0120    78.4570    22.9240     8.6500     8.0800     9.7220   -11.5880 
  111.2500     2.2000   438.4790    79.6260    23.0060     8.7250     8.0770     9.7220   -12.0000 
  111.3750     2.1980   440.8420    81.1220    23.1430     8.9660     8.1720     9.8720   -12.4570 
  111.5000     2.1940   443.5090    82.8500    23.2660     9.2970     8.3560    10.1400   -12.9300 
  111.6250     2.1940   444.4810    81.9660    23.2960     9.6730     8.5790    10.4270   -13.3610 
  111.7500     2.1970   442.4770    76.9620    23.3620     9.9170     8.7590    10.6280   -13.8170 
  111.8750     2.2020   437.5690    72.6320    23.5180    10.0550     8.8590    10.7060   -14.3340 
  112.0000     2.2060   431.2950    73.1960    23.8000    10.1440     8.8930    10.6950   -14.8240 
  112.1250     2.2030   426.3730    75.8470    24.1520    10.2640     8.9190    10.6880   -15.3570 
  112.2500     2.1950   424.4510    76.1310    24.3110    10.4550     9.0040    10.7720   -15.9030 
  112.3750     2.1840   425.9450    74.1850    24.3030    10.6270     9.1710    10.9720   -16.3380 
  112.5000     2.1730   430.3270    71.9380    24.2550    10.6480     9.4040    11.2500   -16.6690 
  112.6250     2.1670   436.2990    70.8370    24.2420    10.4240     9.6390    11.5050   -16.9900 
  112.7500     2.1700   441.5960    68.8680    24.2700    10.2060     9.7940    11.6360   -17.3110 
  112.8750     2.1770   444.7290    66.7780    24.3090    10.1000     9.8230    11.5970   -17.5870 
  113.0000     2.1800   445.1790    67.2630    24.3180    10.0570     9.7240    11.3950   -17.8770 
  113.1250     2.1770   443.5830    70.0000    24.3190     9.9910     9.5270    11.0840   -18.0540 
  113.2500     2.1750   442.0470    71.0810    24.3360     9.8740     9.3080    10.7670   -18.1490 
  113.3750     2.1760   441.8580    69.3540    24.3580     9.7210     9.1100    10.5020   -18.2760 
  113.5000     2.1750   443.2620    66.9330    24.3690     9.5800     8.9580    10.3180   -18.3930 
  113.6250     2.1660   445.3680    65.1260    24.3360     9.5730     8.8630    10.2280   -18.4160 
  113.7500     2.1620   446.6950    64.8480    24.3090     9.6530     8.8100    10.1980   -18.3760 
  113.8750     2.1730   446.3120    66.6260    24.3210     9.7730     8.7850    10.2070   -18.2340 
  114.0000     2.1980   443.8830    68.6100    24.3520     9.8750     8.7770    10.2410   -17.9320 
  114.1250     2.2180   439.8100    69.5460    24.3610     9.9420     8.7760    10.2840   -17.5090 
  114.2500     2.2170   435.7160    71.9570    24.3640     9.8810     8.7690    10.3190   -17.0260 
  114.3750     2.2020   432.7670    75.7390    24.3710     9.7820     8.7500    10.3330   -16.5060 
  114.5000     2.1910   431.4090    78.3500    24.3820     9.7510     8.7160    10.3180   -16.0050 
  114.6250     2.1950   431.2910    79.9350    24.3870     9.8350     8.6690    10.2820   -15.5600 
  114.7500     2.2040   431.2850    81.7930    24.3710     9.8720     8.6300    10.2530   -15.1840 
  114.8750     2.2130   430.8520    81.1550    24.3640     9.7700     8.6170    10.2540   -14.9480 
  115.0000     2.2170   430.0860    76.3530    24.3620     9.6710     8.6420    10.3010   -14.8960 
  115.1250     2.2130   429.6330    71.4360    24.3730     9.8110     8.7090    10.3940   -15.0480 
  115.2500     2.2020   429.9060    71.6400    24.3780    10.1880     8.7920    10.5010   -15.3100 
  115.3750     2.1910   430.8520    73.2590    24.3830    10.5370     8.8720    10.5960   -15.6140 
  115.5000     2.1890   432.1270    72.4050    24.3850    10.7130     8.9340    10.6620   -15.9110 
  115.6250     2.1970   433.3190    71.2370    24.3890    10.6680     8.9730    10.6970   -16.2000 
  115.7500     2.2040   434.2020    71.8210    24.3900    10.5600     9.0020    10.7280   -16.4330 
  115.8750     2.2080   434.6520    71.7410    24.3920    10.5730     9.0330    10.7780   -16.5760 
  116.0000     2.2140   434.4910    70.3230    24.3780    10.8640     9.0750    10.8630   -16.6090 
  116.1250     2.2280   433.1130    72.4400    24.3440    11.2770     9.1340    10.9860   -16.5030 
  116.2500     2.2430   430.1750    76.3820    24.2440    11.4210     9.1980    11.1130   -16.2660 
  116.3750     2.2560   425.6360    77.4540    24.1020    11.4770     9.2520    11.2090   -15.9580 
  116.5000     2.2600   420.3410    76.7760    24.0550    12.0200     9.2810    11.2400   -15.6480 
  116.6250     2.2490   416.6000    78.8200    23.9890    13.2770     9.2680    11.1800   -15.3400 
  116.7500     2.2270   416.2820    80.7440    23.8460    13.5650     9.2180    11.0610   -15.0850 
  116.8750     2.2060   419.8430    78.1560    23.6750    12.5770     9.1430    10.9250   -14.8750 
  117.0000     2.1980   425.8950    73.9910    23.6190    11.3380     9.0700    10.8190   -14.6600 
  117.1250     2.2040   431.7140    73.2240    23.7000    10.6870     9.0340    10.7960   -14.4570 
  117.2500     2.2120   435.3010    76.5860    23.8370    10.2990     9.0470    10.8550   -14.3300 
  117.3750     2.2170   436.4870    81.0490    23.9200    10.0750     9.1090    10.9790   -14.2200 
  117.5000     2.2150   436.1580    84.6310    23.9590     9.9960     9.2060    11.1350   -14.1600 
  117.6250     2.2050   435.5160    85.5670    23.9780     9.9250     9.3140    11.2770   -14.1440 
  117.7500     2.1970   435.4000    83.7920    24.0100     9.8980     9.4080    11.3740   -14.1160 
  117.8750     2.1970   435.9710    80.1300    24.0160     9.9780     9.4710    11.4080   -14.0850 
  118.0000     2.2050   436.9820    76.2660    23.9920    10.1310     9.4980    11.3780   -14.0830 
  118.1250     2.2080   437.8180    75.7420    23.9410    10.1730     9.4810    11.2870   -14.1500 
  118.2500     2.2020   438.0150    78.4760    23.8740    10.1110     9.4320    11.1610   -14.2620 
  118.3750     2.1950   437.4510    81.7130    23.7730    10.0160     9.3550    11.0170   -14.4180 
  118.5000     2.1960   436.3100    85.2200    23.6750     9.9570     9.2580    10.8690   -14.5660 
  118.6250     2.2040   435.1610    87.5400    23.6800     9.9030     9.1540    10.7290   -14.7200 
  118.7500     2.2060   434.6510    86.3730    23.7340     9.8350     9.0550    10.6010   -14.9010 
  118.8750     2.1980   434.9570    81.6640    23.7560     9.8730     8.9630    10.4890   -15.1440 
  119.0000     2.1940   435.8180    77.2230    23.7500    10.1190     8.8860    10.3970   -15.4060 
  119.1250     2.2090   436.7570    76.0990    23.7650    10.4350     8.8300    10.3350   -15.6310 
  119.2500     2.2290   437.5470    74.7430    23.8260    10.4790     8.7940    10.3020   -15.8460 
  119.3750     2.2280   438.2950    71.4680    23.9160    10.3870     8.7750    10.2880   -16.0350 
  119.5000     2.2040   439.1200    68.7880    24.0350    10.4000     8.7600    10.2730   -16.1910 
  119.6250     2.1790   439.8330    70.8490    24.2260    10.5180     8.7170    10.2170   -16.3000 
  119.7500     2.1790   440.0350    74.7920    24.3750    10.3710     8.6250    10.0990   -16.2980 
  119.8750     2.1960   439.5900    77.3190    24.5130     9.9260     8.4820     9.9200   -16.1820 
  120.0000     2.2090   438.8790    77.3070    24.6700     9.2800     8.3040     9.7020   -16.0430 
  120.1250     2.2070   438.8340    77.4450    24.7930     8.7180     8.1250     9.4950   -15.9610 
  120.2500     2.2030   439.9190    80.1650    24.8520     8.4600     7.9810     9.3390   -15.9090 
  120.3750     2.2040   441.9900    85.3950    24.8740     8.4660     7.8930     9.2520   -15.8940 
  120.5000     2.2110   444.5770    88.7950    24.8920     8.5930     7.8640     9.2290   -15.9610 
  120.6250     2.2120   447.2810    86.5200    24.8750     8.6890     7.8820     9.2550   -16.0910 
  120.7500     2.2030   449.8110    82.9300    24.7190     8.7610     7.9240     9.3080   -16.2710 
  120.8750     2.1860   451.6640    81.8250    24.3690     8.8680     7.9840     9.3760   -16.5210 
