~V
VERS. 2.00: Ver 2.00
~W
STRT.M 60.0000:
STOP.M 262.0000:
STEP.M 0.1250:
NULL. -999.2500:
UWI. DF319:
~C
DEPT.M :
GR.API :
RML.OHMM :
RI. :
RXO.OHMM :
CALI.CM :
AC.US/MT :
DEN.GM/CC :
SP.MV :
~A
# ...
  190.0000    38.2110     6.1880     5.5580     6.0090    24.5950   407.2930     2.3690   -21.0450 
  190.1250    40.1940     6.2850     5.5920     6.0820    24.5890   409.0540     2.3640   -21.0310 
  190.2500    41.6650     6.4290     5.6740     6.2320    24.6240   414.4010     2.3620   -21.0270 
  190.3750    42.4700     6.5730     5.7740     6.4160    24.7340   418.3690     2.3640   -21.0360 
  190.5000    43.0630     6.6690     5.8610     6.5400    24.9040   417.2890     2.3680   -21.0510 
  190.6250    43.6220     6.6930     5.9060     6.5580    25.0230   413.5780     2.3680   -21.0650 
  190.7500    43.5830     6.6840     5.9250     6.4840    25.0650   412.4940     2.3600   -21.0690 
  190.8750    42.8640     6.6980     5.9510     6.4610    25.0620   414.8190     2.3480   -21.0690 
  191.0000    41.6710     6.7790     6.0200     6.5850    25.0330   416.0330     2.3390   -21.0880 
  191.1250    41.8900     6.9460     6.1570     6.8940    24.9360   410.5360     2.3410   -21.1210 
  191.2500    45.8340     7.1430     6.3260     7.3070    24.8050   400.0440     2.3530   -21.1210 
  191.3750    51.6060     7.2990     6.4750     7.6370    24.7320   389.5470     2.3630   -21.0800 
  191.5000    55.1950     7.3480     6.5480     7.6850    24.7280   385.2600     2.3600   -21.0510 
  191.6250    55.0960     7.2340     6.4960     7.4420    24.7800   390.4030     2.3350   -21.0510 
  191.7500    53.6530     7.0100     6.3510     7.2150    24.8770   399.2540     2.3030   -21.0020 
  191.8750    51.6710     6.7420     6.1560     6.9910    24.9870   405.6890     2.2780   -20.9400 
  192.0000    49.5570     6.5060     5.9630     6.7820    25.0640   404.6810     2.2720   -20.9230 
  192.1250    47.8920     6.3710     5.8160     6.5700    25.0960   392.8400     2.2870   -20.8890 
  192.2500    46.7530     6.3330     5.7230     6.3420    25.0200   384.6980     2.3070   -20.8040 
  192.3750    44.9710     6.3660     5.6790     6.1690    24.8310   389.8350     2.3240   -20.7500 
  192.5000    43.3640     6.4320     5.6730     6.0620    24.6680   403.6750     2.3360   -20.7580 
  192.6250    42.1900     6.4850     5.6970     5.9470    24.5690   418.5740     2.3490   -20.7180 
  192.7500    39.8690     6.5030     5.7350     5.9240    24.5270   431.2920     2.3650   -20.6850 
  192.8750    37.7420     6.4890     5.7800     5.9620    24.5110   438.3200     2.3810   -20.6700 
  193.0000    37.8910     6.4620     5.8250     6.0390    24.5100   434.2150     2.3900   -20.6540 
  193.1250    41.0620     6.4500     5.8610     6.1100    24.5430   427.1690     2.3860   -20.6630 
  193.2500    43.3180     6.4580     5.8800     6.1670    24.6580   427.6170     2.3730   -20.6820 
  193.3750    43.3830     6.4730     5.8730     6.1880    24.8750   431.0500     2.3590   -20.7000 
  193.5000    43.2340     6.4730     5.8350     6.1690    25.1030   430.5250     2.3470   -20.7030 
  193.6250    44.5940     6.4350     5.7620     6.1450    25.0400   425.1580     2.3450   -20.6940 
  193.7500    45.4390     6.3710     5.6720     6.0960    24.7950   419.5440     2.3520   -20.6880 
  193.8750    45.1120     6.3040     5.5840     6.0260    24.5340   416.9160     2.3650   -20.7140 
  194.0000    46.6870     6.2680     5.5230     6.0320    24.3790   416.7150     2.3770   -20.7210 
  194.1250    50.9840     6.3060     5.5230     6.1010    24.2570   416.0790     2.3830   -20.6910 
  194.2500    53.5700     6.4220     5.5910     6.2150    24.1080   414.5880     2.3830   -20.7060 
  194.3750    55.3010     6.6040     5.7260     6.3670    23.9610   412.4750     2.3830   -20.7400 
  194.5000    58.9380     6.8240     5.9090     6.6010    23.9140   409.0850     2.3910   -20.7340 
  194.6250    60.4990     7.0240     6.1000     6.8290    23.9640   404.2830     2.4130   -20.7150 
  194.7500    57.2570     7.1520     6.2550     6.9020    23.9770   400.3660     2.4400   -20.7550 
  194.8750    55.4240     7.1730     6.3390     6.7930    23.8240   398.8150     2.4590   -20.7720 
  195.0000    58.5650     7.0810     6.3380     6.5760    23.5650   398.8990     2.4620   -20.7400 
  195.1250    59.9890     6.8920     6.2480     6.3270    23.3340   398.6130     2.4430   -20.7140 
  195.2500    57.2230     6.6760     6.1100     6.1350    23.1280   397.8080     2.4180   -20.7030 
  195.3750    54.9340     6.4800     5.9590     6.0370    23.0620   397.8710     2.3980   -20.6560 
  195.5000    54.5090     6.3360     5.8270     5.9840    23.3040   400.0010     2.3900   -20.5990 
  195.6250    52.4790     6.2590     5.7380     5.9630    23.8650   403.6580     2.3950   -20.6050 
  195.7500    49.6280     6.2280     5.6870     5.9840    24.4080   406.0840     2.4020   -20.5930 
  195.8750    47.7590     6.2220     5.6660     6.0310    24.6550   406.6670     2.4030   -20.5630 
  196.0000    46.8630     6.2270     5.6600     6.0440    24.7040   406.4430     2.3940   -20.5500 
  196.1250    47.2280     6.2360     5.6600     6.0110    24.7010   407.1600     2.3780   -20.5960 
  196.2500    48.0430     6.2520     5.6560     5.9970    24.6800   408.5550     2.3600   -20.6240 
  196.3750    48.1030     6.2770     5.6430     5.9560    24.6490   409.1590     2.3420   -20.6330 
  196.5000    47.5740     6.3020     5.6210     5.8470    24.6990   408.5170     2.3220   -20.6850 
  196.6250    47.1590     6.3160     5.5980     5.7180    24.9520   408.4960     2.3010   -20.7380 
  196.7500    46.8710     6.3190     5.5890     5.6190    25.2060   410.9080     2.2810   -20.7490 
  196.8750    48.3810     6.3230     5.6070     5.5520    25.3510   413.5080     2.2660   -20.7600 
  197.0000    54.0440     6.3450     5.6550     5.5850    25.3940   411.4100     2.2620   -20.8250 
  197.1250    61.8760     6.3960     5.7300     5.8360    25.2240   402.0820     2.2690   -20.8830 
  197.2500    66.4730     6.4630     5.8140     6.1710    24.8920   393.5740     2.2840   -20.8980 
  197.3750    67.7510     6.5260     5.8920     6.4480    24.6640   393.3180     2.3040   -20.9370 
  197.5000    70.8750     6.5710     5.9570     6.5420    24.5580   401.2070     2.3260   -20.9960 
  197.6250    78.9380     6.5970     6.0050     6.5760    24.4760   409.8270     2.3490   -21.0560 
  197.7500    86.0360     6.6140     6.0400     6.6590    24.4130   414.0810     2.3690   -21.1150 
  197.8750    87.1860     6.6330     6.0640     6.7240    24.4090   416.0450     2.3840   -21.1970 
  198.0000    85.7130     6.6590     6.0760     6.7460    24.4630   419.1040     2.3870   -21.2710 
  198.1250    86.7780     6.6840     6.0700     6.8160    24.4930   423.8110     2.3750   -21.2910 
  198.2500    88.7280     6.6890     6.0450     6.8170    24.5050   428.1250     2.3500   -21.3560 
  198.3750    88.9850     6.6510     5.9950     6.7890    24.5030   422.5270     2.3200   -21.4540 
  198.5000    90.2740     6.5640     5.9210     6.6950    24.4890   407.2560     2.2930   -21.4970 
  198.6250    93.5050     6.4460     5.8400     6.6080    24.4480   399.8580     2.2790   -21.4920 
  198.7500    93.2110     6.3640     5.7910     6.5840    24.3990   407.6680     2.2770   -21.5150 
  198.8750    89.9260     6.3780     5.8120     6.6720    24.3780   420.3390     2.2870   -21.5650 
  199.0000    88.9240     6.5260     5.9310     6.9080    24.3740   426.4080     2.3020   -21.6000 
  199.1250    91.4290     6.8210     6.1710     7.3750    24.3710   427.3350     2.3170   -21.6430 
  199.2500    92.3050     7.1910     6.4840     8.0780    24.3680   427.6070     2.3300   -21.7040 
  199.3750    92.4420     7.5680     6.8220     8.6380    24.3680   427.2260     2.3380   -21.7700 
  199.5000    94.7090     7.8860     7.1310     8.8720    24.3690   427.6650     2.3430   -21.8260 
  199.6250    96.6830     8.0790     7.3580     8.9320    24.3670   426.5870     2.3450   -21.8800 
  199.7500    97.3860     8.1650     7.5060     9.0350    24.3660   422.8230     2.3470   -21.9510 
  199.8750    96.7900     8.1810     7.5990     9.1690    24.3660   418.2900     2.3490   -21.9590 
