~V
VERS. 2.00: Ver 2.00
~W
STRT.M 57.0000:
STOP.M 261.0000:
STEP.M 0.1250:
NULL. -999.2500:
UWI. DF317:
~C
DEPT.M :
DEN.GM/CC :
SP.MV :
AC.US/MT :
GR.API :
CALI.CM :
RXO.OHMM :
RI. :
RML.OHMM :
~A
# ...
  207.0000     2.4570   -26.0470   244.8180    73.0400    23.2400   180.2710   191.2090   211.6290 
  207.1250     2.3780   -26.0960   311.8800    73.1500    23.1860   143.7480   188.7200   206.7410 
  207.2500     2.2990   -26.1280   364.4010    70.2220    23.5180   132.7610   181.2430   197.5200 
  207.3750     2.2440   -26.1540   389.8160    67.6800    23.5890   145.0920   174.2060   189.7140 
  207.5000     2.2160   -26.1290   395.3910    65.5080    23.5800   151.8010   169.5830   184.3050 
  207.6250     2.2070   -26.0470   394.4020    63.6950    23.5510   147.2490   166.1530   179.5380 
  207.7500     2.2110   -25.9130   394.8150    64.0810    23.5520   135.5390   161.6080   172.9360 
  207.8750     2.2140   -25.7600   396.0560    67.0980    23.5450   128.4860   154.1530   162.5200 
  208.0000     2.2100   -25.6580   397.1880    70.5190    23.5180   132.7650   143.1030   148.1290 
  208.1250     2.1980   -25.6690   396.9990    71.5360    23.5160   143.4740   129.1700   131.2220 
  208.2500     2.1850   -25.7620   394.5980    71.2790    23.2800   136.4640   114.2320   114.6250 
  208.3750     2.1800   -25.8820   391.4460    73.0100    23.2520   110.6520   100.7850   100.6850 
  208.5000     2.1880   -25.9530   389.0980    74.2250    23.2880    82.5800    90.5820    90.8330 
  208.6250     2.2020   -25.9430   388.0330    72.3000    23.4800    67.3200    84.7050    85.8460 
  208.7500     2.2130   -25.8730   387.6290    68.3510    23.5190    61.6860    84.6440    86.8930 
  208.8750     2.2170   -25.7940   387.7090    67.2470    23.5590    61.3770    89.5940    92.8440 
  209.0000     2.2170   -25.7010   388.6740    67.6900    23.5880    67.2040    99.0480   103.1340 
  209.1250     2.2120   -25.6080   390.7660    66.7180    23.5520    78.6250   111.6770   116.4340 
  209.2500     2.1990   -25.5240   393.5920    65.8980    23.6130   103.4750   125.0900   130.3580 
  209.3750     2.1830   -25.4520   396.0250    67.1760    23.5720   127.7860   136.1010   141.4120 
  209.5000     2.1720   -25.4310   397.7160    68.9600    23.5380   140.0670   142.1880   147.0750 
  209.6250     2.1690   -25.4860   398.7690    68.2710    23.5770   138.7950   142.0650   145.9630 
  209.7500     2.1710   -25.5730   399.2420    67.3610    23.5400   129.1680   135.4890   138.1230 
  209.8750     2.1730   -25.6320   399.3270    68.7670    23.5460   116.4600   125.6880   127.4420 
  210.0000     2.1770   -25.6280   399.1670    69.2400    23.5680   101.3090   115.3450   116.7600 
  210.1250     2.1830   -25.5100   399.0070    67.5530    23.5370    88.1490   106.1670   107.6160 
  210.2500     2.1920   -25.2920   398.9140    70.0610    23.5520    83.4720    99.2980   100.9420 
  210.3750     2.2010   -25.0130   398.6170    74.7810    23.5580    84.1210    94.5570    96.4950 
  210.5000     2.2060   -24.7250   398.0880    75.5060    23.5510    76.4190    91.8700    94.0590 
  210.6250     2.2060   -24.4490   397.4830    72.8550    23.5840    64.6750    90.7100    92.9670 
  210.7500     2.2020   -24.1940   396.6780    71.9480    23.5650    63.8970    90.2070    92.4690 
  210.8750     2.1980   -23.9610   395.6200    71.6300    23.5680    70.0050    89.3830    91.5400 
  211.0000     2.1970   -23.7690   394.9160    70.1610    23.5770    73.2390    87.9380    89.9050 
  211.1250     2.2010   -23.6620   395.7980    68.0800    23.5740    75.9570    85.8150    87.6480 
  211.2500     2.2110   -23.6680   397.9910    67.0080    23.5790    76.0150    83.1920    85.0250 
  211.3750     2.2220   -23.7410   398.8150    66.9210    23.5580    68.4600    80.7170    82.8220 
  211.5000     2.2300   -23.8420   397.0670    70.0410    23.5720    57.2780    79.2040    81.9310 
  211.6250     2.2330   -23.9610   393.4840    74.9090    23.5310    52.4930    79.4360    83.0780 
  211.7500     2.2330   -24.0390   390.8990    76.1310    23.5250    59.9080    82.1530    86.8840 
  211.8750     2.2390   -24.0950   390.6270    76.1490    23.5390    72.3000    86.6600    92.6660 
  212.0000     2.2520   -24.1190   391.6710    77.9540    23.5530    80.2400    92.6350   100.0640 
  212.1250     2.2640   -24.0650   391.7740    78.2010    23.6070    83.0940    99.5360   108.5420 
  212.2500     2.2670   -23.9240   390.1430    69.9310    23.5380    90.0070   106.5000   117.2220 
  212.3750     2.2630   -23.7350   389.6700    61.2730    23.5310    98.0310   112.4650   125.0050 
  212.5000     2.2560   -23.5510   391.3710    59.9420    23.5080    99.4840   117.2260   131.5380 
  212.6250     2.2430   -23.4060   393.4160    63.2770    23.5180    90.4420   121.5130   137.4780 
  212.7500     2.2250   -23.3490   393.1360    63.4770    23.5060    78.4110   125.9300   143.5580 
  212.8750     2.2110   -23.3480   391.5980    61.4540    23.4670    76.4290   130.3890   149.6490 
  213.0000     2.2130   -23.3650   389.4120    59.9050    23.3350    84.3780   134.2480   155.0960 
  213.1250     2.2430   -23.4060   380.7390    58.9480    23.3700    90.6680   137.1000   159.3810 
  213.2500     2.3070   -23.4320   354.4560    59.5210    23.1770    85.4620   138.5210   161.5320 
  213.3750     2.3690   -23.4360   319.9180    61.6240    23.0980    86.0300   138.1660   161.1780 
  213.5000     2.4020   -23.4130   299.0450    62.5270    23.1470    99.0990   135.8730   158.1210 
  213.6250     2.4080   -23.3630   302.8490    61.5120    23.2690   111.3740   132.0610   153.0750 
  213.7500     2.4220   -23.3080   313.0080    60.6380    23.3800   100.4760   127.0560   146.6160 
  213.8750     2.4610   -23.2500   300.1050    61.6770    22.8600    76.9130   121.2080   139.1170 
  214.0000     2.5120   -23.2200   261.1700    62.0890    22.1370    59.2740   114.8610   131.2030 
  214.1250     2.5630   -23.2470   216.3970    62.1730    22.0080    59.3110   108.2310   122.8470 
  214.2500     2.6050   -23.3660   196.1280    65.9570    21.9060    59.9450    99.5250   111.7020 
  214.3750     2.6240   -23.5460   204.5850    72.6230    21.7190    49.9140    87.0200    96.1880 
  214.5000     2.6160   -23.7400   220.4640    78.4470    21.4670    35.9900    71.1110    77.5530 
  214.6250     2.5910   -23.9000   223.7330    82.2900    21.2730    26.0660    54.0450    58.5390 
  214.7500     2.5690   -23.9910   218.4970    83.7620    21.4540    22.6320    39.1530    42.2920 
  214.8750     2.5470   -24.0490   229.2790    83.7490    21.6700    21.3780    27.6340    29.6720 
  215.0000     2.5120   -24.0800   266.0380    84.0760    21.7490    17.1160    19.3750    20.6280 
  215.1250     2.4640   -24.0520   319.5560    88.6510    21.9070    10.3080    13.8520    14.7220 
  215.2500     2.4120   -23.9730   364.9960    95.3260    22.8800     8.2640    10.7790    11.6050 
  215.3750     2.3710   -23.8790   383.9570    98.2950    23.6730     8.0690     9.1670    10.0760 
  215.5000     2.3450   -23.7890   380.2910    98.0230    23.9880     8.7140     8.4370     9.5140 
  215.6250     2.3310   -23.7110   371.7040    97.3390    24.1510     9.1750     8.2290     9.4740 
  215.7500     2.3250   -23.6540   369.8750    97.1630    24.1090     9.4270     8.3100     9.6160 
  215.8750     2.3250   -23.6220   371.6890    96.2110    23.9530     9.5470     8.3910     9.6430 
  216.0000     2.3360   -23.6270   374.4000    94.0630    23.8560     9.5270     8.3560     9.4760 
  216.1250     2.3540   -23.6860   377.7570    95.6590    23.7480     9.2630     8.1960     9.1440 
  216.2500     2.3580   -23.7920   380.8970   105.0930    23.6240     8.7240     7.9910     8.8270 
  216.3750     2.3470   -23.9360   382.1290   116.4760    23.5610     8.3660     7.8470     8.6790 
  216.5000     2.3330   -24.1180   380.1630   119.6200    23.5760     8.1430     7.8130     8.7190 
  216.6250     2.3260   -24.3090   375.1630   111.5640    23.8100     8.1550     7.8850     8.9330 
  216.7500     2.3240   -24.4790   369.1300   101.2290    23.8600     9.2060     8.0490     9.3060 
  216.8750     2.3240   -24.6170   364.4380    97.6300    23.8990     9.9930     8.2390     9.7190 
