~V
VERS. 2.00: Ver 2.00
~W
STRT.M 56.0000:
STOP.M 209.0000:
STEP.M 0.1250:
NULL. -999.2500:
UWI. DF316:
~C
DEPT.M :
GR.API :
CALI.CM :
RXO.OHMM :
RI. :
RML.OHMM :
SP.MV :
DEN.GM/CC :
AC.US/MT :
~A
# ...
   76.0000    66.6870    24.2950    29.6100    19.3410    21.1780   -19.2620     2.4360   260.1910 
   76.1250    67.9310    24.2950    14.6610    14.1610    15.2730   -19.2740     2.3570   328.1550 
   76.2500    69.8200    24.4080     7.9960    10.4400    11.0790   -19.3280     2.3130   393.2990 
   76.3750    73.9420    24.7420     6.2920     8.1100     8.5870   -19.4290     2.3040   431.7970 
   76.5000    79.4050    24.9680     5.5050     6.6500     7.0450   -19.5480     2.3160   449.1320 
   76.6250    84.1230    25.0210     5.3290     5.8760     6.2460   -19.6650     2.3320   457.3080 
   76.7500    86.2090    24.9960     5.2960     5.4830     5.9720   -19.7640     2.3460   463.4260 
   76.8750    83.1910    24.9760     5.5150     5.4030     6.0870   -19.8460     2.3600   466.3110 
   77.0000    76.9060    24.9600     5.9730     5.4610     6.4130   -19.9050     2.3690   462.0090 
   77.1250    73.2790    24.9530     6.3200     5.6090     6.9210   -19.9220     2.3670   450.8810 
   77.2500    75.0850    24.9530     6.7220     5.9340     7.5650   -19.8880     2.3610   438.1250 
   77.3750    78.6740    24.9880     6.6650     6.4870     8.1820   -19.8150     2.3540   430.3830 
   77.5000    77.4760    25.0190     6.7500     7.0540     8.7020   -19.7340     2.3410   428.6820 
   77.6250    72.7170    25.0150     7.1040     7.6230     9.0290   -19.6660     2.3200   430.7670 
   77.7500    70.3360    25.0150     7.7090     8.0980     9.1620   -19.6020     2.3020   433.0680 
   77.8750    73.7570    24.9520     8.2740     8.2260     8.9580   -19.5420     2.2960   434.3160 
   78.0000    78.8900    24.9400     8.3170     7.9900     8.6150   -19.4710     2.3020   436.1870 
   78.1250    80.9480    24.9320     7.8320     7.5530     8.1270   -19.3790     2.3110   440.2330 
   78.2500    79.4510    24.9440     7.1240     6.9460     7.6870   -19.2600     2.3190   444.5570 
   78.3750    80.5200    24.7610     6.7530     6.2980     7.4090   -19.1190     2.3300   446.9180 
   78.5000    84.4160    24.8630     6.4350     5.8730     7.4750   -18.9680     2.3510   448.4050 
   78.6250    87.8840    24.9620     6.2410     5.7710     7.8560   -18.8100     2.3770   446.8740 
   78.7500    87.5360    24.8510     6.3670     5.9830     8.4740   -18.6450     2.3910   437.8620 
   78.8750    83.7780    24.8070     7.7870     6.6390     9.3350   -18.4550     2.3850   418.9820 
   79.0000    79.8210    24.8780     9.0590     7.6070    10.4210   -18.2480     2.3600   402.1310 
   79.1250    77.0870    24.9340     9.5600     8.7330    11.7070   -18.0250     2.3290   398.1420 
   79.2500    75.2430    25.0260     9.7980     9.8890    13.1010   -17.7870     2.3000   406.8570 
   79.3750    71.4060    25.0200     9.8620    10.9490    14.4940   -17.5260     2.2800   418.1500 
   79.5000    68.4000    25.0220     9.8820    11.8160    15.7500   -17.2720     2.2660   422.6860 
   79.6250    69.1170    24.9070     9.7800    12.6110    16.9300   -17.0250     2.2580   422.2930 
   79.7500    72.1390    24.8470     9.4650    13.3430    18.0010   -16.8010     2.2500   423.2220 
   79.8750    71.6560    24.8050     9.2820    14.0670    19.1130   -16.5890     2.2470   426.7500 
   80.0000    68.3800    24.6500     9.0750    14.7840    20.0650   -16.3930     2.2520   426.8260 
   80.1250    66.8990    24.4290     9.5630    15.6540    20.8990   -16.2220     2.2670   421.8190 
   80.2500    67.4050    24.1070    10.5920    16.5460    21.4140   -16.0920     2.2810   417.8330 
   80.3750    68.0130    23.8640    11.0360    17.0890    21.3910   -16.0280     2.2860   420.5160 
   80.5000    68.4850    23.8750    10.6040    16.9390    20.5930   -15.9870     2.2820   427.0740 
   80.6250    69.1890    24.2480    10.2210    15.9940    19.0860   -15.9560     2.2740   436.4480 
   80.7500    69.6990    24.6830    10.1910    14.4740    17.1010   -15.9290     2.2670   448.3660 
   80.8750    70.6370    24.8680    10.1080    12.6500    14.9440   -15.9470     2.2620   457.7510 
   81.0000    75.3380    24.8740     9.3390    10.7670    13.0030   -16.0340     2.2650   459.3320 
   81.1250    82.1730    24.6810     7.7890     9.2450    11.5290   -16.1760     2.2780   455.0550 
   81.2500    86.1790    24.6840     6.5090     8.1620    10.7350   -16.3440     2.2910   450.7430 
   81.3750    83.4460    24.5950     6.9440     7.6540    10.5840   -16.4950     2.2890   449.1370 
   81.5000    78.0220    24.2720     7.7610     7.6420    10.8780   -16.6380     2.2650   447.7770 
   81.6250    74.4980    24.0390     7.7210     7.8910    11.2790   -16.7750     2.2250   444.8480 
   81.7500    72.6350    23.5170     6.8300     8.2590    11.6160   -16.8770     2.1880   440.5250 
   81.8750    70.5340    21.4050     5.6620     8.6170    11.6170   -16.9240     2.1700   436.0460 
   82.0000    71.0340    18.0060     5.2430     8.7160    11.3260   -16.8970     2.1740   433.0680 
   82.1250    76.2520    16.2370     5.3410     8.5480    10.8320   -16.8050     2.1990   432.3190 
   82.2500    83.6520    15.7980     5.1460     8.3370    10.3190   -16.6770     2.2320   435.5120 
   82.3750    85.2350    16.0770     4.3550     8.2470    10.2780   -16.5140     2.2660   435.8240 
   82.5000    81.3340    17.0900     4.0060     8.4260    10.8050   -16.3120     2.2950   413.9510 
   82.6250    75.0620    18.6390     4.6180     9.0070    11.9330   -16.0960     2.3010   370.6880 
   82.7500    69.2760    19.6730     5.5440     9.9660    13.4970   -15.8610     2.2850   329.7410 
   82.8750    66.5320    20.2070     5.8370    11.1020    15.3550   -15.6120     2.2550   316.0470 
   83.0000    65.6770    20.5990     5.9980    12.3440    17.0900   -15.3830     2.2240   315.2560 
   83.1250    65.6820    21.1250     6.4330    13.3780    18.4390   -15.1850     2.2070   324.0920 
   83.2500    66.6740    21.7960     6.9230    13.9010    19.1030   -15.0160     2.1990   355.4760 
   83.3750    66.1910    21.9130     7.0820    13.8070    18.9090   -14.8930     2.1930   400.5680 
   83.5000    62.4740    21.9190     7.2840    13.1890    18.0200   -14.8210     2.1850   431.0050 
   83.6250    58.9110    21.8690     7.7300    12.2560    16.7480   -14.7720     2.1810   441.9810 
   83.7500    61.0690    21.8290     8.1420    11.2880    15.2510   -14.7810     2.1900   446.2660 
   83.8750    67.0280    21.7080     8.3040    10.3010    13.7100   -14.8590     2.2120   450.1870 
   84.0000    70.5960    21.6730     8.0450     9.5390    12.3530   -14.9540     2.2380   449.2050 
   84.1250    72.9400    21.9070     7.7370     8.9920    11.2850   -15.0580     2.2560   445.7070 
   84.2500    76.4360    22.6170     7.6690     8.6370    10.6340   -15.1570     2.2680   441.9410 
   84.3750    77.8440    23.4670     7.9320     8.5650    10.5720   -15.2370     2.2770   437.5270 
   84.5000    75.0490    23.8810     8.0440     8.6680    11.1750   -15.2890     2.2910   430.8940 
   84.6250    70.9850    23.9590     8.6230     8.9570    12.2660   -15.3220     2.3180   419.4060 
   84.7500    68.3030    23.8890    11.1580     9.5140    13.7060   -15.3230     2.3430   403.4650 
   84.8750    66.9260    23.8330    14.8450    10.4280    15.3160   -15.2830     2.3470   391.3240 
   85.0000    63.9410    24.2040    15.4330    11.4120    16.8910   -15.2210     2.3150   391.8070 
   85.1250    60.3410    24.5790    14.9370    12.4350    18.2390   -15.1430     2.2570   404.0350 
   85.2500    57.2100    25.2120    15.8680    13.4170    19.3100   -15.0710     2.2040   417.8250 
   85.3750    54.5790    25.2950    16.0600    14.1180    20.0870   -15.0120     2.1720   424.2290 
   85.5000    53.7650    25.3300    15.1910    14.6870    20.6650   -14.9860     2.1650   426.5450 
   85.6250    55.1790    25.3320    15.5980    15.1920    21.2230   -14.9880     2.1810   429.5000 
   85.7500    56.9220    25.3370    16.7580    15.6150    21.6870   -15.0200     2.2050   433.9140 
   85.8750    55.6960    25.2730    17.1310    15.9280    21.8830   -15.0810     2.2250   439.0140 
