~V
VERS. 2.00: Ver 2.00
~W
STRT.M 56.0000:
STOP.M 209.0000:
STEP.M 0.1250:
NULL. -999.2500:
UWI. DF316:
~C
DEPT.M :
GR.API :
CALI.CM :
RXO.OHMM :
RI. :
RML.OHMM :
SP.MV :
DEN.GM/CC :
AC.US/MT :
~A
   56.0000  -999.2500  -999.2500  -999.2500  -999.2500  -999.2500  -999.2500  -999.2500  -999.2500 
   56.1250  -999.2500  -999.2500  -999.2500  -999.2500  -999.2500    33.9440  -999.2500  -999.2500 
   56.2500  -999.2500  -999.2500  -999.2500  -999.2500  -999.2500    33.9440  -999.2500  -999.2500 
   56.3750  -999.2500  -999.2500  -999.2500  -999.2500  -999.2500    34.1410  -999.2500  -999.2500 
   56.5000  -999.2500  -999.2500  -999.2500  -999.2500  -999.2500    34.3520  -999.2500  -999.2500 
   56.6250  -999.2500  -999.2500  -999.2500  -999.2500  -999.2500    34.5440  -999.2500  -999.2500 
   56.7500  -999.2500  -999.2500  -999.2500  -999.2500  -999.2500    34.6830  -999.2500  -999.2500 
   56.8750  -999.2500  -999.2500  -999.2500  -999.2500  -999.2500    34.7050  -999.2500  -999.2500 
   57.0000  -999.2500  -999.2500  -999.2500  -999.2500  -999.2500    34.6080  -999.2500  -999.2500 
   57.1250  -999.2500  -999.2500  -999.2500  -999.2500  -999.2500    34.4050  -999.2500  -999.2500 
   57.2500  -999.2500  -999.2500  -999.2500  -999.2500  -999.2500    34.1060  -999.2500  -999.2500 
   57.3750  -999.2500  -999.2500  -999.2500  -999.2500  -999.2500    33.6780  -999.2500  -999.2500 
   57.5000  -999.2500  -999.2500  -999.2500  -999.2500  -999.2500    33.1480  -999.2500  -999.2500 
   57.6250  -999.2500  -999.2500  -999.2500  -999.2500  -999.2500    32.5280  -999.2500  -999.2500 
   57.7500  -999.2500  -999.2500  -999.2500  -999.2500  -999.2500    31.8600  -999.2500  -999.2500 
   57.8750  -999.2500  -999.2500  -999.2500  -999.2500  -999.2500    31.2340  -999.2500  -999.2500 
   58.0000  -999.2500  -999.2500  -999.2500  -999.2500  -999.2500    30.6460  -999.2500  -999.2500 
   58.1250  -999.2500  -999.2500  -999.2500  -999.2500  -999.2500    30.0700  -999.2500  -999.2500 
   58.2500  -999.2500  -999.2500  -999.2500  -999.2500  -999.2500    29.4950  -999.2500  -999.2500 
   58.3750  -999.2500  -999.2500  -999.2500  -999.2500  -999.2500    28.9170  -999.2500  -999.2500 
   58.5000  -999.2500  -999.2500  -999.2500  -999.2500  -999.2500    28.3400  -999.2500  -999.2500 
   58.6250  -999.2500  -999.2500  -999.2500  -999.2500  -999.2500    27.7720  -999.2500  -999.2500 
   58.7500  -999.2500  -999.2500  -999.2500  -999.2500  -999.2500    27.1930  -999.2500  -999.2500 
   58.8750  -999.2500  -999.2500  -999.2500  -999.2500  -999.2500    26.5630  -999.2500  -999.2500 
   59.0000  -999.2500  -999.2500  -999.2500  -999.2500  -999.2500    25.9080  -999.2500  -999.2500 
   59.1250  -999.2500  -999.2500  -999.2500  -999.2500  -999.2500    25.2330  -999.2500  -999.2500 
   59.2500  -999.2500  -999.2500  -999.2500  -999.2500  -999.2500    24.5540  -999.2500  -999.2500 
   59.3750  -999.2500  -999.2500  -999.2500  -999.2500  -999.2500    23.9010  -999.2500  -999.2500 
   59.5000  -999.2500  -999.2500  -999.2500  -999.2500  -999.2500    23.3100  -999.2500  -999.2500 
   59.6250  -999.2500  -999.2500  -999.2500  -999.2500  -999.2500    22.8050  -999.2500  -999.2500 
   59.7500  -999.2500  -999.2500  -999.2500  -999.2500  -999.2500    22.3850  -999.2500  -999.2500 
   59.8750  -999.2500  -999.2500  -999.2500  -999.2500  -999.2500    22.0280  -999.2500  -999.2500 
   60.0000  -999.2500  -999.2500  -999.2500  -999.2500  -999.2500    21.6590  -999.2500  -999.2500 
   60.1250  -999.2500  -999.2500  -999.2500  -999.2500  -999.2500    21.2590  -999.2500  -999.2500 
   60.2500  -999.2500  -999.2500  -999.2500  -999.2500  -999.2500    20.8310  -999.2500  -999.2500 
   60.3750  -999.2500  -999.2500  -999.2500  -999.2500  -999.2500    20.3910  -999.2500  -999.2500 
   60.5000  -999.2500  -999.2500  -999.2500  -999.2500  -999.2500    19.9340  -999.2500  -999.2500 
   60.6250  -999.2500  -999.2500  -999.2500  -999.2500  -999.2500    19.4550  -999.2500  -999.2500 
   60.7500    37.2950    25.4550     0.3710     0.5940     2.0110    18.9690  -999.2500  -999.2500 
   60.8750    37.2950    25.4550     0.3710     0.5940     2.0110    18.5030  -999.2500  -999.2500 
   61.0000    37.1320    25.4550     0.3700     0.6440     2.0850    18.0980  -999.2500  -999.2500 
   61.1250    35.5520    25.4680     0.3690     0.6620     2.1360    17.7700  -999.2500  -999.2500 
   61.2500    33.8130    25.5790     0.3710     0.6110     2.1510    17.5090  -999.2500  -999.2500 
   61.3750    33.8470    25.6060     0.3700     0.5100     1.9810    17.3090  -999.2500  -999.2500 
   61.5000    34.2710    25.6020     0.3670     0.3850     1.7670    17.1540  -999.2500  -999.2500 
   61.6250    33.8230    25.5850     0.3630     0.2500     1.4940    17.0190     1.4500  -999.2500 
   61.7500    32.9150    25.5700     0.3590     0.1820     1.2890    16.8810     1.4500  -999.2500 
   61.8750    32.3750    25.4360     0.3600     0.1960     1.0360    16.7430     1.4560  -999.2500 
   62.0000    32.0840    25.3850     0.3630     0.2930     0.8840    16.6160     1.4640  -999.2500 
   62.1250    31.6030    25.3700     0.3650     0.4260     0.8500    16.5210     1.4620  -999.2500 
   62.2500    31.8400    25.3570     0.3630     0.5460     0.9470    16.4710     1.4600  -999.2500 
   62.3750    31.9640    25.2960     0.3610     0.6040     1.1610    16.4570     1.4680  -999.2500 
   62.5000    31.5770    25.2790     0.3600     0.6100     1.3920    16.4580     1.4880  -999.2500 
   62.6250    31.7230    25.3330     0.3590     0.5670     1.5630    16.4790     1.5090  -999.2500 
   62.7500    32.1330    25.3640     0.3580     0.4740     1.6290    16.5100     1.5170  -999.2500 
   62.8750    31.8730    25.3690     0.3540     0.3310     1.7960    16.5490     1.5070  -999.2500 
   63.0000    31.2620    25.3610     0.3460     0.1710     1.8240    16.5970     1.4910  -999.2500 
   63.1250    32.9380    25.3150     0.3380     0.0760     1.7760    16.6390     1.4770  -999.2500 
   63.2500    35.2770    25.2800     0.3320     0.0710     1.5790    16.6550     1.4650  -999.2500 
   63.3750    34.4170    25.2750     0.3310     0.1720     1.5720    16.6410     1.4540  -999.2500 
   63.5000    32.8760    25.2810     0.3240     0.3340     1.6260    16.6060     1.4480  -999.2500 
   63.6250    33.6180    25.2980     0.3130     0.5090     1.8230    16.5420     1.4560  -999.2500 
   63.7500    36.5590    25.3560     0.3060     0.6860     1.8920    16.4540     1.4740   182.3200 
   63.8750    38.0970    25.3600     0.3030     0.7940     1.8810    16.3560     1.4870   182.3200 
   64.0000    38.1960    25.3570     0.3020     0.8240     1.9400    16.2490     1.4890   182.3200 
   64.1250    37.8830    25.3140     0.3040     0.7710     2.0650    16.1390     1.4870   182.3200 
   64.2500    35.2410    25.2880     0.3060     0.6400     2.2550    16.0310     1.4940   182.3200 
   64.3750    32.2700    25.2830     0.3030     0.4510     2.3560    15.9170     1.5150   182.3200 
   64.5000    31.8670    25.2840     0.3000     0.2720     2.6100    15.7480     1.5490   182.3200 
   64.6250    33.9320    25.2720     0.3010     0.1570     2.8270    15.5070     1.5970   182.3200 
   64.7500    36.7370    25.2590     0.3040     0.1300     3.1330    15.2070     1.6590   182.3200 
   64.8750    37.5440    25.2660     0.3050     0.2030     3.2410    14.8360     1.7390   182.3200 
   65.0000    36.4480    25.2680     0.3050     0.3920     3.4040    14.4130     1.8270   182.3200 
   65.1250    33.8310    25.2670     0.3020     0.5810     3.3860    13.9490     1.9000   182.3200 
   65.2500    32.7780    25.2630     0.2990     0.7270     3.2660    13.4480     1.9490   182.3200 
   65.3750    33.2150    25.2590     0.2980     0.7940     2.9870    12.9080     1.9800   182.3200 
   65.5000    33.6060    25.2650     0.2990     0.7870     2.7530    12.3720     2.0110   182.3200 
   65.6250    35.5640    25.2560     0.2990     0.7070     2.3710    11.8650     2.0490   182.3200 
   65.7500    38.2010    25.2430     0.3000     0.5600     1.8030    11.3810     2.0840   182.3200 
   65.8750    38.6580    25.2300     0.3000     0.3590     1.1370    10.9290     2.1020   182.3200 
