~V
VERS. 2.00: Ver 2.00
~W
STRT.M 57.0000:
STOP.M 261.0000:
STEP.M 0.1250:
NULL. -999.2500:
UWI. DF317:
~C
DEPT.M :
DEN.GM/CC :
SP.MV :
AC.US/MT :
GR.API :
CALI.CM :
RXO.OHMM :
RI. :
RML.OHMM :
~A
# ...
  147.0000     2.2100   -17.1170   409.8540    72.0370    23.5760    15.3750    26.1580    31.7700 
  147.1250     2.1900   -17.1590   412.6870    69.0830    23.5680    15.3130    26.9700    33.1310 
  147.2500     2.1760   -17.2280   419.4480    69.7690    23.5920    15.1350    28.4390    35.2690 
  147.3750     2.1850   -17.3000   421.5560    69.0140    23.6450    15.7690    30.3410    37.8350 
  147.5000     2.2240   -17.3810   404.4970    66.2620    23.8270    17.5530    32.5310    40.6070 
  147.6250     2.2910   -17.4700   362.1270    63.8040    23.9430    24.6760    34.7800    43.2810 
  147.7500     2.3720   -17.5730   307.2390    61.5740    24.1560    38.7500    36.6720    45.3550 
  147.8750     2.4370   -17.6900   268.0630    58.8310    24.1270    46.2480    37.9980    46.6700 
  148.0000     2.4770   -17.8030   254.8970    57.4450    24.1160    38.3550    38.6840    47.2510 
  148.1250     2.5010   -17.9100   257.2710    58.1080    23.9620    25.7650    38.7790    47.2030 
  148.2500     2.5220   -17.9890   252.8320    59.1930    23.8880    21.7330    38.4150    46.6930 
  148.3750     2.5450   -18.0440   236.6940    58.8970    23.8070    23.2160    37.7740    45.9040 
  148.5000     2.5640   -18.0800   221.9450    58.0320    23.8340    25.8100    36.7800    44.6990 
  148.6250     2.5650   -18.1110   221.4970    59.2810    23.9120    30.1980    35.4690    43.1000 
  148.7500     2.5370   -18.1290   239.1460    62.2260    23.8420    29.7380    34.0280    41.3080 
  148.8750     2.4960   -18.1230   263.1740    62.7250    23.6930    25.1680    32.6720    39.6200 
  149.0000     2.4650   -18.1080   282.9150    61.1120    23.5690    20.9110    31.6490    38.3620 
  149.1250     2.4610   -18.0800   289.8270    61.3850    23.4120    17.8980    31.2520    37.9330 
  149.2500     2.4870   -18.0360   279.2300    61.3910    23.3990    17.0150    31.7370    38.6350 
  149.3750     2.5210   -18.0010   261.1580    56.7110    23.6330    18.4610    32.7550    40.0480 
  149.5000     2.5480   -17.9800   244.6700    54.2910    23.7880    21.4050    34.4230    42.1530 
  149.6250     2.5660   -17.9580   233.9960    54.9980    23.8100    23.8830    36.2920    44.2990 
  149.7500     2.5840   -17.9570   228.5950    56.0070    23.4950    24.1840    37.8060    45.8880 
  149.8750     2.5980   -17.9770   225.1840    53.7320    23.5170    24.3400    38.4980    46.4280 
  150.0000     2.6020   -17.9920   222.8430    51.0830    23.5310    25.7290    38.1690    45.7420 
  150.1250     2.5960   -18.0200   221.5930    50.3130    23.3270    24.4340    36.9270    44.0290 
  150.2500     2.5860   -18.0790   223.2170    53.4260    22.8700    21.2410    34.9360    41.5510 
  150.3750     2.5780   -18.1290   228.9580    59.4330    22.4410    19.1230    32.7590    38.9180 
  150.5000     2.5710   -18.1800   237.9310    63.3160    21.9980    20.0680    30.7740    36.5790 
  150.6250     2.5690   -18.2390   246.8470    61.9730    22.0580    20.7670    29.2440    34.8340 
  150.7500     2.5720   -18.2910   250.8790    58.6170    22.2860    21.2280    28.3450    33.8930 
  150.8750     2.5740   -18.3460   249.5570    58.7400    22.8830    23.2640    27.9670    33.6090 
  151.0000     2.5690   -18.4190   244.4150    60.6520    23.4280    25.8780    28.0420    33.8640 
  151.1250     2.5610   -18.4890   237.7660    61.8890    23.8840    28.2990    28.3330    34.2700 
  151.2500     2.5610   -18.5270   233.2710    62.8840    24.0300    31.4580    28.4880    34.3780 
  151.3750     2.5740   -18.5720   232.7110    63.3000    24.0350    33.8330    28.3560    34.0830 
  151.5000     2.5930   -18.6200   235.1980    62.4500    23.9910    32.8590    27.8850    33.3550 
  151.6250     2.6040   -18.6660   238.5980    60.6040    24.1150    29.7280    27.1660    32.3360 
  151.7500     2.5940   -18.7010   241.6340    59.0240    23.9440    26.6850    26.3950    31.3420 
  151.8750     2.5750   -18.7240   245.2390    58.3400    23.9300    26.1730    25.8780    30.7750 
  152.0000     2.5580   -18.7470   248.3970    59.3700    23.9060    24.3090    25.7770    30.8370 
  152.1250     2.5480   -18.7580   248.5490    61.1790    23.9260    22.8350    26.1740    31.6160 
  152.2500     2.5500   -18.7840   244.9130    61.4590    23.8600    24.1790    27.1020    33.0720 
  152.3750     2.5680   -18.8160   239.5090    60.2940    23.7240    26.3390    28.1870    34.6360 
  152.5000     2.5950   -18.8290   233.6480    57.4970    23.8060    27.3670    29.0540    35.8350 
  152.6250     2.6150   -18.8310   227.9470    54.8070    23.7040    28.1180    29.3710    36.2240 
  152.7500     2.6130   -18.8220   224.0950    55.3900    23.7090    30.4330    28.7600    35.3990 
  152.8750     2.6020   -18.8000   223.7700    58.0830    23.7740    32.0400    27.3600    33.5460 
  153.0000     2.5950   -18.7700   227.8710    59.6610    23.7370    29.8440    25.4190    31.0440 
  153.1250     2.5900   -18.7390   236.9900    59.5430    23.6990    24.3040    23.4120    28.5220 
  153.2500     2.5760   -18.6690   250.3540    62.2520    23.7510    20.7800    21.9060    26.7550 
  153.3750     2.5570   -18.5590   263.5080    66.7460    23.8940    19.1710    21.0520    25.9060 
  153.5000     2.5430   -18.4680   271.6710    69.1150    23.9700    19.0750    20.8940    25.9850 
  153.6250     2.5430   -18.3980   270.8330    67.4810    23.9290    19.0530    21.3670    26.8720 
  153.7500     2.5580   -18.3370   259.5840    63.8950    23.8410    20.8750    22.2340    28.1400 
  153.8750     2.5760   -18.2820   244.6400    61.4930    23.7690    23.7120    22.9790    29.0620 
  154.0000     2.5890   -18.2270   233.1970    60.8920    23.7890    28.1200    23.1830    29.1640 
  154.1250     2.5930   -18.1420   230.4780    60.9720    23.7130    30.8690    22.6870    28.3070 
  154.2500     2.5880   -18.0730   238.5450    61.2030    23.7230    28.0040    21.5300    26.6190 
  154.3750     2.5810   -18.0440   251.6490    61.6020    23.7390    23.3850    20.1930    24.8310 
  154.5000     2.5750   -18.0060   263.7070    62.7390    23.7090    19.0930    18.9770    23.3560 
  154.6250     2.5720   -17.9460   269.3290    63.7960    23.7710    16.0640    18.0650    22.3410 
  154.7500     2.5810   -17.8810   265.1300    64.1470    23.7540    15.4910    17.5590    21.8790 
  154.8750     2.5950   -17.8240   257.1100    62.4890    23.6920    16.3150    17.2810    21.6970 
  155.0000     2.5990   -17.7590   252.6760    59.1400    23.6760    17.4990    17.0610    21.5030 
  155.1250     2.5850   -17.7150   256.1980    57.0760    23.6170    17.7270    16.7360    21.0700 
  155.2500     2.5550   -17.6870   268.8480    59.5810    23.5850    15.9510    16.2620    20.3560 
  155.3750     2.5170   -17.6630   286.2100    65.4240    23.5340    14.3830    15.7470    19.5720 
  155.5000     2.4720   -17.6150   304.3700    70.6230    23.5490    14.1150    15.2710    18.8810 
  155.6250     2.4260   -17.5500   318.8270    70.0830    23.3320    14.8250    14.9120    18.4430 
  155.7500     2.3970   -17.4870   323.9080    64.2840    23.3880    15.0790    14.7260    18.2790 
  155.8750     2.3870   -17.4130   323.1150    62.5870    23.6970    15.9240    14.6230    18.2120 
  156.0000     2.3890   -17.3380   321.6360    65.1260    23.8680    16.4470    14.5140    18.0970 
  156.1250     2.3920   -17.2750   322.5410    64.4390    23.8930    15.9590    14.3210    17.8580 
  156.2500     2.3950   -17.2080   325.4300    63.3000    23.7740    14.3330    14.0580    17.5000 
  156.3750     2.3990   -17.1200   327.0790    64.2880    23.5530    13.3420    13.8290    17.2130 
  156.5000     2.4130   -17.0500   325.4140    65.1910    23.5810    12.9840    13.7040    17.0960 
  156.6250     2.4360   -17.0010   319.0830    63.9930    23.7120    12.8180    13.6870    17.1370 
  156.7500     2.4610   -16.9630   309.3220    62.8750    23.9330    13.6010    13.7770    17.3280 
  156.8750     2.4770   -16.9280   301.5890    63.8710    24.0420    14.1930    13.9100    17.5410 
