~V
VERS. 2.00: Ver 2.00
~W
STRT.M 65.0000:
STOP.M 277.0000:
STEP.M 0.1250:
NULL. -999.2500:
UWI. DF311:
~C
DEPT.M :
DEN.GM/CC :
SP.MV :
AC.US/MT :
GR.API :
CALI.CM :
RXO.OHMM :
RI. :
RML.OHMM :
~A
# ...
  255.0000     2.5180   -17.5310   296.5340    38.2910    22.8320    39.9940    19.1190    18.7220 
  255.1250     2.4590   -17.4310   329.3140    42.5660    22.7450    25.0460    12.9990    12.7560 
  255.2500     2.4140   -17.3300   347.8520    50.7380    22.6310    13.6930     9.4300     9.3250 
  255.3750     2.3900   -17.2660   356.1010    60.8930    22.5310     8.1110     7.4240     7.5220 
  255.5000     2.3750   -17.2510   360.4950    65.4300    22.4880     6.5750     6.4120     6.7550 
  255.6250     2.3570   -17.2740   359.3480    62.1250    22.4700     6.2310     6.1100     6.6720 
  255.7500     2.3410   -17.3270   348.4870    60.7270    22.4390     5.8070     6.1400     6.8510 
  255.8750     2.3420   -17.3760   331.1170    62.7310    22.4150     5.3780     6.3090     7.0840 
  256.0000     2.3570   -17.4090   318.9660    61.2750    22.4540     5.1870     6.4720     7.2400 
  256.1250     2.3690   -17.4090   325.5380    54.1350    22.6320     5.1500     6.5210     7.2380 
  256.2500     2.3660   -17.4000   344.2280    50.1130    22.9050     5.1050     6.4560     7.1130 
  256.3750     2.3620   -17.3640   362.0670    49.8290    23.0770     5.0710     6.3070     6.9080 
  256.5000     2.3690   -17.2940   369.9070    49.8940    23.1280     5.0980     6.1190     6.6810 
  256.6250     2.3880   -17.1820   367.8630    52.5760    23.1310     5.1020     5.9430     6.5060 
  256.7500     2.4070   -17.0500   363.9940    56.2830    23.1640     5.0620     5.8070     6.4180 
  256.8750     2.4130   -16.9170   361.5320    57.5220    23.2680     5.0170     5.7130     6.4160 
  257.0000     2.4050   -16.7930   361.2530    55.0270    23.4270     5.0250     5.6460     6.4790 
  257.1250     2.3910   -16.6840   364.3130    53.1930    23.5150     5.2180     5.5970     6.5780 
  257.2500     2.3790   -16.5710   370.3430    53.8670    23.4300     5.5640     5.5600     6.6820 
  257.3750     2.3750   -16.4850   377.6980    54.3130    23.2970     5.7560     5.5330     6.7700 
  257.5000     2.3750   -16.4150   384.1780    54.3040    23.2300     5.7030     5.5050     6.8230 
  257.6250     2.3760   -16.3860   389.2470    54.8690    23.2240     5.7130     5.4560     6.8160 
  257.7500     2.3860   -16.3690   395.1960    54.6000    23.2240     5.8690     5.3780     6.7580 
  257.8750     2.4040   -16.3710   402.6280    53.5660    23.2300     5.8480     5.2770     6.6630 
  258.0000     2.4200   -16.3780   408.4250    52.6610    23.2490     5.4140     5.1730     6.5640 
  258.1250     2.4290   -16.4110   405.7530    53.3110    23.2870     4.8570     5.1050     6.5130 
  258.2500     2.4310   -16.4400   393.6930    54.4510    23.3040     4.6070     5.0910     6.5410 
  258.3750     2.4260   -16.4360   376.1340    54.5790    23.3090     4.7240     5.1320     6.6540 
  258.5000     2.4120   -16.4030   360.7330    52.8660    23.3090     4.9710     5.2090     6.8280 
  258.6250     2.3910   -16.3110   356.6690    50.1600    23.3090     5.0590     5.2840     6.9980 
  258.7500     2.3770   -16.1800   363.0860    48.8010    23.3090     5.0220     5.3200     7.0960 
  258.8750     2.3770   -16.0220   374.8490    48.8900    23.3090     5.0380     5.2960     7.0870 
  259.0000     2.3880   -15.8540   386.3190    49.3340    23.3090     5.2430     5.2130     6.9800 
  259.1250     2.4060   -15.6770   394.1630    51.7810    23.3090     5.5700     5.0890     6.8160 
  259.2500     2.4220   -15.4970   398.3080    55.2100    23.3090     5.6530     4.9720     6.6690 
  259.3750     2.4260   -15.3260   397.9500    56.9490    23.3150     5.4240     4.9010     6.5930 
  259.5000     2.4160   -15.1650   392.3240    55.2580    23.3350     5.1650     4.9000     6.6230 
  259.6250     2.3980   -15.0470   381.9280    53.0620    23.4110     5.2040     4.9770     6.7740 
  259.7500     2.3870   -14.9480   370.9500    52.5550    23.5330     5.4900     5.0940     6.9900 
  259.8750     2.3850   -14.8540   362.6690    54.4870    23.6830     5.7450     5.2210     7.2190 
  260.0000     2.3830   -14.7680   358.5950    58.3470    23.7810     5.8030     5.3310     7.4050 
  260.1250     2.3720   -14.6890   358.4540    62.4450    23.8320     5.6800     5.3970     7.5020 
  260.2500     2.3550   -14.6310   359.8420    64.2650    23.8510     5.5380     5.4240     7.5250 
  260.3750     2.3520   -14.5820   361.4040    63.4740    23.8700     5.4530     5.4210     7.5070 
  260.5000     2.3660   -14.5490   362.2350    60.9160    23.8970     5.4550     5.4090     7.4870 
  260.6250     2.3850   -14.5150   361.8600    57.6040    23.9100     5.5800     5.4260     7.5270 
  260.7500     2.3950   -14.5060   360.5700    55.3740    23.9090     5.8060     5.5060     7.6670 
  260.8750     2.4030   -14.5150   358.0980    54.5030    23.9280     6.2130     5.6720     7.9300 
  261.0000     2.4180   -14.5240   353.6060    54.0810    23.9430     6.8590     5.9200     8.3080 
  261.1250     2.4330   -14.5260   345.6880    52.2760    23.9480     7.7180     6.2260     8.7540 
  261.2500     2.4330   -14.5330   335.4050    50.4190    23.9530     8.7560     6.5200     9.1680 
  261.3750     2.4200   -14.5360   325.6320    50.0220    23.9770     9.9420     6.7410     9.4560 
  261.5000     2.4050   -14.5300   320.7720    51.2410    24.0120    10.2980     6.8350     9.5390 
  261.6250     2.3930   -14.5210   325.6640    52.8640    23.9580     8.8080     6.7600     9.3650 
  261.7500     2.3840   -14.5030   337.9070    52.8190    23.7770     6.8510     6.5730     9.0410 
  261.8750     2.3720   -14.4710   353.2710    51.8910    23.5770     5.8440     6.3400     8.6800 
  262.0000     2.3560   -14.4390   366.6530    52.9070    23.5330     5.7030     6.1400     8.3960 
  262.1250     2.3460   -14.4020   372.1230    55.7820    23.6990     5.9010     6.0690     8.3170 
  262.2500     2.3670   -14.3440   368.6640    58.2120    24.0440     6.5470     6.1470     8.4550 
  262.3750     2.4160   -14.3050   357.1430    58.3290    24.6170     9.0050     6.3740     8.8000 
  262.5000     2.4600   -14.2740   339.8040    56.8550    25.4740    15.8440     6.7100     9.2880 
  262.6250     2.4650   -14.2360   319.5310    54.6070    26.0150    24.2980     7.0650     9.7720 
  262.7500     2.4300   -14.2010   301.5650    53.1070    25.9850    25.2010     7.3210    10.0800 
  262.8750     2.3960   -14.1790   291.0910    52.9090    25.9770    18.4830     7.4170    10.1210 
  263.0000     2.3780   -14.1640   290.9290    52.4630    26.4270    11.5710     7.3590     9.9290 
  263.1250     2.3640   -14.1730   299.5310    52.7650    27.0190     8.3070     7.2240     9.6550 
  263.2500     2.3380   -14.2160   309.7330    55.1060    27.3040     7.5320     7.1250     9.4800 
  263.3750     2.3040   -14.2450   317.7380    56.4880    27.4130     7.8800     7.1180     9.4800 
  263.5000     2.2710   -14.2620   321.5990    55.4920    27.4470     8.6060     7.2180     9.6530 
  263.6250     2.2510   -14.2690   318.9880    56.6590    27.2660     9.5500     7.4040     9.9320 
  263.7500     2.2630   -14.2710   310.9780    59.9820    26.6920    10.8640     7.5990    10.1830 
  263.8750     2.3030   -14.2450   300.8000    60.2380    25.8670    13.4640     7.7360    10.3160 
  264.0000     2.3490   -14.1890   293.4020    56.1830    25.2960    18.1120     7.7630    10.2800 
  264.1250     2.3770   -14.1170   294.1960    52.5340    25.0810    19.8680     7.6370    10.0370 
  264.2500     2.3850   -14.0300   304.9990    52.6240    24.9450    16.8970     7.3960     9.6590 
  264.3750     2.3860   -13.9430   328.4270    54.5140    24.8010    12.0170     7.0900     9.2200 
  264.5000     2.3750   -13.8710   363.4480    54.6790    24.7410     8.5980     6.7770     8.8120 
  264.6250     2.3460   -13.8170   398.1150    51.9890    24.7640     7.1490     6.5250     8.5410 
  264.7500     2.3210   -13.7590   416.1470    50.6480    24.7620     7.0070     6.3650     8.4290 
  264.8750     2.3210   -13.7280   413.0210    50.6480    24.6440     8.2990     6.3130     8.4680 
