~V
VERS. 2.00: Ver 2.00
~W
STRT.M 58.0000:
STOP.M 221.0000:
STEP.M 0.1250:
NULL. -999.2500:
UWI. DF318:
~C
DEPT.M :
DEN.GM/CC :
SP.MV :
AC.US/MT :
GR.API :
CALI.CM :
RXO.OHMM :
RI. :
RML.OHMM :
~A
# ...
   78.0000     2.1400   -15.6500   445.7300    69.1100    24.6550     9.3930     9.3880    10.4160 
   78.1250     2.1320   -15.5860   450.1660    69.6640    24.7760     9.5430     9.3710    10.3980 
   78.2500     2.1270   -15.5280   452.4970    69.2350    24.7300     9.7220     9.4330    10.4620 
   78.3750     2.1300   -15.4580   452.2760    72.1360    24.5430     9.8680     9.5630    10.5940 
   78.5000     2.1370   -15.4030   450.6250    75.9430    24.4300     9.9410     9.7280    10.7710 
   78.6250     2.1380   -15.3260   449.0500    77.0100    24.3730    10.0250     9.9240    11.0050 
   78.7500     2.1310   -15.2330   447.5500    73.4990    24.3450    10.2960    10.1500    11.3150 
   78.8750     2.1230   -15.1070   445.5620    68.4220    24.3320    10.7380    10.3940    11.6930 
   79.0000     2.1190   -14.9370   443.0300    66.7370    24.3200    11.0280    10.5980    12.0440 
   79.1250     2.1200   -14.7340   440.7890    68.3060    24.3100    11.0380    10.6850    12.2480 
   79.2500     2.1250   -14.4860   439.4700    70.1220    24.3100    10.9560    10.5800    12.1820 
   79.3750     2.1350   -14.1990   439.1510    69.3920    24.2920    10.7720    10.1980    11.7210 
   79.5000     2.1450   -13.8190   438.9920    67.7710    24.2280    10.4950     9.6490    11.0360 
   79.6250     2.1500   -13.4160   436.7410    65.8230    24.1340    10.1340     9.1190    10.4020 
   79.7500     2.1610   -12.9310   428.7980    64.6530    24.0170     9.8450     8.8400    10.1470 
   79.8750     2.1970   -12.3980   410.7960    67.3820    23.8890     9.8110     9.1690    10.7380 
   80.0000     2.2860   -11.7850   377.6800    72.1240    23.6630    10.6830    10.3270    12.3860 
   80.1250     2.4060   -11.1210   334.2640    74.3540    23.4690    14.3330    12.6790    15.4180 
   80.2500     2.5260   -10.4350   287.9150    71.9720    23.3760    23.2950    16.6520    20.1940 
   80.3750     2.6230    -9.7560   247.3520    68.2390    23.4490    35.7430    22.8370    27.2410 
   80.5000     2.6830    -9.1210   220.9710    65.6540    23.6860    46.3950    30.4020    35.6190 
   80.6250     2.7180    -8.5040   206.9910    63.9090    23.9960    53.9760    37.8090    43.4830 
   80.7500     2.7380    -7.9860   201.9660    63.1910    24.1640    59.3220    42.9630    48.2190 
   80.8750     2.7500    -7.5750   202.1360    64.2250    24.2000    60.4870    43.5370    47.2200 
   81.0000     2.7510    -7.3170   205.8980    65.4240    24.1660    55.9190    40.1150    41.9250 
   81.1250     2.7350    -7.2230   213.7910    66.1230    24.1440    46.9620    33.9270    34.3250 
   81.2500     2.6880    -7.3110   228.8610    67.6710    24.1640    36.5300    26.7800    26.5380 
   81.3750     2.6000    -7.5670   254.3850    70.6560    24.1970    26.6190    20.5020    20.2620 
   81.5000     2.4780    -8.0490   292.6020    73.0620    24.2080    18.4690    15.7200    15.7030 
   81.6250     2.3530    -8.6360   336.4920    73.6350    24.1680    13.0140    12.4230    12.7070 
   81.7500     2.2500    -9.2730   378.1790    73.1640    24.1340    10.4330    10.3340    10.9450 
   81.8750     2.1800    -9.8800   410.7620    74.4190    24.1770     9.7360     9.2290    10.1590 
   82.0000     2.1450   -10.4820   429.8660    77.3390    24.2630     9.5220     8.6840     9.8760 
   82.1250     2.1390   -11.0370   440.3740    79.0800    24.2700     9.4490     8.5200     9.8820 
   82.2500     2.1580   -11.4930   446.5640    78.2750    24.2650     9.3470     8.6000    10.0330 
   82.3750     2.1870   -11.8570   451.4720    78.1950    24.3060     9.1040     8.8460    10.2760 
   82.5000     2.1950   -12.1440   455.8540    80.0680    24.3460     9.1650     9.1750    10.5890 
   82.6250     2.1780   -12.4020   459.1620    80.0510    24.3530     9.7460     9.5370    10.9360 
   82.7500     2.1550   -12.6160   460.8720    76.1680    24.3600    10.4630     9.8590    11.2260 
   82.8750     2.1510   -12.8300   461.0110    74.8220    24.3850    10.5240    10.0540    11.3510 
   83.0000     2.1700   -13.0370   460.1500    77.9950    24.3870    10.3870    10.1350    11.3490 
   83.1250     2.1890   -13.2590   459.4250    78.9740    24.3480    10.1440    10.1550    11.3060 
   83.2500     2.1900   -13.5240   459.3480    74.9050    24.3110     9.7370    10.1770    11.3210 
   83.3750     2.1720   -13.8040   459.7250    72.4610    24.3040     9.7320    10.2590    11.4710 
   83.5000     2.1570   -13.9910   459.4610    73.1360    24.3320    10.2080    10.3720    11.6770 
   83.6250     2.1570   -14.0970   457.6540    72.7240    24.4310    10.7480    10.4400    11.8120 
   83.7500     2.1620   -14.1370   454.1740    71.0700    24.6060    10.7770    10.3890    11.7740 
   83.8750     2.1580   -14.1110   449.6670    70.8610    24.7190    10.4810    10.1700    11.5160 
   84.0000     2.1470   -14.0180   445.4970    71.2340    24.7450    10.1890     9.8400    11.1270 
   84.1250     2.1410   -13.8920   442.7510    71.7450    24.7500     9.7800     9.4490    10.6820 
   84.2500     2.1450   -13.7820   441.6790    73.1520    24.7740     9.2250     9.0500    10.2460 
   84.3750     2.1610   -13.5400   441.7310    73.3480    24.7910     8.7910     8.7000     9.8890 
   84.5000     2.1800   -13.2090   441.7170    71.7510    24.8510     8.5500     8.4210     9.6280 
   84.6250     2.1880   -12.8600   440.7950    71.0210    25.0510     8.3790     8.2200     9.4720 
   84.7500     2.1810   -12.4990   439.0100    72.8710    25.2330     8.2820     8.0950     9.4080 
   84.8750     2.1740   -12.1500   437.0250    74.9940    25.1910     8.2830     8.0330     9.3990 
   85.0000     2.1860   -11.8440   435.7570    75.4360    24.8780     8.3380     7.9970     9.3930 
   85.1250     2.2060   -11.5380   435.1590    74.4340    24.6290     8.3850     7.9740     9.3750 
   85.2500     2.2190   -11.2550   434.5690    74.0490    24.5200     8.4090     7.9700     9.3620 
   85.3750     2.2190   -10.9560   433.2950    76.1890    24.5120     8.4210     8.0150     9.4020 
   85.5000     2.2140   -10.7150   431.3370    77.4060    24.4850     8.4870     8.1210     9.5150 
   85.6250     2.2100   -10.4810   429.9020    76.5580    24.4520     8.6460     8.2900     9.6920 
   85.7500     2.2030   -10.3070   430.0510    74.9050    24.4350     8.8440     8.5020     9.8940 
   85.8750     2.1920   -10.1950   432.0110    74.0120    24.4230     8.9670     8.7090    10.0430 
   86.0000     2.1860   -10.1440   434.9460    73.0850    24.3990     8.9940     8.8610    10.0930 
   86.1250     2.1860   -10.1590   437.5360    71.6330    24.3550     8.9550     8.9440    10.0540 
   86.2500     2.1890   -10.1900   439.5350    72.0740    24.2700     8.8800     8.9770     9.9730 
   86.3750     2.1920   -10.2540   441.5570    74.0260    24.0700     8.7790     8.9630     9.8770 
   86.5000     2.1900   -10.2230   444.5330    75.1060    23.8620     8.5730     8.8730     9.7180 
   86.6250     2.1880   -10.1440   448.1700    74.4690    23.7770     8.3200     8.6370     9.4030 
   86.7500     2.1930    -9.9330   451.5400    73.9950    23.8630     8.0080     8.1960     8.8590 
   86.8750     2.2120    -9.5360   453.8370    75.7120    24.0870     7.4180     7.5160     8.0610 
   87.0000     2.2450    -8.8940   455.0320    80.0640    24.3780     6.5990     6.7200     7.1650 
   87.1250     2.2840    -8.0940   456.0850    87.8970    24.5780     5.9070     5.9230     6.3090 
   87.2500     2.3200    -7.2400   457.3660    96.4150    24.6900     5.3990     5.2140     5.5780 
   87.3750     2.3540    -6.3740   458.6110    97.8910    24.7610     5.1250     4.6650     5.0320 
   87.5000     2.3850    -5.5910   459.0190    93.4590    24.8210     5.0150     4.2890     4.6750 
   87.6250     2.4060    -4.9060   458.3980    90.5180    24.8470     4.9890     4.1270     4.5750 
   87.7500     2.4080    -4.3760   457.0460    93.2430    24.8230     5.0020     4.2300     4.8250 
   87.8750     2.3880    -4.0980   455.4130    93.9850    24.7710     5.2500     4.7170     5.6090 
