~V
VERS. 2.00: Ver 2.00
~W
STRT.M 100.0000:
STOP.M 292.0000:
STEP.M 0.1250:
NULL. -999.2500:
UWI. DF310:
~C
DEPT.M :
AC.US/MT :
DEN.GM/CC :
GR.API :
CALI.CM :
RXO.OHMM :
RI. :
RML.OHMM :
SP.MV :
~A
# ...
  180.0000   393.3450     2.3460    78.7850    24.2060     6.5420     5.6690     7.0720   -23.3260 
  180.1250   398.2880     2.3360    80.0560    24.2060     6.7320     5.4740     6.5000   -23.4380 
  180.2500   396.3140     2.3320    82.5100    24.2060     7.0170     5.5710     6.4990   -23.5520 
  180.3750   389.3470     2.3280    83.1950    24.2060     7.6790     6.0010     7.2250   -23.6770 
  180.5000   381.0710     2.3230    81.9660    24.1960     9.0580     6.7850     8.6740   -23.8110 
  180.6250   377.1510     2.3170    81.5320    24.1590    10.4470     7.8790    10.6120   -23.9230 
  180.7500   380.2750     2.3140    81.0600    24.0660    11.3080     8.9540    12.3110   -24.0030 
  180.8750   389.0430     2.3220    78.2360    23.9110    12.2260     9.6270    12.9900   -24.0540 
  181.0000   397.6680     2.3470    77.2520    23.7140    14.4880     9.6120    12.2050   -24.0340 
  181.1250   397.8690     2.3890    81.4840    23.5960    15.9490     8.8780    10.3590   -23.9180 
  181.2500   390.0720     2.4330    85.5580    23.5420    13.7140     7.9230     8.7040   -23.6920 
  181.3750   379.7710     2.4730    86.0770    23.5040     9.4960     7.0880     7.8220   -23.3750 
  181.5000   372.7160     2.5040    86.3650    23.4770     6.9300     6.5650     7.7500   -23.0550 
  181.6250   370.6750     2.5200    88.7000    23.4650     6.7070     6.5010     8.2860   -22.7800 
  181.7500   370.1390     2.5130    89.8210    23.4640     7.2300     6.8300     9.0300   -22.5640 
  181.8750   369.8950     2.4890    89.4460    23.4860     8.0670     7.4740     9.8170   -22.4080 
  182.0000   370.9220     2.4600    88.0520    23.5510     8.9740     8.2760    10.5770   -22.3350 
  182.1250   374.5500     2.4390    84.4400    23.6670     9.4440     8.9880    11.2580   -22.3670 
  182.2500   379.7580     2.4240    79.8420    23.7210     9.3580     9.4370    11.7510   -22.5150 
  182.3750   385.8900     2.4140    78.5460    23.7330     9.1150     9.5580    11.9050   -22.7480 
  182.5000   393.1280     2.4090    82.8010    23.7110     9.0470     9.3910    11.7110   -22.9940 
  182.6250   401.4200     2.4070    93.4150    23.6180     8.9510     9.0750    11.3120   -23.2260 
  182.7500   408.7900     2.4000   102.6900    23.4720     8.6540     8.8220    10.9540   -23.4360 
  182.8750   413.3360     2.3850   101.7760    23.3460     8.4180     8.7560    10.8000   -23.6420 
  183.0000   414.4560     2.3680    92.5770    23.3170     8.6300     8.9530    10.9760   -23.8450 
  183.1250   412.5030     2.3600    85.1470    23.3930     9.5200     9.4970    11.6720   -24.0480 
  183.2500   408.7410     2.3620    83.4160    23.4830    11.1660    10.3480    12.8640   -24.2600 
  183.3750   403.7920     2.3680    80.7060    23.5330    13.2150    11.5030    14.4430   -24.5010 
  183.5000   398.9380     2.3740    78.4160    23.5450    14.7460    12.9790    16.2480   -24.7630 
  183.6250   396.5740     2.3730    78.0410    23.5290    15.5450    14.9110    18.2710   -25.0250 
  183.7500   397.4590     2.3630    77.2790    23.4950    17.4530    17.3340    20.6600   -25.2910 
  183.8750   400.8690     2.3450    74.6830    23.4460    21.3530    20.2060    23.5690   -25.5730 
  184.0000   405.0290     2.3240    73.9440    23.3760    26.3960    23.2000    26.7920   -25.8550 
  184.1250   407.8290     2.3130    75.3270    23.3000    30.9230    25.5380    29.3980   -26.1370 
  184.2500   408.6350     2.3190    76.2040    23.2630    33.2610    26.7950    30.6270   -26.3950 
  184.3750   407.7870     2.3310    76.8090    23.2300    31.8280    27.1370    30.5960   -26.6020 
  184.5000   406.2260     2.3360    76.2060    23.1570    27.0970    27.2280    30.2790   -26.7820 
  184.6250   405.2090     2.3230    74.3300    23.0690    24.1020    27.8700    30.8580   -26.9530 
  184.7500   405.2760     2.3070    72.9420    23.0540    26.7880    29.1570    32.4980   -27.0960 
  184.8750   406.2280     2.3020    72.4540    23.1310    33.2600    30.7070    34.7610   -27.2000 
  185.0000   407.4270     2.3120    72.3000    23.2200    38.2660    31.8910    36.7520   -27.2820 
  185.1250   408.0390     2.3310    73.6640    23.2550    37.5600    32.0630    37.3820   -27.3330 
  185.2500   407.8210     2.3450    78.3420    23.2610    32.5200    31.5300    36.8620   -27.3580 
  185.3750   406.9560     2.3490    80.4770    23.2610    27.2700    30.9280    35.9410   -27.3890 
  185.5000   405.8060     2.3420    78.4270    23.2610    25.3610    30.8620    35.3380   -27.4130 
  185.6250   404.6340     2.3330    76.7690    23.2610    28.4780    31.6330    35.3940   -27.4330 
  185.7500   403.5660     2.3300    77.9280    23.2610    32.0920    32.7400    35.6980   -27.4680 
  185.8750   402.7550     2.3330    78.4870    23.2610    33.4050    33.6380    35.7820   -27.4960 
  186.0000   402.2850     2.3370    80.3430    23.2610    32.9490    33.9850    35.4080   -27.5200 
  186.1250   401.8860     2.3410    83.6610    23.2610    31.9550    33.8900    34.8260   -27.5630 
  186.2500   401.1780     2.3400    82.7620    23.2610    30.6210    33.9670    34.6120   -27.6210 
  186.3750   400.4310     2.3290    76.5690    23.2610    29.3660    34.6740    35.2030   -27.6990 
  186.5000   400.4950     2.3130    71.0360    23.2610    31.0000    36.2400    36.8280   -27.7850 
  186.6250   402.0930     2.3030    70.1740    23.2610    38.0830    38.5890    39.3820   -27.8680 
  186.7500   404.1880     2.3030    72.5720    23.2610    43.5430    41.0020    41.9100   -27.9500 
  186.8750   405.5310     2.3090    75.9360    23.2610    43.7030    42.8520    43.6060   -28.0460 
  187.0000   405.4540     2.3170    77.7480    23.2610    41.3760    43.8250    44.1380   -28.1610 
  187.1250   403.9690     2.3220    76.4390    23.2610    41.0160    44.1780    43.9880   -28.2750 
  187.2500   401.8290     2.3220    75.5010    23.2610    40.8550    44.8450    44.3570   -28.4020 
  187.3750   399.4780     2.3170    75.5090    23.2610    40.0930    45.9320    45.3750   -28.5240 
  187.5000   397.3280     2.3070    74.2030    23.2610    39.3840    47.0350    46.4750   -28.6390 
  187.6250   395.8300     2.2970    72.3620    23.2610    41.3360    50.9780    50.3990   -28.7510 
  187.7500   395.0790     2.2950    70.2020    23.2610    46.6240    55.3430    54.7120   -28.8590 
  187.8750   395.1580     2.2980    73.2920    23.2610    51.3710    58.5430    57.8880   -28.9400 
  188.0000   395.9940     2.3010    76.9090    23.2610    60.1530    64.8350    64.2730   -29.0020 
  188.1250   397.1990     2.2930    81.4680    23.2610    66.2670    71.3670    71.1770   -29.0650 
  188.2500   398.2170     2.2800    78.0920    23.2610    69.7200    76.0090    76.2110   -29.1210 
  188.3750   398.9880     2.2700    71.2550    23.2610    70.9410    78.0870    78.5170   -29.1660 
  188.5000   399.7020     2.2690    70.6360    23.2610    69.4420    77.9490    78.6250   -29.2070 
  188.6250   400.2670     2.2770    76.6520    23.2610    67.2840    76.5020    77.8270   -29.2530 
  188.7500   400.3590     2.2820    79.1660    23.2610    65.8640    74.9010    77.1560   -29.2920 
  188.8750   399.9630     2.2810    75.4820    23.2610    64.8910    73.6260    76.7180   -29.3520 
  189.0000   399.4400     2.2760    70.8740    23.2600    63.6820    72.9450    76.4070   -29.4050 
  189.1250   399.1750     2.2740    68.7370    23.2580    62.5570    73.0540    76.2700   -29.4450 
  189.2500   399.1210     2.2730    70.8060    23.2580    62.7930    73.7010    76.4110   -29.4630 
  189.3750   399.1710     2.2660    77.7930    23.2590    64.0980    74.6690    76.8600   -29.4680 
  189.5000   399.2980     2.2550    83.9730    23.2610    65.5910    77.4890    75.7460   -29.4630 
  189.6250   399.5440     2.2460    81.2920    23.2610    67.0150    78.0390    76.7420   -29.4540 
  189.7500   399.9940     2.2470    72.0150    23.2580    68.3060    78.3600    77.5430   -29.4200 
  189.8750   400.7670     2.2550    70.1100    23.2450    68.9670    78.3830    78.0840   -29.3670 
