~V
VERS. 2.00: Ver 2.00
~W
STRT.M 58.0000:
STOP.M 221.0000:
STEP.M 0.1250:
NULL. -999.2500:
UWI. DF318:
~C
DEPT.M :
DEN.GM/CC :
SP.MV :
AC.US/MT :
GR.API :
CALI.CM :
RXO.OHMM :
RI. :
RML.OHMM :
~A
# ...
  108.0000     2.1520    -9.6000   433.1360    64.2820    24.0370    28.4340    29.5090    31.8470 
  108.1250     2.1480    -9.6720   434.3380    67.2590    24.2400    27.8940    27.1440    29.4860 
  108.2500     2.1530    -9.5950   437.1630    67.6930    24.3780    28.3710    23.8620    25.8720 
  108.3750     2.1780    -9.4560   440.8970    66.5400    24.4260    26.6840    20.4310    22.0430 
  108.5000     2.2150    -9.1960   444.1200    68.1750    24.4320    21.6410    17.7880    19.2600 
  108.6250     2.2390    -8.9430   445.6020    71.0720    24.4270    17.5480    16.4080    18.1060 
  108.7500     2.2340    -8.6910   444.8030    71.1220    24.4220    19.1960    16.4670    18.7500 
  108.8750     2.2080    -8.5120   441.9870    68.0680    24.4230    25.2260    18.1380    21.3240 
  109.0000     2.1860    -8.4490   438.0460    65.3040    24.4660    30.4360    20.7770    24.8970 
  109.1250     2.1810    -8.5370   434.4450    64.6610    24.4870    32.1860    23.4410    28.0670 
  109.2500     2.1820    -8.7130   432.0770    64.2060    24.4940    29.3200    24.7990    29.0500 
  109.3750     2.1790    -8.9210   431.3280    63.2190    24.4920    23.3390    23.8790    27.0240 
  109.5000     2.1690    -9.1650   432.1430    64.6620    24.4830    19.0470    21.8670    24.0690 
  109.6250     2.1600    -9.3790   433.4860    69.0990    24.4600    17.3280    19.8140    21.5360 
  109.7500     2.1570    -9.5550   434.5680    73.4250    24.4370    16.3180    18.2510    19.8940 
  109.8750     2.1610    -9.6680   434.8830    73.3670    24.4290    15.4750    17.3870    19.2410 
  110.0000     2.1670    -9.7140   434.4680    71.2070    24.4150    14.8070    17.0170    19.1990 
  110.1250     2.1690    -9.7160   434.4060    70.0380    24.3770    14.4390    16.8990    19.3950 
  110.2500     2.1690    -9.6630   435.8350    69.6820    24.3210    14.2400    16.6830    19.3510 
  110.3750     2.1720    -9.5360   439.3130    70.6030    24.2580    14.1890    16.0040    18.5900 
  110.5000     2.1890    -9.3300   444.1630    74.1040    24.1810    13.9740    14.9760    17.3270 
  110.6250     2.2140    -9.0310   448.1030    78.4670    24.1200    12.7300    13.9140    16.0220 
  110.7500     2.2380    -8.7160   449.3230    80.1040    24.1040    11.6010    13.1800    15.1950 
  110.8750     2.2470    -8.3940   446.6350    77.9420    24.1130    12.8940    13.1910    15.4220 
  111.0000     2.2310    -8.1510   437.4840    76.4050    24.1140    16.1820    14.0850    16.8340 
  111.1250     2.2060    -7.9150   419.9210    75.2290    24.0210    19.2050    16.0560    19.5900 
  111.2500     2.1970    -7.6730   391.8790    72.4840    23.9860    20.6360    19.1190    23.6070 
  111.3750     2.2290    -7.4350   355.1880    68.7310    24.0960    20.3710    22.6610    27.9780 
  111.5000     2.3200    -7.1790   318.7960    66.3560    24.2520    22.6510    25.0090    30.5170 
  111.6250     2.4340    -6.9340   294.8170    67.1650    24.3690    29.6790    24.7280    29.4770 
  111.7500     2.5330    -6.6450   290.3580    69.6130    24.4150    33.9500    21.7100    25.0900 
  111.8750     2.5920    -6.3160   305.4760    72.6050    24.4000    26.4610    17.3650    19.5200 
  112.0000     2.5940    -5.8950   334.3770    77.8810    24.3810    16.2230    13.4930    14.8790 
  112.1250     2.5470    -5.4480   364.9770    85.6110    24.4180    10.8180    10.6290    11.6690 
  112.2500     2.4610    -5.0350   390.9400    91.3730    24.4990     8.6930     8.7740     9.7910 
  112.3750     2.3650    -4.6690   409.2870    89.4390    24.5610     7.7120     7.8630     9.0740 
  112.5000     2.3060    -4.3830   417.7160    83.6520    24.6310     7.3920     7.5310     8.9700 
  112.6250     2.2920    -4.1560   418.3180    79.9020    24.6730     7.3550     7.5740     9.1770 
  112.7500     2.3050    -3.9900   413.0600    81.3970    24.7480     7.4420     7.8130     9.4800 
  112.8750     2.3250    -3.8710   405.4750    85.8110    24.8620     7.7140     8.0930     9.7190 
  113.0000     2.3430    -3.7570   400.6820    89.7020    24.8640     8.0310     8.2740     9.7890 
  113.1250     2.3580    -3.6690   401.6190    92.7520    24.7560     8.1560     8.2730     9.6340 
  113.2500     2.3620    -3.5870   408.5260    95.2400    24.6460     7.9140     8.0760     9.2710 
  113.3750     2.3520    -3.5270   419.1530    96.0220    24.6050     7.4390     7.7110     8.7570 
  113.5000     2.3390    -3.5410   429.8020    95.6340    24.6270     7.0260     7.2900     8.2230 
  113.6250     2.3350    -3.6000   437.8600    95.8620    24.6360     6.7790     6.8930     7.7670 
  113.7500     2.3350    -3.6860   442.5750    97.9410    24.6610     6.6100     6.5830     7.4620 
  113.8750     2.3270    -3.7610   444.1050   104.0470    24.6780     6.3990     6.4230     7.3760 
  114.0000     2.3090    -3.9020   442.7750   108.9530    24.6830     6.2950     6.4000     7.4700 
  114.1250     2.2910    -4.0280   440.1490   108.2420    24.6750     6.3960     6.4940     7.6970 
  114.2500     2.2760    -4.1650   437.3770   103.0710    24.6530     6.6280     6.6680     7.9870 
  114.3750     2.2670    -4.2950   435.3960    98.9810    24.6090     6.8090     6.8710     8.2400 
  114.5000     2.2710    -4.3540   434.8280    98.0740    24.5320     6.8700     7.0390     8.3850 
  114.6250     2.2860    -4.3720   435.1220    97.9930    24.4450     6.8440     7.1370     8.4010 
  114.7500     2.3020    -4.3630   435.4640    97.6030    24.4200     6.8690     7.1620     8.3190 
  114.8750     2.3070    -4.3680   434.9480    98.1610    24.5020     6.9670     7.1400     8.2110 
  115.0000     2.3090    -4.3500   432.8280   100.5950    24.6110     6.9300     7.1270     8.1570 
  115.1250     2.3200    -4.3680   429.7170   103.8590    24.6760     6.7970     7.1600     8.1980 
  115.2500     2.3340    -4.3870   426.6190   104.5770    24.7310     6.7540     7.2460     8.3380 
  115.3750     2.3360    -4.3900   424.6590   102.8020    24.7430     6.8790     7.3510     8.5260 
  115.5000     2.3230    -4.4140   424.7400    99.8130    24.7260     7.0870     7.4050     8.6640 
  115.6250     2.3150    -4.4560   426.2400    94.9920    24.7200     7.1860     7.3500     8.6610 
  115.7500     2.3200    -4.4930   428.4220    92.3060    24.6990     7.0950     7.1500     8.4550 
  115.8750     2.3340    -4.5440   430.5650    95.5310    24.6710     6.8990     6.8270     8.0740 
  116.0000     2.3460    -4.6030   431.9960    99.8380    24.6400     6.7540     6.5220     7.7330 
  116.1250     2.3520    -4.6690   432.4580    99.6900    24.6070     6.7200     6.3680     7.6320 
  116.2500     2.3500    -4.7400   431.8690    94.9220    24.5640     6.9320     6.4740     7.9280 
  116.3750     2.3340    -4.8300   430.5050    89.2240    24.5150     7.7840     7.0020     8.8380 
  116.5000     2.2970    -4.9280   428.9430    86.6100    24.5030     9.6580     8.0000    10.3790 
  116.6250     2.2500    -5.0240   427.7750    87.3140    24.5240    12.2430     9.5700    12.6280 
  116.7500     2.2110    -5.1240   427.1330    86.8530    24.5600    14.5390    11.8180    15.6580 
  116.8750     2.1910    -5.2100   426.7720    82.4720    24.5970    17.2090    14.9700    19.6650 
  117.0000     2.1840    -5.2910   426.3450    79.6080    24.6260    21.6380    18.8940    24.4610 
  117.1250     2.1750    -5.3380   425.8310    80.1390    24.6570    27.9280    23.4100    29.8170 
  117.2500     2.1610    -5.3800   425.4520    80.1190    24.6760    34.3050    28.1530    35.2930 
  117.3750     2.1520    -5.4150   425.3810    75.4930    24.6810    38.8670    32.5200    40.1600 
  117.5000     2.1520    -5.4330   425.5730    69.3320    24.6660    40.9370    36.1490    44.0750 
  117.6250     2.1520    -5.4440   425.7880    65.7990    24.6300    41.5050    39.0550    47.2010 
  117.7500     2.1460    -5.4500   425.9800    66.4750    24.5860    42.3770    41.6010    50.1290 
  117.8750     2.1330    -5.4660   426.2150    68.9140    24.5580    44.8180    44.1210    53.3610 
