~V
VERS. 2.00: Ver 2.00
~W
STRT.M 60.0000:
STOP.M 248.0000:
STEP.M 0.1250:
NULL. -999.2500:
UWI. DF313:
~C
DEPT.M :
DEN.GM/CC :
SP.MV :
AC.US/MT :
GR.API :
CALI.CM :
RXO.OHMM :
RI. :
RML.OHMM :
~A
# ...
  240.0000     2.3390   -15.6010   372.7300    26.8330    25.5670     5.3820     4.2870     4.5770 
  240.1250     2.3280   -15.6530   373.6270    26.8330    25.4000     5.7750     4.3640     4.6570 
  240.2500     2.3250   -15.6740   375.7960    26.8330    25.2390     5.9280     4.4020     4.6770 
  240.3750     2.3340   -15.6920   379.2970    26.8330    25.2380     5.7270     4.4150     4.6650 
  240.5000     2.3460   -15.6970   384.4380    26.8330    25.3250     5.2860     4.4150     4.6430 
  240.6250     2.3290   -15.6100   390.5430    26.8330    25.3340     4.8390     4.4120     4.6290 
  240.7500     2.2510   -15.4190   396.6060    26.8330    25.2730     4.6110     4.4100     4.6300 
  240.8750     2.1140   -15.1830   401.3550    26.8330    25.3290     4.5930     4.4090     4.6380 
  241.0000     1.9710   -14.9100   403.3180    26.8330    25.5370     4.6700     4.4090     4.6440 
  241.1250     1.8940   -14.6160   402.7190    26.8330    25.7570     4.6960     4.4090     4.6460 
  241.2500     1.8820   -14.3200   400.2200    26.8330    25.7940     4.6640     4.4100     4.6420 
  241.3750     1.9050   -14.0270   396.8770    26.8330    25.6790     4.7920     4.4100     4.6340 
  241.5000     1.9300   -13.7340   393.8990    26.8330    25.4860     5.1540     4.4100     4.6250 
  241.6250     1.9390   -13.4750   391.9470    26.8330    25.2960     5.4660     4.4110     4.6160 
  241.7500     1.9380   -13.2390   391.1320    26.8330    25.1990     5.3220     4.4120     4.6130 
  241.8750     1.9360   -13.0110   391.1770    26.8330    25.2270     4.9370     4.4130     4.6160 
  242.0000     1.9420   -12.8120   391.5290    26.8330    25.3570     4.6410     4.4140     4.6230 
  242.1250     1.9560   -12.6390   391.4910    26.8330    25.4850     4.5100     4.4150     4.6300 
  242.2500     1.9720   -12.4870   390.6140    26.8330    25.4840     4.4500     4.4140     4.6320 
  242.3750     1.9810   -12.3370   388.7120    26.8330    25.4060     4.4620     4.4130     4.6290 
  242.5000     1.9820   -12.2020   385.8660    26.8330    25.3270     4.6410     4.4130     4.6250 
  242.6250     1.9730   -12.0840   382.7410    26.8330    25.2750     4.9830     4.4130     4.6240 
  242.7500     1.9590   -12.0090   379.8540    26.8330    25.1580     5.3360     4.4130     4.6270 
  242.8750     1.9460   -11.9800   377.5990    26.8330    24.8530     5.6070     4.4150     4.6280 
  243.0000     1.9390   -11.9790   376.4130    26.8330    24.2900     5.8520     4.4170     4.6260 
  243.1250     1.9390   -12.0050   376.3290    26.8330    23.4680     6.0890     4.4200     4.6200 
  243.2500     1.9440   -12.0150   377.3940    26.8330    22.3760     6.2000     4.4210     4.6130 
  243.3750     1.9510   -12.0050   379.4020    26.8330    21.1050     6.1890     4.4200     4.6120 
  243.5000     1.9580   -11.9850   381.6920    26.8330    19.8140     6.1120     4.4170     4.6160 
  243.6250     1.9600   -11.9560   383.2560    26.8330    18.7660     5.9360     4.4150     4.6250 
  243.7500     1.9570   -11.9260   383.4410    26.8330    18.1480     5.6320     4.4150     4.6330 
  243.8750     1.9470   -11.8890   382.0860    26.8330    17.7520     5.3790     4.4150     4.6370 
  244.0000     1.9240   -11.8290   379.4620    26.8330    17.3970     5.2960     4.4150     4.6370 
  244.1250     1.8940   -11.7730   376.5060    26.8330    17.0630     5.3320     4.4150     4.6370 
  244.2500     1.8770   -11.7650   373.8580    26.8330    16.8590     5.3810     4.4150     4.6370 
  244.3750     1.8800   -11.7940   372.0470    26.8330    16.8190     5.4180     4.4150     4.6370 
  244.5000     1.8950   -11.8280   371.8020    26.8330    16.9010     5.4120     4.4150     4.6370 
  244.6250     1.9010   -11.8710   373.2220    26.8330    16.9980     5.3100     4.4150     4.6370 
  244.7500     1.8950   -11.9260   376.2120    26.8330    17.0190     5.1750     4.4150     4.6370 
  244.8750     1.8870   -11.9510   380.1610    26.8330    16.9230     5.1900     4.4150     4.6370 
  245.0000     1.8820   -11.9770   383.8120    26.8330    16.5410     5.4060     4.4150     4.6370 
  245.1250     1.8750   -11.9620   385.9930    26.8330    15.7500     5.7040     4.4150     4.6370 
  245.2500     1.8650   -11.9070   385.3670    26.8330    14.8260     5.9030     4.4150     4.6370 
  245.3750     1.8560   -11.8450   377.9850    26.8330    14.2670     5.9810     4.4150     4.6370 
  245.5000     1.8550   -11.8000   355.8940    26.8330    14.1240     5.9940     4.4150     4.6370 
  245.6250     1.8590   -11.7430   320.0160    26.8330    14.1400     5.9930     4.4150     4.6370 
  245.7500     1.8620   -11.6880   276.2590    26.8330    14.1420     5.9950     4.4150     4.6370 
  245.8750     1.8620   -11.6490   234.6910    26.8330    14.1400     5.9960     4.4150     4.6370 
  246.0000     1.8590   -11.6170   206.8150    26.8330    14.1380     5.9970     4.4150     4.6370 
  246.1250     1.8530   -11.6130   192.6760    26.8330    14.1390     5.9970     4.4150     4.6370 
  246.2500     1.8430   -11.6330   189.3870    26.8330    14.1410     5.9960     4.4150     4.6370 
  246.3750     1.8320   -11.6600  -999.2500    26.8330    14.1420     5.9950     4.4150     4.6370 
  246.5000     1.8300   -11.6750  -999.2500    26.8330    14.1410     5.9940     4.4150     4.6370 
  246.6250     1.8460   -11.6820  -999.2500    26.8330    14.1400     5.9940     4.4150     4.6370 
  246.7500     1.8710   -11.6750  -999.2500    26.8330    14.1380     5.9970     4.4150     4.6370 
  246.8750     1.8820   -11.6590  -999.2500    26.8330    14.1390     5.9990     4.4150     4.6370 
  247.0000     1.8770   -11.6270  -999.2500    26.8330    14.1410     5.9990     4.4150     4.6370 
  247.1250     1.9330   -11.5670  -999.2500    26.8330    14.1390     5.9980     4.4150     4.6370 
  247.2500     2.1070   -11.4980  -999.2500    26.8330    14.1370     5.9950     4.4150     4.6370 
  247.3750     2.2820   -11.4330  -999.2500    26.8330    14.1370     5.9950     4.4150     4.6370 
  247.5000     2.3590   -11.3890  -999.2500    26.8330    14.1380     5.9970     4.4150     4.6370 
  247.6250     2.3540   -11.3770  -999.2500    26.8330    14.1400     6.0000     4.4150     4.6370 
  247.7500  -999.2500   -11.3770  -999.2500    26.8330    14.1410     6.0010     4.4150     4.6370 
  247.8750  -999.2500  -999.2500  -999.2500    26.8330    14.1390     5.9990     4.4150     4.6370 
  248.0000  -999.2500  -999.2500  -999.2500    26.8330    14.1360     5.9960     4.4150     4.6370 
