~V
VERS. 2.00: Ver 2.00
~W
STRT.M 61.0000:
STOP.M 296.0000:
STEP.M 0.1250:
NULL. -999.2500:
UWI. DF312:
~C
DEPT.M :
DEN.GM/CC :
AC.US/MT :
GR.API :
CALI.CM :
RXO.OHMM :
RI. :
RML.OHMM :
SP.MV :
~A
# ...
  151.0000     2.4690   284.6780    79.0760    22.9580    25.1270    25.4760    26.2810    -9.4770 
  151.1250     2.4440   284.8490    79.0490    22.8860    24.6290    25.6620    26.2130    -9.5830 
  151.2500     2.4220   287.6540    78.8140    22.7690    23.5950    25.1800    25.5720    -9.6720 
  151.3750     2.4120   291.9190    78.5000    22.7560    22.5180    24.3290    24.6630    -9.7530 
  151.5000     2.4130   296.3620    77.8950    22.7780    21.3990    23.4570    23.8070    -9.8280 
  151.6250     2.4250   300.1930    77.9390    22.8010    20.6270    22.8500    23.2620    -9.9230 
  151.7500     2.4380   303.9310    77.5080    22.8320    20.3420    22.5040    22.9910    -9.9770 
  151.8750     2.4430   308.7370    76.4050    22.9490    20.1630    22.3150    22.8710   -10.0430 
  152.0000     2.4330   314.9820    75.7470    23.1320    19.9430    22.1430    22.7570   -10.1360 
  152.1250     2.4200   320.9370    76.0970    23.2050    19.5830    21.8890    22.5450   -10.2430 
  152.2500     2.4190   323.8710    76.5930    23.2640    18.9620    21.5950    22.2870   -10.3690 
  152.3750     2.4300   322.3930    76.8740    23.3040    18.3740    21.3660    22.0840   -10.4870 
  152.5000     2.4430   317.2430    77.9300    23.3370    18.1260    21.2920    22.0210   -10.5860 
  152.6250     2.4470   311.4700    78.5630    23.3000    17.9520    21.4100    22.1130   -10.6750 
  152.7500     2.4400   308.7490    77.6890    23.1770    17.3530    21.5940    22.2310   -10.7670 
  152.8750     2.4210   310.7970    75.9470    23.0600    16.2980    21.7170    22.2610   -10.8630 
  153.0000     2.3930   317.1130    75.4690    23.1270    15.1440    21.7030    22.1530   -10.9210 
  153.1250     2.3700   325.4530    76.5700    23.3040    14.2580    21.5660    21.9630   -10.9020 
  153.2500     2.3610   332.2020    77.3900    23.4050    13.7160    21.4560    21.8500   -10.8960 
  153.3750     2.3610   335.2210    77.5230    23.4080    13.8820    21.4860    21.9090   -10.8910 
  153.5000     2.3570   334.5810    78.5230    23.3660    14.9300    21.6730    22.1160   -10.8280 
  153.6250     2.3400   332.6650    81.0010    23.3320    16.5430    21.8660    22.2770   -10.7160 
  153.7500     2.3180   332.2270    82.2170    23.2680    17.8540    21.8150    22.1520   -10.6250 
  153.8750     2.3070   333.1540    82.9380    23.1740    18.0350    21.3640    21.6120   -10.4960 
  154.0000     2.3210   332.9520    84.1950    23.2120    17.1370    20.5250    20.6960   -10.3340 
  154.1250     2.3620   327.8490    84.9440    23.2490    16.2130    19.4960    19.6330   -10.2310 
  154.2500     2.4110   318.1780    84.3700    23.1430    15.8280    18.6340    18.7960   -10.1470 
  154.3750     2.4570   306.6670    82.9220    22.9810    15.8840    18.1980    18.4620   -10.0510 
  154.5000     2.4840   297.0130    83.3920    22.9040    16.2060    18.3550    18.7990   -10.0210 
  154.6250     2.4740   292.2360    85.4540    22.9010    17.6810    19.2660    19.8960   -10.0780 
  154.7500     2.4460   291.4070    86.4850    22.9400    20.1600    20.6790    21.3750   -10.1170 
  154.8750     2.4270   293.5660    85.3580    23.0500    22.4510    22.2200    22.7980   -10.1880 
  155.0000     2.4240   298.7250    82.1620    23.1710    23.0710    23.3370    23.6820   -10.3230 
  155.1250     2.4160   308.1500    78.5620    23.1830    21.4290    23.3900    23.5540   -10.4260 
  155.2500     2.3810   320.4180    77.3180    23.3250    19.5050    22.5610    22.6540   -10.4650 
  155.3750     2.3340   333.1790    77.8390    23.6650    18.1280    21.2710    21.3710   -10.5050 
  155.5000     2.3030   343.8840    77.7830    24.0440    17.6530    19.9910    20.1550   -10.5260 
  155.6250     2.3030   350.7480    76.9510    24.1070    18.0120    19.1640    19.4720   -10.4740 
  155.7500     2.3120   354.1270    77.6620    24.0580    18.4700    18.9370    19.4780   -10.3940 
  155.8750     2.3190   352.7490    78.0560    24.1550    18.4590    19.4290    20.2990   -10.2610 
  156.0000     2.3340   343.8380    74.5540    24.3880    18.6190    20.7670    22.0150   -10.0810 
  156.1250     2.3740   323.5880    69.5550    24.5770    21.3590    23.1570    24.6290    -9.8880 
  156.2500     2.4330   296.4080    66.5180    24.6220    26.7500    26.1290    27.4390    -9.6390 
  156.3750     2.4930   269.4180    65.1350    24.6220    32.8850    28.8020    29.5380    -9.3540 
  156.5000     2.5380   250.4210    66.3370    24.7360    36.1480    29.9600    30.0330    -9.0540 
  156.6250     2.5560   245.7560    70.4000    24.8800    33.1690    28.5680    28.3260    -8.7320 
  156.7500     2.5610   250.9930    73.1640    24.8390    25.7020    25.7040    25.4080    -8.4560 
  156.8750     2.5620   260.7560    73.7990    24.6360    19.1620    22.5360    22.2600    -8.2170 
  157.0000     2.5590   270.2180    73.6990    24.4660    16.6960    19.8660    19.6260    -7.9730 
  157.1250     2.5470   276.4950    74.1080    24.3670    16.6850    18.0840    17.9340    -7.7670 
  157.2500     2.5330   280.0020    74.4080    24.2540    15.9650    16.9880    16.9550    -7.6380 
  157.3750     2.5280   281.1350    73.6720    24.1380    14.6920    16.4340    16.5010    -7.5460 
  157.5000     2.5360   280.0910    72.1220    24.0720    13.9240    16.2750    16.3970    -7.4790 
  157.6250     2.5520   277.1570    70.7240    24.0440    13.9800    16.4070    16.5520    -7.4820 
  157.7500     2.5700   273.8260    70.7700    24.0350    14.4410    16.7270    16.8730    -7.4510 
  157.8750     2.5860   271.1040    71.3800    24.0450    15.0420    17.2280    17.3260    -7.4170 
  158.0000     2.5970   269.0500    70.3860    24.0950    15.6120    17.8460    17.8420    -7.4400 
  158.1250     2.5990   267.3330    69.0160    24.2490    16.5710    18.3980    18.2740    -7.4920 
  158.2500     2.5910   266.6050    68.5590    24.5430    18.4630    18.6980    18.4860    -7.5720 
  158.3750     2.5740   268.6750    69.4650    24.8510    19.9570    18.6380    18.4070    -7.6810 
  158.5000     2.5470   274.9420    71.1000    25.1810    19.0350    18.2200    18.0670    -7.8300 
  158.6250     2.5160   284.6880    70.8670    25.4220    16.5780    17.5920    17.6130    -7.9910 
  158.7500     2.4960   293.3400    69.1700    25.4940    15.4570    17.0390    17.2700    -8.1380 
  158.8750     2.4990   297.3050    68.7220    25.4370    15.6930    16.7080    17.1510    -8.2890 
  159.0000     2.5170   295.5160    70.9140    25.3990    15.7930    16.6120    17.2400    -8.3960 
  159.1250     2.5270   290.2560    73.6180    25.4760    16.2960    16.6410    17.3850    -8.4190 
  159.2500     2.5180   286.4130    75.4280    25.5380    17.3040    16.5740    17.3850    -8.4260 
  159.3750     2.4950   286.3870    77.0790    25.5920    17.8680    16.3010    17.1760    -8.4160 
  159.5000     2.4650   289.8620    77.7290    25.7210    16.9240    15.8890    16.8490    -8.3300 
  159.6250     2.4240   293.4880    76.1010    25.8350    15.5910    15.5900    16.6480    -8.1720 
  159.7500     2.3890   293.3370    74.3270    26.0030    15.0840    15.5680    16.7370    -8.0580 
  159.8750     2.3900   288.1010    73.0440    26.1530    16.0750    15.8450    17.1410    -7.9770 
  160.0000     2.4320   279.4670    71.9340    26.1240    18.3270    16.3510    17.7540    -7.9120 
  160.1250     2.4800   272.0150    71.5400    25.8380    19.9500    16.9300    18.3760    -7.8770 
  160.2500     2.4980   269.0750    72.1900    25.4330    18.8130    17.3770    18.8280    -7.8770 
  160.3750     2.4920   270.9440    72.1820    25.0460    16.7530    17.6030    19.0480    -7.8930 
  160.5000     2.4760   275.7150    70.4350    24.7920    16.3120    17.6180    19.0530    -7.9230 
  160.6250     2.4470   280.5900    71.9400    24.8320    16.4280    17.4210    18.8660    -8.0070 
  160.7500     2.4140   284.1790    76.9120    25.0540    15.6650    17.0350    18.4510    -8.0520 
  160.8750     2.3950   286.9110    79.4770    25.2590    14.4340    16.4450    17.7050    -8.0770 
