~V
VERS. 2.00: Ver 2.00
~W
STRT.M 65.0000:
STOP.M 277.0000:
STEP.M 0.1250:
NULL. -999.2500:
UWI. DF311:
~C
DEPT.M :
DEN.GM/CC :
SP.MV :
AC.US/MT :
GR.API :
CALI.CM :
RXO.OHMM :
RI. :
RML.OHMM :
~A
# ...
  185.0000     2.2240   -39.9490   416.7610    56.2140    25.0490   124.6840   151.6430   161.4860 
  185.1250     2.2280   -39.9200   414.5870    57.1480    25.0600   136.9000   155.1030   164.9010 
  185.2500     2.2340   -39.8730   412.8160    57.8290    25.0350   134.7660   153.7110   162.6620 
  185.3750     2.2490   -39.8210   411.0610    57.8090    24.9480   121.3490   147.7130   155.0200 
  185.5000     2.2750   -39.7230   405.7600    57.6560    24.8200   105.6790   139.0270   144.3820 
  185.6250     2.3090   -39.6230   392.2730    58.0270    24.7210    89.8260   130.4460   134.1490 
  185.7500     2.3330   -39.5040   375.6630    58.0630    24.6340    71.1150   124.0900   126.6050 
  185.8750     2.3400   -39.3850   365.1440    59.8790    24.4650    55.4120   120.8850   122.6430 
  186.0000     2.3270   -39.2840   367.4810    63.8580    24.1150    46.1290   120.6970   122.1020 
  186.1250     2.2990   -39.2050   381.7620    66.1730    23.9790    44.0030   121.8660   123.4090 
  186.2500     2.2720   -39.1380   396.9170    64.3780    24.1120    46.5570   121.2620   123.2970 
  186.3750     2.2540   -39.0840   406.6220    61.1120    24.4330    54.1580   117.0300   119.7070 
  186.5000     2.2480   -39.0640   409.7360    59.8160    24.6770    61.7750   109.4670   112.7610 
  186.6250     2.2490   -39.0520   408.4130    60.1380    24.7740    60.2480   101.4390   105.2930 
  186.7500     2.2540   -39.0580   406.3660    60.4990    24.8690    52.9540    96.7700   101.1290 
  186.8750     2.2540   -39.0640   405.1910    60.0070    25.1040    51.6640    98.1170   102.8530 
  187.0000     2.2430   -39.0340   405.7790    57.5980    25.5120    60.3430   107.0340   112.1670 
  187.1250     2.2170   -38.9550   408.8280    53.8130    25.8520    67.7060   124.8470   131.5940 
  187.2500     2.1940   -38.8140   413.1690    51.5040    25.8880    63.8230   147.7890   158.9460 
  187.3750     2.1870   -38.6150   417.0190    51.6710    25.5380    53.4810   170.4690   189.1750 
  187.5000     2.1940   -38.3570   418.7360    52.7440    24.8590    46.6750   185.8170   212.1110 
  187.6250     2.2060   -38.0340   417.9750    53.6920    24.3700    48.6420   187.2180   215.8820 
  187.7500     2.2100   -37.6520   416.7070    53.9300    24.2390    58.5890   178.6230   205.7260 
  187.8750     2.2080   -37.2340   415.9540    53.7500    24.4540    76.7610   164.5040   188.8550 
  188.0000     2.2080   -36.7950   415.3660    53.4660    24.8110    96.9570   148.5050   170.2520 
  188.1250     2.2160   -36.3510   413.6000    52.2150    24.9370   106.5950   133.3440   152.9590 
  188.2500     2.2260   -35.9350   410.4260    49.5720    24.8640   104.1780   120.3600   138.1590 
  188.3750     2.2370   -35.5280   406.5500    47.5860    24.7250    97.8940   110.1080   126.3230 
  188.5000     2.2470   -35.1480   403.1090    49.2670    24.6140    91.7060   102.8650   117.7020 
  188.6250     2.2560   -34.8070   401.3670    52.9560    24.4930    82.4060    99.3750   113.0580 
  188.7500     2.2600   -34.5050   401.2760    54.1990    24.3420    71.9270    99.0960   111.8060 
  188.8750     2.2590   -34.2070   402.1570    53.4280    24.2020    65.7150   101.5470   113.4900 
  189.0000     2.2550   -33.9400   402.9010    53.1870    24.1420    69.1110   105.4890   116.9180 
  189.1250     2.2520   -33.6890   402.4340    55.0140    24.1950    82.4330   108.0800   119.1090 
  189.2500     2.2530   -33.4430   401.0740    56.8640    24.2740    93.4290   106.3390   116.5760 
  189.3750     2.2630   -33.2110   399.6950    57.5080    24.3010    93.3420    98.8950   107.6880 
  189.5000     2.2800   -32.9770   399.0370    56.3130    24.2720    81.2600    86.9950    94.0860 
  189.6250     2.2990   -32.7430   399.0930    54.6900    24.1830    63.1710    73.9870    79.8830 
  189.7500     2.3150   -32.5280   399.0640    53.3300    24.0750    46.0220    62.9260    68.2290 
  189.8750     2.3260   -32.3360   398.7400    51.8850    23.9910    33.5460    54.7720    59.9080 
  190.0000     2.3300   -32.2350   398.6020    49.7820    23.9530    27.6640    49.5460    54.7980 
  190.1250     2.3280   -32.1470   399.4070    48.7370    23.9460    29.2060    47.3880    52.9980 
  190.2500     2.3240   -32.0370   400.9150    50.1490    23.9460    33.1700    47.7640    53.8790 
  190.3750     2.3170   -31.9500   402.5590    51.2280    23.9460    35.9060    50.9420    57.6650 
  190.5000     2.3070   -31.8790   403.9380    50.2190    23.9460    39.0520    57.5040    64.8720 
  190.6250     2.2890   -31.8400   404.9720    49.4090    23.9460    51.0420    68.9090    76.8720 
  190.7500     2.2660   -31.7930   405.6830    50.8310    23.9460    71.1730    84.6870    93.1560 
  190.8750     2.2450   -31.7320   405.9240    52.3710    23.9460    91.9750   103.7580   112.5480 
  191.0000     2.2350   -31.6350   405.8400    51.8760    23.9460   106.8500   123.2860   131.8570 
  191.1250     2.2360   -31.4880   406.1450    51.6770    23.9460   115.1870   137.8950   144.8960 
  191.2500     2.2380   -31.2840   406.9980    52.5050    23.9460   122.1660   144.9020   149.2310 
  191.3750     2.2410   -31.0430   407.3180    54.2320    23.9460   126.8100   143.3920   144.7460 
  191.5000     2.2510   -30.7440   405.5280    55.3060    23.9460   123.5720   132.2120   130.8910 
  191.6250     2.2760   -30.3640   401.4520    54.3410    23.9460   108.1940   107.8740   105.1770 
  191.7500     2.3100   -29.9480   398.8210    56.1890    23.9460    86.7430    76.7870    74.5540 
  191.8750     2.3470   -29.5090   401.5010    62.9770    23.9460    62.9140    48.2390    47.1700 
  192.0000     2.3860   -29.0790   410.5380    72.9930    23.9460    38.4530    28.1130    27.5530 
  192.1250     2.4240   -28.6850   421.6390    81.5690    23.9480    19.4660    17.3330    16.5680 
  192.2500     2.4530   -28.3740   427.1950    88.0140    23.9520     9.6720    11.5950    10.5950 
  192.3750     2.4660   -28.1870   423.4350    91.4350    23.9510     6.1620     8.7970     7.7680 
  192.5000     2.4610   -28.1700   411.6270    88.9550    23.9480     5.5930     7.7500     6.8920 
  192.6250     2.4330   -28.3920   397.9070    82.3820    23.9460     6.7030     8.1330     7.5450 
  192.7500     2.3920   -28.8040   389.8330    77.6410    23.9460     9.2650     9.6290     9.2950 
  192.8750     2.3530   -29.3670   390.6700    75.0260    23.9470    13.0760    12.2350    12.0350 
  193.0000     2.3290   -30.0420   398.2200    71.9470    23.9500    17.2780    15.8450    15.5380 
  193.1250     2.3320   -30.8170   403.4090    67.7890    23.9540    21.0940    20.1130    19.3920 
  193.2500     2.3550   -31.6070   398.5390    65.9310    23.9610    25.2610    24.2820    23.0650 
  193.3750     2.3840   -32.3790   384.8060    66.8220    23.9880    28.3890    27.8980    26.3130 
  193.5000     2.3980   -33.0860   371.6040    67.7720    24.0290    30.0600    30.8120    29.1280 
  193.6250     2.3790   -33.6900   371.4060    66.1900    24.0470    31.9970    32.9390    31.5730 
  193.7500     2.3450   -34.2030   382.2630    64.4020    24.0520    35.0240    34.3400    33.7180 
  193.8750     2.3170   -34.6420   395.5050    64.4660    24.0520    38.7360    34.9970    35.5020 
  194.0000     2.3080   -35.0380   403.1930    67.4740    24.0520    41.7270    35.1060    36.9370 
  194.1250     2.3110   -35.3710   403.2380    71.6940    24.0520    40.6400    35.1170    38.2220 
  194.2500     2.3140   -35.6760   401.0880    74.9840    24.0520    36.5800    35.5930    39.8150 
  194.3750     2.3110   -35.9440   399.8310    74.9690    24.0530    35.2720    36.9650    42.2170 
  194.5000     2.3030   -36.1970   400.1450    70.4670    24.0550    39.0670    39.5310    45.8590 
  194.6250     2.2960   -36.4380   401.5180    65.9570    24.0600    44.9720    43.5500    51.0910 
  194.7500     2.2910   -36.6640   403.0320    64.9720    24.0620    48.3280    48.4690    57.2510 
  194.8750     2.2850   -36.8760   404.0670    66.1490    24.0630    48.9060    53.5650    63.4130 
