~V
VERS. 2.00: Ver 2.00
~W
STRT.M 60.0000:
STOP.M 247.0000:
STEP.M 0.1250:
NULL. -999.2500:
UWI. DF315:
~C
DEPT.M :
DEN.GM/CC :
AC.US/MT :
GR.API :
RML.OHMM :
RI. :
RXO.OHMM :
CALI.CM :
SP.MV :
~A
# ...
   80.0000     2.2900   459.8390    83.0970     7.7940     7.5450     8.3070    24.5390   -21.7770 
   80.1250     2.2860   462.0390    86.6320     8.0620     7.7160     8.2550    24.4190   -21.7910 
   80.2500     2.2830   460.7050    89.4650     8.4730     7.9550     8.4140    24.3070   -21.8200 
   80.3750     2.2800   456.5280    87.2330     8.9030     8.2090     8.6550    24.1970   -21.8170 
   80.5000     2.2770   451.3130    82.9540     9.1410     8.3920     8.9080    24.1590   -21.8020 
   80.6250     2.2790   448.4890    80.6520     9.0020     8.3810     8.9720    24.2340   -21.8150 
   80.7500     2.2830   449.6590    79.5210     8.5490     8.1640     8.6750    24.3860   -21.8050 
   80.8750     2.2890   454.4860    80.2270     7.9080     7.7820     8.2220    24.6170   -21.7570 
   81.0000     2.2950   461.2990    84.3110     7.2680     7.3390     7.7890    24.8600   -21.7160 
   81.1250     2.2970   467.1290    90.7800     6.8700     6.9940     7.4430    24.9520   -21.6750 
   81.2500     2.2960   469.8440    94.1060     6.8000     6.8420     7.2530    24.9530   -21.6250 
   81.3750     2.2910   468.6040    91.7210     7.0580     6.9090     7.3140    24.9010   -21.5970 
   81.5000     2.2850   463.9470    86.1850     7.5570     7.1670     7.5310    24.8560   -21.6000 
   81.6250     2.2800   457.4580    83.0270     8.1320     7.5390     8.0180    24.7860   -21.5670 
   81.7500     2.2790   450.9560    82.8710     8.5880     7.8960     8.3660    24.6360   -21.5390 
   81.8750     2.2810   445.8920    83.8410     8.8320     8.1560     8.5680    24.4130   -21.5390 
   82.0000     2.2860   444.5200    83.3370     8.8670     8.2810     8.5540    24.2510   -21.5330 
   82.1250     2.2900   447.7710    80.3490     8.7690     8.2750     8.4400    24.1490   -21.5410 
   82.2500     2.2970   451.7300    78.1860     8.6810     8.2310     8.2620    24.0740   -21.5270 
   82.3750     2.3050   453.1860    80.4530     8.6940     8.2250     8.4360    23.9740   -21.4540 
   82.5000     2.3140   451.2660    86.3630     8.8760     8.3230     8.7030    23.8990   -21.3870 
   82.6250     2.3170   447.0820    87.7360     9.3170     8.6030     8.9280    23.8470   -21.3550 
   82.7500     2.3100   443.0610    83.0700    10.0010     9.0750     9.4020    23.7930   -21.2710 
   82.8750     2.2930   441.2800    78.0710    10.9160     9.7520    10.1660    23.7100   -21.1820 
   83.0000     2.2700   442.5300    76.5420    12.0310    10.6360    10.9310    23.6350   -21.1180 
   83.1250     2.2520   445.6140    76.9140    13.3250    11.7360    11.7680    23.5960   -21.0130 
   83.2500     2.2430   447.7650    75.8290    14.7100    12.9690    12.5970    23.5680   -20.9010 
   83.3750     2.2430   448.2570    73.0890    16.1050    14.2500    13.4000    23.5510   -20.8500 
   83.5000     2.2500   447.9870    70.9480    17.4010    15.4780    14.3660    23.5950   -20.7890 
   83.6250     2.2580   448.7080    69.9740    18.4400    16.5280    15.8530    23.8000   -20.6830 
   83.7500     2.2610   451.2900    68.5030    19.2180    17.3910    17.4510    24.1800   -20.6300 
   83.8750     2.2530   454.1790    67.1210    19.8610    18.1320    18.3640    24.6560   -20.6040 
   84.0000     2.2300   452.9420    67.0610    20.6240    18.8960    18.8700    25.1070   -20.5810 
   84.1250     2.1970   436.6810    68.5100    21.8820    19.9080    19.1770    25.3790   -20.5540 
   84.2500     2.1730   399.5380    68.9220    23.6650    21.2310    19.5460    25.3620   -20.5440 
   84.3750     2.1740   341.8980    69.0310    25.7550    22.7890    20.4580    25.1340   -20.5400 
   84.5000     2.2070   275.9340    71.3560    27.6680    24.3350    21.4060    24.9600   -20.5500 
   84.6250     2.2610   229.6170    73.7350    28.6400    25.3870    22.8670    24.9070   -20.5930 
   84.7500     2.3040   219.2850    72.7440    28.4630    25.6710    23.9690    24.9070   -20.6020 
   84.8750     2.3150   245.2380    68.8290    27.2650    25.1130    23.3450    24.8990   -20.5610 
   85.0000     2.2910   296.4500    66.5800    25.4590    23.8830    21.4050    24.8420   -20.5440 
   85.1250     2.2510   356.9270    68.8500    23.5090    22.2700    19.6310    24.6730   -20.5700 
   85.2500     2.2190   408.1880    71.7030    21.6950    20.6200    18.7870    24.4460   -20.5630 
   85.3750     2.2020   440.2630    72.7560    20.0670    19.0700    17.9050    24.2970   -20.5140 
   85.5000     2.1980   452.7270    73.5140    18.6410    17.6840    16.7070    24.2490   -20.4530 
   85.6250     2.2000   453.9590    75.2060    17.5230    16.5580    15.2550    24.2490   -20.4280 
   85.7500     2.2020   454.7060    75.6190    16.7420    15.7200    14.0990    24.2550   -20.4310 
   85.8750     2.1980   457.7640    73.7490    16.3010    15.2080    13.4620    24.2790   -20.4300 
   86.0000     2.1890   462.3040    71.9270    16.1170    14.9960    13.5970    24.3390   -20.3860 
   86.1250     2.1780   466.1610    73.7930    16.0440    15.0000    14.5600    24.3870   -20.3050 
   86.2500     2.1710   468.4890    75.4430    15.9230    15.0280    15.6900    24.4060   -20.2510 
   86.3750     2.1720   470.3900    73.0030    15.7010    14.9670    16.2570    24.4090   -20.2390 
   86.5000     2.1810   472.9100    67.9460    15.4000    14.7790    15.9300    24.4090   -20.2390 
   86.6250     2.1920   474.5780    67.8040    15.0580    14.4990    15.2420    24.3890   -20.2300 
   86.7500     2.1990   472.8030    72.0830    14.6670    14.1910    14.9760    24.2820   -20.2150 
   86.8750     2.2020   467.3070    75.2890    14.1890    13.8500    15.0540    24.0450   -20.1860 
   87.0000     2.2040   460.4160    76.4970    13.5410    13.4260    15.5010    23.8380   -20.1600 
   87.1250     2.2120   455.5180    79.6120    12.7790    12.8510    14.6530    23.7390   -20.1870 
   87.2500     2.2260   453.2690    84.1800    11.9880    12.1810    12.9760    23.7900   -20.2300 
   87.3750     2.2400   452.5580    86.9340    11.3740    11.5240    11.2460    23.9480   -20.2590 
   87.5000     2.2480   452.0250    86.6750    11.0330    10.9920    10.4050    24.0280   -20.2760 
   87.6250     2.2440   451.5120    86.4090    10.6400    10.6460    10.2580    23.9280   -20.2640 
   87.7500     2.2350   451.6510    87.1410    10.3880    10.3770    10.2890    23.7390   -20.2390 
   87.8750     2.2270   453.0890    87.6600    10.0980    10.0570    10.2740    23.6380   -20.2420 
   88.0000     2.2300   456.0230    86.3550     9.6000     9.5820    10.0360    23.6770   -20.2330 
   88.1250     2.2490   458.8660    84.9220     8.7700     8.8920     9.1020    23.9650   -20.1800 
   88.2500     2.2770   460.5820    86.9190     7.8810     8.0890     7.7370    24.4100   -20.1320 
   88.3750     2.3050   462.5750    92.4120     7.0230     7.2630     6.5410    24.7640   -20.0940 
   88.5000     2.3260   467.2120    98.5330     6.2680     6.4820     6.0220    24.9010   -20.0380 
   88.6250     2.3340   475.0990   101.2380     5.6210     5.8010     5.6690    24.9070   -19.9550 
   88.7500     2.3340   483.3700   104.7670     5.0830     5.2370     5.1870    24.9080   -19.8880 
   88.8750     2.3330   489.1110   112.2620     4.6980     4.8250     4.7430    24.9100   -19.8490 
   89.0000     2.3390   488.0070   120.1070     4.5270     4.6080     4.7040    24.9090   -19.8360 
   89.1250     2.3550   473.4510   121.2940     4.6670     4.6620     5.5220    24.9090   -19.8210 
   89.2500     2.3720   449.6610   118.0200     5.0840     4.9520     6.6230    24.9070   -19.7600 
   89.3750     2.3780   426.3080   113.3560     5.7240     5.4350     7.7980    24.8910   -19.6760 
   89.5000     2.3660   414.4340   106.3790     6.4560     6.0160     8.5590    24.8510   -19.6290 
   89.6250     2.3370   420.8950    96.6410     7.0550     6.5380     7.8360    24.8290   -19.6460 
   89.7500     2.3090   435.4040    89.0120     7.3700     6.8770     7.6670    24.8220   -19.6500 
   89.8750     2.2940   449.1670    84.9460     7.3930     7.0030     7.5980    24.8220   -19.5950 
