~V
VERS. 2.00: Ver 2.00
~W
STRT.M 57.0000:
STOP.M 261.0000:
STEP.M 0.1250:
NULL. -999.2500:
UWI. DF317:
~C
DEPT.M :
DEN.GM/CC :
SP.MV :
AC.US/MT :
GR.API :
CALI.CM :
RXO.OHMM :
RI. :
RML.OHMM :
~A
# ...
  217.0000     2.3300   -24.7080   360.5370    98.6170    24.0160     9.9950     8.3920    10.0610 
  217.1250     2.3430   -24.7420   356.1490    96.6010    23.9420     9.6850     8.4310    10.2770 
  217.2500     2.3610   -24.7080   352.7540    89.9410    23.9420     9.6930     8.3380    10.2960 
  217.3750     2.3740   -24.6080   352.0720    83.2800    24.0080     9.8270     8.1420    10.1430 
  217.5000     2.3750   -24.4470   354.1030    80.3960    23.9200    10.0870     7.8760     9.8790 
  217.6250     2.3650   -24.2600   357.4710    82.4050    24.0890    10.2110     7.5980     9.6110 
  217.7500     2.3470   -24.0860   362.4340    89.2470    24.0430     9.9150     7.3700     9.4130 
  217.8750     2.3320   -23.9270   368.7470    94.9950    24.0730     9.3080     7.2220     9.3520 
  218.0000     2.3270   -23.8050   373.4090    97.3950    24.0540     8.9450     7.1800     9.4530 
  218.1250     2.3330   -23.7410   373.6600    99.4220    24.0970     9.3560     7.2510     9.6840 
  218.2500     2.3360   -23.7840   368.7150   100.6050    24.0240     9.5280     7.4150    10.0020 
  218.3750     2.3210   -23.8940   361.3690    99.0440    24.0540     9.5560     7.6040    10.3310 
  218.5000     2.2880   -24.0720   354.0060    96.2240    24.0320     9.8750     7.7880    10.5990 
  218.6250     2.2600   -24.3150   349.6070    94.5610    24.0560    10.4490     7.9400    10.7800 
  218.7500     2.2640   -24.5820   352.1980    93.7240    24.0850    10.3700     8.0560    10.8860 
  218.8750     2.2830   -24.8390   359.2610    93.1230    24.0220     9.8600     8.1560    10.9630 
  219.0000     2.2970   -25.0700   365.2790    93.9380    24.0930     9.5450     8.2490    11.0480 
  219.1250     2.3030   -25.2480   364.0930    93.9010    24.0940     9.6480     8.3320    11.1450 
  219.2500     2.3090   -25.3500   353.9460    92.9760    23.8740     9.9170     8.4000    11.2170 
  219.3750     2.3160   -25.4190   343.1710    93.1360    23.7340    10.2490     8.4220    11.2380 
  219.5000     2.3160   -25.4230   339.3770    93.0390    23.8300    10.7260     8.3740    11.1840 
  219.6250     2.3020   -25.3580   345.6340    92.0200    23.7330    10.9660     8.2360    11.0030 
  219.7500     2.2850   -25.2600   358.1290    94.1480    23.8150    10.7840     7.9790    10.6450 
  219.8750     2.2820   -25.1780   368.3350    98.7330    24.0060    10.3910     7.6620    10.2160 
  220.0000     2.2870   -25.1180   373.0420   102.0830    24.0100     9.8980     7.3550     9.7990 
  220.1250     2.2900   -25.1020   373.9770   102.5770    23.9990     9.3840     7.1130     9.4740 
  220.2500     2.2840   -25.1690   376.3450   100.6270    23.9950     9.0390     6.9660     9.3000 
  220.3750     2.2740   -25.2820   382.5830    96.6950    23.9860     8.6880     6.8980     9.2410 
  220.5000     2.2600   -25.4770   388.6930    91.9950    23.9510     8.2860     6.9080     9.2760 
  220.6250     2.2460   -25.7360   387.1960    89.9540    23.9790     8.2120     6.9620     9.3800 
  220.7500     2.2400   -26.0170   375.5070    91.3190    23.9590     9.1420     7.0190     9.4650 
  220.8750     2.2490   -26.2790   365.8190    95.5160    23.8350    10.0920     7.0650     9.5210 
  221.0000     2.2670   -26.5050   366.3860   101.9110    23.7220     9.9490     7.1260     9.5870 
  221.1250     2.2860   -26.6880   373.9000   106.0360    23.7500     8.7570     7.2290     9.7170 
  221.2500     2.2970   -26.7750   377.4140   102.9970    23.7770     8.7630     7.4510    10.0220 
  221.3750     2.3040   -26.7940   373.0910    98.9580    23.7240     9.7880     7.8330    10.5570 
  221.5000     2.3140   -26.7460   363.0890    98.8210    23.8700    10.9340     8.3430    11.2520 
  221.6250     2.3330   -26.6510   351.3500   101.4860    23.9350    12.2640     8.9030    11.9720 
  221.7500     2.3480   -26.5610   341.1150   102.3350    23.8130    14.1490     9.3970    12.5420 
  221.8750     2.3500   -26.4830   334.7510   101.8600    23.9500    15.1820     9.6720    12.7540 
  222.0000     2.3400   -26.4280   333.2100   101.5520    23.9920    14.8020     9.5980    12.4610 
  222.1250     2.3270   -26.3950   336.8590   102.2840    24.0250    13.8700     9.2040    11.7570 
  222.2500     2.3140   -26.3900   347.8290   104.8060    23.9570    12.8280     8.5820    10.7930 
  222.3750     2.3000   -26.4040   362.9770   103.9190    24.0110    10.6820     7.8720     9.7730 
  222.5000     2.2930   -26.4500   377.1630    99.2670    23.9760     9.3010     7.2220     8.8910 
  222.6250     2.3000   -26.5290   386.2690    95.7080    23.8940     8.6710     6.7270     8.2540 
  222.7500     2.3180   -26.6200   390.9270    94.3360    23.8910     7.8100     6.4220     7.8990 
  222.8750     2.3310   -26.7210   394.7710    91.9680    23.9440     7.6340     6.2810     7.7820 
  223.0000     2.3300   -26.8400   397.7840    88.7310    24.0890     7.5610     6.3060     7.8980 
  223.1250     2.3160   -26.9500   398.3560    87.4510    24.1180     7.4940     6.4470     8.1610 
  223.2500     2.2990   -27.0110   395.1370    88.7160    23.9270     7.9690     6.6400     8.4720 
  223.3750     2.2920   -27.0230   388.3900    90.0340    23.5790     8.5010     6.8220     8.7360 
  223.5000     2.3000   -26.9620   378.2950    89.9070    23.2540     8.7610     6.9320     8.8750 
  223.6250     2.3180   -26.8400   367.1130    87.8370    23.5640     9.1440     6.9390     8.8590 
  223.7500     2.3360   -26.6740   360.5970    86.6560    23.7460     9.7970     6.8870     8.7920 
  223.8750     2.3490   -26.4770   360.4900    91.4190    23.6860     9.9820     6.9100     8.8910 
  224.0000     2.3570   -26.2710   363.1970    98.9200    23.5890     9.4130     7.1590     9.3660 
  224.1250     2.3650   -26.0960   360.7460   101.6830    23.5330     9.0360     7.7770    10.3830 
  224.2500     2.3780   -25.9860   343.7460    96.2930    23.5270    10.1970     8.9610    12.1290 
  224.3750     2.4020   -25.9130   313.1410    89.9360    23.5200    12.4040    10.7010    14.5050 
  224.5000     2.4360   -25.9080   274.9880    87.3880    23.5010    17.4600    12.9750    17.3810 
  224.6250     2.4700   -25.9620   240.3400    88.2290    23.5430    28.6380    15.6570    20.5400 
  224.7500     2.4940   -26.0650   224.1790    88.8150    23.6090    39.7280    18.3810    23.4450 
  224.8750     2.5090   -26.1870   225.1460    88.4140    23.7490    38.7890    20.5070    25.4570 
  225.0000     2.5170   -26.2870   233.3590    87.4230    23.7490    31.3350    21.5890    26.1770 
  225.1250     2.5180   -26.3160   235.9140    86.1910    23.7910    29.4910    21.5350    25.6070 
  225.2500     2.5040   -26.2770   228.0710    84.4870    23.8210    33.0790    20.2780    23.7630 
  225.3750     2.4730   -26.2390   224.2330    84.8500    23.8020    37.9790    18.2250    21.1290 
  225.5000     2.4320   -26.2010   237.8970    88.4070    23.8380    38.9680    15.7890    18.1570 
  225.6250     2.3920   -26.1810   269.8150    93.4230    23.9240    30.1320    13.3680    15.2870 
  225.7500     2.3660   -26.1650   306.0960    96.3670    23.9060    17.8010    11.2640    12.8510 
  225.8750     2.3500   -26.1420   334.4880    96.5120    23.8210    11.7550     9.5570    10.9490 
  226.0000     2.3390   -26.1370   355.0190    95.8550    23.7700     9.7390     8.2760     9.5780 
  226.1250     2.3330   -26.1630   369.3080    96.1540    23.8450     8.3960     7.3870     8.6810 
  226.2500     2.3340   -26.2130   375.4290    95.6320    23.9340     7.9910     6.8910     8.2190 
  226.3750     2.3420   -26.2270   377.4560    91.7630    23.9870     8.2930     6.6620     8.0220 
  226.5000     2.3500   -26.1810   380.8610    85.7420    23.9020     8.2410     6.6150     7.9900 
  226.6250     2.3520   -26.0900   386.3790    83.8750    23.9760     7.7120     6.6980     8.0560 
  226.7500     2.3510   -25.9710   387.1150    89.0880    24.0260     7.4370     6.9020     8.2420 
  226.8750     2.3500   -25.8610   380.4630    95.8080    24.0770     7.6620     7.1690     8.5050 
