~V
VERS. 2.00: Ver 2.00
~W
STRT.M 57.0000:
STOP.M 261.0000:
STEP.M 0.1250:
NULL. -999.2500:
UWI. DF317:
~C
DEPT.M :
DEN.GM/CC :
SP.MV :
AC.US/MT :
GR.API :
CALI.CM :
RXO.OHMM :
RI. :
RML.OHMM :
~A
# ...
  137.0000     2.3530   -16.6330   417.9890   101.5220    23.2730     5.4680     6.2800     7.7440 
  137.1250     2.3640   -16.5620   399.4740    91.5750    23.1090     6.1320     7.8520    10.1890 
  137.2500     2.4060   -16.4530   357.3160    83.4440    23.0150     7.1620    10.5100    14.0110 
  137.3750     2.4640   -16.3330   298.7590    75.4860    23.1290    11.0540    14.1300    18.8200 
  137.5000     2.5160   -16.1940   252.7360    69.3150    23.2120    19.8530    18.4500    24.1380 
  137.6250     2.5290   -16.0430   252.0300    68.4920    23.0960    33.3010    22.7110    29.0020 
  137.7500     2.4720   -15.8920   307.9500    73.2100    22.9520    37.2050    25.4040    31.7540 
  137.8750     2.3740   -15.7470   376.0310    76.6150    22.8840    30.7770    25.9920    32.0030 
  138.0000     2.2770   -15.6160   421.4510    76.7880    22.7610    20.9530    24.8480    30.2250 
  138.1250     2.2160   -15.5250   436.1240    76.1880    22.5820    15.4280    22.8370    27.4630 
  138.2500     2.2000   -15.4910   433.5780    77.1400    22.6120    12.3230    20.7260    24.8020 
  138.3750     2.2000   -15.4850   431.6360    77.9720    22.5720    11.2740    19.0260    22.8800 
  138.5000     2.2040   -15.4930   432.4570    78.0830    22.5340    11.1120    17.7720    21.5930 
  138.6250     2.2090   -15.4940   432.7600    79.0800    22.5070    10.8300    16.8680    20.7170 
  138.7500     2.2180   -15.4910   430.3900    81.3900    22.6200    10.1050    16.2260    20.0860 
  138.8750     2.2290   -15.4730   426.4790    82.9730    22.6190     9.4470    15.7690    19.6350 
  139.0000     2.2350   -15.4410   423.2260    82.8770    22.6590     9.1980    15.4910    19.3550 
  139.1250     2.2360   -15.3780   422.2760    80.9890    22.5880     9.2530    15.3660    19.2440 
  139.2500     2.2330   -15.2580   423.4230    80.7140    22.7140     9.3640    15.3800    19.3120 
  139.3750     2.2300   -15.1070   424.6410    83.0070    22.8670     9.4830    15.4900    19.5060 
  139.5000     2.2220   -14.9560   425.0450    84.7790    22.9950     9.5800    15.6240    19.7200 
  139.6250     2.2140   -14.8230   424.2910    82.7410    23.0910     9.6110    15.7120    19.8760 
  139.7500     2.2140   -14.6840   422.6870    76.6510    23.1950     9.5940    15.7510    19.9830 
  139.8750     2.2220   -14.5360   421.2870    73.8240    23.1880     9.5360    15.8190    20.1570 
  140.0000     2.2270   -14.3840   420.8980    76.0860    23.2430     9.4890    15.9610    20.4610 
  140.1250     2.2260   -14.2380   421.7300    79.1150    23.2600     9.5710    16.2230    20.9550 
  140.2500     2.2220   -14.1020   424.1250    79.4910    23.2920     9.8770    16.7190    21.7770 
  140.3750     2.2200   -13.9780   427.6700    78.9920    23.3070    10.1020    17.4360    22.9230 
  140.5000     2.2150   -13.8640   431.0540    78.5680    23.3880    10.4810    18.3820    24.3790 
  140.6250     2.2050   -13.7560   432.6010    77.3870    23.5470    11.2250    19.5200    26.0670 
  140.7500     2.1950   -13.6930   431.4660    74.8370    23.5210    11.9320    20.7100    27.7040 
  140.8750     2.1890   -13.6610   430.2830    73.4060    23.3680    11.9560    21.7280    29.0090 
  141.0000     2.1860   -13.6560   431.2800    72.8960    23.2470    12.0550    22.4400    29.8260 
  141.1250     2.1830   -13.6760   434.2900    71.6830    23.2500    12.8820    22.7450    30.0640 
  141.2500     2.1820   -13.7250   436.9050    68.9820    23.2290    14.5120    22.5420    29.6330 
  141.3750     2.1820   -13.7860   437.3390    68.3570    23.2410    14.7520    22.0440    28.8590 
  141.5000     2.1800   -13.8610   435.9190    72.0530    23.2670    13.2250    21.4330    28.0100 
  141.6250     2.1750   -13.9450   433.3360    75.6770    23.2360    11.4670    20.8600    27.2820 
  141.7500     2.1720   -14.0190   430.0520    75.4490    23.1840    10.8250    20.4680    26.8300 
  141.8750     2.1740   -14.0940   427.5940    75.5100    23.2110    10.9260    20.2830    26.6790 
  142.0000     2.1790   -14.1780   427.2460    76.9600    23.2280    11.4240    20.2960    26.7800 
  142.1250     2.1860   -14.2560   428.7050    77.1450    23.2340    11.8290    20.4800    27.0820 
  142.2500     2.1890   -14.3340   429.3980    78.9410    23.1890    11.5190    20.8000    27.5250 
  142.3750     2.1820   -14.4270   428.1830    82.7220    23.0230    10.9840    21.1820    28.0160 
  142.5000     2.1700   -14.5470   426.4630    83.3030    23.0800    10.8920    21.5580    28.4790 
  142.6250     2.1590   -14.6890   425.8790    77.5630    23.1910    11.3780    21.8970    28.8630 
  142.7500     2.1620   -14.8230   427.4080    72.8910    23.1730    12.0590    22.1540    29.1410 
  142.8750     2.1710   -14.9730   430.3270    73.7890    23.3370    12.5320    22.3170    29.2620 
  143.0000     2.1790   -15.1130   433.8360    76.6940    23.4980    12.8920    22.3740    29.2260 
  143.1250     2.1770   -15.2620   436.6560    78.4440    23.5110    12.9900    22.3480    29.0850 
  143.2500     2.1630   -15.4250   436.5560    78.2000    23.3080    12.5890    22.2760    28.8860 
  143.3750     2.1470   -15.5950   433.8140    75.9670    23.2460    12.1850    22.2040    28.6600 
  143.5000     2.1370   -15.7460   430.0550    72.1710    23.2260    12.3710    22.1950    28.4830 
  143.6250     2.1350   -15.8910   427.2930    69.8170    23.1140    12.9060    22.3000    28.4120 
  143.7500     2.1370   -16.0390   425.9860    73.1720    23.1790    13.4230    22.5020    28.4040 
  143.8750     2.1410   -16.1680   424.2970    79.5300    23.1550    13.6680    22.7980    28.5060 
  144.0000     2.1530   -16.3020   421.7860    82.7340    23.1170    13.6670    23.1980    28.7610 
  144.1250     2.1730   -16.4400   419.6740    79.3140    23.0690    13.3650    23.6750    29.1300 
  144.2500     2.1970   -16.5650   419.5760    72.9500    23.0680    13.2470    24.0910    29.3980 
  144.3750     2.2100   -16.6770   420.5500    70.2310    23.1350    13.2780    24.2960    29.4120 
  144.5000     2.2080   -16.7990   420.8430    71.4030    23.1130    13.5800    24.1550    29.0410 
  144.6250     2.1970   -16.9090   420.2760    73.2170    23.1030    14.1150    23.5210    28.0920 
  144.7500     2.1900   -17.0250   420.9990    75.0020    23.2670    14.5780    22.2620    26.4380 
  144.8750     2.1980   -17.1470   424.1090    77.5020    23.3970    14.1900    20.5960    24.3430 
  145.0000     2.2150   -17.2600   428.2730    78.8680    23.4050    12.8030    18.8240    22.1430 
  145.1250     2.2330   -17.3480   429.6720    77.8690    23.3730    11.4730    17.2740    20.2690 
  145.2500     2.2430   -17.4060   424.4330    77.8320    23.3300    10.6060    16.2840    19.1890 
  145.3750     2.2450   -17.4400   416.3530    81.1560    23.0860     9.8350    15.9450    18.9970 
  145.5000     2.2470   -17.4320   411.4570    83.5080    22.8790     9.1090    16.3420    19.7720 
  145.6250     2.2490   -17.3970   413.0130    81.2060    22.8210     9.1130    17.4900    21.4610 
  145.7500     2.2390   -17.3260   418.2400    74.4750    22.7840    11.3790    19.3510    23.8750 
  145.8750     2.2130   -17.2420   422.2690    69.2720    22.7080    15.9860    21.5400    26.4680 
  146.0000     2.1820   -17.1620   424.3820    68.7920    22.7300    18.8260    23.6880    28.8140 
  146.1250     2.1670   -17.0920   425.8010    71.7060    23.1020    17.9230    25.4030    30.5330 
  146.2500     2.1750   -17.0450   425.8930    71.0610    23.4970    17.0240    26.3540    31.3630 
  146.3750     2.1920   -17.0250   422.3310    66.6950    23.5670    16.2590    26.6520    31.5340 
  146.5000     2.2050   -17.0190   414.9370    65.3400    23.5690    15.1900    26.4720    31.2730 
  146.6250     2.2140   -17.0310   407.9230    71.4960    23.5850    14.2920    26.0940    30.9090 
  146.7500     2.2200   -17.0620   406.4360    78.1230    23.5830    14.7030    25.8630    30.8310 
  146.8750     2.2210   -17.0890   408.1510    77.5060    23.5900    15.3700    25.8470    31.0720 
