~V
VERS. 2.00: Ver 2.00
~W
STRT.M 60.0000:
STOP.M 262.0000:
STEP.M 0.1250:
NULL. -999.2500:
UWI. DF319:
~C
DEPT.M :
GR.API :
RML.OHMM :
RI. :
RXO.OHMM :
CALI.CM :
AC.US/MT :
DEN.GM/CC :
SP.MV :
~A
# ...
  100.0000   124.2700     5.4220     4.0950     4.6770    24.2620  -999.2500  -999.2500   -34.4300 
  100.1250   128.2060     5.6520     4.2190     4.8100    24.1080  -999.2500  -999.2500   -34.4660 
  100.2500   127.0270     6.0550     4.4820     5.2240    23.7870  -999.2500  -999.2500   -34.5370 
  100.3750   120.0790     6.5480     4.8300     5.8640    23.3710  -999.2500  -999.2500   -34.6300 
  100.5000   111.1000     7.0100     5.1850     6.5810    22.9190  -999.2500  -999.2500   -34.7170 
  100.6250   105.0990     7.2820     5.4410     7.0730    22.8180  -999.2500  -999.2500   -34.7730 
  100.7500   104.2420     7.3380     5.5610     6.8810    23.0810  -999.2500  -999.2500   -34.7870 
  100.8750   105.8960     7.2290     5.5530     6.5250    23.4630  -999.2500  -999.2500   -34.7320 
  101.0000   105.8570     7.0560     5.4640     6.3430    23.6460  -999.2500  -999.2500   -34.6430 
  101.1250   102.5700     6.9280     5.3480     6.1570    23.7460  -999.2500  -999.2500   -34.5340 
  101.2500    98.8790     6.8720     5.2460     5.9070    23.9330  -999.2500  -999.2500   -34.4080 
  101.3750    98.9650     6.8580     5.1610     5.6050    24.1160  -999.2500  -999.2500   -34.2700 
  101.5000   103.0430     6.8250     5.0870     5.4470    24.1120  -999.2500  -999.2500   -34.1370 
  101.6250   106.1310     6.7260     5.0200     5.3820    23.9300  -999.2500  -999.2500   -34.0590 
  101.7500   105.3460     6.5890     4.9660     5.3040    23.7590  -999.2500  -999.2500   -34.0150 
  101.8750   105.9630     6.4620     4.9320     5.2340    23.7250  -999.2500  -999.2500   -33.9890 
  102.0000   111.0700     6.3890     4.9230     5.2760    23.7940  -999.2500  -999.2500   -33.9720 
  102.1250   115.1430     6.3950     4.9400     5.4010    23.8550  -999.2500  -999.2500   -33.9720 
  102.2500   112.6520     6.4410     4.9690     5.5790    23.8810  -999.2500  -999.2500   -33.9690 
  102.3750   106.2280     6.4950     5.0010     5.6490    23.9060  -999.2500  -999.2500   -33.9660 
  102.5000   101.9690     6.5400     5.0290     5.5440    23.9580  -999.2500  -999.2500   -33.9720 
  102.6250   103.4930     6.5770     5.0480     5.4750    24.0140  -999.2500  -999.2500   -33.9800 
  102.7500   106.7490     6.6150     5.0620     5.5720    24.0800  -999.2500  -999.2500   -33.9870 
  102.8750   106.9210     6.6520     5.0750     5.7440    24.1690  -999.2500  -999.2500   -34.0130 
  103.0000   103.5180     6.6690     5.0830     5.8930    24.2310  -999.2500  -999.2500   -34.0640 
  103.1250   100.2320     6.6420     5.0770     5.8840    24.1640  -999.2500  -999.2500   -34.1230 
  103.2500    98.3930     6.5740     5.0530     5.7980    23.9980  -999.2500  -999.2500   -34.1640 
  103.3750    98.1990     6.4850     5.0130     5.6950    23.8380  -999.2500  -999.2500   -34.1780 
  103.5000    99.8330     6.4080     4.9700     5.5060    23.8670  -999.2500  -999.2500   -34.1800 
  103.6250   104.5620     6.3860     4.9450     5.3460    24.1170  -999.2500  -999.2500   -34.1670 
  103.7500   107.3980     6.4190     4.9510     5.2820    24.2490  -999.2500  -999.2500   -34.1340 
  103.8750   105.1070     6.4880     4.9900     5.2750    24.1810  -999.2500  -999.2500   -34.1000 
  104.0000   100.6300     6.5600     5.0490     5.3360    24.0670  -999.2500  -999.2500   -34.0820 
  104.1250    97.2960     6.5760     5.0940     5.4440    24.0460  -999.2500  -999.2500   -34.0590 
  104.2500    96.2730     6.5050     5.0970     5.5240    24.0900  -999.2500  -999.2500   -34.0480 
  104.3750    97.0740     6.3400     5.0410     5.5360    24.1390  -999.2500  -999.2500   -34.0610 
  104.5000    99.3500     6.1110     4.9340     5.5190    24.1590  -999.2500  -999.2500   -34.0820 
  104.6250   101.5250     5.8770     4.8040     5.3540    24.1460  -999.2500  -999.2500   -34.1090 
  104.7500   101.6520     5.7030     4.6930     5.1820    24.1240  -999.2500  -999.2500   -34.1580 
  104.8750   101.0690     5.6310     4.6320     5.0700    24.1020  -999.2500  -999.2500   -34.1890 
  105.0000    99.8430     5.6830     4.6390     5.0910    24.0920  -999.2500  -999.2500   -34.1920 
  105.1250    96.1730     5.8710     4.7310     5.2680    24.0940  -999.2500  -999.2500   -34.2440 
  105.2500    93.8400     6.1390     4.8800     5.4900    24.0970  -999.2500  -999.2500   -34.3600 
  105.3750    94.2050     6.4350     5.0610     5.6760    24.0930  -999.2500  -999.2500   -34.4800 
  105.5000    94.3450     6.7020     5.2400     5.7950    24.0580  -999.2500  -999.2500   -34.5700 
  105.6250    90.1300     6.8750     5.3750     5.8330    23.9390  -999.2500  -999.2500   -34.6430 
  105.7500    84.9620     6.9430     5.4470     5.7580    23.7620  -999.2500  -999.2500   -34.7530 
  105.8750    83.6990     6.9060     5.4460     5.7040    23.5900  -999.2500  -999.2500   -34.9140 
  106.0000    85.3620     6.7630     5.3700     5.8020    23.4680  -999.2500  -999.2500   -35.0770 
  106.1250    86.6330     6.5110     5.2190     5.9740    23.3970  -999.2500  -999.2500   -35.1700 
  106.2500    87.5360     6.2210     5.0370     5.9080    23.3890  -999.2500  -999.2500   -35.2020 
  106.3750    89.1740     5.9770     4.8740     5.5560    23.4970  -999.2500  -999.2500   -35.2390 
  106.5000    91.4200     5.8730     4.7860     5.1490    23.7570  -999.2500  -999.2500   -35.3090 
  106.6250    92.2480     5.9850     4.8290     5.0540    24.0550  -999.2500  -999.2500   -35.4200 
  106.7500    90.0320     6.2310     4.9710     5.3060    24.2360  -999.2500  -999.2500   -35.5040 
  106.8750    84.2050     6.4860     5.1480     5.8120    24.2820  -999.2500  -999.2500   -35.5510 
  107.0000    79.7820     6.6030     5.2720     6.3100    24.2740  -999.2500  -999.2500   -35.6080 
  107.1250    84.0230     6.4310     5.2390     6.3350    24.2690   418.7880  -999.2500   -35.6960 
  107.2500    91.9850     6.0410     5.0630     5.9080    24.2680   418.7880  -999.2500   -35.7570 
  107.3750    96.8690     5.5700     4.8070     5.2830    24.2680   419.6070  -999.2500   -35.7860 
  107.5000    97.5400     5.1830     4.5610     4.8780    24.2610   421.9390  -999.2500   -35.8280 
  107.6250    95.1820     5.0440     4.4220     4.8240    24.2300   423.7960  -999.2500   -35.8990 
  107.7500    89.1350     5.1590     4.4100     5.0590    24.1630   424.3410     0.0000   -35.9890 
  107.8750    81.2200     5.4930     4.5230     5.3900    24.0790   424.9150     0.0000   -36.0880 
  108.0000    77.4170     5.9750     4.7440     5.7460    24.0290   426.8150     0.0000   -36.1750 
  108.1250    79.4910     6.5120     5.0570     6.1120    24.0340   429.3640     2.2110   -36.3100 
  108.2500    83.2900     6.9990     5.4080     6.6600    24.0810   426.0740     2.2110   -36.5510 
  108.3750    85.8470     7.3780     5.7500     7.4230    24.1190   410.4650     2.2340   -36.8190 
  108.5000    86.2880     7.6210     6.0340     8.2650    24.1350   383.4720     2.2710   -37.0360 
  108.6250    84.4760     7.7130     6.2000     8.9370    24.1370   363.0970     2.3030   -37.2450 
  108.7500    83.7640     7.7120     6.2600     9.0720    24.0890   365.8920     2.3090   -37.5090 
  108.8750    85.6970     7.6830     6.2510     8.6790    23.9740   387.9030     2.2880   -37.7870 
  109.0000    88.1170     7.7070     6.2380     8.6190    23.8240   411.1720     2.2520   -38.0610 
  109.1250    85.9810     7.8820     6.3110     8.9250    23.7450   420.2880     2.2230   -38.3240 
  109.2500    80.0750     8.2140     6.5050     9.3350    23.6560   420.7840     2.2130   -38.5530 
  109.3750    75.4350     8.6620     6.8110     9.8650    23.5230   418.3030     2.2210   -38.7500 
  109.5000    75.7430     9.1390     7.1790    10.6890    23.4550   410.1130     2.2340   -38.9650 
  109.6250    78.6500     9.5110     7.5100    11.7030    23.5680   394.2330     2.2350   -39.1710 
  109.7500    77.5920     9.7060     7.7280    12.6110    23.6890   381.4430     2.2210   -39.2880 
  109.8750    72.9900     9.6980     7.7930    12.7730    23.7210   382.8650     2.1940   -39.3550 
