~V
VERS. 2.00: Ver 2.00
~W
STRT.M 56.0000:
STOP.M 209.0000:
STEP.M 0.1250:
NULL. -999.2500:
UWI. DF316:
~C
DEPT.M :
GR.API :
CALI.CM :
RXO.OHMM :
RI. :
RML.OHMM :
SP.MV :
DEN.GM/CC :
AC.US/MT :
~A
# ...
  136.0000    53.0990    22.4860    33.3700    31.2630    34.6220   -12.7010     2.4940   229.1410 
  136.1250    57.0220    22.4240    33.2890    29.2070    32.6060   -12.7340     2.5130   234.5910 
  136.2500    58.9410    22.3810    32.2300    27.2510    30.5560   -12.7570     2.5380   235.6050 
  136.3750    57.5730    22.3240    28.5120    25.5570    28.7940   -12.7950     2.5550   236.9520 
  136.5000    56.9060    22.2270    24.7890    24.0240    27.3680   -12.8380     2.5570   242.8540 
  136.6250    55.7570    22.2040    23.2660    22.8330    26.4360   -12.8870     2.5480   250.9460 
  136.7500    52.8820    22.1860    23.4270    22.0840    26.0340   -12.9530     2.5370   257.0970 
  136.8750    51.3210    22.0750    27.8860    21.9520    26.1010   -13.0300     2.5300   258.8200 
  137.0000    51.3960    21.9910    31.4720    22.0500    26.5380   -13.1200     2.5280   257.4910 
  137.1250    50.1830    21.9660    30.4820    22.4440    27.2090   -13.2160     2.5380   255.3950 
  137.2500    47.1640    21.9290    26.6610    23.1390    28.0330   -13.3120     2.5560   254.5590 
  137.3750    46.5270    21.9510    26.8550    23.7940    28.8440   -13.4030     2.5670   253.3840 
  137.5000    47.9400    22.1390    33.4970    24.3460    29.2530   -13.4930     2.5580   248.8490 
  137.6250    48.7540    22.8620    37.9450    24.4560    29.0930   -13.5840     2.5340   241.9080 
  137.7500    48.5710    23.9230    35.6820    23.9150    28.0840   -13.6620     2.5190   237.6840 
  137.8750    47.9330    24.2080    36.6490    22.9280    26.3470   -13.7260     2.5200   237.4820 
  138.0000    47.6720    24.1020    36.6240    21.6070    24.1690   -13.7840     2.5310   237.0850 
  138.1250    48.5690    24.0880    28.9230    20.1350    22.0290   -13.8250     2.5430   236.1370 
  138.2500    50.6350    24.1800    19.0790    18.7590    20.2200   -13.8540     2.5520   238.4950 
  138.3750    52.3890    24.2110    15.0900    18.0580    19.3230   -13.8730     2.5500   248.6300 
  138.5000    52.8460    24.2640    14.7190    17.8530    19.1870   -13.8800     2.5330   262.4330 
  138.6250    52.3700    24.1840    15.2980    18.0070    19.7040   -13.8700     2.5010   274.3140 
  138.7500    51.8590    24.1220    17.2030    18.4780    20.4890   -13.8460     2.4700   278.1780 
  138.8750    50.6840    24.1170    19.9160    18.9230    21.1900   -13.8120     2.4450   269.7760 
  139.0000    47.2600    24.0300    20.7380    19.1880    21.4520   -13.7650     2.4270   258.2890 
  139.1250    44.0850    24.0390    18.3140    19.0170    21.2380   -13.7140     2.4130   252.6100 
  139.2500    45.2620    23.9930    14.2360    18.5310    20.6140   -13.6660     2.4050   255.9560 
  139.3750    49.3840    23.6940    12.6610    17.8400    19.7920   -13.6140     2.4050   264.0680 
  139.5000    50.5720    23.4300    11.9860    17.2280    18.9840   -13.5660     2.4130   270.2610 
  139.6250    49.5540    23.3050    10.9690    16.8280    18.4830   -13.5180     2.4270   272.4010 
  139.7500    50.9770    23.1640    10.4980    16.5090    18.4500   -13.4610     2.4350   272.8290 
  139.8750    54.0890    23.1710    10.5150    16.5840    18.8970   -13.3900     2.4320   273.5580 
  140.0000    56.3920    23.3460    11.2290    16.9830    19.5470   -13.3120     2.4230   272.9820 
  140.1250    58.5430    23.7640    12.3500    17.5040    20.2080   -13.2340     2.4250   270.1090 
  140.2500    59.2320    23.9120    13.2340    18.0080    20.8150   -13.1580     2.4430   267.0470 
  140.3750    55.6850    23.6240    12.1190    18.2090    21.2080   -13.0810     2.4740   265.7090 
  140.5000    49.4650    23.3130    10.7420    18.3950    21.2990   -12.9980     2.5120   263.7850 
  140.6250    46.2850    23.1890    11.3430    18.2750    20.8490   -12.9240     2.5470   261.1720 
  140.7500    47.5100    23.3840    13.8990    17.7560    19.9620   -12.8720     2.5660   259.4980 
  140.8750    50.2690    23.5070    14.6160    16.7870    18.6780   -12.8510     2.5620   262.3700 
  141.0000    52.3640    23.6960    13.5220    15.5760    17.3940   -12.8590     2.5350   271.6800 
  141.1250    54.4090    23.7590    12.0850    14.5220    16.2610   -12.8900     2.4860   285.7850 
  141.2500    56.1130    23.7290    10.5280    13.6300    15.4280   -12.9320     2.4350   299.0400 
  141.3750    55.6340    23.6730     9.0590    12.9410    14.9430   -12.9950     2.4000   304.7440 
  141.5000    54.2900    23.5470     9.2330    12.5450    14.8690   -13.0770     2.3970   304.6550 
  141.6250    54.9810    23.5980    11.1650    12.4440    15.1780   -13.1660     2.4200   303.2160 
  141.7500    56.6670    23.9700    12.7540    12.7610    15.7630   -13.2690     2.4390   302.2980 
  141.8750    55.7190    24.0310    13.0730    13.2950    16.5070   -13.3870     2.4390   302.0280 
  142.0000    54.0670    24.0700    13.9640    13.8770    17.2800   -13.5000     2.4260   300.0820 
  142.1250    54.3970    24.1510    16.0130    14.4020    17.8250   -13.6000     2.4150   295.7220 
  142.2500    56.3740    24.1500    17.1570    14.8310    18.2170   -13.6920     2.4120   289.5500 
  142.3750    58.0830    24.0620    17.1330    15.2150    18.4700   -13.7720     2.4210   282.9760 
  142.5000    59.0980    24.0400    17.3800    15.3490    18.5920   -13.8540     2.4390   278.2060 
  142.6250    60.1760    24.0300    18.1870    15.4530    18.5720   -13.9360     2.4530   277.3120 
  142.7500    61.1270    24.0420    17.6000    15.6610    18.5060   -14.0040     2.4520   281.9610 
  142.8750    61.1450    24.0380    15.5770    15.8820    18.5920   -14.0490     2.4410   288.6280 
  143.0000    60.2840    24.0110    15.2720    16.2090    18.6970   -14.0760     2.4340   289.5610 
  143.1250    59.3730    24.0240    16.5550    16.5560    18.9560   -14.0980     2.4430   284.3890 
  143.2500    60.0750    24.0310    17.7270    16.9280    19.1540   -14.1190     2.4570   277.7870 
  143.3750    62.7090    24.0200    17.9950    17.1230    19.3100   -14.1310     2.4680   273.9620 
  143.5000    64.0030    23.9990    18.5420    17.2360    19.3730   -14.1170     2.4780   271.1210 
  143.6250    61.2640    24.0140    18.9990    17.1640    19.3710   -14.0810     2.4920   268.8410 
  143.7500    57.1400    23.9290    18.0130    16.8250    19.1640   -14.0120     2.5030   269.9700 
  143.8750    55.1810    23.9150    15.9750    16.4830    18.9560   -13.9200     2.5050   276.3650 
  144.0000    54.7560    23.9210    14.9490    16.0820    18.7800   -13.8220     2.4990   281.2510 
  144.1250    52.6570    24.0000    15.3450    15.7130    18.7080   -13.7240     2.4890   280.2330 
  144.2500    49.2040    24.0310    16.2110    15.5260    18.7920   -13.6190     2.4750   275.5350 
  144.3750    48.7490    23.9930    17.3750    15.7070    19.3400   -13.4900     2.4600   274.2950 
  144.5000    51.2360    23.9200    18.0640    16.1010    20.0730   -13.3590     2.4490   275.9850 
  144.6250    55.4200    23.9100    17.5170    16.6020    20.9310   -13.2280     2.4480   277.6470 
  144.7500    60.1400    23.9410    16.8270    17.2530    21.7190   -13.1070     2.4530   278.7190 
  144.8750    63.1450    23.9070    18.2250    17.7390    22.2920   -13.0070     2.4620   279.0350 
  145.0000    62.5400    23.8980    20.3880    17.9680    22.3980   -12.9130     2.4760   276.6190 
  145.1250    59.5390    23.8740    22.7650    17.9360    22.0080   -12.8160     2.4900   271.5810 
  145.2500    57.6710    23.6930    23.2640    17.5820    21.1370   -12.7180     2.4950   267.7180 
  145.3750    56.0870    23.8520    20.7770    17.2110    19.9940   -12.6510     2.4930   270.1890 
  145.5000    51.8950    23.8440    16.4390    16.9230    18.9420   -12.5920     2.4870   278.7050 
  145.6250    47.8870    23.6870    14.8290    16.6820    18.2200   -12.5470     2.4790   288.8940 
  145.7500    47.8090    23.6210    14.5330    16.4240    17.7430   -12.5220     2.4610   295.1470 
  145.8750    48.8260    23.6730    14.3280    16.2970    17.4350   -12.4910     2.4320   296.2270 
