~V
VERS. 2.00: Ver 2.00
~W
STRT.M 57.0000:
STOP.M 261.0000:
STEP.M 0.1250:
NULL. -999.2500:
UWI. DF317:
~C
DEPT.M :
DEN.GM/CC :
SP.MV :
AC.US/MT :
GR.API :
CALI.CM :
RXO.OHMM :
RI. :
RML.OHMM :
~A
# ...
  117.0000     2.3900    -7.8260   401.0430   100.2220    24.0990     5.4130     5.7880     7.9710 
  117.1250     2.3910    -7.6620   388.4550    99.3370    24.1940     6.2480     5.8740     8.2270 
  117.2500     2.3780    -7.4950   394.5200    98.2890    24.1610     6.6370     6.2040     8.7020 
  117.3750     2.3580    -7.3410   406.1480    96.0740    24.1750     6.4660     6.6070     9.1710 
  117.5000     2.3410    -7.2190   414.5260    94.7050    24.1500     6.2140     6.9430     9.4350 
  117.6250     2.3250    -7.1190   418.4520    95.5540    24.1980     6.1350     7.1190     9.4370 
  117.7500     2.3030    -7.0090   421.7640    97.5480    24.1200     6.2250     7.1160     9.2160 
  117.8750     2.2850    -6.9180   425.9990    98.9520    24.0560     6.4370     6.9940     8.8810 
  118.0000     2.2860    -6.8260   431.1410    98.0070    23.9080     6.4970     6.7720     8.4610 
  118.1250     2.3070    -6.7470   435.5730    96.4590    23.9170     6.2050     6.4750     7.9990 
  118.2500     2.3340    -6.6830   437.0140    98.6490    24.0860     5.7350     6.1510     7.5600 
  118.3750     2.3540    -6.6430   436.0490   105.7620    24.1400     5.4550     5.8510     7.1930 
  118.5000     2.3660    -6.6130   435.3380   114.2260    24.1770     5.4180     5.6040     6.9340 
  118.6250     2.3690    -6.5880   438.3390   117.8670    24.1530     5.4720     5.4380     6.8070 
  118.7500     2.3580    -6.5850   444.9660   114.7990    24.2010     5.4400     5.3810     6.8210 
  118.8750     2.3410    -6.6090   448.8990   109.7270    24.1570     5.2630     5.4210     6.9540 
  119.0000     2.3270    -6.6520   446.3750   107.1110    24.1760     5.1930     5.5480     7.1740 
  119.1250     2.3210    -6.6980   439.0830   106.4780    24.1330     5.2750     5.7310     7.4380 
  119.2500     2.3190    -6.7480   433.7830   104.9210    24.1990     5.6240     5.9490     7.7390 
  119.3750     2.3150    -6.7770   433.4420   103.3530    24.1550     5.8230     6.1510     8.0180 
  119.5000     2.3110    -6.7970   435.6490   103.5030    24.1720     5.9230     6.3130     8.2350 
  119.6250     2.3120    -6.8260   437.0190   104.0030    24.0930     6.0590     6.4200     8.3810 
  119.7500     2.3210    -6.8720   435.7030   102.7990    24.1680     6.1420     6.4750     8.4740 
  119.8750     2.3310    -6.9080   434.0520   100.7680    24.1380     6.1570     6.5120     8.5490 
  120.0000     2.3390    -6.9220   434.1410    99.7800    24.1120     6.2150     6.5570     8.6420 
  120.1250     2.3400    -6.9420   435.7010    98.7130    24.0920     6.1840     6.6290     8.7860 
  120.2500     2.3290    -6.9710   436.3750    96.9020    24.1470     6.1090     6.7440     8.9910 
  120.3750     2.3090    -7.0120   435.3630    96.4270    23.9740     6.1780     6.9000     9.2370 
  120.5000     2.2880    -7.0940   433.9480    97.5090    23.9200     6.4950     7.1190     9.5880 
  120.6250     2.2720    -7.1740   434.3310    97.5070    23.8940     6.7370     7.4580    10.1520 
  120.7500     2.2610    -7.2410   438.1110    94.2640    23.7970     6.8140     8.0500    11.1400 
  120.8750     2.2500    -7.3020   442.3420    90.3820    23.8090     6.8940     8.9260    12.5820 
  121.0000     2.2500    -7.3670   438.5760    86.7140    23.7900     7.3320    10.1250    14.4660 
  121.1250     2.2720    -7.4120   419.3110    82.1500    23.6780     8.3320    11.6140    16.6440 
  121.2500     2.3060    -7.4300   388.4960    78.1060    23.8260    10.8110    13.2440    18.7860 
  121.3750     2.3230    -7.4510   369.1670    76.8900    23.9030    15.1960    14.7160    20.5320 
  121.5000     2.3060    -7.4450   376.4180    77.2870    23.8240    19.1510    15.8170    21.6900 
  121.6250     2.2640    -7.4240   404.5030    77.0540    23.5670    18.4310    16.4710    22.2510 
  121.7500     2.2310    -7.3860   429.3760    78.3560    23.2730    14.2570    16.7750    22.4250 
  121.8750     2.2300    -7.3540   437.2560    83.0200    23.3270    10.9900    17.0610    22.6800 
  122.0000     2.2620    -7.3310   427.4460    86.0960    23.4870     9.9080    17.4730    23.2040 
  122.1250     2.3060    -7.3200   403.9240    82.3240    23.5470    10.5550    18.0630    24.0270 
  122.2500     2.3300    -7.3380   377.2160    75.9490    23.4150    12.1260    18.7990    25.0050 
  122.3750     2.3210    -7.3690   369.2170    74.0640    23.4020    14.0830    19.5020    25.8420 
  122.5000     2.2830    -7.3900   389.3140    75.3420    23.0820    15.2890    20.0100    26.3400 
  122.6250     2.2350    -7.4120   422.8450    75.2990    22.9190    14.8360    20.2660    26.5130 
  122.7500     2.2000    -7.4530   443.5150    71.6650    23.1580    13.2840    20.3590    26.5650 
  122.8750     2.1840    -7.5060   448.5500    68.1340    23.5180    12.4360    20.5000    26.7740 
  123.0000     2.1840    -7.5640   447.6450    68.8440    23.5820    13.1760    20.8180    27.2940 
  123.1250     2.1890    -7.6310   447.8350    72.9950    23.6010    14.4410    21.3560    28.1290 
  123.2500     2.1850    -7.6820   448.2010    74.7210    23.6880    15.4770    22.0980    29.2140 
  123.3750     2.1750    -7.7230   448.5980    72.7970    23.9670    16.2090    22.8800    30.2860 
  123.5000     2.1650    -7.7730   448.3410    73.5300    24.0410    17.2380    23.5530    31.1360 
  123.6250     2.1590    -7.8390   446.6450    77.2020    24.0530    17.9410    24.0250    31.6610 
  123.7500     2.1550    -7.9060   444.9080    76.7140    24.0310    17.9690    24.2260    31.8070 
  123.8750     2.1510    -7.9820   444.9100    71.4280    24.0530    17.8380    24.2800    31.7510 
  124.0000     2.1490    -8.0810   445.7360    67.3860    24.0200    17.8930    24.2310    31.5430 
  124.1250     2.1530    -8.1740   445.5660    68.8160    24.0010    17.5140    24.1000    31.2330 
  124.2500     2.1610    -8.2900   444.0840    71.7640    24.0060    17.2950    23.8800    30.8080 
  124.3750     2.1660    -8.4090   443.1070    71.6890    24.0030    17.1400    23.5990    30.2880 
  124.5000     2.1660    -8.5280   443.5660    69.6970    23.9430    16.7750    23.2510    29.6730 
  124.6250     2.1630    -8.6440   445.7220    69.2030    23.7760    16.3900    22.8380    28.9680 
  124.7500     2.1610    -8.7470   449.1910    72.2040    23.9800    16.2870    22.3930    28.2320 
  124.8750     2.1620    -8.8300   451.5420    74.3920    23.9920    16.2470    21.9530    27.5050 
  125.0000     2.1630    -8.9030   451.3600    75.0930    24.0110    15.8660    21.5580    26.8790 
  125.1250     2.1620    -8.9670   449.4570    76.9690    24.0100    15.0580    21.2640    26.4250 
  125.2500     2.1610    -9.0250   448.3040    78.5480    24.0330    14.3690    21.0850    26.1440 
  125.3750     2.1650    -9.0680   447.8280    75.7200    23.8660    14.5230    20.9670    25.9520 
  125.5000     2.1730    -9.1150   445.8960    70.7350    23.8260    15.2690    20.8000    25.6680 
  125.6250     2.1840    -9.1810   442.3620    68.1700    23.5140    15.5650    20.4190    25.0780 
  125.7500     2.1930    -9.2640   440.2990    69.3290    23.7240    14.9030    19.6450    23.9720 
  125.8750     2.1940    -9.3420   441.1600    71.9400    23.7250    14.2920    18.6440    22.6010 
  126.0000     2.1930    -9.4060   442.9600    76.6050    23.7100    13.7270    17.6050    21.2170 
  126.1250     2.1940    -9.4790   442.6920    83.1260    23.6710    12.7010    16.7330    20.1190 
  126.2500     2.2000    -9.5310   439.2250    87.0930    23.6000    11.0050    16.3500    19.7930 
  126.3750     2.2010    -9.5740   436.0050    86.5870    23.5670     9.6540    16.5440    20.2270 
  126.5000     2.1960    -9.5980   436.6490    81.7520    23.5680     9.0790    17.2880    21.3280 
  126.6250     2.1910    -9.6140   441.4440    74.0690    23.4670    10.8910    18.4890    22.9010 
  126.7500     2.1910    -9.6520   446.8310    69.3400    23.5910    13.7590    19.9330    24.5530 
  126.8750     2.1870    -9.7300   449.6610    69.4960    23.6080    16.2840    21.1740    25.8010 
