~V
VERS. 2.00: Ver 2.00
~W
STRT.M 57.0000:
STOP.M 261.0000:
STEP.M 0.1250:
NULL. -999.2500:
UWI. DF317:
~C
DEPT.M :
DEN.GM/CC :
SP.MV :
AC.US/MT :
GR.API :
CALI.CM :
RXO.OHMM :
RI. :
RML.OHMM :
~A
# ...
   67.0000  -999.2500   -16.6090   444.7250    91.4890    24.1970     5.1910     5.7540     5.5100 
   67.1250  -999.2500   -16.8060   445.1830    90.4670    24.1760     5.4280     6.0590     5.8190 
   67.2500  -999.2500   -16.9570   451.5910    90.0570    24.1760     5.4180     6.2200     6.0220 
   67.3750  -999.2500   -17.1010   456.7040    91.8320    24.1360     5.3910     6.2240     6.1290 
   67.5000  -999.2500   -17.2510   457.4580    94.8890    24.0460     5.6320     6.0790     6.1460 
   67.6250  -999.2500   -17.3670   455.3560    97.4070    23.9550     5.8140     5.8090     6.0310 
   67.7500  -999.2500   -17.4920   454.2470    98.9530    24.1200     5.4320     5.4480     5.7890 
   67.8750  -999.2500   -17.6600   455.4510   100.6090    24.2320     4.9840     5.1170     5.5690 
   68.0000  -999.2500   -17.8230   457.9870   100.5400    24.2340     4.7140     4.9260     5.5090 
   68.1250  -999.2500   -18.0010   460.4680    96.1740    24.2150     4.5990     4.9610     5.7240 
   68.2500  -999.2500   -18.2130   459.4440    88.4850    24.1510     4.5240     5.3740     6.3800 
   68.3750  -999.2500   -18.4220   447.2140    82.0890    24.2340     4.7500     6.1890     7.4900 
   68.5000  -999.2500   -18.6400   413.5230    76.8240    24.2150     5.3820     7.4120     9.0550 
   68.6250  -999.2500   -18.8740   354.3950    70.7840    24.2010     6.5720     8.9250    10.9420 
   68.7500  -999.2500   -19.0890   281.1860    66.1240    24.1030    10.7010    10.4470    12.7730 
   68.8750  -999.2500   -19.2820   221.9650    66.2030    24.2850    15.1870    11.5360    13.9330 
   69.0000  -999.2500   -19.4710   198.5740    71.4470    24.4360    15.7560    11.8790    14.0830 
   69.1250  -999.2500   -19.6420   222.0710    78.4160    24.4370    12.1540    11.4600    13.3330 
   69.2500  -999.2500   -19.7640   290.1560    80.7280    24.5080     8.7440    10.4720    12.1080 
   69.3750  -999.2500   -19.8490   367.0980    79.6300    24.4880     7.3420     9.3890    10.9280 
   69.5000  -999.2500   -19.9210   424.6000    78.4520    24.3190     6.9440     8.4570    10.0490 
   69.6250  -999.2500   -19.9720   451.9480    78.3600    24.1770     6.7190     7.8080     9.5360 
   69.7500  -999.2500   -19.9750   457.5100    78.1080    24.1810     6.6310     7.4820     9.3890 
   69.8750  -999.2500   -19.9500   460.4810    77.3090    24.1600     6.6810     7.3660     9.4030 
   70.0000  -999.2500   -19.9120   463.8940    77.3420    24.1630     6.7220     7.3630     9.4760 
   70.1250  -999.2500   -19.8500   464.9120    77.8820    24.2160     6.7530     7.3790     9.5320 
   70.2500  -999.2500   -19.7630   461.5950    80.4910    24.2730     6.7900     7.3830     9.5460 
   70.3750  -999.2500   -19.6970   456.7660    85.1640    24.3780     6.7600     7.3760     9.5530 
   70.5000  -999.2500   -19.6270   453.3510    87.4450    24.2830     6.6310     7.3670     9.5720 
   70.6250  -999.2500   -19.5450   452.7020    87.4950    24.2500     6.6610     7.3680     9.5870 
   70.7500  -999.2500   -19.4790   453.8810    88.6450    24.2220     6.9110     7.3820     9.6270 
   70.8750  -999.2500   -19.4290   454.3890    89.3040    24.1980     7.0910     7.4110     9.6750 
   71.0000  -999.2500   -19.3740   453.4260    85.7500    24.1650     6.9540     7.4440     9.7180 
   71.1250  -999.2500   -19.3130   452.5210    78.1260    24.1740     6.7050     7.4720     9.7540 
   71.2500  -999.2500   -19.2930   453.4860    73.8910    24.1640     6.6680     7.4970     9.7550 
   71.3750  -999.2500   -19.2790   455.8200    74.6690    24.1850     6.7000     7.5090     9.7780 
   71.5000  -999.2500   -19.2470   458.3370    77.3910    24.2280     6.7410     7.5210     9.8270 
   71.6250  -999.2500   -19.2090   460.4340    77.5320    24.1780     6.7490     7.5440     9.9200 
   71.7500  -999.2500   -19.1680   461.4520    72.8420    24.1260     6.7510     7.6050    10.0500 
   71.8750  -999.2500   -19.1110   460.8310    66.5510    24.1670     6.6910     7.6860    10.1620 
   72.0000  -999.2500   -19.0460   459.0350    62.3090    24.2370     6.6160     7.7330    10.1920 
   72.1250  -999.2500   -18.9710   457.5410    62.9090    24.2120     6.6180     7.6980    10.0880 
   72.2500  -999.2500   -18.8670   458.2450    69.6880    24.1060     6.6160     7.5710     9.8110 
   72.3750  -999.2500   -18.7420   460.4640    77.0280    23.9170     6.6120     7.3740     9.4280 
   72.5000  -999.2500   -18.6170   463.6210    82.1950    23.8630     6.5650     7.1130     8.9940 
   72.6250  -999.2500   -18.4830   466.9740    86.9780    23.8840     6.3250     6.8330     8.6200 
   72.7500  -999.2500   -18.3350   461.5580    92.2550    23.7900     5.7860     6.5750     8.3840 
   72.8750  -999.2500   -18.2060   440.8180    96.0750    23.8650     5.4010     6.3780     8.2830 
   73.0000  -999.2500   -18.0900   410.4480    98.6140    23.9030     5.3090     6.2440     8.2740 
   73.1250  -999.2500   -18.0010   388.9530   100.5040    23.9210     5.3780     6.1420     8.2990 
   73.2500  -999.2500   -17.9360   394.5050   100.6420    23.9030     5.3460     6.0120     8.2440 
   73.3750  -999.2500   -17.8980   414.5880    99.7650    23.8630     5.3150     5.8180     8.0590 
   73.5000  -999.2500   -17.9100   433.5880    99.5510    23.7440     5.3270     5.5950     7.7770 
   73.6250  -999.2500   -17.9460   444.4370    99.8670    23.6170     5.3400     5.3880     7.5080 
   73.7500  -999.2500   -18.0230   450.8170   101.8360    23.6440     5.0330     5.2730     7.3950 
   73.8750  -999.2500   -18.1410   457.1280   106.2590    23.7640     4.8180     5.3040     7.5160 
   74.0000  -999.2500   -18.2830   454.6220   109.1830    23.7910     4.6840     5.5120     7.9080 
   74.1250  -999.2500   -18.4400   427.3430   105.9300    23.8770     4.6790     5.8940     8.5370 
   74.2500  -999.2500   -18.6080   367.4660    97.6640    23.8090     5.1620     6.3980     9.2880 
   74.3750  -999.2500   -18.7700   312.2730    91.6190    23.8390     5.9450     6.9020    10.0070 
   74.5000  -999.2500   -18.8990   301.3790    89.1100    23.9590     6.9090     7.3110    10.5580 
   74.6250  -999.2500   -19.0260   343.3630    86.3290    24.1210     7.2330     7.5420    10.8380 
   74.7500  -999.2500   -19.1300   403.4550    81.1050    23.9120     6.9490     7.5510    10.8140 
   74.8750  -999.2500   -19.1750   442.7580    74.6810    23.9460     6.3380     7.4170    10.6070 
   75.0000  -999.2500   -19.1750   453.9100    69.5430    23.9290     6.1180     7.1890    10.2860 
   75.1250  -999.2500   -19.1180   449.9990    67.6300    23.9140     6.0620     6.9280     9.9400 
   75.2500  -999.2500   -19.0260   449.9560    68.9260    23.9250     6.0640     6.7450     9.7440 
   75.3750  -999.2500   -18.9220   458.8510    71.3160    23.9840     6.1020     6.7390     9.8430 
   75.5000  -999.2500   -18.7910   469.5190    71.9590    24.1440     6.1270     7.0050    10.4090 
   75.6250  -999.2500   -18.6360   467.8790    69.3810    24.1500     6.0970     7.6240    11.5570 
   75.7500  -999.2500   -18.4500   435.6380    66.4000    24.1720     6.1740     8.6480    13.3020 
   75.8750  -999.2500   -18.2480   371.1390    67.4240    24.1990     7.0240     9.9150    15.2650 
   76.0000  -999.2500   -18.0380   288.1720    71.3830    24.3610    11.0400    11.1930    17.0380 
   76.1250  -999.2500   -17.8370   220.5560    73.3010    24.2410    18.3140    12.1210    18.1000 
   76.2500  -999.2500   -17.6610   210.9030    74.3750    24.1120    23.7050    12.1930    17.8130 
   76.3750  -999.2500   -17.4980   256.6590    78.3040    24.1090    23.5220    11.5310    16.5090 
   76.5000  -999.2500   -17.3620   334.2600    81.2910    24.1230    17.6380    10.4100    14.6400 
   76.6250  -999.2500   -17.2330   407.7230    80.2000    24.0010    10.0340     9.1580    12.6980 
   76.7500  -999.2500   -17.1090   446.7080    76.9430    23.9310     6.1260     8.1170    11.2420 
   76.8750  -999.2500   -16.9790   459.2900    75.7090    23.8850     5.8560     7.3640    10.3110 
