~V
VERS. 2.00: Ver 2.00
~W
STRT.M 60.0000:
STOP.M 248.0000:
STEP.M 0.1250:
NULL. -999.2500:
UWI. DF313:
~C
DEPT.M :
DEN.GM/CC :
SP.MV :
AC.US/MT :
GR.API :
CALI.CM :
RXO.OHMM :
RI. :
RML.OHMM :
~A
# ...
  130.0000     2.1590   -12.9810   412.8250    60.3650    23.9880    33.2040    25.0630    28.4390 
  130.1250     2.1820   -12.8590   415.8050    66.6510    24.0130    26.6490    23.3110    26.1820 
  130.2500     2.2110   -12.7920   420.6250    74.3510    24.3180    21.7960    20.6780    22.9850 
  130.3750     2.2440   -12.8250   426.7960    77.1200    24.7290    20.1500    17.5960    19.3320 
  130.5000     2.2750   -12.9270   433.0500    78.7390    24.9480    18.3370    14.4580    15.6680 
  130.6250     2.2990   -13.0420   437.8830    82.8480    24.8820    14.2070    11.6290    12.3960 
  130.7500     2.3210   -13.1870   440.0730    87.1790    24.7360     9.6840     9.4320     9.8720 
  130.8750     2.3380   -13.3740   438.5450    89.4070    24.7020     7.2240     7.8360     8.0630 
  131.0000     2.3420   -13.5940   431.7300    91.4780    24.7370     6.5530     6.8420     7.0150 
  131.1250     2.3190   -13.8230   420.4700    93.1770    24.7480     6.7220     6.4690     6.8090 
  131.2500     2.2760   -14.0440   406.0980    88.9440    24.6990     7.6030     6.9080     7.7490 
  131.3750     2.2270   -14.2530   391.1580    80.2170    24.6690     9.9800     8.2020     9.8670 
  131.5000     2.1860   -14.4340   379.9650    70.3580    24.7430    15.5930    10.5680    13.3490 
  131.6250     2.1610   -14.6030   375.3760    61.2390    24.8580    27.4130    14.1750    18.2350 
  131.7500     2.1480   -14.7440   378.8290    54.3880    24.7820    45.7870    18.8910    24.0780 
  131.8750     2.1440   -14.8530   389.7570    53.1330    24.5430    56.3470    23.4300    29.2840 
  132.0000     2.1410   -14.9220   405.8900    55.9690    24.3400    51.6950    26.5790    32.5370 
  132.1250     2.1360   -14.9450   422.2040    56.8620    24.2510    39.8550    27.9440    33.6560 
  132.2500     2.1340   -14.9150   435.1700    55.2790    24.1720    34.1250    28.0660    33.6540 
  132.3750     2.1480   -14.8500   442.4480    54.3950    24.0090    33.7660    28.0180    33.8770 
  132.5000     2.1730   -14.7860   442.4050    55.6580    23.7790    34.7150    28.1850    34.7070 
  132.6250     2.1880   -14.7380   437.4930    57.6920    23.6200    35.4670    28.6220    36.0630 
  132.7500     2.1840   -14.7390   430.3150    59.3910    23.7450    37.2040    29.2550    37.6730 
  132.8750     2.1740   -14.7890   424.2280    60.5450    24.1050    39.1630    29.9170    39.1960 
  133.0000     2.1690   -14.8670   423.9530    59.1700    24.4830    39.3980    30.4950    40.4310 
  133.1250     2.1660   -14.9630   431.3190    55.5790    24.7080    37.8660    30.8860    41.2110 
  133.2500     2.1600   -15.0560   446.3630    52.3040    24.7850    36.3070    30.9230    41.2400 
  133.3750     2.1550   -15.1010   466.4960    52.7490    24.7980    35.1350    30.5770    40.5230 
  133.5000     2.1620   -15.0810   486.0030    56.0420    24.7880    33.7230    29.8620    39.1620 
  133.6250     2.1800   -15.0180   498.7920    58.6620    24.7690    32.1230    28.8760    37.4170 
  133.7500     2.1900   -14.8720   501.2730    58.9510    24.7090    30.7710    27.7790    35.6200 
  133.8750     2.1840   -14.6280   492.8980    57.3740    24.6470    29.3350    26.7770    34.0620 
  134.0000     2.1730   -14.3240   475.5650    55.7820    24.6090    27.6530    26.0090    32.9040 
  134.1250     2.1700   -14.0240   455.7570    55.7700    24.6000    26.1480    25.5100    32.1530 
  134.2500     2.1780   -13.7370   437.6590    58.5690    24.6280    25.2010    25.1380    31.5820 
  134.3750     2.2000   -13.4840   423.7120    62.9650    24.6850    23.6310    24.5390    30.7090 
  134.5000     2.2310   -13.3040   414.9870    66.9830    24.7340    20.6250    23.3940    29.1230 
  134.6250     2.2510   -13.2070   409.5980    69.2870    24.7520    17.1070    21.5470    26.6440 
  134.7500     2.2520   -13.2020   406.4040    70.0160    24.7830    14.9110    19.1090    23.4540 
  134.8750     2.2450   -13.2640   404.7420    71.6080    24.8110    13.7310    16.6140    20.2650 
  135.0000     2.2400   -13.3860   404.6080    74.1770    24.7620    12.7200    14.4150    17.5440 
  135.1250     2.2330   -13.5240   405.6370    76.7710    24.6660    11.6910    12.6920    15.4970 
  135.2500     2.2190   -13.6580   407.5130    78.1720    24.6150    11.0400    11.5490    14.2060 
  135.3750     2.2040   -13.7710   409.8440    79.3310    24.5870    10.7570    10.8480    13.4590 
  135.5000     2.1970   -13.8420   412.3500    80.6200    24.5240    10.7040    10.5620    13.2280 
  135.6250     2.1970   -13.8410   414.8840    81.1700    24.4490    10.8810    10.7100    13.5760 
  135.7500     2.1910   -13.7880   417.3340    76.5970    24.4270    11.6410    11.4250    14.7190 
  135.8750     2.1790   -13.7400   419.4360    69.3730    24.4320    13.4900    12.6290    16.5090 
  136.0000     2.1660   -13.7070   420.6000    65.8290    24.4500    16.6030    14.1840    18.6800 
  136.1250     2.1590   -13.6820   420.5810    67.5640    24.5030    19.7810    15.7970    20.7740 
  136.2500     2.1560   -13.7130   419.3310    68.4010    24.6160    20.4710    17.0410    22.2560 
  136.3750     2.1620   -13.8320   417.1250    65.2700    24.6890    19.0220    17.8060    23.1450 
  136.5000     2.1880   -14.0190   414.4970    62.2540    24.6310    17.7730    18.1540    23.6160 
  136.6250     2.2330   -14.2560   412.1510    63.2110    24.4720    18.7860    18.1540    23.7570 
  136.7500     2.2700   -14.5130   410.4980    67.2050    24.3640    21.6050    17.6660    23.2410 
  136.8750     2.2860   -14.7560   409.7170    71.4860    24.3920    22.3740    16.6270    21.8430 
  137.0000     2.2850   -14.9620   409.8930    72.9070    24.5190    19.4430    15.1160    19.6730 
  137.1250     2.2720   -15.1160   410.6980    70.6940    24.6490    14.9300    13.4950    17.3590 
  137.2500     2.2510   -15.1870   411.9280    69.0240    24.6840    12.3410    12.3320    15.8900 
  137.3750     2.2210   -15.1920   413.3670    71.5180    24.6410    12.0030    11.8940    15.6960 
  137.5000     2.1910   -15.1370   414.7510    75.3760    24.6080    13.7080    12.3280    16.9370 
  137.6250     2.1750   -15.0300   415.9060    75.5180    24.6340    17.6280    13.7030    19.5610 
  137.7500     2.1770   -14.8990   416.8170    71.6640    24.6920    22.9900    16.0660    23.3540 
  137.8750     2.1880   -14.7680   417.5950    67.2860    24.7260    26.9910    18.8980    27.4050 
  138.0000     2.1940   -14.6690   418.3610    63.0310    24.7300    28.5820    21.6530    30.9310 
  138.1250     2.1860   -14.6100   419.0380    60.2870    24.7270    29.2050    23.8210    33.3710 
  138.2500     2.1720   -14.5620   419.3420    59.9730    24.7300    30.5620    24.9840    34.3670 
  138.3750     2.1620   -14.5090   418.9380    59.7930    24.7360    31.6160    25.3230    34.2870 
  138.5000     2.1640   -14.4690   417.5320    59.4870    24.7450    30.7540    25.0010    33.3490 
  138.6250     2.1800   -14.4450   415.5420    60.7930    24.7500    27.8770    24.2150    31.8160 
  138.7500     2.1920   -14.4040   413.5580    62.9160    24.7570    24.8750    23.2220    30.0970 
  138.8750     2.1900   -14.3380   412.2880    61.8690    24.7640    23.2560    22.3570    28.6900 
  139.0000     2.1730   -14.2310   412.5960    59.7210    24.7590    22.8070    21.7940    27.8200 
  139.1250     2.1540   -14.0910   414.5080    59.6170    24.7390    22.8780    21.5720    27.4780 
  139.2500     2.1480   -13.9600   417.8860    61.8270    24.7180    23.1830    21.6300    27.4720 
  139.3750     2.1570   -13.8590   422.3740    66.1870    24.6940    23.4340    21.6800    27.3220 
  139.5000     2.1710   -13.7810   427.5000    70.5270    24.6560    23.0200    21.3730    26.5300 
  139.6250     2.1890   -13.7370   432.4960    71.8560    24.5960    21.5820    20.3380    24.6660 
  139.7500     2.2250   -13.7270   436.7370    71.6180    24.5140    19.3820    18.2510    21.4750 
  139.8750     2.2790   -13.7340   439.7160    76.2690    24.4360    16.7470    15.5480    17.6670 
