~V
VERS. 2.00: Ver 2.00
~W
STRT.M 60.0000:
STOP.M 262.0000:
STEP.M 0.1250:
NULL. -999.2500:
UWI. DF319:
~C
DEPT.M :
GR.API :
RML.OHMM :
RI. :
RXO.OHMM :
CALI.CM :
AC.US/MT :
DEN.GM/CC :
SP.MV :
~A
# ...
  240.0000    83.6110    58.0660    55.6070    71.5030    24.1970   232.0540     2.4720   -19.0920 
  240.1250    81.6690    55.1870    52.8920    63.4560    24.1970   234.7330     2.4980   -19.0120 
  240.2500    77.7560    53.0300    50.6880    57.6740    24.1970   235.8930     2.5100   -18.9240 
  240.3750    75.5170    51.8410    49.4020    53.2280    24.1970   230.9640     2.5150   -18.8350 
  240.5000    77.5350    51.3240    48.9570    50.6540    24.1970   223.7470     2.5210   -18.7320 
  240.6250    83.5380    50.4910    48.6070    49.4650    24.1970   220.0060     2.5300   -18.6290 
  240.7500    87.5320    48.2200    47.1820    49.3250    24.1970   221.6980     2.5380   -18.5490 
  240.8750    86.1440    43.8830    43.8770    49.0570    24.1970   224.0560     2.5430   -18.4540 
  241.0000    80.6550    37.7820    38.6600    46.1570    24.1940   226.4230     2.5430   -18.3590 
  241.1250    74.6120    31.3490    32.5450    41.1380    24.1690   233.3140     2.5310   -18.2530 
  241.2500    67.2730    26.1590    27.1840    34.2900    24.1180   248.3270     2.5060   -18.1550 
  241.3750    57.2670    22.6780    23.2940    30.7350    24.0850   259.5600     2.4730   -18.0800 
  241.5000    46.5940    20.5840    20.8020    33.7670    24.1010   253.5280     2.4440   -18.0240 
  241.6250    40.8750    19.1510    19.1480    42.5880    24.1560   239.6540     2.4360   -18.0050 
  241.7500    41.9970    17.5120    17.4710    46.4630    24.1400   237.4110     2.4450   -17.9780 
  241.8750    49.2990    15.3480    15.4100    42.9450    24.0260   261.7500     2.4580   -17.9690 
  242.0000    59.0270    12.7820    12.9960    30.8870    23.8500   300.1800     2.4560   -17.9630 
  242.1250    66.5190    10.3210    10.6100    16.1370    23.7040   337.7760     2.4270   -17.9750 
  242.2500    69.4450     8.3890     8.6280     8.9000    23.7710   366.8490     2.3880   -17.9690 
  242.3750    68.2590     7.1040     7.1870     6.3050    23.9800   382.3530     2.3590   -17.9720 
  242.5000    64.2220     6.3870     6.2650     5.5960    24.1420   393.1040     2.3470   -17.9750 
  242.6250    60.5990     6.1420     5.8200     5.4900    24.1850   403.0200     2.3450   -17.9280 
  242.7500    59.0650     6.1360     5.6720     5.4720    24.1910   411.3560     2.3400   -17.9140 
  242.8750    59.0310     6.2860     5.7490     5.6080    24.1910   412.7000     2.3280   -17.9230 
  243.0000    61.4380     6.5410     5.9910     5.9830    24.1900   403.9780     2.3150   -17.9260 
  243.1250    68.1010     6.8560     6.3490     6.7360    24.1890   386.8850     2.3100   -17.9280 
  243.2500    75.4130     7.2460     6.7350     7.4950    24.1900   368.0720     2.3150   -17.9630 
  243.3750    78.0800     7.5530     7.0920     7.8560    24.1940   356.2640     2.3290   -17.9660 
  243.5000    77.0260     7.7730     7.3930     7.9580    24.2240   353.4620     2.3450   -17.9500 
  243.6250    76.9550     7.9890     7.6570     8.0010    24.3040   356.8410     2.3580   -17.9980 
  243.7500    78.6100     8.3240     7.9560     8.2840    24.4070   361.3580     2.3630   -18.0360 
  243.8750    79.9970     8.8230     8.3290     8.8810    24.4510   360.8730     2.3580   -18.0370 
  244.0000    81.3060     9.4100     8.7480     9.9040    24.4570   352.9540     2.3440   -18.0420 
  244.1250    83.9430     9.8430     9.0560    11.1930    24.4440   339.7260     2.3280   -18.0080 
  244.2500    86.5550     9.8930     9.0750    12.2530    24.4080   328.2220     2.3190   -17.9690 
  244.3750    86.8790     9.4270     8.6840    12.6100    24.3610   330.4290     2.3190   -17.9200 
  244.5000    84.0000     8.5090     7.8950    11.5370    24.3220   348.7940     2.3280   -17.8590 
  244.6250    77.9830     7.3490     6.8640     9.7140    24.2860   372.4670     2.3380   -17.7670 
  244.7500    71.0350     6.2950     5.8900     7.9930    24.2700   390.3570     2.3460   -17.6480 
  244.8750    65.0030     5.5170     5.1500     6.4670    24.2630   401.8340     2.3510   -17.5660 
  245.0000    61.6820     5.0600     4.7370     5.5500    24.2600   411.9950     2.3540   -17.4990 
  245.1250    61.6460     5.1200     4.7160     5.4400    24.2580   416.5870     2.3560   -17.4500 
  245.2500    63.4740     5.3970     4.9760     5.7380    24.2550   410.0170     2.3560   -17.4130 
  245.3750    66.6630     5.8110     5.4210     6.2860    24.2590   394.3020     2.3520   -17.4000 
  245.5000    70.6550     6.3280     5.9190     6.9730    24.2880   377.4960     2.3430   -17.4070 
  245.6250    73.1840     6.6940     6.2910     7.3840    24.3590   364.2110     2.3290   -17.3970 
  245.7500    72.7090     6.7870     6.4340     7.5220    24.4160   359.2110     2.3170   -17.3830 
  245.8750    69.3210     6.5970     6.3220     7.3200    24.4400   364.5570     2.3150   -17.3050 
  246.0000    64.5280     6.2070     6.0140     6.6800    24.4450   376.9960     2.3240   -17.2120 
  246.1250    60.9780     5.7720     5.6290     6.0940    24.4460   393.4140     2.3440   -17.1100 
  246.2500    59.1510     5.4330     5.3040     5.7360    24.4460   408.9090     2.3620   -16.9950 
  246.3750    58.5030     5.2500     5.1080     5.5010    24.4480   416.9560     2.3730   -16.8990 
  246.5000    58.9160     5.2310     5.0590     5.5010    24.4520   416.9520     2.3730   -16.8460 
  246.6250    62.1470     5.3570     5.1500     5.7620    24.4370   412.6080     2.3660   -16.7850 
  246.7500    66.6910     5.5470     5.3060     6.0720    24.3970   409.3940     2.3580   -16.7600 
  246.8750    69.0590     5.7420     5.4700     6.2880    24.3560   409.8000     2.3540   -16.8090 
  247.0000    68.7130     5.9030     5.6040     6.4190    24.3390   409.4340     2.3520   -16.8580 
  247.1250    68.6650     6.0220     5.6870     6.5770    24.3390   406.0870     2.3520   -16.9270 
  247.2500    69.2920     6.1350     5.7480     6.7650    24.3390   401.4300     2.3500   -16.9980 
  247.3750    69.0830     6.2770     5.8180     6.9190    24.3390   396.5740     2.3450   -17.0700 
  247.5000    69.4030     6.4580     5.9220     7.0590    24.3390   390.8290     2.3370   -17.1020 
  247.6250    73.3160     6.6600     6.0660     7.4400    24.3390   384.1560     2.3270   -17.1420 
  247.7500    76.6650     6.8340     6.2210     7.7150    24.3390   377.7140     2.3210   -17.1630 
  247.8750    76.2710     6.9430     6.3560     7.6780    24.3390   371.8480     2.3200   -17.1430 
  248.0000    73.3410     6.9680     6.4400     7.4500    24.3390   365.9590     2.3250   -17.1510 
  248.1250    71.8820     6.9090     6.4460     7.4240    24.3390   361.7230     2.3360   -17.1130 
  248.2500    72.8380     6.8110     6.3950     7.4870    24.3390   361.4780     2.3450   -17.0500 
  248.3750    74.4930     6.7070     6.3110     7.5370    24.3390   365.7050     2.3510   -16.9780 
  248.5000    74.3250     6.6140     6.2190     7.4710    24.3390   370.7630     2.3510   -16.9010 
  248.6250    71.4970     6.5330     6.1400     7.2560    24.3420   373.3290     2.3500   -16.8300 
  248.7500    69.1220     6.4440     6.0650     7.2920    24.3610   371.2890     2.3500   -16.7540 
  248.8750    67.5820     6.3300     5.9750     7.2960    24.4050   365.0690     2.3520   -16.6460 
  249.0000    65.2920     6.1810     5.8470     7.1050    24.4410   361.5020     2.3560   -16.5040 
  249.1250    61.9420     6.0010     5.6700     6.7130    24.4540   367.4310     2.3600   -16.3910 
  249.2500    59.4560     5.8170     5.4700     6.2720    24.4550   383.8170     2.3640   -16.2870 
  249.3750    57.6250     5.6570     5.2790     5.7330    24.4550   401.6320     2.3700   -16.1970 
  249.5000    55.1520     5.5320     5.1200     5.3670    24.4550   408.9410     2.3800   -16.0950 
  249.6250    53.0570     5.4290     5.0010     5.2720    24.4550   403.9590     2.3930   -16.0030 
  249.7500    52.2510     5.3080     4.8940     5.2740    24.4550   396.3020     2.4070   -15.9420 
  249.8750    52.4050     5.1440     4.7720     5.2640    24.4550   393.4160     2.4180   -15.8900 
