~V
VERS. 2.00: Ver 2.00
~W
STRT.M 61.0000:
STOP.M 296.0000:
STEP.M 0.1250:
NULL. -999.2500:
UWI. DF312:
~C
DEPT.M :
DEN.GM/CC :
AC.US/MT :
GR.API :
CALI.CM :
RXO.OHMM :
RI. :
RML.OHMM :
SP.MV :
~A
# ...
  141.0000     2.3940   366.4570    74.0380    23.9940    13.7560    13.3850    16.6650   -11.2890 
  141.1250     2.4800   329.8580    75.7820    23.9730    22.3560    16.4180    20.4000   -10.8700 
  141.2500     2.5260   303.5980    77.3250    23.9850    31.9320    19.9760    23.6540   -10.5040 
  141.3750     2.5160   295.4260    77.4590    24.0010    32.8040    22.5400    25.3010   -10.2030 
  141.5000     2.4600   304.7370    77.8940    23.9950    24.4060    22.8000    24.7020    -9.9440 
  141.6250     2.4040   322.5250    80.8530    23.9510    17.2810    21.0480    22.3940    -9.7760 
  141.7500     2.3820   335.7000    83.7640    23.9270    14.9100    19.1910    20.1970    -9.7300 
  141.8750     2.3970   339.2430    84.6760    23.9310    16.0780    18.1310    19.1080    -9.7160 
  142.0000     2.4240   334.5310    84.4210    23.9340    19.2410    18.1660    19.4010    -9.7300 
  142.1250     2.4440   326.7260    84.7110    23.9480    21.4240    19.3450    20.8920    -9.7500 
  142.2500     2.4550   320.7100    84.8870    23.9540    21.7940    21.0790    22.7350    -9.7320 
  142.3750     2.4570   317.4790    85.2400    23.9450    21.4800    22.8020    24.3220    -9.6900 
  142.5000     2.4450   316.1600    85.8260    23.9050    21.3830    24.0060    25.2850    -9.6420 
  142.6250     2.4210   315.3340    83.1200    23.8030    21.2200    24.4800    25.5880    -9.6160 
  142.7500     2.4050   313.7450    77.7220    23.6640    20.9580    24.6980    25.7170    -9.5980 
  142.8750     2.4130   310.6630    74.2540    23.5520    20.7100    25.0170    25.9920    -9.5920 
  143.0000     2.4410   305.8730    74.2470    23.4850    20.8860    25.5610    26.4990    -9.6200 
  143.1250     2.4660   300.6030    75.1790    23.4250    22.4500    26.1780    27.0290    -9.7080 
  143.2500     2.4710   297.6590    75.2950    23.3870    24.6290    26.5230    27.2450    -9.7870 
  143.3750     2.4580   299.0360    76.0570    23.4040    25.1400    26.3510    26.9620    -9.9000 
  143.5000     2.4400   304.7630    78.1690    23.5520    23.2690    25.6680    26.2330   -10.0870 
  143.6250     2.4270   312.3850    77.7950    23.7920    20.9000    24.7500    25.3570   -10.2590 
  143.7500     2.4160   317.8210    75.1180    23.9800    19.8340    24.0170    24.7390   -10.3830 
  143.8750     2.4090   318.9180    74.8820    24.0350    20.0390    23.6980    24.5870   -10.5350 
  144.0000     2.4100   315.4370    77.6340    24.0090    21.1820    23.8660    24.9110   -10.7070 
  144.1250     2.4180   308.7480    78.0480    23.9680    23.6270    24.4400    25.5360   -10.8390 
  144.2500     2.4240   302.3820    75.2380    23.9450    28.1840    25.0530    26.0870   -10.9980 
  144.3750     2.4150   299.1790    74.8730    23.9100    33.0670    25.4220    26.3400   -11.1980 
  144.5000     2.3810   301.1650    78.6250    23.8470    34.6990    25.4280    26.2530   -11.3710 
  144.6250     2.3310   308.3940    81.3440    23.8420    29.2340    25.1840    26.0010   -11.5450 
  144.7500     2.2920   315.9290    80.3740    24.0610    23.2290    25.0360    25.8970   -11.7500 
  144.8750     2.2800   318.8680    77.9330    24.6490    18.8440    25.1870    26.0970   -11.9050 
  145.0000     2.3000   314.1650    77.1660    25.4400    16.5920    25.6540    26.5630   -12.0080 
  145.1250     2.3520   302.7030    76.8980    25.8560    16.0370    26.2420    27.0450   -12.0890 
  145.2500     2.4060   291.4400    73.7730    26.0970    16.1980    26.6040    27.2330   -12.1400 
  145.3750     2.4390   285.2280    69.8810    26.3890    16.4760    26.5350    26.9850   -12.1290 
  145.5000     2.4450   285.1070    69.0190    26.7020    16.5150    26.0360    26.3550   -12.1180 
  145.6250     2.4370   288.0150    71.4570    26.9870    15.9010    25.3050    25.5670   -12.0590 
  145.7500     2.4280   289.9250    74.1030    27.0350    14.8110    24.6450    24.9020   -12.0050 
  145.8750     2.4130   290.8320    77.2990    26.8260    13.8570    24.1830    24.4760   -11.9890 
  146.0000     2.3850   293.0950    79.7230    26.6130    13.6570    23.9450    24.2970   -11.9920 
  146.1250     2.3370   298.6260    76.9660    26.7780    14.4980    23.9130    24.3180   -12.0370 
  146.2500     2.2840   305.0060    72.3310    27.4440    15.3990    23.9770    24.4150   -12.0600 
  146.3750     2.2360   309.5260    70.0790    28.0120    15.0950    24.0700    24.5130   -12.0550 
  146.5000     2.2000   311.5740    70.9330    27.8830    13.3150    24.1400    24.5480   -12.0300 
  146.6250     2.1760   313.3360    72.1260    27.6470    11.2160    24.1260    24.4480   -11.9930 
  146.7500     2.1650   316.5290    71.4610    27.5510     9.9710    24.0020    24.2250   -11.9040 
  146.8750     2.1690   319.8970    70.1360    27.4940     9.5020    23.7840    23.9310   -11.7940 
  147.0000     2.1820   320.9020    70.4720    27.0260     9.8220    23.5430    23.6580   -11.6180 
  147.1250     2.1890   317.7920    72.5550    25.6370    11.1550    23.3780    23.5140   -11.3850 
  147.2500     2.1820   313.0080    73.6650    25.2410    12.9720    23.3150    23.5020   -11.1850 
  147.3750     2.1660   308.8750    72.7950    26.2010    14.4100    23.3420    23.5840   -10.9960 
  147.5000     2.1500   306.3450    71.8070    27.7790    15.3060    23.4200    23.7090   -10.7890 
  147.6250     2.1360   304.6880    70.2830    28.5980    16.4200    23.5060    23.8470   -10.5890 
  147.7500     2.1360   302.9270    69.5270    28.5290    17.7790    23.6000    24.0170   -10.4320 
  147.8750     2.1580   301.2830    70.7070    27.7140    18.2010    23.7580    24.2620   -10.2470 
  148.0000     2.2020   300.2700    72.2020    26.5220    17.0150    24.0320    24.5980   -10.0920 
  148.1250     2.2580   300.1150    72.4470    25.6760    15.3850    24.4260    24.9650    -9.9680 
  148.2500     2.3180   300.3730    72.6010    25.0200    15.2580    24.7920    25.2200    -9.8090 
  148.3750     2.3790   301.0480    74.2420    24.6410    17.1630    24.9600    25.2320    -9.6290 
  148.5000     2.4270   302.4470    76.7910    24.5300    19.6410    24.8140    24.9550    -9.4610 
  148.6250     2.4460   304.6980    77.2360    24.5830    20.1600    24.3700    24.4810    -9.2880 
  148.7500     2.4460   306.7690    74.8240    24.5550    19.0550    23.9070    24.0930    -9.0980 
  148.8750     2.4430   307.2410    71.8930    24.4940    17.9890    23.6680    24.0070    -8.9710 
  149.0000     2.4520   305.0320    71.2910    24.4410    17.9320    23.7970    24.3050    -8.8620 
  149.1250     2.4790   299.9580    72.3080    24.4390    18.9280    24.2740    24.8590    -8.7390 
  149.2500     2.5030   294.1260    73.4810    24.4270    20.2250    24.7320    25.2840    -8.6260 
  149.3750     2.5090   289.6760    76.7170    24.3370    21.4550    24.8320    25.2870    -8.5630 
  149.5000     2.5000   288.0330    80.4480    24.1550    21.6220    24.3930    24.7610    -8.5490 
  149.6250     2.4910   289.3160    80.8780    24.0160    20.3470    23.4580    23.7880    -8.5590 
  149.7500     2.4900   291.3570    79.6010    23.9640    18.4980    22.3920    22.7180    -8.5740 
  149.8750     2.4970   292.8500    78.8620    23.9760    17.3070    21.4110    21.7590    -8.5810 
  150.0000     2.5050   293.7580    77.4810    23.9760    16.8720    20.6260    21.0240    -8.6150 
  150.1250     2.5060   295.1920    75.8130    23.8740    16.7470    20.1210    20.6120    -8.6880 
  150.2500     2.4970   297.5820    76.6540    23.7180    16.6350    19.9110    20.5340    -8.7800 
  150.3750     2.4880   299.9810    78.0660    23.5020    16.7320    20.0670    20.8580    -8.8800 
  150.5000     2.4880   300.6260    77.4870    23.2770    17.4430    20.6460    21.6360    -8.9830 
  150.6250     2.4930   297.8460    76.1260    22.9910    18.9800    21.7210    22.8790    -9.0860 
  150.7500     2.4940   292.9370    76.7930    22.8700    21.5060    23.0900    24.2920    -9.2270 
  150.8750     2.4860   287.9050    78.4180    22.9070    24.0840    24.4710    25.5390    -9.3650 
