~V
VERS. 2.00: Ver 2.00
~W
STRT.M 57.0000:
STOP.M 261.0000:
STEP.M 0.1250:
NULL. -999.2500:
UWI. DF317:
~C
DEPT.M :
DEN.GM/CC :
SP.MV :
AC.US/MT :
GR.API :
CALI.CM :
RXO.OHMM :
RI. :
RML.OHMM :
~A
# ...
   97.0000     2.2160   -11.9380   308.3050    83.7860    22.2580     7.4110    11.5160    16.5800 
   97.1250     2.2320   -12.0170   308.0510    85.7730    21.8620     7.3460    10.9550    15.3170 
   97.2500     2.2550   -12.0870   340.6630    85.8480    22.0580     7.2560     9.7830    13.3160 
   97.3750     2.2780   -12.1270   426.3530    86.6120    22.2120     6.5870     8.4940    11.2930 
   97.5000     2.2940   -12.1570   486.4470    90.0240    22.3440     5.8070     7.3310     9.6110 
   97.6250     2.3010   -12.2060   488.0480    94.6870    22.6450     5.4470     6.4390     8.4600 
   97.7500     2.3040   -12.2530   490.5600    99.0260    22.8530     5.2390     5.8910     7.8920 
   97.8750     2.3080   -12.2730   495.6310   101.6490    23.6760     4.9790     5.5980     7.6980 
   98.0000     2.3090   -12.2840   495.6720   101.4640    24.0090     4.7440     5.4950     7.7320 
   98.1250     2.3010   -12.2610   477.3960    98.1410    24.1420     4.7680     5.5050     7.8570 
   98.2500     2.2890   -12.2250   457.8150    93.4790    23.8400     5.1460     5.5120     7.8940 
   98.3750     2.2890   -12.1970   454.4020    91.8850    23.6890     5.5050     5.4680     7.8260 
   98.5000     2.3080   -12.1740   457.6450    94.2480    23.6980     5.4310     5.3870     7.6800 
   98.6250     2.3360   -12.1510   459.8960    96.9400    23.8930     4.9250     5.2830     7.5010 
   98.7500     2.3470   -12.1330   460.6440    96.7370    23.9540     4.4830     5.2030     7.3930 
   98.8750     2.3390   -12.0990   459.4260    96.7540    23.8900     4.4530     5.1960     7.4230 
   99.0000     2.3200   -12.0520   456.0970    99.6500    23.7070     4.5370     5.2580     7.5590 
   99.1250     2.3040   -11.9870   451.4760   102.5770    23.6180     4.7110     5.3530     7.7350 
   99.2500     2.3030   -11.9330   444.0130   102.4000    23.6100     4.9950     5.4500     7.8860 
   99.3750     2.3160   -11.8800   432.9850   102.0250    23.6440     5.0870     5.4950     7.9410 
   99.5000     2.3350   -11.8170   421.9940   103.0330    23.9120     5.0380     5.4450     7.8530 
   99.6250     2.3470   -11.7430   420.3680   104.6120    24.1610     5.0560     5.3170     7.6590 
   99.7500     2.3400   -11.6830   432.0420   106.9600    24.1450     4.9310     5.1580     7.4360 
   99.8750     2.3230   -11.6240   442.4240   110.8230    24.1830     4.5940     5.0350     7.2940 
  100.0000     2.3070   -11.5690   442.9920   113.1810    24.1770     4.4250     4.9850     7.2810 
  100.1250     2.2980   -11.5410   437.9580   112.1030    24.0620     4.5780     5.0190     7.3850 
  100.2500     2.3010   -11.4930   436.0560   107.8280    23.9210     4.7650     5.1190     7.5470 
  100.3750     2.3200   -11.4650   433.1520   103.3310    23.9810     4.8920     5.2300     7.7090 
  100.5000     2.3480   -11.4420   424.6470   101.6950    24.1340     5.3190     5.3180     7.8170 
  100.6250     2.3670   -11.4250   415.8050   103.9930    24.0980     7.5730     5.3420     7.8420 
  100.7500     2.3620   -11.3780   416.6860   107.1180    24.1690     7.8420     5.3100     7.8130 
  100.8750     2.3400   -11.3340   423.8500   106.6310    24.1300     6.3610     5.2500     7.7590 
  101.0000     2.3120   -11.2990   429.7500   103.7210    24.1980     4.8270     5.1940     7.7280 
  101.1250     2.2920   -11.2550   431.6650   101.7740    24.1260     4.7190     5.1690     7.7410 
  101.2500     2.2840   -11.2380   431.3660   100.8060    24.1760     4.9450     5.1640     7.7690 
  101.3750     2.2840   -11.2120   431.1480   100.8770    24.1250     5.0500     5.1590     7.7790 
  101.5000     2.2830   -11.1910   431.3140   102.2440    24.1790     5.0730     5.1770     7.8350 
  101.6250     2.2810   -11.1630   431.2840   104.1880    24.0490     5.0750     5.2240     7.9250 
  101.7500     2.2840   -11.1450   432.7910   103.7760    24.1410     5.0420     5.2720     8.0050 
  101.8750     2.2980   -11.1450   430.7670   102.6880    24.1190     4.9230     5.3290     8.1320 
  102.0000     2.3260   -11.1490   416.9930   102.0900    24.1190     4.8070     5.4380     8.3530 
  102.1250     2.3570   -11.1630   393.0150   100.1320    24.1960     5.0090     5.5840     8.6030 
  102.2500     2.3750   -11.1780   376.3040    95.8930    24.1860     6.2530     5.7100     8.8000 
  102.3750     2.3730   -11.1970   381.7540    93.7190    24.1610     7.6200     5.8090     8.9390 
  102.5000     2.3500   -11.2240   404.1170    94.1520    24.0390     7.1830     5.8530     8.9840 
  102.6250     2.3090   -11.2610   426.1200    94.4390    23.8560     5.5420     5.8240     8.9160 
  102.7500     2.2710   -11.3080   435.4060    93.4120    23.5220     5.6770     5.7550     8.7940 
  102.8750     2.2580   -11.3640   435.6100    93.7410    23.2520     5.8430     5.6690     8.6530 
  103.0000     2.2680   -11.4210   444.1140    95.8550    23.4780     5.5880     5.6030     8.5600 
  103.1250     2.2740   -11.4800   455.1320    98.2480    24.0410     5.2750     5.6090     8.6000 
  103.2500     2.2520   -11.5400   452.5860    98.6820    23.9710     5.4010     5.7170     8.7970 
  103.3750     2.2170   -11.5960   450.6440    97.4180    23.8840     5.5550     5.8730     9.0700 
  103.5000     2.1950   -11.6570   451.4650    94.9690    23.8750     5.5180     6.0510     9.3690 
  103.6250     2.2010   -11.7120   451.7680    92.8820    23.8890     5.5340     6.2150     9.6120 
  103.7500     2.2360   -11.7690   449.3980    92.1070    23.5030     5.9770     6.2910     9.6720 
  103.8750     2.2750   -11.8340   445.4870    91.7140    23.2500     6.4630     6.2430     9.5200 
  104.0000     2.2970   -11.9000   442.2340    92.0790    23.3490     6.4840     6.0830     9.2040 
  104.1250     2.2900   -11.9560   441.2840    94.9450    23.5290     6.1520     5.8460     8.7980 
  104.2500     2.2640   -11.9970   442.4310   101.0320    23.4360     5.9660     5.6240     8.4530 
  104.3750     2.2480   -12.0480   443.6490   106.0390    23.4820     5.8590     5.4580     8.2430 
  104.5000     2.2540   -12.0890   444.0530   105.4560    23.4250     5.6900     5.3700     8.2020 
  104.6250     2.2700   -12.1210   443.2990   100.5660    23.4910     5.5340     5.3780     8.3420 
  104.7500     2.2740   -12.1480   441.6950    94.2380    23.4370     5.8550     5.4800     8.5980 
  104.8750     2.2670   -12.1600   440.2950    90.3190    23.4540     6.0210     5.6290     8.8570 
  105.0000     2.2620   -12.1590   439.9060    91.1270    23.3990     6.0560     5.7780     9.0530 
  105.1250     2.2640   -12.1570   440.5950    94.2230    23.5120     5.8180     5.8960     9.1550 
  105.2500     2.2620   -12.1730   439.9660    95.1780    23.4470     5.7380     5.9670     9.1590 
  105.3750     2.2470   -12.1850   439.2910    93.5380    23.4790     5.9570     5.9990     9.1100 
  105.5000     2.2300   -12.1790   440.1860    92.9740    23.4830     6.3060     6.0110     9.0090 
  105.6250     2.2280   -12.1700   443.1070    94.6440    23.4000     6.5380     5.9970     8.8890 
  105.7500     2.2460   -12.1620   446.5050    96.4240    23.4390     6.4240     5.9720     8.7730 
  105.8750     2.2570   -12.1630   448.6510    96.9670    23.4750     6.0190     5.9250     8.6260 
  106.0000     2.2530   -12.1830   449.1950    96.0290    23.5140     5.8420     5.8520     8.4560 
  106.1250     2.2500   -12.2000   447.9920    95.2110    23.4230     6.0090     5.7490     8.2520 
  106.2500     2.2670   -12.1960   445.0460    95.3810    23.5480     5.9760     5.6240     8.0090 
  106.3750     2.2900   -12.1760   441.6620    97.1040    23.6230     5.6450     5.5030     7.7990 
  106.5000     2.3020   -12.1700   439.9750    99.4220    23.8190     5.4770     5.4080     7.6860 
  106.6250     2.2990   -12.1760   442.0210   101.0050    24.1360     5.4180     5.3570     7.6690 
  106.7500     2.2920   -12.1800   446.4270   102.2250    24.0940     5.3770     5.3430     7.6810 
  106.8750     2.2840   -12.1670   448.3280   102.1540    24.1540     5.1430     5.3540     7.7370 
