~V
VERS. 2.00: Ver 2.00
~W
STRT.M 56.0000:
STOP.M 209.0000:
STEP.M 0.1250:
NULL. -999.2500:
UWI. DF316:
~C
DEPT.M :
GR.API :
CALI.CM :
RXO.OHMM :
RI. :
RML.OHMM :
SP.MV :
DEN.GM/CC :
AC.US/MT :
~A
# ...
  196.0000    35.7580    23.7850     4.7460     4.7150     5.2380   -15.4750     2.3410   387.1010 
  196.1250    37.7670    23.8280     5.4160     4.8630     5.4030   -15.4830     2.3390   390.2220 
  196.2500    38.3540    23.8690     6.1130     5.0300     5.5890   -15.4900     2.3460   393.4930 
  196.3750    38.0470    23.8130     6.2760     5.3220     5.9130   -15.4520     2.3570   393.6630 
  196.5000    38.3020    23.6860     5.8920     5.6580     6.2860   -15.3640     2.3660   388.7070 
  196.6250    37.5970    23.6740     5.7380     5.9630     6.6250   -15.2590     2.3770   377.6840 
  196.7500    34.3830    23.7100     6.6110     6.0930     6.7700   -15.1650     2.3910   360.2700 
  196.8750    31.4590    23.6420     8.6290     5.9520     6.6130   -15.0800     2.3990   339.4870 
  197.0000    31.6610    23.5740    10.4800     5.6210     6.2450   -15.0010     2.3930   327.3880 
  197.1250    34.3840    23.4240     9.8620     5.1880     5.7650   -14.9440     2.3730   336.7040 
  197.2500    35.6120    23.3530     6.8570     4.7880     5.3200   -14.9090     2.3490   369.6880 
  197.3750    33.3630    23.3450     4.5770     4.4840     4.9820   -14.9050     2.3240   410.3630 
  197.5000    31.4630    23.3330     3.7430     4.4150     4.9050   -14.9300     2.3000   437.5570 
  197.6250    31.2140    23.3980     3.6880     4.5110     5.0120   -14.9460     2.2850   445.2210 
  197.7500    31.2140    23.5570     4.0050     4.7600     5.2890   -14.9170     2.2860   434.5550 
  197.8750    31.2140    23.6570     5.3690     4.9780     5.5320   -14.8980     2.3010   411.4610 
  198.0000    31.2140    23.6700     7.9630     5.1390     5.7090   -14.9150     2.3250   392.6920 
  198.1250    31.2140    23.6630     9.1940     5.1040     5.6710   -14.9420     2.3490   392.1090 
  198.2500    31.2140    23.6360     7.5590     4.9180     5.4640   -14.9730     2.3650   410.0730 
  198.3750    31.2140    23.5200     5.2560     4.5960     5.1070   -15.0300     2.3720   429.8190 
  198.5000    31.2140    23.1670     4.2060     4.3200     4.8000   -15.0880     2.3740   438.7310 
  198.6250    31.2140    22.8500     3.9090     4.0780     4.5320   -15.1180     2.3730   438.8150 
  198.7500    31.2140    22.7040     3.8380     3.9400     4.3780   -15.1650     2.3720   436.9730 
  198.8750    31.2140    22.4900     3.7540     3.8500     4.2780   -15.2270     2.3690   437.8550 
  199.0000    31.2140    22.4530     3.6620     3.8120     4.2360   -15.2740     2.3690   441.0270 
  199.1250    31.2140    22.4170     3.6330     3.8040     4.2260   -15.3110     2.3730   445.3920 
  199.2500    31.2140    22.4060     3.5950     3.8080     4.2310   -15.3620     2.3780   448.2630 
  199.3750    31.2140    22.4120     3.5050     3.8540     4.2820   -15.3710     2.3740   447.5270 
  199.5000    31.2140    22.4160     3.4430     3.8610     4.2900   -15.3320     2.3580   446.2490 
  199.6250    31.2140    22.4140     3.4770     3.8740     4.3050   -15.3080     2.3390   444.3660 
  199.7500    31.2140    22.4110     3.5340     3.8450     4.2730   -15.2930     2.3280   445.5630 
  199.8750    31.2140    22.4440     3.5240     3.8180     4.2420   -15.2820     2.3240   446.7380 
  200.0000    31.2140    22.5090     3.4840     3.7530     4.1700   -15.2480     2.3180   446.8750 
  200.1250    31.2140    22.4630     3.4760     3.7050     4.1170   -15.1480     2.3050   446.5360 
  200.2500    31.2140    22.4240     3.5300     3.6380     4.0420   -15.0110     2.2960   446.8620 
  200.3750    31.2140    22.4390     3.5460     3.6620     4.0680   -14.9580     2.3000   447.8420 
  200.5000    31.2140    22.5020     3.5130     3.7000     4.1120   -14.9470     2.3160   448.9110 
  200.6250    31.2140    22.5570     3.4750     3.7780     4.1970   -14.9110     2.3350   449.4920 
  200.7500    31.2140    22.5670     3.4660     3.8160     4.2400   -14.8750     2.3490   448.7740 
  200.8750    31.2140    22.5210     3.4800     3.8930     4.3250   -14.8120     2.3530   446.1830 
  201.0000    31.2140    22.4230     3.4980     3.9360     4.3730   -14.6830     2.3510   441.9120 
  201.1250    31.2140    22.3980     3.5000     3.9180     4.3540   -14.5920     2.3460   437.3030 
  201.2500    31.2140    22.4400     3.4970     3.9130     4.3480   -14.5200     2.3440   434.5520 
  201.3750    31.2140    22.5500     3.6210     3.8860     4.3180   -14.3860     2.3430   433.9310 
  201.5000    31.2140    22.5530     3.8410     3.8750     4.3060   -14.2600     2.3400   435.0050 
  201.6250    31.2140    22.4590     3.9480     3.8430     4.2700   -14.1950     2.3330   437.9720 
  201.7500    31.2140    22.3780     3.8430     3.7860     4.2070   -14.1280     2.3230   444.3090 
  201.8750    31.2140    22.1450     3.6170     3.7220     4.1350   -14.1180     2.3100   451.8560 
  202.0000    31.2140    22.1630     3.4130     3.6290     4.0320   -14.1870     2.2940   456.8110 
  202.1250    31.2140    22.0910     3.2820     3.5360     3.9290   -14.2440     2.2810   456.9180 
  202.2500    31.2140    21.9210     3.2280     3.4500     3.8340   -14.2680     2.2760   454.3290 
  202.3750    31.2140    21.8010     3.2870     3.4380     3.8200   -14.3130     2.2830   452.1880 
  202.5000    31.2140    21.6600     3.3950     3.4610     3.8450   -14.4010     2.2980   450.3690 
  202.6250    31.2140    21.5440     3.4180     3.4780     3.8640   -14.5040     2.3130   448.6850 
  202.7500    31.2140    21.6890     3.3450     3.5430     3.9360   -14.6360     2.3210   448.3370 
  202.8750    31.2140    21.8120     3.2960     3.5490     3.9430   -14.7040     2.3220   449.0290 
  203.0000    31.2140    21.9840     3.2760     3.5600     3.9560   -14.7300     2.3240   448.8170 
  203.1250    31.2140    22.0920     3.2560     3.5590     3.9550   -14.7840     2.3320   446.4410 
  203.2500    31.2140    22.1120     3.2510     3.4910     3.8790   -14.8660     2.3370   442.5250 
  203.3750    31.2140    22.1150     3.2750     3.3710     3.7450   -14.8990     2.3350   438.7170 
  203.5000    31.2140    22.1370     3.3170     3.3280     3.6980   -14.9220     2.3340   433.6100 
  203.6250    31.2140    22.2480     3.4040     3.3280     3.6980   -14.9350     2.3330   423.2350 
  203.7500    31.2140    22.3060     3.5920     3.3280     3.6980   -14.9130     2.3220   404.9870 
  203.8750    31.2140    22.3120     4.0840     3.3280     3.6980   -14.8900     2.3010   383.5510 
  204.0000    31.2140    22.2920     4.8910     3.3280     3.6980   -14.8810     2.2830   365.7130 
  204.1250    31.2140    22.1920     5.8980     3.3280     3.6980   -14.8410     2.2790   356.9510 
  204.2500    31.2140    22.0810     6.4650     3.3280     3.6980   -14.7600     2.2810   364.0070 
  204.3750    31.2140    21.8050     6.1370     3.3280     3.6980   -14.7660     2.2800   383.3210 
  204.5000    31.2140    21.5300     5.2750     3.3280     3.6980   -14.7130     2.2810   406.3930 
  204.6250    31.2140    21.4640     4.5520     3.3280     3.6980   -14.5850     2.2920   425.5700 
  204.7500    31.2140    21.3490     4.1950     3.3280     3.6980   -14.4730     2.3150   435.2700 
  204.8750    31.2140    21.2680     3.9420     3.3280     3.6980   -14.3670     2.3370   435.9800 
  205.0000    31.2140    21.1900     3.9000     3.3280     3.6980   -14.2510     2.3420   430.4100 
  205.1250    31.2140    21.1510     4.2690     3.3280     3.6980   -14.1650     2.3360   425.4130 
  205.2500    31.2140    20.9910     4.4970     3.3280     3.6980   -14.1020     2.3320   428.5570 
  205.3750    31.2140    20.6700     4.2510     3.3280     3.6980   -14.0100     2.3310   434.4210 
  205.5000    31.2140    20.5490     3.7730     3.3280     3.6980   -13.9400     2.3230   436.9920 
  205.6250    31.2140    20.4390     3.4930     3.3280     3.6980   -13.9400     2.3120   433.7130 
  205.7500    31.2140    20.4210     3.4010     3.3280     3.6980   -13.9400     2.3050   425.1110 
  205.8750    31.2140    20.3990     3.4270     3.3280     3.6980  -999.2500     2.3080   416.8290 
