~V
VERS. 2.00: Ver 2.00
~W
STRT.M 65.0000:
STOP.M 277.0000:
STEP.M 0.1250:
NULL. -999.2500:
UWI. DF311:
~C
DEPT.M :
DEN.GM/CC :
SP.MV :
AC.US/MT :
GR.API :
CALI.CM :
RXO.OHMM :
RI. :
RML.OHMM :
~A
# ...
  105.0000     2.1840   -42.1880   459.6520    66.1780    22.8990     9.1230     6.9010     9.4100 
  105.1250     2.1840   -42.3130   466.6140    63.6090    22.9030     9.3710     6.9110     9.4240 
  105.2500     2.1810   -42.4190   465.2640    61.1930    22.9160     9.5610     6.9370     9.4490 
  105.3750     2.1800   -42.5120   457.0850    61.2100    22.9310     9.5800     6.9870     9.5080 
  105.5000     2.1830   -42.5660   447.7710    60.8590    22.9470     9.6210     7.0660     9.6200 
  105.6250     2.1820   -42.5580   443.0940    58.0710    22.9420     9.7010     7.1740     9.7820 
  105.7500     2.1730   -42.5140   442.7410    56.7780    22.9280     9.7220     7.2900     9.9430 
  105.8750     2.1610   -42.4470   445.3110    58.4680    22.9170     9.6890     7.3910    10.0510 
  106.0000     2.1570   -42.3460   450.5280    61.4130    22.9080     9.6750     7.4500    10.0630 
  106.1250     2.1590   -42.2210   457.8690    62.9090    22.8990     9.7320     7.4470     9.9610 
  106.2500     2.1620   -42.0720   462.8340    62.1500    22.9080     9.8170     7.4110     9.8100 
  106.3750     2.1670   -41.8990   461.3940    60.5980    22.9300     9.8560     7.3720     9.6680 
  106.5000     2.1740   -41.7420   454.0220    59.9420    22.9410     9.8050     7.3560     9.5790 
  106.6250     2.1780   -41.5910   446.1510    60.6630    22.9210     9.7230     7.3880     9.5810 
  106.7500     2.1740   -41.4010   441.5150    61.8320    22.8850     9.6810     7.4520     9.6490 
  106.8750     2.1670   -41.1780   439.1950    62.7190    22.8550     9.6040     7.5230     9.7480 
  107.0000     2.1700   -40.9190   437.7740    62.2160    22.8410     9.5230     7.5710     9.8340 
  107.1250     2.1890   -40.6110   438.1240    60.9290    22.8890     9.5360     7.5300     9.8050 
  107.2500     2.2130   -40.2690   440.6080    61.4910    23.0620     9.5820     7.3380     9.5620 
  107.3750     2.2340   -39.8680   444.2840    63.8800    23.2950     9.5920     6.9680     9.0610 
  107.5000     2.2490   -39.4300   448.4250    66.3960    23.4170     9.5110     6.4800     8.3960 
  107.6250     2.2630   -38.9710   452.6970    67.5370    23.4860     9.0050     6.0190     7.7960 
  107.7500     2.2740   -38.5760   455.3340    71.4770    23.6620     8.0380     5.7080     7.4360 
  107.8750     2.2740   -38.3100   454.2350    77.7500    23.6770     7.0780     5.6010     7.3840 
  108.0000     2.2570   -38.1800   449.4900    79.9290    23.3580     7.2000     5.6900     7.6140 
  108.1250     2.2290   -38.2070   444.1750    74.0690    23.0210     8.6030     5.9220     8.0070 
  108.2500     2.2070   -38.3480   442.3140    66.7100    22.8690     9.3440     6.1810     8.3690 
  108.3750     2.2010   -38.5750   446.5770    64.2590    22.8260     8.8330     6.4370     8.6500 
  108.5000     2.2160   -38.8690   455.1740    67.0500    22.8360     8.2060     6.7120     8.9170 
  108.6250     2.2440   -39.2570   453.1020    69.7670    22.9540     8.3400     7.0740     9.3170 
  108.7500     2.2610   -39.6410   434.8600    69.7570    23.0660     9.0190     7.5330     9.9000 
  108.8750     2.2540   -39.9290   412.9500    66.4540    22.9960     9.7520     8.0320    10.5860 
  109.0000     2.2320   -40.1320   403.4660    62.6120    22.8690    10.2810     8.4370    11.1560 
  109.1250     2.2220   -40.2400   408.4970    61.2680    22.8000    10.3090     8.5560    11.2860 
  109.2500     2.2210   -40.2940   414.7060    61.2740    22.7960    10.1840     8.4120    11.0070 
  109.3750     2.2160   -40.3470   419.7700    60.5290    22.7960    10.1460     8.0980    10.4890 
  109.5000     2.2040   -40.3520   425.4320    58.5540    22.7980    10.1490     7.7300     9.9260 
  109.6250     2.1960   -40.2490   430.0120    58.9920    22.7970     9.9210     7.4040     9.4660 
  109.7500     2.1960   -40.1040   431.3300    60.9740    22.7930     9.6260     7.1580     9.1390 
  109.8750     2.2000   -39.9600   429.8090    61.8000    22.7910     9.3350     6.9980     8.9440 
  110.0000     2.2050   -39.8030   427.5930    61.8820    22.7900     9.2240     6.9270     8.8780 
  110.1250     2.2130   -39.6380   426.1980    62.4800    22.7900     9.2350     6.9510     8.9590 
  110.2500     2.2180   -39.4880   424.7930    64.7200    22.7840     9.3090     7.0330     9.1330 
  110.3750     2.2210   -39.3340   422.5670    68.5720    22.7800     9.3870     7.1340     9.3370 
  110.5000     2.2260   -39.1920   420.0200    72.3840    22.7810     9.4640     7.2060     9.4830 
  110.6250     2.2360   -39.1360   419.0170    73.2620    22.7870     9.4560     7.1980     9.4810 
  110.7500     2.2430   -39.1470   419.9710    71.1250    22.8090     9.3250     7.1160     9.3500 
  110.8750     2.2430   -39.2170   421.7660    71.1630    22.8790     8.9980     6.9870     9.1400 
  111.0000     2.2350   -39.3570   423.0560    74.0680    23.0100     8.5010     6.8440     8.9170 
  111.1250     2.2210   -39.5720   423.8980    74.7890    23.2240     8.2390     6.7350     8.7620 
  111.2500     2.2050   -39.8390   425.2900    70.6830    23.4580     8.4950     6.7070     8.7320 
  111.3750     2.1950   -40.1700   426.1100    64.3490    23.5540     9.0870     6.8130     8.8940 
  111.5000     2.2010   -40.5830   422.5990    61.4410    23.3830     9.6360     7.0890     9.2930 
  111.6250     2.2210   -41.0090   412.8790    62.3000    23.1300    10.0270     7.5330     9.9270 
  111.7500     2.2340   -41.4280   403.0820    62.2760    23.0090    10.5280     8.0110    10.6030 
  111.8750     2.2300   -41.8340   397.1280    61.1690    22.9790    11.4220     8.3790    11.0980 
  112.0000     2.2130   -42.2180   396.1130    61.0640    22.9670    12.1370     8.5030    11.1990 
  112.1250     2.1950   -42.5830   402.1980    61.6040    22.9380    11.4470     8.3040    10.7920 
  112.2500     2.1860   -42.8920   414.0140    61.6120    22.9080    10.0170     7.9430    10.1660 
  112.3750     2.1840   -43.1470   426.3460    63.7080    22.8970     9.0630     7.5700     9.5870 
  112.5000     2.1830   -43.3280   433.0520    66.6560    22.9320     8.8520     7.2990     9.2310 
  112.6250     2.1790   -43.4610   434.2550    63.6010    23.0490     9.0600     7.2080     9.1860 
  112.7500     2.1690   -43.5630   435.8020    56.1230    23.2100     9.3700     7.2450     9.3190 
  112.8750     2.1580   -43.6150   439.6560    52.2190    23.3310     9.6540     7.3330     9.4890 
  113.0000     2.1540   -43.5910   444.0100    56.1260    23.3460     9.8630     7.3970     9.5740 
  113.1250     2.1640   -43.4900   445.2050    62.4650    23.2100     9.8360     7.3870     9.5190 
  113.2500     2.1760   -43.3280   442.9960    65.0220    22.9860     9.6130     7.3190     9.3870 
  113.3750     2.1810   -43.1030   439.0490    64.1770    22.8260     9.2660     7.2250     9.2380 
  113.5000     2.1800   -42.8590   435.2190    62.0110    22.7640     8.9670     7.1390     9.1230 
  113.6250     2.1790   -42.6010   432.5540    62.0520    22.7700     8.7940     7.0990     9.0830 
  113.7500     2.1810   -42.3580   430.7780    63.0970    22.7090     8.5950     7.0990     9.1050 
  113.8750     2.1820   -42.1480   429.4110    63.1460    22.5250     8.3680     7.1230     9.1630 
  114.0000     2.1820   -41.9800   428.0030    63.2450    22.3760     8.2000     7.1480     9.2220 
  114.1250     2.1830   -41.8780   426.7420    65.2070    22.1320     8.1690     7.1510     9.2470 
  114.2500     2.1890   -41.8460   426.3580    66.8890    21.9830     8.2720     7.1320     9.2300 
  114.3750     2.1990   -41.8730   427.0100    65.6180    22.0440     8.4300     7.0960     9.1840 
  114.5000     2.2070   -41.9310   427.9370    62.5560    22.2790     8.5180     7.0520     9.1290 
  114.6250     2.2060   -41.9800   428.1290    61.9610    22.6370     8.6660     7.0070     9.0880 
  114.7500     2.2010   -41.9990   427.7880    61.7510    23.1190     8.9610     6.9720     9.0700 
  114.8750     2.2000   -41.9940   427.5410    61.0070    23.6440     9.2210     6.9540     9.0790 
