~V
VERS. 2.00: Ver 2.00
~W
STRT.M 57.0000:
STOP.M 261.0000:
STEP.M 0.1250:
NULL. -999.2500:
UWI. DF317:
~C
DEPT.M :
DEN.GM/CC :
SP.MV :
AC.US/MT :
GR.API :
CALI.CM :
RXO.OHMM :
RI. :
RML.OHMM :
~A
# ...
  237.0000     2.3520   -23.5900   440.8470    40.2010    24.0390     4.4910     3.0900     3.9410 
  237.1250     2.3470   -23.6380   446.6150    38.9920    23.6180     4.4830     2.9940     3.8850 
  237.2500     2.3540   -23.7630   449.0620    37.0540    23.5800     4.5170     2.9360     3.8490 
  237.3750     2.3590   -23.9430   451.2900    35.2960    23.6280     4.5250     2.9040     3.8250 
  237.5000     2.3580   -24.1550   454.2900    34.4820    23.5930     4.5410     2.8920     3.8070 
  237.6250     2.3560   -24.4000   456.9860    34.5670    23.7150     4.5280     2.8850     3.7790 
  237.7500     2.3530   -24.6730   457.5070    34.7050    23.7600     4.4710     2.8870     3.7520 
  237.8750     2.3470   -24.9770   457.0050    33.9390    23.7650     4.4060     2.8980     3.7340 
  238.0000     2.3360   -25.2570   456.9130    34.0290    23.6840     4.3610     2.9250     3.7410 
  238.1250     2.3230   -25.4800   456.5740    35.8620    23.5490     4.3690     2.9710     3.7690 
  238.2500     2.3190   -25.6630   453.1830    38.6960    23.5180     4.4470     3.0310     3.8150 
  238.3750     2.3260   -25.7660   446.6080    40.8980    23.5050     4.5270     3.1010     3.8620 
  238.5000     2.3400   -25.8240   438.9370    41.0850    23.4190     4.5710     3.1730     3.9090 
  238.6250     2.3580   -25.8270   432.7430    40.2290    23.2650     4.6270     3.2360     3.9390 
  238.7500     2.3720   -25.8080   430.1840    39.7920    23.2300     4.7090     3.2830     3.9620 
  238.8750     2.3800   -25.7630   430.6590    38.7090    23.3880     4.7710     3.3100     3.9620 
  239.0000     2.3790   -25.7470   432.5520    36.3150    23.6900     4.8130     3.3250     3.9560 
  239.1250     2.3720   -25.8090   433.7420    33.6710    23.8010     4.8430     3.3300     3.9470 
  239.2500     2.3680   -25.9250   432.9760    31.8660    23.8650     4.8660     3.3340     3.9360 
  239.3750     2.3690   -26.0960   430.8310    31.1100    23.8230     4.9030     3.3330     3.9350 
  239.5000     2.3730   -26.3260   429.4770    32.9220    23.8750     4.9560     3.3360     3.9400 
  239.6250     2.3750   -26.6270   431.5550    36.6740    23.8680     4.9990     3.3510     3.9820 
  239.7500     2.3700   -26.9710   437.6340    39.1810    23.8570     4.9890     3.3880     4.0640 
  239.8750     2.3610   -27.3280   442.3560    40.3610    23.9500     4.9390     3.4530     4.1870 
  240.0000     2.3520   -27.6850   440.7360    42.5860    24.0320     4.9270     3.5450     4.3500 
  240.1250     2.3430   -28.0170   432.6530    46.2310    23.8180     5.0110     3.6550     4.5200 
  240.2500     2.3310   -28.3350   424.0950    49.9690    23.5440     5.2200     3.7570     4.6700 
  240.3750     2.3170   -28.6300   420.8440    51.6650    23.4030     5.4800     3.8440     4.7780 
  240.5000     2.3050   -28.8810   424.3640    49.7100    23.6520     5.5690     3.8940     4.8260 
  240.6250     2.3000   -29.0970   432.4480    44.2070    23.3390     5.5150     3.8950     4.8150 
  240.7500     2.3110   -29.2760   439.0340    40.0180    22.3100     5.3640     3.8640     4.7570 
  240.8750     2.3380   -29.4390   438.8800    39.3470    21.0950     5.2050     3.8420     4.7170 
  241.0000     2.3690   -29.5840   432.5470    41.0850    20.7050     5.2100     3.8610     4.7360 
  241.1250     2.3830   -29.7070   427.0960    44.7510    20.6340     5.6660     3.9520     4.8630 
  241.2500     2.3720   -29.8290   427.5920    52.0700    20.7270     5.8490     4.1680     5.1470 
  241.3750     2.3550   -29.9630   425.9830    61.9530    20.9590     5.8100     4.4790     5.5470 
  241.5000     2.3400   -30.1340   414.4480    71.4010    21.6750     6.1120     4.8600     6.0140 
  241.6250     2.3270   -30.3170   393.9660    80.5450    22.6600     6.8890     5.2680     6.5080 
  241.7500     2.3090   -30.5020   376.4060    88.1630    23.2950     7.7040     5.6320     6.9390 
  241.8750     2.2890   -30.6920   368.8850    89.9340    23.7720     8.1630     5.9010     7.2380 
  242.0000     2.2760   -30.9060   369.1090    87.7350    23.9220     8.2670     6.0570     7.3780 
  242.1250     2.2710   -31.1470   372.2070    87.1220    23.9450     8.1070     6.0970     7.3710 
  242.2500     2.2740   -31.3650   375.3310    89.2710    23.7920     8.0280     6.0440     7.2680 
  242.3750     2.2790   -31.5550   378.8070    89.9200    23.8810     7.8990     5.9710     7.1640 
  242.5000     2.2820   -31.7000   382.4170    90.2750    23.7980     7.7420     5.9290     7.1120 
  242.6250     2.2810   -31.8120   384.8000    93.0350    23.9360     7.6790     5.9380     7.1320 
  242.7500     2.2800   -31.9020   383.7540    97.7870    23.8970     7.6720     6.0130     7.2430 
  242.8750     2.2810   -31.9700   379.4450   104.1050    23.8240     7.5470     6.1200     7.3860 
  243.0000     2.2810   -31.9790   373.6170   112.1550    23.9320     7.6660     6.2220     7.5070 
  243.1250     2.2770   -31.9210   368.9600   118.4180    23.7300     8.3900     6.2870     7.5560 
  243.2500     2.2650   -31.8210   367.9650   116.3480    23.6990     9.0590     6.2770     7.5360 
  243.3750     2.2550   -31.7140   370.7100   109.0210    23.6870     9.0590     6.2070     7.4540 
  243.5000     2.2530   -31.6070   377.0560   104.9590    23.5250     8.5510     6.1060     7.3310 
  243.6250     2.2620   -31.5250   385.3350   106.5690    23.6730     8.1760     6.0150     7.2300 
  243.7500     2.2790   -31.4960   390.3540   107.2950    23.6960     7.8500     5.9900     7.2230 
  243.8750     2.2920   -31.5310   387.3280   101.8870    23.8110     7.5270     6.0580     7.3290 
  244.0000     2.2930   -31.6480   375.7850    93.3740    23.9600     7.6160     6.2240     7.5390 
  244.1250     2.2860   -31.8420   360.9360    89.6720    24.0820     8.2880     6.4710     7.8230 
  244.2500     2.2850   -32.0890   351.0840    93.1100    24.0080     8.9300     6.7670     8.1220 
  244.3750     2.2900   -32.3420   348.0830    96.2820    24.1050     9.1850     7.0430     8.3790 
  244.5000     2.2930   -32.5590   348.9940    95.1930    24.0770     9.1870     7.2570     8.5630 
  244.6250     2.2900   -32.7080   349.4140    93.1260    24.0970     8.9310     7.3850     8.6320 
  244.7500     2.2870   -32.7660   348.5530    93.0590    23.9200     8.7290     7.4010     8.5640 
  244.8750     2.2940   -32.7270   350.5440    91.7700    23.9700     8.6530     7.3480     8.4360 
  245.0000     2.3050   -32.6370   357.7200    89.1380    23.9040     8.5060     7.2700     8.2980 
  245.1250     2.3110   -32.5440   366.7970    87.1860    23.9780     8.2520     7.1800     8.1580 
  245.2500     2.3060   -32.4890   370.3240    86.9640    24.0240     7.8600     7.0890     8.0440 
  245.3750     2.2980   -32.4830   367.9320    90.1700    24.0720     7.8350     7.0040     7.9540 
  245.5000     2.2940   -32.5540   364.4080    95.8540    24.0240     8.0250     6.9220     7.8900 
  245.6250     2.2930   -32.6590   364.6360    97.6090    24.0800     8.6310     6.8370     7.8360 
  245.7500     2.2840   -32.7800   370.1810    91.7630    23.9270     9.3150     6.7570     7.7630 
  245.8750     2.2630   -32.8820   377.1320    87.3910    23.9390     8.9770     6.6930     7.6890 
  246.0000     2.2340   -32.9610   381.6410    89.0580    23.7960     8.0980     6.6520     7.6150 
  246.1250     2.2100   -33.0010   381.1850    93.8440    23.5640     7.7720     6.6450     7.5580 
  246.2500     2.2030   -33.0190   376.7360    98.6250    23.5470     7.8920     6.6870     7.5630 
  246.3750     2.2040   -33.0500   372.8640   102.9590    23.5670     7.9830     6.7500     7.5890 
  246.5000     2.2060   -33.0530   371.4410   105.8080    23.5300     7.9650     6.8210     7.6270 
  246.6250     2.2080   -32.9830   371.5360   106.1020    23.5230     7.9130     6.8760     7.6730 
  246.7500     2.2190   -32.8500   371.7770   106.9360    23.4860     8.0850     6.8800     7.7140 
  246.8750     2.2430   -32.8000   371.5670   110.3240    23.4510     8.2550     6.8360     7.7120 
