~V
VERS. 2.00: Ver 2.00
~W
STRT.M 58.0000:
STOP.M 221.0000:
STEP.M 0.1250:
NULL. -999.2500:
UWI. DF318:
~C
DEPT.M :
DEN.GM/CC :
SP.MV :
AC.US/MT :
GR.API :
CALI.CM :
RXO.OHMM :
RI. :
RML.OHMM :
~A
# ...
  148.0000     2.4880    -7.8270   296.0120    56.3150    24.5930    18.1920    19.5750    22.0440 
  148.1250     2.4600    -7.8120   295.3530    57.1580    24.6440    18.5320    19.8880    22.4550 
  148.2500     2.4480    -7.8090   292.5140    59.2690    24.6620    19.1130    20.3390    23.0140 
  148.3750     2.4650    -7.8160   288.0740    60.7090    24.6230    19.9830    20.8590    23.6430 
  148.5000     2.5040    -7.8600   283.5780    59.0280    24.5780    20.3800    21.3870    24.2840 
  148.6250     2.5360    -7.9150   280.5280    55.6220    24.5530    20.5880    21.9030    24.9160 
  148.7500     2.5430    -7.9590   279.4440    54.1120    24.5540    21.0340    22.3610    25.4670 
  148.8750     2.5230    -7.9840   279.9710    55.2540    24.6180    21.6600    22.6020    25.7210 
  149.0000     2.4890    -7.9990   281.2300    55.3630    24.6760    21.9230    22.5210    25.5480 
  149.1250     2.4670    -7.9840   282.3780    53.8770    24.6910    21.7690    22.0800    24.9240 
  149.2500     2.4680    -7.9530   283.3960    53.5620    24.7000    21.0870    21.3690    23.9980 
  149.3750     2.4890    -7.8890   284.6860    54.7440    24.7100    19.8580    20.6210    23.1060 
  149.5000     2.5070    -7.7740   286.5890    54.4730    24.6950    18.6550    20.0880    22.5580 
  149.6250     2.5110    -7.6510   288.5140    51.9830    24.6740    18.3520    19.8890    22.4660 
  149.7500     2.5040    -7.5510   289.5190    49.3850    24.6610    19.0850    20.0050    22.7580 
  149.8750     2.5010    -7.4430   288.9120    49.7100    24.6540    19.9170    20.3100    23.2140 
  150.0000     2.5060    -7.3330   286.7420    53.7070    24.6380    20.3810    20.5750    23.5420 
  150.1250     2.5110    -7.2270   284.3690    59.3170    24.6140    20.3380    20.6670    23.5920 
  150.2500     2.5150    -7.1320   282.8380    60.6300    24.5990    19.7820    20.5370    23.3440 
  150.3750     2.5170    -7.0690   282.6720    55.1370    24.6040    19.1630    20.2220    22.8970 
  150.5000     2.5160    -7.0620   283.9770    50.8320    24.6580    18.8430    19.8880    22.4710 
  150.6250     2.5180    -7.0620   285.9140    51.9990    24.6870    18.6300    19.6490    22.1960 
  150.7500     2.5230    -7.0680   287.5910    55.7120    24.6830    18.3580    19.5640    22.1310 
  150.8750     2.5250    -7.0840   288.1310    56.5680    24.6770    18.7330    19.6560    22.2820 
  151.0000     2.5160    -7.1020   286.9950    57.2790    24.6660    19.7750    19.8330    22.5300 
  151.1250     2.5040    -7.1210   285.1260    58.5820    24.6520    20.5270    20.0180    22.7650 
  151.2500     2.4990    -7.1280   283.5950    59.0100    24.6410    20.2800    20.1210    22.8670 
  151.3750     2.5010    -7.1130   283.1470    58.9280    24.6310    19.3930    20.0250    22.6900 
  151.5000     2.4990    -7.0750   284.0650    58.8460    24.6410    19.0810    19.7280    22.2600 
  151.6250     2.4940    -7.0370   285.7010    58.2460    24.7150    19.0540    19.2710    21.6500 
  151.7500     2.4890    -6.9980   287.6800    56.6360    24.7790    18.6140    18.7270    20.9640 
  151.8750     2.4880    -6.9890   289.5460    56.1910    24.7940    17.7110    18.1730    20.3010 
  152.0000     2.4890    -6.9870   290.1710    56.3940    24.7700    17.0790    17.6740    19.7280 
  152.1250     2.4900    -7.0220   289.7050    54.9920    24.7460    16.7410    17.2710    19.2950 
  152.2500     2.4910    -7.0900   289.2080    52.6830    24.7480    16.2180    16.9980    19.0420 
  152.3750     2.4890    -7.1940   289.9190    52.0920    24.7500    15.6110    16.9020    19.0170 
  152.5000     2.4840    -7.2960   292.5630    53.5240    24.7630    15.5020    16.9190    19.1140 
  152.6250     2.4760    -7.3950   296.0610    54.7900    24.7760    15.7120    16.9510    19.1920 
  152.7500     2.4650    -7.4780   299.4940    55.0540    24.7660    15.9010    16.8780    19.0950 
  152.8750     2.4530    -7.5310   302.4800    54.4000    24.7620    15.5900    16.5730    18.6730 
  153.0000     2.4420    -7.5780   305.3700    54.5300    24.7890    14.7150    16.0710    18.0010 
  153.1250     2.4400    -7.5890   308.4580    54.6750    24.8110    13.6580    15.4740    17.2450 
  153.2500     2.4460    -7.5780   310.9490    53.9380    24.8320    12.8150    14.9470    16.6310 
  153.3750     2.4580    -7.5600   311.7670    52.6080    24.8450    12.3640    14.6860    16.4130 
  153.5000     2.4720    -7.5670   309.8310    51.9490    24.8280    12.4660    14.7100    16.5720 
  153.6250     2.4840    -7.6220   305.8640    52.4500    24.7950    13.1770    14.9690    17.0030 
  153.7500     2.4930    -7.7260   301.1290    52.2820    24.7890    14.2550    15.3290    17.5040 
  153.8750     2.5020    -7.8670   297.2860    50.9500    24.7910    15.0710    15.6070    17.8280 
  154.0000     2.5120    -8.0320   295.9000    49.9980    24.7760    15.2590    15.7250    17.9220 
  154.1250     2.5170    -8.2480   296.2450    50.4960    24.7510    15.1890    15.7140    17.8700 
  154.2500     2.5190    -8.4690   296.9340    51.7180    24.7510    15.2650    15.6610    17.8110 
  154.3750     2.5180    -8.7020   296.7400    53.2740    24.7740    15.7450    15.6680    17.8820 
  154.5000     2.5190    -8.9360   295.4600    54.9070    24.7670    16.3090    15.7650    18.0850 
  154.6250     2.5210    -9.1300   294.3420    55.4720    24.7410    16.6050    15.9330    18.3680 
  154.7500     2.5220    -9.2750   294.1660    53.7290    24.7220    16.3900    16.1370    18.6730 
  154.8750     2.5230    -9.4050   294.9000    51.2410    24.7040    16.0250    16.3590    18.9760 
  155.0000     2.5190    -9.5140   295.7450    51.4470    24.6830    15.8870    16.5900    19.2790 
  155.1250     2.5090    -9.5730   295.9210    53.3800    24.6800    16.1010    16.8180    19.5680 
  155.2500     2.4990    -9.6100   295.4500    53.5460    24.6700    16.6210    17.0110    19.8000 
  155.3750     2.4920    -9.5950   294.9780    51.1210    24.6500    17.1180    17.1040    19.8860 
  155.5000     2.4910    -9.5440   295.4610    50.5650    24.6170    16.9340    17.0750    19.8150 
  155.6250     2.4950    -9.4700   296.7870    53.5210    24.6010    16.3970    16.9390    19.6210 
  155.7500     2.5030    -9.3810   298.1290    57.4460    24.5980    16.0470    16.7370    19.3700 
  155.8750     2.5110    -9.2580   298.5980    58.5520    24.6000    16.0450    16.5190    19.1290 
  156.0000     2.5130    -9.1190   298.0230    57.7600    24.5980    16.0580    16.3280    18.9370 
  156.1250     2.5120    -8.9730   298.0350    57.3510    24.5750    15.9880    16.1830    18.8040 
  156.2500     2.5100    -8.8430   299.9990    57.4940    24.5360    15.8660    16.0840    18.7250 
  156.3750     2.5080    -8.7460   303.4580    56.1000    24.5300    15.7770    16.0230    18.6860 
  156.5000     2.5040    -8.6760   305.8610    52.6920    24.5510    15.8060    15.9570    18.6310 
  156.6250     2.4950    -8.6320   305.4510    49.9800    24.5920    15.7100    15.8450    18.5000 
  156.7500     2.4870    -8.6050   302.6780    50.0720    24.6180    15.1760    15.6630    18.2630 
  156.8750     2.4820    -8.5990   299.4980    51.8860    24.5930    14.5640    15.4410    17.9740 
  157.0000     2.4780    -8.6270   298.1210    52.9990    24.5500    14.0260    15.2650    17.7600 
  157.1250     2.4720    -8.6510   298.2410    54.0620    24.5550    14.0220    15.1930    17.7070 
  157.2500     2.4700    -8.6470   298.4080    56.4600    24.6030    14.5440    15.2410    17.8300 
  157.3750     2.4730    -8.6070   297.6010    58.7840    24.6230    15.2160    15.3580    18.0390 
  157.5000     2.4740    -8.5500   296.3420    57.9960    24.6080    15.4770    15.4240    18.1550 
  157.6250     2.4670    -8.4900   295.9070    54.5500    24.6130    15.1550    15.3660    18.0890 
  157.7500     2.4590    -8.4350   296.8260    51.2470    24.6400    14.6010    15.1890    17.8650 
  157.8750     2.4600    -8.3720   298.7990    50.3830    24.6500    14.1980    14.9670    17.6090 
