~V
VERS. 2.00: Ver 2.00
~W
STRT.M 51.0000:
STOP.M 228.0000:
STEP.M 0.1250:
NULL. -999.2500:
UWI. DF314:
~C
DEPT.M :
DEN.GM/CC :
AC.US/MT :
GR.API :
CALI.CM :
RXO.OHMM :
RI. :
RML.OHMM :
SP.MV :
~A
# ...
  131.0000     2.3250   409.7930    78.4780    25.1140    12.4030    10.1720    12.2310   -14.7010 
  131.1250     2.3100   420.1550    79.1260    25.1240    11.2120    10.4590    12.0630   -14.8810 
  131.2500     2.3010   425.3120    76.3740    25.1290    11.1290    10.5860    11.8330   -14.7720 
  131.3750     2.2980   423.7710    73.5310    25.1240    12.9750    10.7430    11.9010   -14.5700 
  131.5000     2.2940   419.2750    73.4980    25.1230    15.7370    11.0980    12.4840   -14.4480 
  131.6250     2.2820   418.3800    73.0450    25.1420    17.4330    11.8510    13.8100   -14.2730 
  131.7500     2.2630   423.3480    69.5950    25.1570    17.9320    13.0530    15.7460   -13.9740 
  131.8750     2.2410   431.9900    66.2830    25.1490    18.9640    14.7250    18.1530   -13.7930 
  132.0000     2.2300   439.2210    63.6160    25.1270    22.4430    16.8450    20.7690   -13.8660 
  132.1250     2.2450   437.0500    60.5700    25.1010    28.5240    19.5030    23.5410   -14.3510 
  132.2500     2.2900   422.2260    58.1080    25.0760    32.9980    22.6640    26.7300   -15.1980 
  132.3750     2.3600   395.0840    57.0970    25.0900    33.8670    26.2090    30.5540   -16.2740 
  132.5000     2.4380   361.1160    56.2630    25.1700    34.1910    29.5010    34.4620   -17.2190 
  132.6250     2.5040   331.8540    54.4680    25.2280    38.4250    30.5480    35.7200   -17.8260 
  132.7500     2.5420   316.4910    53.6690    25.1720    40.7860    28.1730    32.4120   -18.2360 
  132.8750     2.5490   317.4790    55.8080    25.0250    34.1370    22.9700    25.4400   -18.3660 
  133.0000     2.5290   330.3080    62.0020    24.8910    20.8230    17.0640    17.9360   -18.2250 
  133.1250     2.4890   346.3250    69.4370    24.8450    11.1280    12.5040    12.7140   -17.9120 
  133.2500     2.4470   359.2190    73.9240    24.8360     7.3950     9.5250     9.6520   -17.5130 
  133.3750     2.4110   369.1840    75.5720    24.8160     6.7230     7.8480     8.1260   -17.0870 
  133.5000     2.3860   378.3460    76.6120    24.7810     6.8830     7.1200     7.5400   -16.7540 
  133.6250     2.3710   386.6890    76.1490    24.7990     7.3000     7.1370     7.5750   -16.5890 
  133.7500     2.3550   391.8650    73.5150    24.8460     8.5980     7.4900     7.9040   -16.5160 
  133.8750     2.3340   392.6680    73.1500    24.8590    10.4160     7.8390     8.2210   -16.4870 
  134.0000     2.3070   390.7330    77.9760    24.8350    10.8170     7.8900     8.2140   -16.5120 
  134.1250     2.2810   389.8000    83.8610    24.8400     8.7280     7.5350     7.7280   -16.5450 
  134.2500     2.2610   391.2490    85.8530    24.8850     6.5160     7.0400     7.0750   -16.4670 
  134.3750     2.2500   393.1680    84.0470    24.9410     5.6570     6.6130     6.5990   -16.2010 
  134.5000     2.2460   392.6690    82.9620    24.9840     5.8650     6.3800     6.4970   -15.8320 
  134.6250     2.2430   388.6490    84.8790    24.9990     6.3200     6.4080     6.8930   -15.4670 
  134.7500     2.2400   384.6340    87.7940    25.0020     6.7010     6.6190     7.6090   -15.1760 
  134.8750     2.2380   383.9610    90.0670    24.9970     7.2830     6.9430     8.3820   -15.0610 
  135.0000     2.2390   387.9200    89.6900    24.9690     8.2090     7.2710     8.8980   -15.1430 
  135.1250     2.2440   395.2860    86.1320    24.9460     8.7320     7.4130     8.8230   -15.3650 
  135.2500     2.2490   402.3320    82.3570    24.9730     8.2340     7.2730     8.2720   -15.6580 
  135.3750     2.2520   406.2040    83.2900    25.0310     7.1780     6.8960     7.5240   -16.0520 
  135.5000     2.2540   404.1600    88.1880    25.0560     6.4690     6.4540     6.9050   -16.5640 
  135.6250     2.2620   391.7850    89.0090    25.0240     6.5660     6.1930     6.7300   -17.1550 
  135.7500     2.2830   369.4260    83.6740    24.9720     7.2600     6.2780     7.0880   -17.7440 
  135.8750     2.3190   339.6250    74.9470    24.9080     8.5830     6.8100     8.0060   -18.2540 
  136.0000     2.3670   308.1670    67.2040    24.8460    10.4240     7.7660     9.3560   -18.7190 
  136.1250     2.4250   283.3850    63.2110    24.8460    12.8780     8.8880    10.6720   -19.1600 
  136.2500     2.4860   268.0370    61.3720    24.8200    15.6480     9.6700    11.3870   -19.5570 
  136.3750     2.5450   260.2670    59.4800    24.7100    16.9690     9.8480    11.3970   -19.8800 
  136.5000     2.5960   255.1710    56.0220    24.6030    15.0820     9.5910    11.1470   -20.0220 
  136.6250     2.6290   247.6130    53.4020    24.6400    11.8430     9.4510    11.4470   -19.9360 
  136.7500     2.6410   237.6750    52.1570    24.7330    11.7070     9.9030    12.7310   -19.8340 
  136.8750     2.6370   229.2460    50.9530    24.7780    16.5430    11.2440    15.1640   -19.8380 
  137.0000     2.6230   227.3300    49.2810    24.7340    25.1570    13.6810    18.7370   -19.8610 
  137.1250     2.6080   236.0470    48.6270    24.5660    32.0410    17.3900    23.2890   -19.8540 
  137.2500     2.5950   250.7270    48.9700    24.3620    34.8220    21.5970    27.8230   -19.8800 
  137.3750     2.5860   264.8570    49.4720    24.2770    36.2390    25.2030    31.1120   -19.9050 
  137.5000     2.5800   272.3270    49.9730    24.3330    37.6860    27.2810    32.3410   -19.9530 
  137.6250     2.5780   269.4390    49.3060    24.4250    36.0740    27.6550    31.7460   -20.1490 
  137.7500     2.5810   260.6200    46.3700    24.5200    32.3480    27.3370    30.7200   -20.3810 
  137.8750     2.5920   250.2560    42.1010    24.6560    29.2770    26.8750    29.9870   -20.5370 
  138.0000     2.6130   241.5120    40.4810    24.7980    27.7150    26.5560    29.9350   -20.5460 
  138.1250     2.6430   235.5560    43.1280    24.8550    27.1200    26.5940    30.8020   -20.3650 
  138.2500     2.6710   230.9450    46.2560    24.8330    27.6530    26.9690    32.1520   -20.0330 
  138.3750     2.6930   226.6990    47.8150    24.7700    28.7640    27.5510    33.4910   -19.6760 
  138.5000     2.7050   222.5050    48.5580    24.7090    28.7520    28.0990    34.4080   -19.3960 
  138.6250     2.7080   218.6860    50.3560    24.6920    27.7490    28.3400    34.6520   -19.2170 
  138.7500     2.7020   215.5850    51.3030    24.7000    28.1470    28.3180    34.5520   -19.1710 
  138.8750     2.6870   213.6950    50.0020    24.7210    29.9690    28.2610    34.4140   -19.1280 
  139.0000     2.6560   213.9910    47.0640    24.7920    31.3130    28.4250    34.3390   -19.0190 
  139.1250     2.6080   218.8500    44.8920    24.8840    31.9290    28.7770    33.9570   -18.9280 
  139.2500     2.5540   229.1440    44.9780    24.9250    33.6750    28.8260    32.8040   -18.9440 
  139.3750     2.5050   244.7740    46.2840    24.9280    35.8630    28.1840    30.7640   -18.9800 
  139.5000     2.4700   263.3220    48.9640    24.9520    34.6390    26.8930    28.2900   -18.9210 
  139.6250     2.4590   279.0480    52.4880    24.9890    28.7130    25.5140    26.3750   -18.6740 
  139.7500     2.4640   287.2280    54.7800    24.9990    24.4170    24.7570    25.7400   -18.1670 
  139.8750     2.4770   286.4180    54.2800    25.0120    26.2340    25.0780    26.7370   -17.5090 
  140.0000     2.4930   278.4350    50.8690    25.0180    33.9040    26.6550    29.3900   -16.8420 
  140.1250     2.5060   266.6190    48.0490    24.9620    41.6150    29.3870    33.4470   -16.2170 
  140.2500     2.5180   254.6480    46.7910    24.8860    43.8570    32.3180    37.5870   -15.6820 
  140.3750     2.5280   243.8360    47.1320    24.8620    40.9810    34.4560    40.3250   -15.3160 
  140.5000     2.5380   234.7670    49.1280    24.9080    36.8650    35.0860    40.6560   -15.1330 
  140.6250     2.5510   228.3700    52.8980    24.9870    34.7670    34.1830    38.6900   -15.0470 
  140.7500     2.5650   224.6090    54.4190    25.0260    34.8180    32.8280    36.1730   -15.1340 
  140.8750     2.5780   223.0990    52.6210    24.9840    35.5740    31.6660    34.2080   -15.5460 
