~V
VERS. 2.00: Ver 2.00
~W
STRT.M 51.0000:
STOP.M 228.0000:
STEP.M 0.1250:
NULL. -999.2500:
UWI. DF314:
~C
DEPT.M :
DEN.GM/CC :
AC.US/MT :
GR.API :
CALI.CM :
RXO.OHMM :
RI. :
RML.OHMM :
SP.MV :
~A
# ...
  101.0000     2.0690   499.3920    58.4410    27.7640    33.1670    31.2100    33.3750    -6.0450 
  101.1250     2.1140   483.7260    60.3730    29.1480    31.2690    27.1990    29.0740    -6.8820 
  101.2500     2.1700   460.6700    64.5720    29.8800    25.0410    22.2760    22.9160    -7.6280 
  101.3750     2.2240   438.9640    69.9670    28.9000    17.1460    17.4280    17.0580    -8.5520 
  101.5000     2.2680   426.7910    75.2580    26.6230    11.5790    13.2840    13.1410    -9.6390 
  101.6250     2.2970   429.1360    79.4390    24.8720     9.4510    10.5170    10.8990   -10.4820 
  101.7500     2.3130   440.1850    81.0820    24.3620     8.5480     8.7440     9.6550   -10.9620 
  101.8750     2.3120   454.8670    80.5740    24.3770     7.9340     7.7680     8.9290   -11.1180 
  102.0000     2.2940   470.1050    80.6210    24.2990     7.7340     7.4620     8.4580   -10.8760 
  102.1250     2.2600   485.1020    80.3140    24.2560     9.1290     7.9300     8.4260   -10.3940 
  102.2500     2.2180   499.3680    75.3290    24.4770    13.0650     9.2290     9.2710    -9.9540 
  102.3750     2.1790   511.4450    67.1520    24.9160    19.8590    11.5800    11.5540    -9.3240 
  102.5000     2.1470   519.8010    60.9570    25.3310    27.5910    15.0550    15.5490    -8.4640 
  102.6250     2.1270   523.7420    59.7030    25.5080    31.7560    19.1680    20.6520    -7.5980 
  102.7500     2.1120   525.6360    59.7560    25.5720    31.5600    22.5080    24.7080    -6.9340 
  102.8750     2.0990   526.9160    58.4940    25.8140    28.7560    24.1340    26.3490    -6.5310 
  103.0000     2.0870   527.1910    55.4270    26.4260    25.7900    24.2310    26.0720    -6.2750 
  103.1250     2.0780   523.1480    52.1030    27.0680    25.7470    23.9040    25.7220    -6.0080 
  103.2500     2.0750   513.1270    50.9230    27.1420    29.0830    24.1710    26.5330    -5.7430 
  103.3750     2.0780   497.8020    51.8420    26.6450    33.4690    25.2690    28.5450    -5.5760 
  103.5000     2.0820   480.2830    52.6380    26.1080    36.3290    27.0240    31.2470    -5.5180 
  103.6250     2.0850   465.2430    52.3520    26.2340    36.8490    28.8560    33.6460    -5.5580 
  103.7500     2.0860   455.0220    52.4800    27.0920    36.3850    29.9740    34.7740    -5.6020 
  103.8750     2.0880   449.8340    52.5060    28.3580    35.2090    29.9750    34.2790    -5.6710 
  104.0000     2.0920   448.6990    53.7740    29.3130    33.0460    29.0260    32.6200    -5.8730 
  104.1250     2.0910   450.8560    58.1580    29.1260    29.9510    27.7640    30.8380    -6.1420 
  104.2500     2.0790   454.7090    62.5590    28.2680    27.5750    26.9060    29.8080    -6.3120 
  104.3750     2.0480   458.6290    63.6310    27.4890    27.6840    26.8470    29.8820    -6.3640 
  104.5000     2.0000   460.3620    61.1900    27.2570    30.9720    27.8410    31.2090    -6.4730 
  104.6250     1.9540   457.1200    57.7310    27.5860    35.7050    30.1310    33.8930    -6.7330 
  104.7500     1.9410   449.1610    54.2660    28.2000    38.3320    33.0310    37.0210    -7.1120 
  104.8750     1.9780   437.5650    51.5050    29.1420    36.6240    35.2030    38.8890    -7.5290 
  105.0000     2.0670   424.2020    51.4200    30.3020    30.7940    34.8550    37.4170    -7.9770 
  105.1250     2.1840   411.4960    55.1710    30.6060    23.8180    30.7490    31.8190    -8.6460 
  105.2500     2.2860   401.2730    62.2830    29.2960    18.3560    24.6500    25.5720    -9.4890 
  105.3750     2.3490   394.9190    70.9730    27.0030    14.3280    18.7010    19.9610   -10.3890 
  105.5000     2.3670   393.7990    77.4470    25.1630    11.4640    14.2170    15.1520   -11.1980 
  105.6250     2.3490   399.8280    77.2410    24.6140     9.9770    11.3170    12.0430   -11.8920 
  105.7500     2.3210   410.7530    74.2260    24.5830     9.1600     9.4850    10.0780   -12.5560 
  105.8750     2.3000   423.0060    73.4890    24.6630     8.5110     8.4460     8.9640   -13.2200 
  106.0000     2.2950   431.9690    74.7240    24.8380     8.0380     7.9780     8.4620   -13.8520 
  106.1250     2.3150   433.1090    75.0400    24.9920     8.0260     7.9190     8.3990   -14.2900 
  106.2500     2.3540   428.0960    75.1380    25.0480     8.3010     8.0710     8.5620   -14.4630 
  106.3750     2.4030   420.1280    75.3470    25.0820     8.7270     8.3940     8.9080   -14.3830 
  106.5000     2.4460   412.5610    74.2180    25.1650     9.3500     8.8350     9.3810   -14.1880 
  106.6250     2.4630   408.1590    73.2170    25.2460    10.3830     9.2040     9.7770   -13.9090 
  106.7500     2.4500   407.6100    77.1480    25.2430    11.5210     9.2530     9.8300   -13.5280 
  106.8750     2.4170   411.3060    85.4840    25.1940    11.6980     8.8570     9.4050   -13.0770 
  107.0000     2.3750   418.4920    93.3250    25.1680    10.1140     8.0880     8.5800   -12.6440 
  107.1250     2.3410   426.3340    96.7250    25.1730     7.7070     7.1980     7.6260   -12.2770 
  107.2500     2.3170   431.2680    96.9970    25.1630     6.3010     6.4660     6.8410   -12.0140 
  107.3750     2.3020   432.2180    94.8630    25.1350     6.1560     6.0160     6.3580   -11.9050 
  107.5000     2.2930   430.9190    91.1870    25.1210     6.7000     5.8880     6.2210   -11.8820 
  107.6250     2.2880   431.3950    86.3040    25.2010     7.3220     6.0750     6.4210   -11.8470 
  107.7500     2.2820   435.6970    81.6950    25.4450     7.6960     6.4040     6.7740   -11.8510 
  107.8750     2.2740   442.9960    79.2380    25.8310     7.8710     6.7790     7.1770   -11.9680 
  108.0000     2.2630   450.7600    81.2750    26.1410     8.1430     7.1750     7.6010   -12.1130 
  108.1250     2.2520   456.1840    86.0980    26.0410     8.8770     7.5820     8.0370   -12.2150 
  108.2500     2.2460   459.2590    87.9540    25.6500     9.9310     7.9200     8.4000   -12.3710 
  108.3750     2.2490   461.3610    86.2940    25.2720    10.6770     8.0740     8.5650   -12.6090 
  108.5000     2.2600   464.0320    85.8350    25.0970    10.2940     7.9570     8.4400   -12.9660 
  108.6250     2.2730   467.5880    89.1970    25.1400     8.7470     7.5890     8.0450   -13.4250 
  108.7500     2.2800   470.0810    90.9480    25.3060     7.5760     7.1970     7.6240   -13.7270 
  108.8750     2.2790   469.4980    89.2060    25.5040     7.5910     6.9250     7.3330   -13.7710 
  109.0000     2.2750   465.3400    86.4940    25.5650     8.3480     6.8230     7.2230   -13.6610 
  109.1250     2.2730   459.7860    87.0250    25.4940     8.6340     6.8580     7.2620   -13.5690 
  109.2500     2.2770   456.8990    88.5100    25.6150     8.1670     6.8950     7.3010   -13.5020 
  109.3750     2.2850   458.8050    88.6120    26.0110     7.4740     6.8110     7.2100   -13.3780 
  109.5000     2.2940   464.9320    87.9040    26.3340     7.0280     6.5510     6.9320   -13.0900 
  109.6250     2.2950   472.3320    88.2640    26.1170     6.8380     6.1860     6.5410   -12.6940 
  109.7500     2.2860   478.2130    90.7120    25.6220     6.7420     5.8710     6.2030   -12.3860 
  109.8750     2.2670   482.6480    93.2630    25.2560     6.8270     5.7040     6.0240   -12.2230 
  110.0000     2.2410   487.1480    92.2480    25.2090     7.2050     5.7600     6.0830   -12.1860 
  110.1250     2.2130   492.7040    86.0540    25.4190     7.9960     6.1650     6.5180   -12.1210 
  110.2500     2.1900   497.4660    78.7480    25.6420     9.5180     6.9660     7.3770   -11.9650 
  110.3750     2.1720   498.3300    73.5630    25.7390    12.5280     8.2690     8.7740   -11.8170 
  110.5000     2.1620   492.6650    70.2170    25.6500    17.5470    10.1630    10.8050   -11.7620 
  110.6250     2.1630   479.0570    67.8050    25.4470    23.5390    12.7170    13.5440   -11.7490 
  110.7500     2.1800   461.1220    65.0930    25.2400    27.6780    15.5950    16.6300   -11.7120 
  110.8750     2.2150   441.9450    62.7640    25.0380    28.7510    18.4560    19.6980   -11.6480 
