~V
VERS. 2.00: Ver 2.00
~W
STRT.M 61.0000:
STOP.M 296.0000:
STEP.M 0.1250:
NULL. -999.2500:
UWI. DF312:
~C
DEPT.M :
DEN.GM/CC :
AC.US/MT :
GR.API :
CALI.CM :
RXO.OHMM :
RI. :
RML.OHMM :
SP.MV :
~A
# ...
  241.0000     2.3660   385.8550   101.1460    24.4050    10.7020    12.0030    13.1700   -11.0800 
  241.1250     2.3560   384.6030   100.0280    24.3990    10.7660    12.2870    13.2630   -10.9590 
  241.2500     2.3530   383.5800    96.6890    24.4080    10.7420    12.5670    13.2920   -10.8850 
  241.3750     2.3620   382.0090    94.4750    24.4170    10.7280    12.8520    13.3290   -10.8320 
  241.5000     2.3890   379.5390    94.6370    24.4260    10.8730    13.1600    13.4310   -10.8280 
  241.6250     2.4250   376.8200    95.8120    24.4280    11.1680    13.4750    13.5980   -10.8980 
  241.7500     2.4520   375.4200    94.8890    24.4130    11.3890    13.7330    13.7530   -11.0010 
  241.8750     2.4670   376.5630    92.0370    24.3820    11.4790    13.8510    13.8160   -11.0870 
  242.0000     2.4730   380.4970    89.1600    24.3820    11.4430    13.7510    13.7140   -11.1410 
  242.1250     2.4690   386.4680    88.7770    24.3860    11.2310    13.3410    13.3620   -11.1610 
  242.2500     2.4490   392.7230    89.8480    24.3650    10.9120    12.6820    12.8000   -11.1460 
  242.3750     2.4130   398.3470    90.5680    24.3310    10.4290    11.8590    12.1020   -11.1230 
  242.5000     2.3780   402.7070    90.4620    24.3420     9.8970    11.0210    11.4170   -11.1190 
  242.6250     2.3720   404.4900    90.7060    24.3650     9.6100    10.4250    11.0440   -11.1910 
  242.7500     2.3920   403.0190    91.4280    24.3760     9.8080    10.2770    11.2560   -11.3350 
  242.8750     2.4160   398.1630    92.4610    24.3620    10.8570    10.7900    12.2920   -11.5870 
  243.0000     2.4230   391.0790    92.6920    24.3330    12.9550    12.2240    14.4970   -11.9700 
  243.1250     2.4060   384.2570    91.1420    24.3140    16.6570    15.2510    19.1980   -12.5200 
  243.2500     2.3790   379.8400    88.2910    24.3190    23.5260    20.2490    26.7110   -13.2270 
  243.3750     2.3500   378.6220    85.0850    24.3870    33.8250    27.6290    36.5820   -14.0280 
  243.5000     2.3130   380.4480    81.6140    24.4810    44.0440    37.2030    47.6770   -14.8680 
  243.6250     2.2740   384.9690    76.8780    24.5430    51.8920    47.7970    58.7650   -15.6780 
  243.7500     2.2470   390.9280    72.5880    24.5680    58.6960    57.6290    68.9630   -16.4490 
  243.8750     2.2370   397.4890    70.8720    24.6030    63.1870    65.9800    77.6100   -17.1710 
  244.0000     2.2350   403.8160    71.1720    24.6440    63.6110    72.7170    84.3250   -17.8160 
  244.1250     2.2280   408.9860    69.5930    24.6370    62.7800    77.1370    88.2350   -18.3370 
  244.2500     2.2170   412.6940    66.0190    24.5860    64.3830    78.8030    89.1140   -18.7310 
  244.3750     2.2110   414.7280    63.0270    24.6070    66.3590    77.4170    86.8900   -19.0260 
  244.5000     2.2170   415.0030    63.1400    24.7250    63.8770    73.6190    82.3840   -19.2710 
  244.6250     2.2280   413.1830    65.0060    24.7940    54.9500    68.9130    77.2380   -19.4910 
  244.7500     2.2370   409.4290    67.2260    24.7840    47.0970    65.0900    73.1790   -19.6640 
  244.8750     2.2470   403.6660    69.6600    24.7570    46.0710    63.0480    70.9700   -19.7870 
  245.0000     2.2620   396.3750    70.9300    24.7520    50.4270    62.9950    70.6640   -19.8810 
  245.1250     2.2800   389.5040    69.7620    24.7460    53.8170    64.6030    71.7880   -19.9840 
  245.2500     2.2910   385.6560    68.0020    24.6550    54.1510    66.5490    73.0450   -20.0890 
  245.3750     2.2910   386.2860    67.1450    24.4250    52.6190    67.8310    73.5440   -20.2030 
  245.5000     2.2770   390.9470    67.2340    24.1130    50.3880    67.8600    72.8490   -20.2810 
  245.6250     2.2560   397.2570    68.3730    24.0520    48.4350    66.6210    71.0340   -20.2950 
  245.7500     2.2410   402.2730    70.5860    24.2380    46.6620    64.9600    68.9110   -20.2700 
  245.8750     2.2380   405.2150    72.8020    24.5340    45.9280    63.4050    67.0290   -20.2170 
  246.0000     2.2470   406.8170    73.8490    24.7180    46.1190    62.2710    65.7350   -20.1440 
  246.1250     2.2650   407.9630    73.2030    24.7600    46.2880    61.8550    65.3070   -20.0510 
  246.2500     2.2810   408.4270    72.4210    24.7710    46.4660    62.0890    65.5740   -19.9740 
  246.3750     2.2900   407.2810    72.1940    24.7480    48.2540    62.8040    66.3360   -19.9050 
  246.5000     2.2910   403.5520    72.3290    24.6640    51.4380    63.7110    67.2760   -19.8700 
  246.6250     2.2870   396.6430    71.3910    24.5670    52.7360    64.3900    67.9430   -19.8880 
  246.7500     2.2830   388.9580    70.5330    24.5100    50.1220    64.5260    68.0850   -19.9220 
  246.8750     2.2750   383.7680    69.5140    24.5620    46.3340    64.0840    67.7490   -19.9480 
  247.0000     2.2570   383.8590    66.3380    24.7280    44.9280    63.4510    67.3250   -19.9740 
  247.1250     2.2300   389.6170    63.1110    24.8110    44.4600    63.4920    67.6260   -20.0190 
  247.2500     2.2110   396.2440    63.3210    24.8310    43.0460    64.7910    69.1870   -20.0890 
  247.3750     2.2060   399.8700    66.6000    24.8490    43.6750    67.6070    72.2330   -20.1680 
  247.5000     2.2100   398.6700    70.3770    24.8540    49.6270    71.7880    76.5310   -20.1990 
  247.6250     2.2140   393.7690    72.4570    24.7710    56.6400    76.6420    81.3050   -20.1470 
  247.7500     2.2210   389.0330    73.4460    24.6630    58.6600    80.9460    85.3540   -20.0840 
  247.8750     2.2270   386.3870    74.0230    24.6250    57.4880    83.8580    87.8470   -20.0410 
  248.0000     2.2260   386.2570    75.4500    24.5740    58.4830    84.9380    88.4410   -20.0070 
  248.1250     2.2220   388.5080    76.8380    24.4910    63.5900    84.0380    87.2150   -19.9300 
  248.2500     2.2220   391.5990    76.2500    24.4180    68.1250    82.1550    85.2580   -19.7570 
  248.3750     2.2210   392.3760    75.0320    24.4120    68.3850    80.0960    83.3250   -19.4900 
  248.5000     2.2130   385.5600    75.6740    24.3910    64.5430    78.4270    81.9110   -19.1780 
  248.6250     2.2040   364.8570    76.3790    24.3260    60.9080    77.4310    81.2570   -18.8680 
  248.7500     2.2050   334.9770    75.8690    24.4430    59.5430    76.9040    81.0410   -18.5440 
  248.8750     2.2130   305.4950    75.1340    24.5850    59.1500    76.5770    80.8880   -18.1830 
  249.0000     2.2200   287.8770    74.1940    24.6060    57.1150    76.0950    80.4290   -17.7560 
  249.1250     2.2220   290.8530    72.5250    24.5770    53.4920    75.2090    79.5660   -17.2370 
  249.2500     2.2320   305.2710    71.6410    24.5870    51.2310    74.4420    78.9770   -16.7100 
  249.3750     2.2620   318.9130    73.1440    24.6370    52.7970    74.8360    79.7180   -16.1960 
  249.5000     2.3170   321.1920    74.0360    24.6720    57.3190    77.7080    83.0230   -15.6530 
  249.6250     2.3870   306.3520    71.8300    24.5820    63.5800    85.1350    90.8080   -15.0710 
  249.7500     2.4570   281.9680    71.4550    24.4830    73.8760    97.4430   103.3130   -14.4540 
  249.8750     2.5230   255.4370    74.3000    24.4200    90.3800   114.7310   120.7510   -13.8240 
  250.0000     2.5810   232.6470    75.9740    24.3980   107.8560   136.1370   142.3180   -13.2320 
  250.1250     2.6260   217.6580    71.5210    24.3790   114.9850   158.8340   162.8200   -12.6820 
  250.2500     2.6590   209.0510    65.7070    24.3560   115.3920   175.5210   170.9800   -12.1100 
  250.3750     2.6810   205.1740    63.6980    24.3420   113.5970   174.9530   157.0060   -11.4920 
  250.5000     2.6960   205.6350    65.5660    24.3360   104.4270   147.3360   121.6850   -10.8660 
  250.6250     2.6970   215.3270    66.9830    24.3170    78.2940    99.1670    79.1380   -10.2320 
  250.7500     2.6700   238.8730    66.0250    24.2900    44.7640    57.0640    45.4710    -9.5350 
  250.8750     2.6050   278.5830    66.0890    24.1960    20.4540    30.2030    24.2750    -8.7430 
