~V
VERS. 2.00: Ver 2.00
~W
STRT.M 58.0000:
STOP.M 221.0000:
STEP.M 0.1250:
NULL. -999.2500:
UWI. DF318:
~C
DEPT.M :
DEN.GM/CC :
SP.MV :
AC.US/MT :
GR.API :
CALI.CM :
RXO.OHMM :
RI. :
RML.OHMM :
~A
   58.0000  -999.2500   207.6550  -999.2500  -999.2500  -999.2500  -999.2500  -999.2500  -999.2500 
   58.1250  -999.2500   207.2600  -999.2500  -999.2500  -999.2500  -999.2500  -999.2500  -999.2500 
   58.2500  -999.2500   206.8480  -999.2500  -999.2500  -999.2500  -999.2500  -999.2500  -999.2500 
   58.3750  -999.2500   206.6160   183.0880  -999.2500  -999.2500  -999.2500  -999.2500  -999.2500 
   58.5000  -999.2500   206.7750   183.0880  -999.2500  -999.2500  -999.2500  -999.2500  -999.2500 
   58.6250  -999.2500   207.2530   183.1170  -999.2500  -999.2500  -999.2500  -999.2500  -999.2500 
   58.7500  -999.2500   207.9010   183.2090  -999.2500  -999.2500  -999.2500  -999.2500  -999.2500 
   58.8750  -999.2500   208.6880   183.3030    43.8720  -999.2500     1.4640     0.5570     7.3750 
   59.0000  -999.2500   213.4670   183.3630    43.8720    25.5280     1.4640     0.5570     7.3750 
   59.1250  -999.2500   216.6040   183.4240    43.8820    25.5280     1.5620     0.5540     7.3030 
   59.2500  -999.2500   217.1220   183.5310    45.7340    25.5380     1.8720     0.5440     7.1930 
   59.3750  -999.2500   216.9660   183.6960    46.5290    25.5670     3.0270     0.5290     7.1070 
   59.5000  -999.2500   215.8100   183.9010    43.2160    25.6570     5.8520     0.5160     7.0180 
   59.6250  -999.2500   213.8960   184.1090    39.8620    25.7770     9.1540     0.5110     6.9080 
   59.7500  -999.2500   211.4710   184.2710    40.8340    25.8650    10.3890     0.5150     6.7900 
   59.8750  -999.2500   208.6880   184.3050    43.7500    25.8900     8.8000     0.5310     6.6930 
   60.0000  -999.2500   201.8200   184.0770    43.9590    25.8690     7.1840     0.5510     6.5580 
   60.1250  -999.2500   196.4300   183.6020    41.4690    25.8570     5.9430     0.5710     6.2760 
   60.2500  -999.2500   193.2530   182.9250    39.6610    25.8540     4.8980     0.5860     5.7920 
   60.3750  -999.2500   189.9850   182.1020    41.6830    25.8540     4.2400     0.5920     5.2040 
   60.5000  -999.2500   186.5870   181.2270    44.1030    25.8460     3.8470     0.5900     4.6800 
   60.6250  -999.2500   183.2100   180.4570    44.2700    25.8260     3.5930     0.5800     4.2060 
   60.7500  -999.2500   179.7130   179.9360    42.4610    25.8070     3.3400     0.5630     3.6410 
   60.8750  -999.2500   175.7260   179.8080    42.4460    25.7970     3.1580     0.5410     2.8330 
   61.0000     2.0760   171.0440   180.2210    43.8340    25.7850     3.0210     0.5190     1.9010 
   61.1250     2.0760   166.1550   180.9890    44.3070    25.7630     2.8840     0.5040     1.0760 
   61.2500     2.1190   161.4850   181.8940    43.6880    25.7380     2.6540     0.4990     0.5590 
   61.3750     2.1780   157.2790   182.7010    45.3330    25.6920     2.3110     0.5120     0.4470 
   61.5000     2.2060   153.8410   183.1620    49.7380    25.4590     2.0210     0.5400     0.5510 
   61.6250     2.2180   150.6220   183.2070    52.4570    25.0140     1.8880     0.5800     0.7140 
   61.7500     2.2220   147.3970   182.8980    51.0410    24.5720     1.8580     0.6260     0.8130 
   61.8750     2.2180   144.2640   182.4790    49.2350    24.3230     1.8900     0.6670     0.7390 
   62.0000     2.2070   141.2540   182.3250    50.4550    24.2490     1.9530     0.6930     0.5280 
   62.1250     2.1990   137.8700   182.6000    51.4770    24.1950     2.0260     0.6990     0.2830 
   62.2500     2.1870   133.7950   183.2180    49.1220    24.1600     2.1130     0.6870     0.1040 
   62.3750     2.1530   129.0090   183.8610    46.6670    24.1710     2.3080     0.6680     0.0380 
   62.5000     2.0890   123.2980   184.0630    47.3370    24.3570     2.6240     0.6550     0.0330 
   62.6250     2.0200   117.2060   183.7350    50.3530    24.7580     2.9210     0.6590     0.0430 
   62.7500     1.9660   111.2460   183.0370    52.2370    25.3080     3.0950     0.6820     0.0420 
   62.8750     1.9270   105.6220   182.2410    51.9580    25.6630     3.1650     0.7260     0.0310 
   63.0000     1.8960   100.3240   181.6250    52.2280    25.7490     3.3120     0.7820     0.0190 
   63.1250     1.8740    95.1580   181.2760    54.1830    25.7720     3.6930     0.8410     0.0000 
   63.2500     1.8660    90.0910   181.1850    56.1840    25.8220     4.3320     0.8960    -0.0490 
   63.3750     1.8730    85.3750   181.2930    54.4930    25.8690     5.1550     0.9400    -0.1520 
   63.5000     1.8890    81.5100   181.8020    50.3680    25.9000     6.3870     0.9730    -0.2790 
   63.6250     1.9080    78.3180   185.6760    47.6980    25.9180     9.2840     0.9990    -0.3850 
   63.7500     1.9290    75.6430   199.0440    47.8060    25.9390    15.2500     1.0160    -0.4350 
   63.8750     1.9390    73.5750   226.4430    49.7760    25.9780    20.8060     1.0180    -0.4130 
   64.0000     1.9210    72.5170   267.3940    50.2140    26.0020    23.5070     0.9990    -0.3380 
   64.1250     1.8920    72.6600   310.5890    47.9490    26.0050    26.3380     0.9430    -0.2500 
   64.2500     1.8750    74.1310   347.0140    45.6230    25.9980    32.0030     0.8180    -0.2630 
   64.3750     1.8840    76.6640   371.2300    44.7360    25.9940    36.6940     0.5840    -0.4650 
   64.5000     1.9090    80.0390   381.7840    43.6740    25.9940    37.4870     0.3270    -0.6440 
   64.6250     1.9270    84.0900   385.9560    42.2640    25.9940    36.1340     0.1350    -0.7370 
   64.7500     1.9310    88.4990   389.0120    42.2180    25.9940    29.4590     0.0280    -0.7740 
   64.8750     1.9470    92.4530   394.7880    43.7140    25.9930    16.6060    -0.0090    -0.7780 
   65.0000     2.0260    94.4080   408.2440    44.7060    25.9800     6.6400     0.0080    -0.7480 
   65.1250     2.1380    93.2840   430.2140    48.2760    25.8780     4.3670     0.1130    -0.6530 
   65.2500     2.2140    88.7680   458.3830    55.7900    25.6140     5.4830     0.4040    -0.4130 
   65.3750     2.2130    81.6710   487.4620    62.9330    25.2600     7.4590     1.1640     0.2500 
   65.5000     2.1690    72.5260   509.6720    67.8450    25.1740     8.4840     2.5300     1.5520 
   65.6250     2.1450    62.0240   520.1010    70.6480    25.1580     8.7080     4.3160     3.2470 
   65.7500     2.1460    50.6050   517.0800    73.1520    25.1540     8.5710     5.8930     4.4410 
   65.8750     2.1590    39.0250   503.5530    76.6810    25.0850     8.3860     6.6960     4.7470 
   66.0000     2.1750    28.6940   486.6490    80.2950    24.8550     8.0910     6.9780     4.7570 
   66.1250     2.2000    20.8340   473.5750    84.1450    24.5610     7.4690     6.9620     4.6830 
   66.2500     2.2320    15.7800   466.1880    88.2840    24.3710     6.6730     6.7650     4.5500 
   66.3750     2.2590    12.6580   463.3070    93.1500    24.3130     6.0320     6.4730     4.3670 
   66.5000     2.2740    10.7750   462.2130    97.3180    24.3740     5.7560     6.1980     4.1940 
   66.6250     2.2800     9.5400   460.6950    99.4270    24.5430     5.6130     5.9960     4.0800 
   66.7500     2.2830     8.6720   458.8770   100.0630    24.7370     5.5690     5.8810     4.0430 
   66.8750     2.2860     7.9510   457.3570   101.5000    24.8070     5.7270     5.8300     4.0590 
   67.0000     2.2880     7.3360   456.6370   104.9370    24.7720     5.9800     5.7880     4.0660 
   67.1250     2.2900     6.6920   456.4850   109.1800    24.7180     6.1080     5.7560     4.0640 
   67.2500     2.2890     5.8670   455.8970   110.8210    24.7110     6.0730     5.8110     4.1270 
   67.3750     2.2870     5.0010   452.0750   109.7060    24.7580     6.1560     6.1770     4.4440 
   67.5000     2.2930     4.1670   438.1690   106.2710    24.8500     6.7740     7.0310     5.1590 
   67.6250     2.3180     3.2080   410.5430    99.5690    24.9130     8.7420     8.5520     6.4620 
   67.7500     2.3670     2.1940   369.2580    90.9680    24.9300    13.5820    10.8020     8.5240 
   67.8750     2.4300     1.1580   321.7470    83.4190    24.9270    18.7580    13.4210    11.1860 
