~V
VERS. 2.00: Ver 2.00
~W
STRT.M 60.0000:
STOP.M 248.0000:
STEP.M 0.1250:
NULL. -999.2500:
UWI. DF313:
~C
DEPT.M :
DEN.GM/CC :
SP.MV :
AC.US/MT :
GR.API :
CALI.CM :
RXO.OHMM :
RI. :
RML.OHMM :
~A
# ...
  190.0000     2.3950   -20.2180   425.8900    82.9430    24.7170     7.0800     6.3140     7.4160 
  190.1250     2.3930   -20.1670   421.7710    85.1660    24.7180     7.1790     6.2130     7.3570 
  190.2500     2.4050   -20.0190   416.4850    83.3260    24.7220     7.3230     6.1860     7.4370 
  190.3750     2.4330   -19.8220   411.3950    79.6080    24.7330     7.4550     6.2350     7.6300 
  190.5000     2.4660   -19.6210   408.2040    77.5930    24.7370     7.7650     6.3450     7.9020 
  190.6250     2.4780   -19.4530   407.1670    80.1340    24.7290     8.4470     6.4780     8.1930 
  190.7500     2.4660   -19.3370   407.6400    85.5710    24.7310     9.1210     6.5640     8.3870 
  190.8750     2.4410   -19.2670   408.3110    88.6600    24.7130     9.0480     6.5560     8.4120 
  191.0000     2.4240   -19.2610   407.5960    87.2090    24.6440     8.2520     6.4480     8.2620 
  191.1250     2.4280   -19.2880   405.1670    82.9280    24.5520     7.4610     6.2780     8.0140 
  191.2500     2.4400   -19.3190   401.3320    79.8800    24.5200     7.3000     6.1110     7.7800 
  191.3750     2.4440   -19.3400   396.5700    79.5050    24.5430     7.4720     5.9980     7.6410 
  191.5000     2.4400   -19.3200   390.9790    81.8750    24.5570     7.6980     5.9730     7.6530 
  191.6250     2.4450   -19.2390   384.7570    84.8530    24.5340     7.8960     6.0710     7.8750 
  191.7500     2.4670   -19.0980   378.5210    86.8640    24.4880     7.9970     6.3370     8.3830 
  191.8750     2.4910   -18.9280   373.7480    87.4880    24.4610     8.0630     6.7190     9.0700 
  192.0000     2.4950   -18.7320   373.1310    87.3080    24.4640     8.5080     7.1270     9.7460 
  192.1250     2.4640   -18.5200   377.1640    87.1170    24.4800     9.4890     7.4040    10.1090 
  192.2500     2.4170   -18.3170   384.9720    86.4890    24.4690     9.8260     7.3230     9.7720 
  192.3750     2.3780   -18.1410   394.2550    84.5150    24.4420     8.6830     6.9090     8.8800 
  192.5000     2.3610   -18.0160   401.8280    81.5460    24.4420     6.9140     6.3140     7.7830 
  192.6250     2.3600   -17.9340   406.2660    78.9100    24.4880     5.8560     5.7410     6.8560 
  192.7500     2.3570   -17.8850   407.7500    77.5000    24.5560     5.8350     5.3730     6.3810 
  192.8750     2.3500   -17.8670   407.5040    75.5280    24.6110     6.0900     5.2290     6.3080 
  193.0000     2.3480   -17.8810   407.1530    74.7390    24.6460     6.3420     5.2830     6.5280 
  193.1250     2.3540   -17.9280   407.7620    78.4360    24.6600     6.5890     5.4580     6.8720 
  193.2500     2.3590   -18.0450   409.4810    83.7200    24.6530     6.7930     5.6550     7.1570 
  193.3750     2.3520   -18.1630   411.9170    86.7350    24.6460     6.8810     5.7990     7.3080 
  193.5000     2.3350   -18.2530   414.3480    88.3440    24.6480     6.8360     5.8710     7.3370 
  193.6250     2.3220   -18.3300   416.1880    90.3670    24.6680     6.7650     5.8790     7.2860 
  193.7500     2.3210   -18.4240   417.2490    92.6200    24.7100     6.8030     5.8360     7.1930 
  193.8750     2.3270   -18.5170   417.6220    94.4910    24.7510     6.8760     5.7720     7.0990 
  194.0000     2.3370   -18.6140   417.4560    97.3940    24.7570     6.8700     5.7090     7.0310 
  194.1250     2.3450   -18.7640   416.9280   100.6870    24.7000     6.7810     5.6660     7.0190 
  194.2500     2.3460   -18.9710   415.9880   101.0740    24.6060     6.7520     5.6700     7.1100 
  194.3750     2.3360   -19.2270   414.5880    98.4390    24.5720     6.8800     5.7220     7.3030 
  194.5000     2.3180   -19.4970   412.7850    94.5610    24.6280     7.1290     5.8150     7.5740 
  194.6250     2.3000   -19.7400   410.8830    92.4490    24.7150     7.3840     5.9220     7.8580 
  194.7500     2.2930   -19.8880   409.0260    92.0540    24.7550     7.5510     5.9940     8.0430 
  194.8750     2.3000   -19.9200   407.1090    91.8800    24.7550     7.6580     6.0140     8.0910 
  195.0000     2.3130   -19.8460   404.5090    94.4340    24.7440     7.7390     5.9990     8.0330 
  195.1250     2.3240   -19.6790   400.5770    98.9360    24.7490     7.8650     6.0000     7.9840 
  195.2500     2.3360   -19.4270   394.8270   101.9050    24.7830     8.2740     6.1430     8.1970 
  195.3750     2.3530   -19.1420   387.3120   101.5990    24.8190     9.1370     6.5470     8.8940 
  195.5000     2.3750   -18.8700   378.9600    98.1460    24.8360    10.6840     7.3450    10.2780 
  195.6250     2.3880   -18.6600   371.7440    91.6480    24.8390    13.4240     8.6440    12.4730 
  195.7500     2.3870   -18.5290   367.3770    83.1290    24.8420    18.5060    10.5420    15.5000 
  195.8750     2.3700   -18.4890   366.9110    76.4670    24.8420    25.0700    12.6980    18.6800 
  196.0000     2.3400   -18.5410   370.7460    73.4570    24.8390    29.7130    14.5920    21.0960 
  196.1250     2.3090   -18.6170   376.8000    72.1610    24.8310    29.1410    15.6500    21.9270 
  196.2500     2.2910   -18.6680   383.3770    71.6800    24.8110    24.3800    15.4960    20.9240 
  196.3750     2.2860   -18.7060   389.1010    72.8360    24.7850    20.4380    14.6150    19.1130 
  196.5000     2.2900   -18.7300   393.0090    75.1220    24.7650    18.3460    13.4120    17.1420 
  196.6250     2.2960   -18.7030   395.4530    76.0430    24.7560    16.9600    12.2150    15.4110 
  196.7500     2.3020   -18.6280   396.8550    74.8420    24.7560    15.3470    11.2860    14.1840 
  196.8750     2.3100   -18.5100   397.6220    75.9440    24.7560    14.0790    10.6680    13.4160 
  197.0000     2.3190   -18.3520   397.9230    80.6040    24.7650    14.1960    10.3640    13.0730 
  197.1250     2.3280   -18.1900   397.8470    84.9410    24.7890    15.9680    10.3540    13.1000 
  197.2500     2.3310   -18.0390   397.3680    86.2970    24.8160    17.6110    10.6200    13.4190 
  197.3750     2.3320   -17.8970   396.5610    84.5260    24.8290    17.3880    11.0160    13.8160 
  197.5000     2.3350   -17.7780   395.7230    81.2050    24.8370    15.9940    11.4140    14.1370 
  197.6250     2.3400   -17.7140   395.2950    80.1180    24.8560    15.1010    11.6820    14.2530 
  197.7500     2.3390   -17.7270   395.5690    84.9330    24.8850    15.0260    11.6550    14.0100 
  197.8750     2.3350   -17.8090   396.5730    91.5790    24.9010    14.6620    11.3160    13.4190 
  198.0000     2.3370   -17.9460   398.0020    95.1750    24.9040    13.5930    10.6860    12.5070 
  198.1250     2.3530   -18.1350   399.2320    97.2720    24.9040    12.0480     9.8360    11.3480 
  198.2500     2.3720   -18.4100   399.8920    99.6130    24.9020    10.5320     8.8780    10.0810 
  198.3750     2.3840   -18.7180   399.9270    98.8010    24.8790     9.3600     7.9900     8.9330 
  198.5000     2.3820   -19.0300   399.5940    93.9360    24.8270     8.5840     7.3260     8.1280 
  198.6250     2.3580   -19.3490   399.3370    89.9540    24.7640     8.2560     7.0370     7.9030 
  198.7500     2.3150   -19.6790   399.2970    89.9320    24.7230     8.8200     7.3750     8.6400 
  198.8750     2.2680   -20.0230   399.3590    87.4900    24.7120    11.1190     8.4080    10.3830 
  199.0000     2.2360   -20.3950   399.2060    80.0220    24.7210    16.7720    10.2300    13.1630 
  199.1250     2.2400   -20.7890   398.6860    70.7000    24.7350    26.0550    12.7410    16.6710 
  199.2500     2.2720   -21.1580   397.8670    65.4030    24.7460    31.5330    15.2400    19.6620 
  199.3750     2.3130   -21.4960   396.9970    66.8110    24.7490    28.4970    16.6330    20.7510 
  199.5000     2.3370   -21.7980   396.4710    72.6910    24.7400    21.5780    16.5880    19.8680 
  199.6250     2.3280   -22.0820   396.4480    77.7680    24.7280    17.6000    15.7200    18.2170 
  199.7500     2.2980   -22.3430   396.8910    76.1150    24.7230    17.5910    14.9930    17.2310 
  199.8750     2.2710   -22.5670   397.5730    71.9570    24.7190    19.0120    14.9060    17.3470 
