~V
VERS. 2.00: Ver 2.00
~W
STRT.M 60.0000:
STOP.M 247.0000:
STEP.M 0.1250:
NULL. -999.2500:
UWI. DF315:
~C
DEPT.M :
DEN.GM/CC :
AC.US/MT :
GR.API :
RML.OHMM :
RI. :
RXO.OHMM :
CALI.CM :
SP.MV :
~A
# ...
  100.0000     2.2600   451.5410    99.5270    10.0200     9.0440     9.9400    24.8230   -19.1220 
  100.1250     2.2650   449.7550    99.2680    10.2160     9.2280     9.1800    24.8250   -19.1310 
  100.2500     2.2690   447.6270    99.9660    10.2410     9.2570     8.6830    24.8250   -19.1470 
  100.3750     2.2690   446.2700   100.5180    10.1280     9.1590     8.6620    24.8240   -19.1530 
  100.5000     2.2640   446.3540    99.4210     9.9200     8.9720     8.7340    24.8220   -19.1710 
  100.6250     2.2600   447.9300    96.6060     9.6610     8.7360     8.6450    24.8240   -19.1880 
  100.7500     2.2580   449.7290    94.9600     9.3980     8.4990     8.4390    24.8270   -19.1830 
  100.8750     2.2580   451.1710    95.2120     9.1410     8.2860     8.1930    24.8300   -19.2020 
  101.0000     2.2600   451.2040    95.6770     8.8960     8.1050     8.2550    24.8300   -19.2260 
  101.1250     2.2630   449.4770    95.1680     8.6030     7.9400     8.5530    24.8170   -19.1940 
  101.2500     2.2670   447.0440    96.1280     8.2760     7.7550     8.7530    24.7730   -19.1280 
  101.3750     2.2730   444.4180    99.4230     7.9420     7.5620     8.7440    24.6870   -19.0900 
  101.5000     2.2830   440.7460   102.8900     7.7350     7.4460     8.4920    24.5850   -19.0730 
  101.6250     2.3080   429.8440   105.8750     8.0210     7.6400     8.6170    24.5420   -19.0510 
  101.7500     2.3480   408.2390   108.9210     9.0230     8.2950    10.0990    24.5350   -19.0280 
  101.8750     2.3970   373.1720   110.0300    10.7160     9.4840    14.1130    24.5310   -18.9960 
  102.0000     2.4350   327.5680   106.4720    12.9100    11.1100    20.2420    24.5030   -18.9640 
  102.1250     2.4310   305.6500    97.8700    15.0200    12.8190    26.3360    24.4330   -18.9390 
  102.2500     2.3860   318.8810    90.6130    16.0690    14.0790    29.1270    24.3790   -18.8930 
  102.3750     2.3160   360.7790    87.5780    15.9520    14.5150    23.9870    24.3130   -18.8020 
  102.5000     2.2470   409.5250    86.6740    14.9350    14.0940    15.6970    24.2480   -18.6950 
  102.6250     2.2020   441.0420    87.4830    13.7220    13.2010    12.6270    24.2190   -18.6450 
  102.7500     2.1790   453.4910    89.6320    12.8850    12.4400    11.7420    24.2140   -18.6280 
  102.8750     2.1720   455.4320    91.8770    12.4440    12.0400    11.7090    24.2170   -18.5700 
  103.0000     2.1730   455.3280    91.0150    12.2510    11.9980    11.9600    24.2210   -18.4750 
  103.1250     2.1790   456.0220    87.5400    12.4370    12.1880    12.2550    24.2050   -18.3910 
  103.2500     2.1880   457.4050    87.1030    12.6630    12.3960    12.3980    24.1850   -18.3560 
  103.3750     2.1950   459.2200    90.5460    12.7610    12.5270    12.2560    24.1750   -18.3620 
  103.5000     2.1940   460.1370    93.8930    12.7550    12.5710    11.9790    24.1740   -18.3720 
  103.6250     2.1800   459.3390    93.8220    12.8310    12.6330    11.9550    24.1720   -18.3590 
  103.7500     2.1640   458.4840    92.5540    13.2410    12.8960    12.1770    24.1590   -18.3230 
  103.8750     2.1600   458.5050    90.9250    14.2720    13.5480    12.7970    24.1290   -18.2820 
  104.0000     2.1850   457.7730    87.2650    16.0350    14.7090    14.1900    24.1070   -18.2560 
  104.1250     2.2510   454.0280    80.7010    18.2180    16.3290    17.8230    24.0990   -18.2710 
  104.2500     2.3350   448.9370    74.1710    19.9700    17.8990    23.5350    24.0990   -18.2680 
  104.3750     2.4030   443.8090    70.5680    20.6580    18.8460    29.4500    24.0990   -18.2100 
  104.5000     2.4250   440.0190    72.0450    19.8330    18.6700    33.4950    24.0990   -18.1090 
  104.6250     2.3970   440.5120    79.6870    17.9960    17.1450    30.8390    24.0990   -18.0400 
  104.7500     2.3520   443.4390    87.1120    16.1170    15.1310    20.6680    24.0980   -18.0110 
  104.8750     2.3140   441.3520    89.9460    14.4820    13.3760    13.2500    24.1010   -17.9870 
  105.0000     2.2880   433.7390    88.7690    13.3580    12.2850    12.4240    24.1260   -17.9200 
  105.1250     2.2680   432.5860    85.6310    13.0870    11.9690    14.8370    24.2050   -17.8330 
  105.2500     2.2460   441.7830    82.9540    13.2430    12.0750    17.4670    24.3160   -17.7730 
  105.3750     2.2230   455.6210    82.7470    13.5170    12.3430    17.7970    24.4080   -17.7320 
  105.5000     2.2050   466.2770    84.3000    13.7070    12.5760    14.9110    24.3950   -17.6880 
  105.6250     2.1920   471.0180    85.7580    13.8170    12.7360    11.8430    24.2950   -17.5640 
  105.7500     2.1830   472.0770    83.7100    14.0740    12.9890    11.1490    24.2450   -17.4130 
  105.8750     2.1740   471.3520    80.7290    14.6600    13.4960    11.6080    24.2340   -17.2990 
  106.0000     2.1650   469.7870    82.5630    15.6080    14.3050    12.9240    24.2330   -17.2180 
  106.1250     2.1600   466.4360    87.3970    16.7610    15.3050    14.8420    24.2390   -17.1140 
  106.2500     2.1580   463.8500    87.7950    17.7690    16.2080    16.4740    24.2660   -16.9860 
  106.3750     2.1600   463.6700    82.9620    18.3950    16.8020    17.0340    24.3240   -16.8490 
  106.5000     2.1640   464.5910    79.5410    18.5430    16.9990    16.5590    24.3670   -16.7360 
  106.6250     2.1690   465.3160    80.5190    18.2800    16.8460    15.6050    24.3810   -16.6260 
  106.7500     2.1710   465.6640    80.9310    17.8590    16.5960    14.8240    24.3810   -16.5070 
  106.8750     2.1730   465.9010    79.8410    17.4580    16.3980    14.6230    24.3810   -16.3880 
  107.0000     2.1760   465.5870    78.5130    17.2510    16.3240    15.1490    24.3810   -16.2480 
  107.1250     2.1830   463.0900    78.9820    17.3040    16.4010    16.0540    24.3810   -16.0900 
  107.2500     2.1950   458.5290    81.8390    17.6080    16.6110    16.8960    24.3820   -15.9480 
  107.3750     2.2100   453.1250    85.5720    18.1680    16.9840    17.5120    24.3970   -15.8070 
  107.5000     2.2250   448.3570    88.1570    18.9570    17.5740    17.8440    24.4550   -15.6800 
  107.6250     2.2340   445.2570    85.5900    19.9590    18.4770    18.7360    24.5870   -15.5700 
  107.7500     2.2340   443.7530    77.8510    21.2700    19.6340    20.7620    24.7240   -15.4480 
  107.8750     2.2270   443.3870    68.0720    22.7640    20.9430    23.4410    24.8010   -15.3400 
  108.0000     2.2150   444.3570    62.4110    24.2110    22.2150    25.2210    24.8230   -15.2470 
  108.1250     2.2000   447.4970    63.0770    25.2560    23.1550    25.9190    24.8240   -15.1980 
  108.2500     2.1860   451.3460    65.5830    25.7250    23.6430    26.1920    24.8230   -15.1760 
  108.3750     2.1770   453.7530    67.3130    25.5980    23.6790    25.9300    24.8180   -15.1820 
  108.5000     2.1740   453.9160    68.3810    24.9870    23.3910    25.1770    24.8140   -15.1610 
  108.6250     2.1780   453.1760    70.0800    24.1850    22.9740    24.3640    24.8130   -15.1900 
  108.7500     2.1830   452.9610    70.2600    23.5760    22.6300    23.9800    24.8130   -15.2530 
  108.8750     2.1830   453.2460    67.5340    23.5170    22.4900    24.1240    24.8130   -15.2740 
  109.0000     2.1770   453.4700    64.1320    24.1370    22.6760    24.3810    24.8130   -15.3380 
  109.1250     2.1680   452.4540    64.3700    25.3410    23.3340    24.6770    24.8130   -15.4110 
  109.2500     2.1650   449.4910    67.9050    26.6680    24.2920    25.0140    24.8130   -15.4850 
  109.3750     2.1760   443.6690    69.0990    27.8440    25.1700    25.9830    24.8130   -15.5810 
  109.5000     2.2020   434.7950    67.9870    28.1450    25.3470    26.9540    24.8130   -15.6860 
  109.6250     2.2380   426.4180    69.9340    26.4080    23.8840    26.4430    24.8150   -15.8050 
  109.7500     2.2720   424.2450    75.7130    22.7960    20.7910    23.8450    24.8290   -15.9510 
  109.8750     2.2980   430.7430    83.6130    18.0810    16.6220    18.9670    24.8660   -16.0980 
