~V
VERS. 2.00: Ver 2.00
~W
STRT.M 60.0000:
STOP.M 248.0000:
STEP.M 0.1250:
NULL. -999.2500:
UWI. DF313:
~C
DEPT.M :
DEN.GM/CC :
SP.MV :
AC.US/MT :
GR.API :
CALI.CM :
RXO.OHMM :
RI. :
RML.OHMM :
~A
# ...
  140.0000     2.3280   -13.7370   441.0000    84.8560    24.4010    13.5760    12.7860    13.9940 
  140.1250     2.3450   -13.7430   441.0430    90.6400    24.4280    10.3510    10.4780    11.0990 
  140.2500     2.3380   -13.7480   440.0680    90.6850    24.4960     8.1990     9.0100     9.4530 
  140.3750     2.3170   -13.7340   437.9350    90.2470    24.5640     7.4460     8.2490     8.7900 
  140.5000     2.2900   -13.7020   433.5810    89.9000    24.6080     8.1300     8.0630     8.8540 
  140.6250     2.2690   -13.6580   426.5180    87.3050    24.6130     9.9700     8.2700     9.3130 
  140.7500     2.2630   -13.5920   416.8130    82.7950    24.5880    11.4790     8.6390     9.7950 
  140.8750     2.2740   -13.5120   405.7160    79.3350    24.5640    11.2180     8.9540    10.1090 
  141.0000     2.2960   -13.4490   396.0680    77.5770    24.5640     9.5750     9.1890    10.3260 
  141.1250     2.3130   -13.4140   390.2990    77.4800    24.6120     8.0820     9.3980    10.5790 
  141.2500     2.3130   -13.4090   389.5340    80.6630    24.6920     8.0870     9.5990    10.8770 
  141.3750     2.2950   -13.4260   393.3160    85.2780    24.7200     9.4730     9.7260    11.0500 
  141.5000     2.2640   -13.4660   400.0270    86.2470    24.6740    11.4200     9.7180    10.9870 
  141.6250     2.2320   -13.5300   406.9020    84.2280    24.6050    12.6340     9.6260    10.8100 
  141.7500     2.2080   -13.6410   412.5690    81.2220    24.5630    12.7610     9.7470    11.0710 
  141.8750     2.1950   -13.7830   416.5210    77.1670    24.5440    13.5680    10.4630    12.3550 
  142.0000     2.1890   -13.9480   418.4810    72.2100    24.5560    16.6620    12.2160    15.2050 
  142.1250     2.1730   -14.0970   418.4510    67.3520    24.6190    23.2850    15.5010    20.0960 
  142.2500     2.1410   -14.2300   415.3570    63.1060    24.7050    34.3770    20.9500    27.4960 
  142.3750     2.1150   -14.3290   407.3650    59.7770    24.7420    44.6860    27.5030    35.7730 
  142.5000     2.1300   -14.3910   391.1160    58.9490    24.7170    47.8460    33.1430    42.1860 
  142.6250     2.2160   -14.4270   366.9860    59.6520    24.6690    43.8100    36.0270    44.5750 
  142.7500     2.3410   -14.4520   336.6850    57.4500    24.6220    39.0140    36.1700    43.7300 
  142.8750     2.4670   -14.4780   304.3910    53.7670    24.5960    37.3580    35.9210    43.1010 
  143.0000     2.5640   -14.4770   277.6540    52.0570    24.6230    39.9750    36.6410    44.2870 
  143.1250     2.6120   -14.4940   262.1040    52.6430    24.6880    48.4590    38.8410    47.5870 
  143.2500     2.6140   -14.5270   260.9600    52.3800    24.7110    59.9970    41.9430    51.8430 
  143.3750     2.5660   -14.5790   274.1510    51.9660    24.6760    64.8760    43.9170    54.0880 
  143.5000     2.4760   -14.6350   299.2150    54.3920    24.6270    60.0600    43.0260    52.0260 
  143.6250     2.3700   -14.6770   327.6660    58.8030    24.5880    49.6280    38.9560    45.8240 
  143.7500     2.2790   -14.7090   353.1920    61.2790    24.5390    38.2470    33.2650    38.3550 
  143.8750     2.2180   -14.7620   370.9090    62.2200    24.4820    28.4060    28.3490    32.5620 
  144.0000     2.1940   -14.8520   376.8590    64.1520    24.3860    22.2590    25.1300    29.2380 
  144.1250     2.2140   -14.9330   373.8640    66.2460    24.2320    20.6730    23.6680    28.1940 
  144.2500     2.2590   -14.9940   364.7850    66.0490    24.0610    23.5720    23.7240    28.9350 
  144.3750     2.3100   -15.0550   352.5840    64.8110    23.9180    28.0710    24.4180    30.1920 
  144.5000     2.3550   -15.1200   339.1230    62.6040    23.8290    30.9310    25.1350    31.1020 
  144.6250     2.3850   -15.1890   325.0950    60.0890    23.8090    30.1710    25.4770    31.2220 
  144.7500     2.4090   -15.2470   310.4080    58.3290    23.8160    27.2490    25.4130    30.7300 
  144.8750     2.4300   -15.2840   295.3630    57.4390    23.7550    26.3560    25.3780    30.4100 
  145.0000     2.4560   -15.3160   281.3570    56.1090    23.6770    29.0970    25.8070    30.8740 
  145.1250     2.4860   -15.3900   270.0050    54.8000    23.7060    32.7020    27.0660    32.5080 
  145.2500     2.5100   -15.5060   262.7070    54.6750    23.7820    31.9770    29.3990    35.4820 
  145.3750     2.5180   -15.6280   260.3380    53.4190    23.6950    29.9080    32.2560    39.0290 
  145.5000     2.5050   -15.7500   263.8070    50.9440    23.5170    33.8450    34.8760    42.1560 
  145.6250     2.4790   -15.8900   271.3640    50.4510    23.4710    45.3070    36.2760    43.6100 
  145.7500     2.4510   -16.0540   281.4630    53.0650    23.5790    49.2460    35.3690    42.0860 
  145.8750     2.4280   -16.2350   292.2530    54.7820    23.6330    40.4860    32.7500    38.5480 
  146.0000     2.4130   -16.4070   301.7140    54.2100    23.6270    28.7940    29.3880    34.3460 
  146.1250     2.4050   -16.5490   308.9960    53.3930    23.6940    23.0320    26.1680    30.5650 
  146.2500     2.3890   -16.6960   313.8700    54.1810    23.8980    21.2280    23.5680    27.6360 
  146.3750     2.3580   -16.8540   316.3530    56.1560    24.1050    19.7750    21.4030    25.1230 
  146.5000     2.3230   -17.0450   315.9150    58.2080    24.2620    18.7230    19.4880    22.7330 
  146.6250     2.3140   -17.2690   312.7940    59.3520    24.3710    18.4300    17.8180    20.5530 
  146.7500     2.3470   -17.4960   307.2610    62.1430    24.4290    17.4850    16.7840    19.3190 
  146.8750     2.4160   -17.7200   300.4240    66.5400    24.4110    15.4560    16.6790    19.5060 
  147.0000     2.4940   -17.9580   294.6890    67.2920    24.2830    14.2140    17.6870    21.2930 
  147.1250     2.5380   -18.1780   292.2010    61.2020    24.0860    16.2400    19.7280    24.4090 
  147.2500     2.5370   -18.3090   293.9520    54.1050    23.9200    22.8580    22.2740    27.8430 
  147.3750     2.5010   -18.3550   299.4910    50.9840    23.8050    28.9740    24.1710    29.9480 
  147.5000     2.4500   -18.2950   307.1390    51.8710    23.7340    28.8540    24.6240    29.7950 
  147.6250     2.4100   -18.1170   314.2290    56.0450    23.7760    22.9350    23.6310    27.7620 
  147.7500     2.3950   -17.8410   319.2290    62.1530    24.0530    17.9160    21.9160    25.2060 
  147.8750     2.3980   -17.5130   321.4660    64.5380    24.4150    16.0460    20.3900    23.2690 
  148.0000     2.3980   -17.1580   320.8820    63.3370    24.6150    15.5880    19.3610    22.2080 
  148.1250     2.3890   -16.8240   319.2500    62.9350    24.5610    15.2920    18.8280    21.8850 
  148.2500     2.3960   -16.5750   318.4260    63.8080    24.4640    15.2890    18.6610    22.0370 
  148.3750     2.4220   -16.4360   320.2670    63.1250    24.5340    16.4740    18.5920    22.2860 
  148.5000     2.4430   -16.4030   326.3110    61.2720    24.7770    19.1650    18.4570    22.4080 
  148.6250     2.4250   -16.4820   334.8600    60.2620    24.9690    22.2470    18.1470    22.2540 
  148.7500     2.3810   -16.6620   343.4240    60.3690    24.8680    23.1350    17.6740    21.8200 
  148.8750     2.3320   -16.8630   349.3440    60.2990    24.5990    21.8110    17.2840    21.4690 
  149.0000     2.2930   -17.0650   350.5350    60.2170    24.3530    20.0530    17.2850    21.6780 
  149.1250     2.2870   -17.2510   348.6540    59.6150    24.2700    19.7630    18.0300    22.9650 
  149.2500     2.3210   -17.4250   345.9610    59.4000    24.3130    22.3050    20.0740    26.0790 
  149.3750     2.3890   -17.5980   344.6000    60.1840    24.3800    27.1900    23.4340    30.9520 
  149.5000     2.4740   -17.7860   345.8310    60.3040    24.3930    33.4780    27.9490    37.2710 
  149.6250     2.5470   -17.9580   347.7510    58.7470    24.2670    39.0560    32.9510    44.0230 
  149.7500     2.5880   -18.1170   347.9640    57.0020    24.0360    40.1570    36.8210    48.8050 
  149.8750     2.5930   -18.3000   345.9760    56.5450    23.8110    37.7770    38.1880    49.8160 
