~V
VERS. 2.00: Ver 2.00
~W
STRT.M 65.0000:
STOP.M 277.0000:
STEP.M 0.1250:
NULL. -999.2500:
UWI. DF311:
~C
DEPT.M :
DEN.GM/CC :
SP.MV :
AC.US/MT :
GR.API :
CALI.CM :
RXO.OHMM :
RI. :
RML.OHMM :
~A
# ...
   95.0000  -999.2500   -26.9860  -999.2500    86.5510    23.9440     4.9070     4.6900     6.4440 
   95.1250  -999.2500   -27.1750  -999.2500    86.3270    23.9660     4.9530     4.7130     6.4460 
   95.2500  -999.2500   -27.4190  -999.2500    85.7820    23.9730     4.8340     4.6710     6.3480 
   95.3750  -999.2500   -27.7410  -999.2500    85.3190    23.9780     4.7090     4.6040     6.2190 
   95.5000  -999.2500   -28.0720  -999.2500    85.1100    23.9960     4.7570     4.5710     6.1630 
   95.6250  -999.2500   -28.4150  -999.2500    84.4420    24.0700     4.9920     4.6400     6.2910 
   95.7500  -999.2500   -28.7890  -999.2500    80.3980    24.1500     5.2680     4.8080     6.5860 
   95.8750  -999.2500   -29.1490  -999.2500    73.8700    24.2220     5.5560     5.0400     6.9790 
   96.0000  -999.2500   -29.4870  -999.2500    70.6680    24.2570     5.8620     5.2730     7.3530 
   96.1250  -999.2500   -29.8490  -999.2500    72.4060    24.2440     6.0130     5.4130     7.5450 
   96.2500  -999.2500   -30.2190  -999.2500    73.4970    24.1910     5.9790     5.4410     7.5520 
   96.3750  -999.2500   -30.5850  -999.2500    72.8410    24.1100     5.9010     5.3920     7.4590 
   96.5000  -999.2500   -30.9760  -999.2500    72.0860    24.0390     5.9350     5.3230     7.3680 
   96.6250  -999.2500   -31.4100  -999.2500    70.8170    24.0080     6.2440     5.2850     7.3520 
   96.7500  -999.2500   -31.8480  -999.2500    68.7230    24.0030     6.4960     5.2780     7.3910 
   96.8750  -999.2500   -32.3130  -999.2500    67.9150    24.0090     6.5350     5.2840     7.4460 
   97.0000  -999.2500   -32.8480  -999.2500    67.3250    24.0050     6.3690     5.2870     7.4950 
   97.1250  -999.2500   -33.4800  -999.2500    66.1600    23.9750     6.1650     5.2930     7.5540 
   97.2500  -999.2500   -34.1900  -999.2500    67.3820    23.9240     6.1050     5.3260     7.6570 
   97.3750  -999.2500   -34.9650  -999.2500    70.6670    23.8160     6.3090     5.4020     7.8150 
   97.5000  -999.2500   -35.7890  -999.2500    72.0480    23.5920     6.8160     5.5180     8.0210 
   97.6250  -999.2500   -36.6520  -999.2500    69.8960    23.3470     7.3610     5.6620     8.2590 
   97.7500  -999.2500   -37.5550  -999.2500    67.8170    23.2150     7.6100     5.8260     8.5280 
   97.8750  -999.2500   -38.4530  -999.2500    66.7980    23.2200     7.8260     6.0200     8.8510 
   98.0000  -999.2500   -39.3210  -999.2500    65.1510    23.3070     8.2350     6.2630     9.2550 
   98.1250  -999.2500   -40.0770  -999.2500    65.0770    23.3650     8.6410     6.6070     9.8040 
   98.2500  -999.2500   -40.7050  -999.2500    65.7700    23.3560     9.0540     7.0690    10.5100 
   98.3750  -999.2500   -41.2100  -999.2500    64.9070    23.3830     9.4240     7.6260    11.3290 
   98.5000  -999.2500   -41.6020  -999.2500    62.8080    23.4310     9.6910     8.1830    12.1120 
   98.6250  -999.2500   -41.8670  -999.2500    60.3230    23.4490    10.1060     8.5560    12.5630 
   98.7500  -999.2500   -42.0500  -999.2500    60.4870    23.4070    10.8050     8.6430    12.5420 
   98.8750  -999.2500   -42.1880  -999.2500    63.0400    23.3290    10.9980     8.4310    12.0460 
   99.0000  -999.2500   -42.2610   426.8550    64.5110    23.2110    10.2570     8.0190    11.2730 
   99.1250  -999.2500   -42.2910   426.8550    61.2500    23.0480     9.2480     7.5940    10.5680 
   99.2500  -999.2500   -42.3190   425.8670    57.4140    22.9860     9.1740     7.3050    10.1540 
   99.3750  -999.2500   -42.3420   421.2670    57.2270    22.9610     9.6630     7.2040    10.0840 
   99.5000  -999.2500   -42.3640   416.5320    58.8760    22.9640    10.3530     7.2770    10.2900 
   99.6250  -999.2500   -42.3580   415.7550    58.7600    22.9850    10.9000     7.4410    10.5920 
   99.7500  -999.2500   -42.3190   417.1270    56.6140    22.9800    11.0650     7.5480    10.7490 
   99.8750  -999.2500   -42.2470   419.2610    54.0510    22.9800    10.6810     7.5200    10.6550 
  100.0000     2.1740   -42.1390   421.9390    53.4120    22.9560     9.9500     7.3470    10.3370 
  100.1250     2.1740   -42.0080   425.7760    55.4710    22.9340     9.3830     7.0700     9.8900 
  100.2500     2.1700   -41.8730   430.4000    57.4880    22.9120     9.0690     6.7800     9.4520 
  100.3750     2.1600   -41.7440   434.6610    58.2020    22.8820     8.9090     6.5300     9.0970 
  100.5000     2.1550   -41.6260   437.5610    58.7070    22.8820     8.7900     6.3500     8.8680 
  100.6250     2.1640   -41.5840   439.2010    59.4810    22.9630     8.6710     6.2570     8.7920 
  100.7500     2.1740   -41.5870   440.7560    59.3210    23.1350     8.5620     6.2250     8.8240 
  100.8750     2.1740   -41.6040   442.5230    58.6460    23.3730     8.4390     6.2370     8.9200 
  101.0000     2.1630   -41.6570   444.1560    58.9120    23.5600     8.3410     6.2710     9.0310 
  101.1250     2.1550   -41.7030   444.9630    62.1210    23.5270     8.4120     6.2980     9.0900 
  101.2500     2.1600   -41.7120   444.6250    65.2400    23.3370     8.5300     6.2910     9.0640 
  101.3750     2.1750   -41.7070   443.0420    66.2380    23.1690     8.5740     6.2410     8.9500 
  101.5000     2.1910   -41.6570   440.6070    66.1850    23.1050     8.5220     6.1590     8.7850 
  101.6250     2.2030   -41.5110   438.1880    66.1200    23.0890     8.4060     6.0980     8.6580 
  101.7500     2.2100   -41.3210   435.7500    64.3530    23.0670     8.3110     6.1110     8.6540 
  101.8750     2.2090   -41.1090   431.6180    61.4780    23.0890     8.4280     6.2310     8.8210 
  102.0000     2.2030   -40.8700   424.7780    59.2840    23.1750     9.1230     6.4550     9.1600 
  102.1250     2.2070   -40.6530   420.4620    58.5850    23.2750    10.6740     6.7460     9.6040 
  102.2500     2.2190   -40.4550   426.1680    58.6530    23.2690    11.8380     7.0070     9.9920 
  102.3750     2.2280   -40.2710   440.5400    60.2950    23.2230    11.4810     7.1690    10.2000 
  102.5000     2.2210   -40.1500   451.9170    63.3560    23.1890    10.0460     7.2020    10.1790 
  102.6250     2.1980   -40.1270   448.4300    64.4410    23.1660     9.0990     7.1150     9.9660 
  102.7500     2.1730   -40.1110   438.8290    63.3380    23.0640     8.8590     6.9870     9.7130 
  102.8750     2.1540   -40.1300   434.3320    60.8790    22.9590     8.9130     6.8670     9.5160 
  103.0000     2.1430   -40.1990   437.4570    57.6630    22.9030     8.9910     6.7860     9.4190 
  103.1250     2.1430   -40.3040   441.6670    55.6220    22.8920     9.0520     6.7580     9.4320 
  103.2500     2.1480   -40.4520   442.1660    55.9860    22.8860     9.1290     6.7720     9.5110 
  103.3750     2.1530   -40.6370   440.1990    58.1250    22.8830     9.1970     6.8190     9.6240 
  103.5000     2.1550   -40.8150   438.3130    58.6280    22.8820     9.1880     6.8880     9.7350 
  103.6250     2.1570   -40.9630   438.0800    59.8270    22.8800     9.1130     6.9590     9.7900 
  103.7500     2.1610   -41.0830   438.9410    65.3800    22.8840     9.0840     7.0110     9.7760 
  103.8750     2.1680   -41.1720   439.8360    70.6240    22.8910     9.1030     7.0350     9.7080 
  104.0000     2.1720   -41.2540   439.8460    69.3880    22.8980     9.1820     7.0340     9.6170 
  104.1250     2.1690   -41.3560   438.8430    63.7400    22.9010     9.2650     7.0190     9.5420 
  104.2500     2.1620   -41.4310   437.7960    62.4850    22.8990     9.2920     7.0040     9.4930 
  104.3750     2.1550   -41.5060   437.1610    65.6110    22.9080     9.2640     6.9880     9.4600 
  104.5000     2.1540   -41.6020   436.8660    67.0490    22.9220     9.2560     6.9700     9.4270 
  104.6250     2.1610   -41.7240   437.4980    63.9430    22.9330     9.2520     6.9470     9.4010 
  104.7500     2.1710   -41.8800   440.9610    62.0350    22.9210     9.2060     6.9240     9.3900 
  104.8750     2.1790   -42.0350   448.8660    64.2550    22.9050     9.0920     6.9070     9.3950 
