~V
VERS. 2.00: Ver 2.00
~W
STRT.M 60.0000:
STOP.M 262.0000:
STEP.M 0.1250:
NULL. -999.2500:
UWI. DF319:
~C
DEPT.M :
GR.API :
RML.OHMM :
RI. :
RXO.OHMM :
CALI.CM :
AC.US/MT :
DEN.GM/CC :
SP.MV :
~A
# ...
  110.0000    70.4840     9.5120     7.7110    11.5500    23.6710   398.9610     2.1640   -39.4100 
  110.1250    72.6090     9.2140     7.5190    10.0340    23.5600   416.8950     2.1400   -39.4440 
  110.2500    74.3790     8.9140     7.3060     8.9920    23.4880   426.0630     2.1250   -39.4070 
  110.3750    73.7980     8.6730     7.1240     8.3280    23.4430   427.4100     2.1180   -39.3570 
  110.5000    73.0670     8.5220     7.0050     8.0280    23.3610   427.4170     2.1160   -39.3070 
  110.6250    74.4100     8.4680     6.9650     8.2450    23.2200   429.4170     2.1190   -39.1890 
  110.7500    76.3910     8.4650     6.9820     8.7670    23.0770   431.5410     2.1250   -39.0690 
  110.8750    76.7790     8.4970     7.0420     9.3530    23.0270   432.0720     2.1340   -38.9750 
  111.0000    75.8350     8.5590     7.1270     9.7160    23.1020   430.4890     2.1430   -38.9100 
  111.1250    74.7960     8.6470     7.2150     9.9060    23.3780   430.5630     2.1480   -38.8590 
  111.2500    73.4510     8.7270     7.2760    10.0790    23.7760   435.1220     2.1510   -38.8210 
  111.3750    73.0390     8.7650     7.2900    10.2410    24.1490   437.5320     2.1510   -38.7690 
  111.5000    74.6060     8.7420     7.2480    10.2490    24.3350   429.1550     2.1530   -38.7150 
  111.6250    78.3960     8.6520     7.1540    10.1770    24.3540   413.3110     2.1570   -38.6640 
  111.7500    80.6730     8.5330     7.0390    10.0830    24.3120   404.2570     2.1640   -38.5800 
  111.8750    79.9910     8.4050     6.9240     9.9340    24.2460   405.4520     2.1710   -38.4730 
  112.0000    78.0840     8.2700     6.8180     9.8380    24.1840   411.5450     2.1770   -38.3670 
  112.1250    75.3750     8.1210     6.7210     9.8600    24.1340   423.7190     2.1790   -38.1830 
  112.2500    72.2690     7.9820     6.6310     9.9140    24.0780   444.6620     2.1770   -37.9880 
  112.3750    69.8680     7.8950     6.5630     9.7240    24.0050   463.3500     2.1700   -37.8070 
  112.5000    69.3800     7.9050     6.5460     9.3660    23.9420   464.3260     2.1600   -37.5490 
  112.6250    68.8410     8.0430     6.6200     9.0350    23.8930   440.8810     2.1480   -37.2280 
  112.7500    65.4850     8.2460     6.7660     9.0360    23.8970   411.1570     2.1350   -36.9110 
  112.8750    62.2590     8.4250     6.9310     9.3780    24.0110   385.8580     2.1240   -36.5610 
  113.0000    63.4910     8.4660     7.0270     9.8500    24.1390   372.4340     2.1150   -36.1020 
  113.1250    68.9290     8.2250     6.9240     9.9840    24.1740   380.3900     2.1120   -35.5940 
  113.2500    73.5700     7.7210     6.6040     9.5810    24.1300   403.1230     2.1170   -35.0770 
  113.3750    76.9370     7.0420     6.1090     8.6790    24.0630   427.4670     2.1340   -34.5050 
  113.5000    81.0210     6.3320     5.5390     7.4250    24.0250   443.3280     2.1630   -33.9230 
  113.6250    87.7690     5.7800     5.0270     6.2150    24.0190   448.3430     2.2040   -33.3770 
  113.7500    93.6250     5.4580     4.6490     5.3090    24.0190   448.4690     2.2440   -32.8860 
  113.8750    95.5050     5.3700     4.4260     5.0130    24.0190   447.0260     2.2750   -32.4540 
  114.0000    94.0710     5.4570     4.3380     4.9960    24.0190   445.8200     2.2900   -32.1530 
  114.1250    92.4400     5.6180     4.3550     5.1650    24.0190   443.7580     2.2880   -31.9640 
  114.2500    91.8990     5.7260     4.4120     5.2500    24.0190   441.9970     2.2800   -31.7900 
  114.3750    92.7070     5.7280     4.4770     5.2430    24.0190   442.0690     2.2740   -31.6760 
  114.5000    94.2650     5.6400     4.5360     5.2020    24.0190   442.4410     2.2760   -31.6710 
  114.6250    95.3590     5.5560     4.5980     5.1580    24.0190   438.2370     2.2840   -31.7580 
  114.7500    95.7360     5.5690     4.6850     5.2050    24.0190   432.3900     2.2950   -31.8210 
  114.8750    96.7990     5.6980     4.8040     5.3840    24.0190   431.0140     2.3020   -31.8830 
  115.0000    98.2580     5.8910     4.9430     5.6390    24.0190   434.1250     2.3010   -31.9520 
  115.1250    96.7060     6.0410     5.0550     5.9220    24.0190   435.6130     2.2910   -32.0270 
  115.2500    91.6880     6.0640     5.0930     6.1880    24.0210   433.9970     2.2790   -32.0920 
  115.3750    86.9610     5.9330     5.0290     6.1540    24.0390   433.1810     2.2700   -32.1670 
  115.5000    86.2130     5.6790     4.8640     5.6860    24.0940   435.9080     2.2680   -32.2450 
  115.6250    90.9640     5.3840     4.6350     5.2230    24.1830   441.1240     2.2750   -32.2660 
  115.7500    96.5030     5.1460     4.4170     5.0270    24.2340   445.4010     2.2860   -32.3360 
  115.8750    99.1700     5.0230     4.2640     4.9260    24.2510   447.1550     2.2990   -32.4250 
  116.0000    99.5060     5.0420     4.2100     4.8940    24.2580   446.4460     2.3090   -32.4710 
  116.1250    98.6150     5.2210     4.2880     5.0060    24.2690   443.8070     2.3150   -32.4950 
  116.2500    97.7300     5.5030     4.4650     5.2470    24.2680   439.8850     2.3140   -32.5900 
  116.3750    96.3270     5.8410     4.7100     5.6010    24.2470   434.5290     2.3040   -32.7250 
  116.5000    93.6280     6.1750     4.9810     6.0690    24.1920   428.7800     2.2870   -32.8250 
  116.6250    92.0700     6.4200     5.2150     6.6140    24.1220   423.4230     2.2650   -32.9470 
  116.7500    91.0910     6.5270     5.3680     7.0840    24.0730   418.5150     2.2450   -33.0500 
  116.8750    88.0880     6.4810     5.4190     7.2320    24.0700   416.2800     2.2310   -33.1180 
  117.0000    82.8980     6.3120     5.3750     7.0170    24.0830   418.5350     2.2260   -33.1540 
  117.1250    79.7240     6.0830     5.2740     6.7880    24.0920   423.4970     2.2290   -33.1690 
  117.2500    80.4010     5.8950     5.1870     6.5730    24.1160   427.0460     2.2350   -33.1790 
  117.3750    82.2450     5.8150     5.1620     6.5230    24.1840   428.8920     2.2410   -33.1690 
  117.5000    84.2910     5.8780     5.2310     6.7660    24.2870   428.7110     2.2400   -33.1600 
  117.6250    85.2500     6.0950     5.4050     7.0800    24.3460   421.9160     2.2310   -33.1710 
  117.7500    83.9980     6.3870     5.6310     7.4890    24.3640   414.6120     2.2160   -33.1510 
  117.8750    82.6570     6.6770     5.8540     7.8440    24.3660   414.0350     2.2010   -33.0900 
  118.0000    84.6200     6.8840     6.0130     8.0300    24.3660   419.5440     2.1920   -32.9960 
  118.1250    87.2640     6.9320     6.0470     7.9560    24.3660   423.2670     2.1930   -32.8990 
  118.2500    87.1700     6.8520     5.9710     7.6920    24.3660   423.4310     2.2030   -32.7670 
  118.3750    87.4670     6.6900     5.8140     7.2170    24.3660   424.7050     2.2190   -32.5840 
  118.5000    91.7530     6.4920     5.6140     6.5730    24.3660   426.9730     2.2370   -32.3550 
  118.6250    97.2340     6.2680     5.3860     6.0070    24.3660   428.0460     2.2510   -32.0860 
  118.7500    96.8300     5.9870     5.1250     5.7620    24.3660   427.9280     2.2600   -31.8600 
  118.8750    93.3180     5.6120     4.8060     5.6120    24.3660   428.0150     2.2660   -31.6850 
  119.0000    93.3190     5.1390     4.4210     5.3480    24.3660   429.9760     2.2730   -31.5610 
  119.1250    97.9450     4.6460     4.0080     4.9970    24.3620   435.1280     2.2840   -31.4350 
  119.2500   101.8090     4.3070     3.6820     4.6910    24.3580   443.6960     2.2970   -31.3450 
  119.3750   102.6550     4.3300     3.5960     4.5540    24.3540   455.3520     2.3110   -31.3190 
  119.5000   101.4860     4.9240     3.9200     5.0400    24.3500   462.6940     2.3300   -31.3290 
  119.6250    96.7730     6.3100     4.8690     7.0410    24.3410   444.0230     2.3630   -31.3550 
  119.7500    88.6300     8.2170     6.3030    10.1610    24.3440   390.7450     2.4100   -31.4060 
  119.8750    79.7460    10.1990     7.9420    13.6650    24.3280   316.9840     2.4620   -31.4830 
