~V
VERS. 2.00: Ver 2.00
~W
STRT.M 51.0000:
STOP.M 228.0000:
STEP.M 0.1250:
NULL. -999.2500:
UWI. DF314:
~C
DEPT.M :
DEN.GM/CC :
AC.US/MT :
GR.API :
CALI.CM :
RXO.OHMM :
RI. :
RML.OHMM :
SP.MV :
~A
# ...
  121.0000     2.3550   382.2380    85.4740    24.8900     6.7230     8.1090     8.6030   -10.4660 
  121.1250     2.3400   400.7520    84.4860    24.9970     5.0830     5.9870     6.3270   -10.7170 
  121.2500     2.3320   414.4090    80.8790    25.0470     4.8820     4.8680     5.1270   -11.0630 
  121.3750     2.3270   423.8440    78.5160    25.0520     4.8580     4.4300     4.6580   -11.4660 
  121.5000     2.3260   431.2000    80.9560    25.0470     4.8310     4.4370     4.6650   -11.8860 
  121.6250     2.3280   437.0950    85.5980    25.0330     4.9710     4.6930     4.9390   -12.2230 
  121.7500     2.3350   440.6270    85.4620    25.0060     5.1880     4.9820     5.2500   -12.4700 
  121.8750     2.3450   441.1730    80.8210    24.9820     5.4120     5.2140     5.4980   -12.6070 
  122.0000     2.3540   439.8790    78.1320    24.9720     5.7040     5.3460     5.6390   -12.6290 
  122.1250     2.3560   439.2960    80.4410    24.9590     6.1000     5.3830     5.6790   -12.5620 
  122.2500     2.3490   440.0890    82.8620    24.9220     6.3520     5.3780     5.6740   -12.4610 
  122.3750     2.3360   440.3290    82.6970    24.8880     6.3460     5.3540     5.6480   -12.5020 
  122.5000     2.3220   437.3330    80.8670    24.8940     6.3500     5.3350     5.6280   -12.9110 
  122.6250     2.3100   429.3590    80.2810    24.9480     6.6770     5.3580     5.6530   -13.8250 
  122.7500     2.3020   418.9790    79.5960    25.0100     6.9360     5.4330     5.7330   -15.0740 
  122.8750     2.2970   409.1280    79.0530    25.0580     6.7710     5.5400     5.8470   -16.5450 
  123.0000     2.2950   402.0580    79.7610    25.0720     6.3720     5.6290     5.9440   -18.0020 
  123.1250     2.2980   401.9260    81.0540    25.0390     6.1600     5.5990     5.9100   -19.2400 
  123.2500     2.3050   410.9060    83.3910    24.9870     5.9750     5.4120     5.7100   -20.2330 
  123.3750     2.3150   425.9980    88.3240    24.9420     5.5810     5.1140     5.3910   -20.7200 
  123.5000     2.3250   439.5180    92.1010    24.9110     5.0650     4.8020     5.0560   -20.3990 
  123.6250     2.3330   445.4900    90.9740    24.8790     4.7320     4.5890     4.8280   -19.2850 
  123.7500     2.3390   447.8620    89.6970    24.8480     4.6960     4.5240     4.7580   -17.8720 
  123.8750     2.3430   450.0290    90.5680    24.8240     4.9970     4.6080     4.8480   -16.4510 
  124.0000     2.3470   451.6220    90.5000    24.8150     5.6000     4.7960     5.0490   -15.3230 
  124.1250     2.3490   451.2500    88.3390    24.8130     6.2350     5.0030     5.2720   -14.6470 
  124.2500     2.3480   449.0070    86.5220    24.7960     6.5010     5.1470     5.4270   -14.3180 
  124.3750     2.3400   445.6920    84.7760    24.7700     6.2960     5.1830     5.4650   -14.4210 
  124.5000     2.3260   442.1600    82.7520    24.7500     5.8820     5.1170     5.3940   -14.9640 
  124.6250     2.3040   438.2940    81.8590    24.7420     5.6870     5.0220     5.2930   -15.8540 
  124.7500     2.2820   433.4600    79.4540    24.7300     5.7800     4.9890     5.2570   -16.8890 
  124.8750     2.2620   427.9160    76.0490    24.7140     6.0520     5.0700     5.3440   -17.7790 
  125.0000     2.2490   423.1420    75.9650    24.7100     6.4350     5.3080     5.5990   -18.2440 
  125.1250     2.2420   421.1680    78.9090    24.6770     7.0330     5.8040     6.1310   -18.1810 
  125.2500     2.2360   421.2940    79.4870    24.5630     8.0800     6.6070     6.9920   -17.7880 
  125.3750     2.2310   421.4660    76.4730    24.4010     9.8620     7.8170     8.2890   -17.0840 
  125.5000     2.2280   419.2980    72.1410    24.2500    12.2940     9.4940    10.0870   -16.1350 
  125.6250     2.2300   412.7080    70.0030    24.0690    14.3910    11.5510    12.2930   -14.9580 
  125.7500     2.2360   403.1020    69.8790    23.7990    15.4100    13.4980    14.3810   -13.6450 
  125.8750     2.2430   393.2830    71.1840    23.5010    15.6740    14.7960    15.7740   -12.4910 
  126.0000     2.2450   387.1490    71.6450    23.2780    15.6760    15.0360    16.0310   -11.7320 
  126.1250     2.2400   389.2240    69.9210    23.1930    14.9860    14.0680    14.9930   -11.3680 
  126.2500     2.2300   398.4250    67.9360    23.2810    13.5070    12.5850    13.4020   -11.1120 
  126.3750     2.2160   412.1590    68.0580    23.6150    11.8550    11.1780    11.8930   -10.9240 
  126.5000     2.2010   427.2430    69.3170    24.1500    10.8290    10.2680    10.9180   -10.8980 
  126.6250     2.1850   440.7080    69.1590    24.6520    11.6670    10.2310    10.8790   -11.1420 
  126.7500     2.1720   450.7790    67.8280    24.9010    15.1940    11.0910    11.8010   -11.5750 
  126.8750     2.1620   455.4100    66.3090    24.9240    21.2030    12.9470    13.7910   -12.0240 
  127.0000     2.1550   452.0440    64.5220    24.8860    27.0060    15.7960    16.8460   -12.3510 
  127.1250     2.1530   439.5350    62.7230    24.9280    29.3610    19.3410    20.6480   -12.5100 
  127.2500     2.1530   425.1160    61.3630    25.0110    30.2050    22.5710    24.1110   -12.6160 
  127.3750     2.1590   415.6070    59.8700    25.0740    31.7260    24.5530    26.2360   -12.7500 
  127.5000     2.1720   413.5550    59.8600    25.1090    32.8260    24.8770    26.5840   -12.8560 
  127.6250     2.1920   415.6000    62.7450    25.1000    30.5970    23.8880    25.5230   -12.7740 
  127.7500     2.2120   415.7040    64.9880    25.0370    26.5310    22.7090    24.2590   -12.5160 
  127.8750     2.2270   412.1760    63.5190    24.9700    23.8450    21.9860    23.4830   -12.1010 
  128.0000     2.2290   407.0650    59.8900    24.9640    24.8220    22.0950    23.6010   -11.5160 
  128.1250     2.2200   405.2160    56.7350    25.0220    29.7180    23.3720    24.9700   -10.8670 
  128.2500     2.2070   408.0410    55.0140    25.0580    34.9570    25.5640    27.3210   -10.2540 
  128.3750     2.2000   413.2890    54.5140    25.0610    37.8570    28.3810    30.3410    -9.7230 
  128.5000     2.2000   417.1540    55.6500    25.0830    38.4300    31.4020    33.5810    -9.3310 
  128.6250     2.2080   416.6210    57.9020    25.1280    39.3800    34.0680    36.4400    -9.0970 
  128.7500     2.2140   413.2450    59.3460    25.0830    41.9900    36.0810    38.5980    -8.9430 
  128.8750     2.2150   409.3840    58.2740    24.9180    45.0000    37.2970    39.9020    -8.9410 
  129.0000     2.2090   406.8650    56.9560    24.7310    46.1420    37.5770    40.2020    -9.1480 
  129.1250     2.2000   406.1740    57.8530    24.6370    43.5740    36.6360    39.1930    -9.5850 
  129.2500     2.1910   406.1860    59.9180    24.5790    38.6550    34.8000    37.2250   -10.2020 
  129.3750     2.1870   406.7130    61.2400    24.5020    32.8270    32.3660    34.6150   -10.7730 
  129.5000     2.1900   408.8030    62.0960    24.4200    27.2810    29.4760    31.5150   -11.1070 
  129.6250     2.2050   414.9770    63.6800    24.3240    23.4920    25.9140    27.6960   -11.2130 
  129.7500     2.2300   425.4790    66.5650    24.2560    20.9710    21.7530    23.2340   -11.2070 
  129.8750     2.2620   438.7580    72.9510    24.3900    17.6490    17.3400    18.5020   -11.1910 
  130.0000     2.2970   451.3420    82.5000    24.7640    12.5570    13.2730    14.1400   -11.2530 
  130.1250     2.3320   458.0930    87.3520    25.1110     7.8370    10.6560    11.4180   -11.3710 
  130.2500     2.3610   457.4530    85.6140    25.2110     5.4630     8.6750     8.5310   -11.4800 
  130.3750     2.3800   449.4890    83.6750    25.1590     5.0970     7.6370     7.2270   -11.6050 
  130.5000     2.3880   435.5520    85.0330    25.1170     5.9340     7.3800     7.4030   -11.8680 
  130.6250     2.3820   418.7040    84.5000    25.1170     7.8380     7.8310     8.7660   -12.4740 
  130.7500     2.3660   405.8980    79.5780    25.1170    10.3560     8.6480    10.4270   -13.3240 
  130.8750     2.3460   402.7850    76.5300    25.1130    12.2980     9.5250    11.7110   -14.1310 
