~V
VERS. 2.00: Ver 2.00
~W
STRT.M 51.0000:
STOP.M 228.0000:
STEP.M 0.1250:
NULL. -999.2500:
UWI. DF314:
~C
DEPT.M :
DEN.GM/CC :
AC.US/MT :
GR.API :
CALI.CM :
RXO.OHMM :
RI. :
RML.OHMM :
SP.MV :
~A
# ...
   71.0000     2.2600   471.5090    71.8880    25.2680    10.7730     7.2470     8.7650   -21.0950 
   71.1250     2.2580   481.2910    74.4900    25.2790    10.2670     7.4420     8.9850   -21.8990 
   71.2500     2.2470   490.9640    76.7090    25.2330     9.4200     7.4250     8.9650   -22.6650 
   71.3750     2.2310   496.0220    76.2240    25.1900     8.9450     7.5540     8.5130   -23.2660 
   71.5000     2.2130   494.0610    73.0230    25.1820     8.9700     7.4780     8.1730   -23.5250 
   71.6250     2.2010   485.1930    69.7100    25.2060     9.2110     7.3880     8.2340   -23.3340 
   71.7500     2.1950   473.7610    69.7460    25.2390     9.3610     7.4200     8.6810   -22.7970 
   71.8750     2.1970   462.5000    72.6970    25.2770     9.4700     7.6350     9.5120   -21.9160 
   72.0000     2.2050   452.8610    74.4720    25.3070     9.8600     8.1240    10.7120   -20.6880 
   72.1250     2.2140   444.6880    69.6390    25.3190    11.2480     9.0670    12.3290   -19.2880 
   72.2500     2.2200   435.8570    62.2370    25.3190    14.0800    10.5050    14.3930   -18.0510 
   72.3750     2.2190   424.8940    58.8310    25.3190    18.3320    12.4920    17.0270   -17.1660 
   72.5000     2.2130   412.3070    60.1880    25.3320    22.9050    14.9750    20.2880   -16.7610 
   72.6250     2.2050   402.0400    61.5470    25.3830    25.9230    17.6380    23.9630   -16.8620 
   72.7500     2.1970   398.2820    61.5900    25.5130    27.3130    19.9260    27.2100   -17.2680 
   72.8750     2.1900   402.9160    60.9130    25.7420    27.6780    21.4430    29.2010   -17.7380 
   73.0000     2.1800   414.4970    59.7750    25.9760    27.2780    22.0330    29.5500   -18.2400 
   73.1250     2.1690   429.1720    58.6130    26.0600    26.0650    21.7430    28.4420   -18.8660 
   73.2500     2.1620   442.7810    58.5380    26.0430    24.4720    21.0500    26.9270   -19.5390 
   73.3750     2.1600   453.9140    59.2860    26.0410    22.9450    20.2570    25.6420   -20.1470 
   73.5000     2.1620   462.0810    59.3200    26.1010    22.0550    19.5950    24.9200   -20.5930 
   73.6250     2.1650   466.1410    57.9230    26.1820    22.4050    19.2790    24.8190   -20.8400 
   73.7500     2.1630   466.2800    57.2900    26.2520    23.5240    19.2690    25.0020   -21.0050 
   73.8750     2.1560   462.9370    59.3960    26.3070    24.7450    19.4490    25.2300   -21.2160 
   74.0000     2.1450   457.3310    63.5020    26.3460    25.5110    19.6940    25.3390   -21.4020 
   74.1250     2.1320   451.0690    65.8770    26.3890    25.4660    19.9100    25.2650   -21.4440 
   74.2500     2.1220   445.7080    66.2690    26.4320    24.9450    20.0940    25.1120   -21.3580 
   74.3750     2.1170   442.3590    65.6140    26.4490    24.5780    20.2780    24.9990   -21.1650 
   74.5000     2.1150   441.9970    63.6450    26.4390    25.0090    20.4930    25.0050   -20.8900 
   74.6250     2.1170   445.3760    59.1950    26.4370    26.2010    20.7320    25.1500   -20.5050 
   74.7500     2.1160   450.6500    55.7760    26.4270    27.1660    20.9200    25.3510   -20.0750 
   74.8750     2.1110   455.8230    55.9370    26.3670    27.3960    20.9900    25.5100   -19.7330 
   75.0000     2.0970   459.5380    57.8300    26.2680    27.0040    20.8850    25.5420   -19.5650 
   75.1250     2.0760   462.3900    57.9890    26.2040    26.3050    20.5180    25.3880   -19.6150 
   75.2500     2.0560   466.7690    56.7140    26.1970    25.4650    19.9370    25.0150   -19.8190 
   75.3750     2.0450   473.6470    55.7820    26.2170    24.4300    19.2240    24.3690   -20.1880 
   75.5000     2.0490   481.5190    56.2190    26.2440    23.0740    18.4920    23.4700   -20.7400 
   75.6250     2.0670   486.4680    57.0330    26.3600    21.5970    17.8870    22.4480   -21.3400 
   75.7500     2.0880   486.7880    57.8940    26.6020    20.7520    17.4980    21.5680   -21.7830 
   75.8750     2.1080   483.2450    57.8900    26.7250    21.0430    17.3690    21.0240   -21.9320 
   76.0000     2.1230   478.1390    55.5910    26.4150    22.1570    17.4760    20.8360   -21.7500 
   76.1250     2.1360   474.1840    52.8620    25.7480    23.0450    17.7350    20.8150   -21.2580 
   76.2500     2.1500   472.2130    53.6960    25.2580    23.1330    17.9860    20.7070   -20.6610 
   76.3750     2.1630   471.3080    58.8590    25.1160    22.5930    18.1310    20.5060   -19.9950 
   76.5000     2.1730   469.5150    63.9210    25.1400    21.9400    18.1530    20.3590   -19.3670 
   76.6250     2.1790   464.6580    64.8560    25.1690    21.8510    18.1470    20.5240   -18.9940 
   76.7500     2.1800   457.6070    63.5480    25.2060    22.3460    18.2230    21.0460   -18.9570 
   76.8750     2.1800   450.8690    62.7350    25.2390    22.9460    18.3840    21.7640   -19.1070 
   77.0000     2.1770   447.4560    64.0430    25.2350    23.2920    18.5540    22.3650   -19.2790 
   77.1250     2.1730   449.2520    66.1350    25.1900    23.3870    18.5990    22.4400   -19.5000 
   77.2500     2.1650   453.3780    65.4090    25.1510    23.1590    18.4390    21.9300   -19.6180 
   77.3750     2.1550   457.4310    62.6950    25.1340    22.3800    18.0470    20.9300   -19.6620 
   77.5000     2.1470   461.2470    61.5760    25.1300    21.2320    17.4570    19.7090   -19.6600 
   77.6250     2.1440   467.4170    65.2760    25.1420    20.2810    16.7780    18.6570   -19.5870 
   77.7500     2.1480   476.5340    69.5300    25.1630    19.7260    16.2110    18.0380   -19.3690 
   77.8750     2.1550   486.0580    69.6550    25.1810    19.6120    15.9280    18.0620   -19.0990 
   78.0000     2.1650   491.8990    65.8890    25.1890    20.1130    16.0470    18.8320   -18.8400 
   78.1250     2.1710   490.7820    63.4490    25.1920    21.4100    16.6180    20.2620   -18.2970 
   78.2500     2.1720   485.9480    63.3990    25.2170    23.0620    17.4150    21.8050   -17.5210 
   78.3750     2.1700   481.4460    62.4000    25.3070    24.6140    18.2370    23.0210   -16.4840 
   78.5000     2.1650   479.8770    60.9680    25.4730    25.5650    18.9040    23.6030   -15.1250 
   78.6250     2.1580   481.0110    60.6930    25.6300    25.3920    19.2650    23.4070   -13.5360 
   78.7500     2.1420   482.0800    58.7870    25.7140    24.5780    19.3760    22.8450   -11.9630 
   78.8750     2.1040   482.0250    55.0020    25.7650    23.8590    19.3290    22.2820   -10.7030 
   79.0000     2.0370   481.4900    53.1720    25.8590    23.6390    19.2440    21.9930   -10.0120 
   79.1250     1.9490   481.6630    54.2930    26.0410    23.7580    19.2080    22.1480   -10.1230 
   79.2500     1.8740   481.6100    55.9800    26.3490    23.9240    19.2090    22.5520   -10.7660 
   79.3750     1.8490   478.4120    57.3200    26.8520    24.0210    19.2130    22.9920   -11.7030 
   79.5000     1.9030   468.1570    57.1860    27.4830    23.8270    19.2580    23.4030   -12.8120 
   79.6250     2.0520   445.0640    54.7720    27.9930    23.1910    19.6380    24.1480   -14.0050 
   79.7500     2.2460   409.6130    51.7500    28.2410    23.1870    20.7250    25.7100   -15.1540 
   79.8750     2.4290   364.9250    50.7140    28.0620    26.3940    22.9050    28.4680   -16.0320 
   80.0000     2.5510   318.6090    52.2690    27.2500    37.3680    26.3800    32.4870   -16.4720 
   80.1250     2.5670   284.1760    56.0890    25.9150    63.4400    30.8890    37.2130   -16.3570 
   80.2500     2.5060   270.1840    58.7940    24.8160    91.5670    34.9180    41.0350   -15.9450 
   80.3750     2.4060   280.5890    58.4230    24.3500    97.6510    36.8600    42.4090   -15.4540 
   80.5000     2.3080   313.3050    57.5240    24.3660    76.0800    35.9070    40.7990   -15.0080 
   80.6250     2.2430   361.4520    58.1010    24.5200    49.7730    32.4820    36.9350   -14.6540 
   80.7500     2.2120   410.6400    57.7090    24.9710    32.7620    27.5160    30.4370   -14.4020 
   80.8750     2.2040   451.3750    58.2040    25.6000    25.5390    22.5070    23.8150   -14.3100 
