~V
VERS. 2.00: Ver 2.00
~W
STRT.M 60.0000:
STOP.M 262.0000:
STEP.M 0.1250:
NULL. -999.2500:
UWI. DF319:
~C
DEPT.M :
GR.API :
RML.OHMM :
RI. :
RXO.OHMM :
CALI.CM :
AC.US/MT :
DEN.GM/CC :
SP.MV :
~A
   60.0000    46.7580     1.5640     0.5430     0.6800    24.9360  -999.2500  -999.2500    -1.8550 
   60.1250    49.9320     1.4960     0.5280     0.6720    24.9350  -999.2500  -999.2500    -1.6160 
   60.2500    50.5150     1.3500     0.5110     0.6450    24.9330  -999.2500  -999.2500    -1.3580 
   60.3750    47.6540     1.1900     0.4940     0.6600    24.8760  -999.2500  -999.2500    -1.0590 
   60.5000    43.9710     1.0720     0.4800     0.7660    24.6490  -999.2500  -999.2500    -0.7020 
   60.6250    43.5780     1.0250     0.4710     0.9570    24.1230  -999.2500  -999.2500    -0.3070 
   60.7500    45.4510     1.0170     0.4640     1.1470    23.6240  -999.2500  -999.2500     0.1220 
   60.8750    47.7280     1.0050     0.4570     1.2890    23.3170  -999.2500  -999.2500     0.5600 
   61.0000    49.8600     0.9530     0.4480     1.3670    23.1640  -999.2500  -999.2500     0.9830 
   61.1250    53.5820     0.8500     0.4370     1.3770    23.0780  -999.2500  -999.2500     1.4620 
   61.2500    57.8070     0.7370     0.4240     1.3790    23.0100  -999.2500  -999.2500     1.9320 
   61.3750    61.2270     0.6510     0.4100     1.4060    22.9360  -999.2500  -999.2500     2.4150 
   61.5000    64.0350     0.6160     0.3980     1.4870    22.8210  -999.2500  -999.2500     2.9240 
   61.6250    65.4500     0.6360     0.3910     1.6230    22.6080  -999.2500  -999.2500     3.4530 
   61.7500    65.7890     0.6790     0.3890     1.7790    22.2630  -999.2500  -999.2500     4.0130 
   61.8750    67.3420     0.7250     0.3950     1.9270    21.7430  -999.2500  -999.2500     4.6510 
   62.0000    70.8380     0.7610     0.4040     2.0380    21.2740  -999.2500  -999.2500     5.3650 
   62.1250    73.9580     0.7750     0.4140     2.1090    21.0990  -999.2500  -999.2500     6.0750 
   62.2500    73.8610     0.7600     0.4220     2.1510    21.0670  -999.2500  -999.2500     6.7600 
   62.3750    70.9080     0.7160     0.4280     2.1730    21.0670  -999.2500  -999.2500     7.2980 
   62.5000    68.2390     0.6570     0.4350     2.1580    21.0670  -999.2500  -999.2500     7.6420 
   62.6250    66.9720     0.6080     0.4440     2.0470    21.1150  -999.2500  -999.2500     7.8770 
   62.7500    65.5800     0.5800     0.4550     1.8580    21.3070  -999.2500  -999.2500     8.0020 
   62.8750    63.8300     0.5750     0.4650     1.6330    21.7290  -999.2500  -999.2500     7.9850 
   63.0000    63.5510     0.5910     0.4730     1.4110    22.3260  -999.2500  -999.2500     7.8060 
   63.1250    65.3510     0.6200     0.4760     1.2800    22.9120  -999.2500  -999.2500     7.4080 
   63.2500    65.7620     0.6460     0.4720     1.2150    23.3320  -999.2500  -999.2500     6.8910 
   63.3750    63.9620     0.6540     0.4610     1.1760    23.5550  -999.2500  -999.2500     6.3370 
   63.5000    62.3670     0.6390     0.4450     1.1430    23.6250  -999.2500  -999.2500     5.8110 
   63.6250    62.8630     0.6120     0.4300     1.1370    23.6280  -999.2500  -999.2500     5.2830 
   63.7500    64.0350     0.6020     0.4220     1.1650    23.6250  -999.2500  -999.2500     4.7450 
   63.8750    63.9620     0.6230     0.4240     1.2080    23.6070  -999.2500  -999.2500     4.1900 
   64.0000    61.6200     0.6690     0.4360     1.2570    23.5620  -999.2500  -999.2500     3.6380 
   64.1250    59.7080     0.7150     0.4570     1.3040    23.4990  -999.2500  -999.2500     3.1420 
   64.2500    59.2200     0.7360     0.4810     1.3530    23.4240  -999.2500  -999.2500     2.6400 
   64.3750    59.2450     0.7270     0.5050     1.3930    23.3110  -999.2500  -999.2500     2.1380 
   64.5000    58.1620     0.6940     0.5210     1.3920    23.1640  -999.2500  -999.2500     1.6170 
   64.6250    55.9710     0.6550     0.5240     1.2780    23.1380  -999.2500  -999.2500     1.0470 
   64.7500    55.7670     0.6310     0.5130     1.0640    23.3760  -999.2500  -999.2500     0.4880 
   64.8750    56.3650     0.6290     0.4940     0.8200    23.8580  -999.2500  -999.2500    -0.0430 
   65.0000    55.1440     0.6500     0.4710     0.6570    24.3520  -999.2500  -999.2500    -0.5370 
   65.1250    53.4660     0.6750     0.4550     0.6210    24.5140  -999.2500  -999.2500    -0.9230 
   65.2500    54.2640     0.6740     0.4500     0.6680    24.4770  -999.2500  -999.2500    -1.1900 
   65.3750    56.1920     0.6300     0.4590     0.7550    24.3530  -999.2500  -999.2500    -1.2970 
   65.5000    56.2010     0.5490     0.4820     0.8480    24.2340  -999.2500  -999.2500    -1.2450 
   65.6250    54.8460     0.4770     0.5180     0.9370    24.1470  -999.2500  -999.2500    -1.0800 
   65.7500    54.8120     0.4640     0.5560     1.0360    24.1150  -999.2500  -999.2500    -0.8820 
   65.8750    55.1890     0.5240     0.5820     1.1140    24.1080  -999.2500  -999.2500    -0.6790 
   66.0000    55.0640     0.6280     0.5760     1.1680    24.1080  -999.2500  -999.2500    -0.5860 
   66.1250    55.9310     0.6800     0.5150     1.1990    24.1080  -999.2500  -999.2500    -0.8410 
   66.2500    55.6450     0.6160     0.4130     1.2350    24.1080  -999.2500  -999.2500    -1.5620 
   66.3750    53.1590     0.4520     0.2930     1.2650    24.1080  -999.2500  -999.2500    -2.8790 
   66.5000    50.6520     0.2730     0.1850     1.2540    24.1080  -999.2500  -999.2500    -4.8340 
   66.6250    50.4880     0.1530     0.1130     1.2220    24.1140  -999.2500  -999.2500    -7.4310 
   66.7500    52.2980     0.0800     0.0740     1.2750    24.1480  -999.2500  -999.2500   -10.5800 
   66.8750    54.7720     0.0570     0.0890     1.6030    24.2200  -999.2500  -999.2500   -14.3480 
   67.0000    57.2910     0.1320     0.2230     2.4060    24.2850  -999.2500  -999.2500   -18.6580 
   67.1250    59.3470     0.4480     0.6310     3.8340    24.3000  -999.2500  -999.2500   -23.2470 
   67.2500    62.5300     1.0750     1.3780     5.6540    24.1880  -999.2500  -999.2500   -27.7070 
   67.3750    67.9460     2.0080     2.4650     7.3500    23.8330  -999.2500  -999.2500   -31.8880 
   67.5000    72.3810     3.1070     3.7610     8.6120    23.2490  -999.2500  -999.2500   -35.6810 
   67.6250    72.2390     4.0020     4.9470     9.3180    22.9760  -999.2500  -999.2500   -38.9830 
   67.7500    71.3730     4.4580     5.7660     9.5390    22.9470  -999.2500  -999.2500   -41.8180 
   67.8750    72.2300     4.5610     6.1710     9.4680    23.0610  -999.2500  -999.2500   -44.0400 
   68.0000    75.4450     4.5240     6.2800     9.0620    23.2360  -999.2500  -999.2500   -45.6360 
   68.1250    80.8340     4.4930     6.2610     8.3800    23.3700  -999.2500  -999.2500   -46.6610 
   68.2500    86.3700     4.5470     6.2920     7.8230    23.4550  -999.2500  -999.2500   -47.3720 
   68.3750    89.5930     4.7330     6.4590     7.8190    23.4820  -999.2500  -999.2500   -47.8960 
   68.5000    88.4330     5.0710     6.7860     8.6610    23.4860  -999.2500  -999.2500   -48.3580 
   68.6250    83.7740     5.5330     7.2280     9.9920    23.4940  -999.2500  -999.2500   -48.7820 
   68.7500    78.2410     5.9970     7.6510    10.8570    23.5550  -999.2500  -999.2500   -49.1640 
   68.8750    73.4770     6.3570     7.9600    10.7920    23.7320  -999.2500  -999.2500   -49.5360 
   69.0000    71.3400     6.5490     8.1090    10.3930    23.9970  -999.2500  -999.2500   -49.8660 
   69.1250    71.5000     6.5540     8.0930    10.1630    24.2710  -999.2500  -999.2500   -50.1490 
   69.2500    70.7750     6.4450     7.9750    10.0320    24.4590  -999.2500  -999.2500   -50.3840 
   69.3750    68.5820     6.2550     7.7710     9.9500    24.5440  -999.2500  -999.2500   -50.4910 
   69.5000    67.8150     5.9990     7.4710     9.7660    24.5550  -999.2500  -999.2500   -50.4520 
   69.6250    72.7560     5.6860     7.0560     9.2200    24.4910  -999.2500  -999.2500   -50.2780 
   69.7500    83.3030     5.3640     6.5840     8.1260    24.3550  -999.2500  -999.2500   -50.0270 
   69.8750    95.6430     5.0930     6.1410     6.8150    24.0930  -999.2500  -999.2500   -49.7450 
