~V
VERS. 2.00: Ver 2.00
~W
STRT.M 58.0000:
STOP.M 221.0000:
STEP.M 0.1250:
NULL. -999.2500:
UWI. DF318:
~C
DEPT.M :
DEN.GM/CC :
SP.MV :
AC.US/MT :
GR.API :
CALI.CM :
RXO.OHMM :
RI. :
RML.OHMM :
~A
# ...
  118.0000     2.1160    -5.4900   426.4450    70.0540    24.5420    49.0420    46.4740    56.5420 
  118.1250     2.1000    -5.5320   426.3790    70.6280    24.5190    54.0020    48.1910    58.8480 
  118.2500     2.0890    -5.5800   425.7600    70.8580    24.4870    55.9320    48.8370    59.5310 
  118.3750     2.0850    -5.6420   424.6450    69.8320    24.4440    50.3860    48.2890    58.4610 
  118.5000     2.0880    -5.6950   423.5400    68.5670    24.4010    43.5850    47.4570    57.0810 
  118.6250     2.0990    -5.7520   423.0560    68.3830    24.3580    41.0830    47.2510    56.6540 
  118.7500     2.1160    -5.8030   423.4750    68.4590    24.3360    43.4020    48.3850    58.0360 
  118.8750     2.1300    -5.8400   424.7390    68.2670    24.3470    48.7750    51.4030    61.8450 
  119.0000     2.1340    -5.8780   426.5650    67.4480    24.3800    53.9590    55.6010    67.1240 
  119.1250     2.1290    -5.9460   428.4750    64.1350    24.4140    58.0980    59.7870    72.2030 
  119.2500     2.1200    -6.0740   430.2850    58.2140    24.4550    60.6470    62.2910    74.6950 
  119.3750     2.1090    -6.2500   431.9920    56.2230    24.5420    60.5970    61.4490    72.5430 
  119.5000     2.1030    -6.4990   433.6360    61.9700    24.6800    58.5000    58.2820    67.7550 
  119.6250     2.1030    -6.7510   435.0380    70.4710    24.7890    53.7710    54.3150    62.6070 
  119.7500     2.1100    -6.9930   435.7910    73.9740    24.8380    46.9260    51.0530    58.8440 
  119.8750     2.1200    -7.2520   435.5190    70.2210    24.8280    43.5730    49.8860    57.8080 
  120.0000     2.1250    -7.4900   434.0420    66.2470    24.8100    46.3810    50.7990    59.1860 
  120.1250     2.1230    -7.7030   432.0400    65.7280    24.8030    52.5840    53.3940    62.4310 
  120.2500     2.1130    -7.8380   430.0610    67.0280    24.7700    57.2510    56.8430    66.5110 
  120.3750     2.1000    -7.9260   428.3980    68.3110    24.7070    59.5340    59.8270    69.7090 
  120.5000     2.0920    -7.9330   427.0070    69.1420    24.6430    60.4870    61.3180    70.8450 
  120.6250     2.0910    -7.9330   425.4970    69.3710    24.7210    59.6230    60.9810    69.7190 
  120.7500     2.0940    -7.9440   423.0860    68.7140    24.7830    56.6800    59.0500    66.8390 
  120.8750     2.0980    -7.9480   418.1140    66.4850    24.7990    52.0260    55.7790    62.6190 
  121.0000     2.1040    -7.9570   407.2590    64.7710    24.7900    47.8480    51.7210    57.6530 
  121.1250     2.1250    -7.9740   390.3730    63.9830    24.8000    43.6720    47.3030    52.4570 
  121.2500     2.1710    -8.0010   369.8490    63.2640    24.8060    39.5100    43.1170    47.7300 
  121.3750     2.2370    -8.0140   351.0220    61.7870    24.8000    35.5500    39.9700    44.3740 
  121.5000     2.2940    -8.0380   341.6540    60.4200    24.7600    32.7410    38.1300    42.5530 
  121.6250     2.3190    -8.0390   342.6550    60.8710    24.6670    33.7100    37.6840    42.2730 
  121.7500     2.3160    -8.0190   350.2830    62.6760    24.5470    38.8810    38.5890    43.3990 
  121.8750     2.2980    -7.9630   357.2520    64.6850    24.4710    43.2250    40.9170    45.8960 
  122.0000     2.2750    -7.8950   354.6640    65.3890    24.5070    41.7890    44.1890    49.2010 
  122.1250     2.2580    -7.8050   341.7050    63.3840    24.6270    39.2870    47.8830    52.7250 
  122.2500     2.2630    -7.7040   321.9390    58.4290    24.6800    42.2400    51.1140    55.4850 
  122.3750     2.3010    -7.6330   301.4450    54.0890    24.6200    53.5930    52.2560    55.6430 
  122.5000     2.3620    -7.5620   286.9780    53.0280    24.4740    58.9650    50.6630    52.7260 
  122.6250     2.4150    -7.5380   280.0790    53.0090    24.3690    53.0940    46.5960    47.4180 
  122.7500     2.4480    -7.5360   279.9110    52.5440    24.3000    39.5980    41.2030    41.2510 
  122.8750     2.4590    -7.5530   284.2580    52.3660    24.2580    28.5620    35.8740    35.7230 
  123.0000     2.4580    -7.5540   290.8740    53.6400    24.2930    23.3060    31.2410    31.1340 
  123.1250     2.4550    -7.5200   298.1850    55.5120    24.3860    21.9120    27.1810    27.1320 
  123.2500     2.4560    -7.4790   306.4520    56.7340    24.4730    21.0120    23.3950    23.2830 
  123.3750     2.4670    -7.4210   315.8660    59.1580    24.4960    18.5620    19.9850    19.6580 
  123.5000     2.4820    -7.3660   323.9080    64.2430    24.4930    15.0480    17.3410    16.8070 
  123.6250     2.4880    -7.2780   325.6560    72.3670    24.4710    12.3330    15.8920    15.3410 
  123.7500     2.4840    -7.1680   317.1120    80.9210    24.4510    12.1650    16.0440    15.7810 
  123.8750     2.4840    -7.0400   298.3260    84.3990    24.3980    18.6120    18.7260    18.9940 
  124.0000     2.5110    -6.8990   275.2050    80.7250    24.3700    29.7690    23.9890    24.7230 
  124.1250     2.5490    -6.7910   257.8660    71.2080    24.4180    39.7040    31.1700    32.0010 
  124.2500     2.5740    -6.7000   252.1180    61.2680    24.4560    45.4640    37.6220    37.8500 
  124.3750     2.5720    -6.6010   258.5920    57.1940    24.4640    44.4100    38.5460    37.4580 
  124.5000     2.5450    -6.5330   273.5550    56.7530    24.4740    36.7960    34.4030    32.3730 
  124.6250     2.5070    -6.4910   289.5800    57.5980    24.4730    24.9300    28.2770    26.1710 
  124.7500     2.4690    -6.5150   304.3840    59.6580    24.4180    16.5030    22.7390    21.0720 
  124.8750     2.4400    -6.5940   318.8150    63.4330    24.3200    15.1190    18.8850    17.7050 
  125.0000     2.4200    -6.7330   333.2370    67.1250    24.2590    15.3070    16.3360    15.5750 
  125.1250     2.4010    -6.8750   343.4730    70.2970    24.2270    13.8250    14.9500    14.6110 
  125.2500     2.3880    -6.9960   342.8270    74.8670    24.2170    11.7610    14.7440    14.9260 
  125.3750     2.3970    -7.0840   327.1250    78.8340    24.1530    12.5240    16.1380    17.0710 
  125.5000     2.4460    -7.1100   298.4090    77.9550    24.1170    19.9160    19.2570    21.1370 
  125.6250     2.5140    -7.0950   269.3690    71.4030    24.1440    32.6460    24.3190    27.2320 
  125.7500     2.5730    -7.0370   249.2310    61.6240    24.2410    41.9450    31.0170    34.8550 
  125.8750     2.6030    -6.9520   241.8690    55.3450    24.3190    42.3760    37.7430    41.9840 
  126.0000     2.5980    -6.8350   246.8560    54.8410    24.2900    41.6940    42.1860    46.1080 
  126.1250     2.5770    -6.7290   257.6120    57.7900    24.2340    42.2800    43.3750    46.4520 
  126.2500     2.5500    -6.6500   270.5640    59.5750    24.2800    40.2120    41.9890    44.2350 
  126.3750     2.5190    -6.6450   283.1080    58.1010    24.4440    36.0550    39.4640    41.3480 
  126.5000     2.4860    -6.7020   291.8830    56.1000    24.5890    33.6290    37.0730    38.9750 
  126.6250     2.4570    -6.8060   295.0790    55.7320    24.6610    31.9480    35.2230    37.4090 
  126.7500     2.4460    -6.8610   292.4430    58.5250    24.6680    30.0700    34.1210    36.7760 
  126.8750     2.4660    -6.9820   286.0070    62.7730    24.6440    30.0500    33.9280    37.1600 
  127.0000     2.5060    -7.1120   279.6460    63.6890    24.6070    33.3910    34.2700    38.0410 
  127.1250     2.5360    -7.2490   276.2930    61.1090    24.6070    36.2750    34.7910    38.9390 
  127.2500     2.5450    -7.3750   276.0360    58.8190    24.5780    35.5310    35.2110    39.5030 
  127.3750     2.5400    -7.4940   276.6180    59.1060    24.5130    33.7190    35.4520    39.6650 
  127.5000     2.5290    -7.5640   274.4260    59.6480    24.5370    32.1180    35.7640    39.8730 
  127.6250     2.5200    -7.6000   268.4520    59.5430    24.6080    31.2090    36.5030    40.6400 
  127.7500     2.5190    -7.6090   259.7770    59.5290    24.6180    31.5740    37.9810    42.3480 
  127.8750     2.5310    -7.6400   250.8670    59.6080    24.5990    33.9830    40.2920    45.0250 
