~V
VERS. 2.00: Ver 2.00
~W
STRT.M 58.0000:
STOP.M 221.0000:
STEP.M 0.1250:
NULL. -999.2500:
UWI. DF318:
~C
DEPT.M :
DEN.GM/CC :
SP.MV :
AC.US/MT :
GR.API :
CALI.CM :
RXO.OHMM :
RI. :
RML.OHMM :
~A
# ...
  188.0000     2.2270   -21.5250   369.3940    60.7890    24.0150    66.7170    66.5110    65.5240 
  188.1250     2.2300   -21.3070   371.8480    64.2380    23.9230    57.6970    63.6960    62.7040 
  188.2500     2.2340   -21.0230   373.0750    67.7830    23.7290    49.1640    64.0600    63.0420 
  188.3750     2.2310   -20.6550   373.4580    68.7270    23.5820    54.9540    70.1070    68.5160 
  188.5000     2.2270   -20.2440   373.7310    69.0520    23.5300    70.6390    82.0550    79.4530 
  188.6250     2.2270   -19.8870   373.6980    69.9420    23.5260    84.5540    98.8650    95.7820 
  188.7500     2.2360   -19.5900   372.3900    69.8120    23.5870    96.5590   116.3180   114.3080 
  188.8750     2.2540   -19.3600   369.3030    67.6680    23.7110   112.6730   125.0730   124.3320 
  189.0000     2.2690   -19.2190   365.6480    65.2750    23.8260   116.8740   121.6360   120.4210 
  189.1250     2.2630   -19.1150   363.9570    63.4620    23.8870   100.3820   109.7510   107.8660 
  189.2500     2.2390   -19.0540   365.4640    62.9710    23.9510    78.7570    96.6950    95.4240 
  189.3750     2.2140   -19.0520   369.5820    64.0650    24.0310    72.8630    88.8680    88.8940 
  189.5000     2.2030   -19.0800   374.1480    67.4960    24.1730    79.9520    87.3920    88.4460 
  189.6250     2.2030   -19.1370   376.9490    71.0490    24.2790    90.3330    92.1390    93.9380 
  189.7500     2.2100   -19.2040   377.0060    71.6630    24.3620   101.4260   102.0760   104.7650 
  189.8750     2.2260   -19.2650   374.1480    68.7980    24.3750   120.2090   115.1520   119.3780 
  190.0000     2.2460   -19.3430   369.0570    65.0540    24.3160   140.5620   127.5940   133.4960 
  190.1250     2.2620   -19.4510   364.2830    62.7090    24.2390   149.0460   137.0150   143.9180 
  190.2500     2.2690   -19.5870   362.0340    61.9600    24.1800   144.3450   142.2540   149.1450 
  190.3750     2.2650   -19.7400   363.2380    61.4880    24.1360   141.0130   142.0620   148.0090 
  190.5000     2.2560   -19.9250   366.2010    60.6720    24.1990   143.5930   137.1590   141.7010 
  190.6250     2.2520   -20.0810   366.7740    60.9820    24.2410   140.0000   128.3490   131.4470 
  190.7500     2.2590   -20.2250   362.1580    63.1010    24.2520   122.5270   117.4400   119.5020 
  190.8750     2.2760   -20.3990   352.0460    66.3740    24.2440    98.6720   106.9070   108.6330 
  191.0000     2.3000   -20.5530   338.4660    70.2430    24.2360    81.5310    98.4230   100.2750 
  191.1250     2.3220   -20.6960   325.0280    75.1380    24.1670    84.2770    92.5260    94.7580 
  191.2500     2.3290   -20.8330   313.7940    79.7090    24.0790    94.4450    88.9950    91.6970 
  191.3750     2.3210   -20.9480   306.1430    81.7980    24.1800    94.1270    87.2090    90.3290 
  191.5000     2.3070   -20.9980   304.1850    85.6020    24.3040    82.9890    85.8540    89.2340 
  191.6250     2.2900   -21.0210   307.6040    91.9110    24.3170    73.8700    84.3760    87.8680 
  191.7500     2.2750   -21.0340   315.5400    97.1300    24.3080    70.1840    82.9600    86.5330 
  191.8750     2.2670   -21.0070   326.2990    97.6990    24.4010    70.0710    82.4900    86.2300 
  192.0000     2.2720   -20.9870   337.8420    96.7100    24.4620    69.9350    83.1800    87.1500 
  192.1250     2.2730   -20.9700   348.6340    93.9270    24.4500    73.4410    84.7500    88.9660 
  192.2500     2.2590   -20.9260   358.1710    85.4230    24.4120    85.6790    86.8850    91.3380 
  192.3750     2.2390   -20.8680   365.9880    73.8780    24.3960    95.8040    89.7480    94.4790 
  192.5000     2.2250   -20.8350   371.1330    66.4870    24.3930    93.3100    93.1620    98.2890 
  192.6250     2.2150   -20.8200   373.5710    64.2300    24.3700    85.5910    95.6780   100.9950 
  192.7500     2.2120   -20.8160   373.1140    63.6210    24.3280    99.1030    93.7790    97.7990 
  192.8750     2.2320   -20.8530   369.4240    63.2420    24.3290   128.2840    81.9090    82.2240 
  193.0000     2.2780   -20.9040   361.5910    63.2240    24.3730   112.3530    62.7680    60.3400 
  193.1250     2.3200   -20.9120   351.3180    64.1060    24.3770    59.5550    42.6440    40.1810 
  193.2500     2.3410   -20.8700   341.7350    68.9040    24.3490    22.7400    26.8480    25.6400 
  193.3750     2.3460   -20.7430   336.9210    80.3160    24.2650    11.7340    17.4300    15.2850 
  193.5000     2.3480   -20.4720   341.1470    91.2410    24.1300     8.2160    11.9320    10.6090 
  193.6250     2.3490   -20.0660   352.1990    95.4640    24.0350     6.6190     8.8620     8.0320 
  193.7500     2.3510   -19.5560   366.1820    91.8120    23.9750     6.0120     7.2410     6.7910 
  193.8750     2.3550   -18.9500   378.6800    84.9830    23.9100     5.9210     6.5980     6.4490 
  194.0000     2.3600   -18.2730   385.9330    80.1130    23.8740     6.0490     6.4310     6.4880 
  194.1250     2.3680   -17.6030   388.5370    77.0400    23.8570     6.2270     6.5090     6.6570 
  194.2500     2.3760   -16.9720   387.9600    75.2720    23.8390     6.3650     6.6640     6.7940 
  194.3750     2.3830   -16.4100   385.8430    73.4220    23.8300     6.4400     6.8220     6.8650 
  194.5000     2.3920   -15.9410   382.8610    69.9830    23.8350     6.5270     7.0420     7.0160 
  194.6250     2.4110   -15.5720   377.8220    65.3680    23.8490     6.6210     7.4340     7.4030 
  194.7500     2.4400   -15.2790   368.6500    59.9310    23.8600     7.0050     8.0560     8.0980 
  194.8750     2.4770   -15.0560   354.8890    54.3290    23.8700     8.2750     8.8300     8.9970 
  195.0000     2.5080   -14.9310   340.3560    49.8180    23.9130     9.8760     9.4270     9.6990 
  195.1250     2.5210   -14.8910   331.9850    47.2240    24.0280    10.0220     9.5140     9.8200 
  195.2500     2.5080   -14.9220   333.9100    47.5810    24.1580     8.4350     8.9880     9.2520 
  195.3750     2.4790   -15.0340   345.4820    51.3490    24.1550     7.1610     8.0980     8.3090 
  195.5000     2.4590   -15.2000   361.1530    56.7080    24.0080     6.7200     7.2920     7.5310 
  195.6250     2.4580   -15.3780   373.4800    61.0840    23.9010     6.7530     6.7550     7.1390 
  195.7500     2.4640   -15.5720   379.9010    63.2010    23.8920     7.0240     6.5260     7.1480 
  195.8750     2.4640   -15.7950   381.5770    62.3320    23.9490     7.3310     6.5500     7.4160 
  196.0000     2.4540   -15.9500   381.7780    58.8340    23.9810     7.2900     6.6170     7.6370 
  196.1250     2.4440   -16.0770   383.5110    55.3700    23.9990     6.8890     6.5940     7.6470 
  196.2500     2.4350   -16.1480   387.5560    55.2720    24.0260     6.4330     6.4490     7.4490 
  196.3750     2.4280   -16.1610   393.2680    58.1160    24.0770     6.2430     6.2520     7.1930 
  196.5000     2.4200   -16.1650   398.5480    60.5290    24.0520     6.2580     6.1140     7.0470 
  196.6250     2.4100   -16.1940   401.3560    61.0460    23.9950     6.4040     6.0870     7.0730 
  196.7500     2.3990   -16.2730   401.1030    59.8540    23.9800     6.6550     6.1620     7.2370 
  196.8750     2.3920   -16.3660   398.8300    58.7070    24.0340     6.9800     6.2650     7.4140 
  197.0000     2.3930   -16.4720   396.8790    59.1040    24.1090     7.1350     6.2970     7.4570 
  197.1250     2.3920   -16.5120   396.9990    61.1990    24.1720     6.9590     6.2100     7.3160 
  197.2500     2.3830   -16.4920   399.3100    64.1250    24.1800     6.5370     6.0200     7.0380 
  197.3750     2.3690   -16.4170   402.6170    68.1730    24.1320     6.1940     5.8020     6.7510 
  197.5000     2.3660   -16.3200   404.9400    70.2670    24.0690     6.0420     5.6450     6.5790 
  197.6250     2.3760   -16.1870   405.3290    68.2610    24.0350     5.9950     5.5910     6.5730 
  197.7500     2.3920   -15.9930   403.8590    63.0480    24.0420     6.0210     5.6480     6.7250 
  197.8750     2.3980   -15.7360   401.1550    57.5660    24.0650     6.1840     5.7960     6.9890 
