~V
VERS. 2.00: Ver 2.00
~W
STRT.M 100.0000:
STOP.M 292.0000:
STEP.M 0.1250:
NULL. -999.2500:
UWI. DF310:
~C
DEPT.M :
AC.US/MT :
DEN.GM/CC :
GR.API :
CALI.CM :
RXO.OHMM :
RI. :
RML.OHMM :
SP.MV :
~A
# ...
  240.0000   400.1160     2.2300    59.7730    22.5240    40.0770    51.5140    52.8960   -23.2620 
  240.1250   400.2560     2.2280    60.0940    22.4930    42.6990    52.1780    53.7480   -23.3830 
  240.2500   400.0090     2.2210    60.9470    22.4660    46.0070    55.1170    56.9950   -23.5150 
  240.3750   399.4430     2.2030    63.8440    22.4550    48.3510    60.1990    62.3910   -23.6800 
  240.5000   399.2790     2.1760    66.1920    22.4540    49.8760    67.2160    69.6990   -23.9060 
  240.6250   399.6340     2.1610    64.0170    22.4540    54.6340    76.0810    78.8230   -24.1590 
  240.7500   398.1460     2.1750    58.3660    22.4540    63.1180    85.8520    88.7400   -24.4180 
  240.8750   392.4370     2.2100    56.3250    22.4540    70.6160    95.3890    98.2380   -24.6840 
  241.0000   383.3200     2.2430    58.3480    22.4540    71.7520   103.2310   105.9240   -24.9730 
  241.1250   376.6250     2.2570    59.6810    22.4530    67.6380   107.9220   110.4600   -25.2490 
  241.2500   376.1890     2.2570    58.5580    22.4470    64.3050   110.2160   112.6010   -25.5280 
  241.3750   380.0550     2.2530    58.2760    22.4320    62.1070   111.0480   113.2690   -25.8010 
  241.5000   383.3740     2.2540    59.2190    22.4170    61.1460   111.1300   113.2300   -26.0710 
  241.6250   383.4450     2.2590    60.1290    22.4270    64.6570   110.5240   112.6950   -26.3500 
  241.7500   383.4690     2.2580    60.3690    22.5050    69.1480   109.4700   111.9470   -26.6450 
  241.8750   386.3540     2.2420    59.5880    22.7120    70.4680   108.6960   111.6900   -26.9620 
  242.0000   392.4560     2.2170    57.3560    22.9970    68.1120   109.3180   112.9890   -27.2670 
  242.1250   399.6960     2.1940    56.4540    23.2720    66.6300   112.7530   117.1970   -27.5770 
  242.2500   405.5530     2.1800    57.9010    23.3760    69.2390   118.7660   123.8940   -27.8890 
  242.3750   409.7410     2.1750    57.5630    23.3990    74.7020   126.4910   132.0130   -28.1800 
  242.5000   413.7750     2.1790    55.9750    23.3990    79.7290   134.2350   139.7620   -28.3920 
  242.6250   419.3900     2.1930    59.0380    23.3990    80.1760   139.4830   144.7580   -28.5450 
  242.7500   424.9690     2.2160    65.7430    23.3990    77.0060   141.5590   146.5430   -28.6270 
  242.8750   427.7720     2.2380    67.1790    23.4050    72.8830   141.0190   145.7120   -28.5910 
  243.0000   427.0100     2.2450    62.4280    23.4310    71.0030   139.1820   143.6050   -28.5180 
  243.1250   425.1060     2.2230    57.5010    23.4970    76.1430   137.3610   141.6280   -28.4030 
  243.2500   424.9150     2.1890    57.5410    23.5800    83.5140   136.0630   140.2800   -28.2550 
  243.3750   426.5260     2.1660    61.6330    23.6750    89.7180   135.1320   139.3120   -28.0570 
  243.5000   428.7190     2.1620    65.6130    23.7330    94.5830   134.2660   138.3340   -27.8590 
  243.6250   430.1180     2.1670    65.0280    23.7520    96.4530   133.3840   137.2650   -27.6510 
  243.7500   430.1750     2.1660    60.5570    23.7520    93.2610   132.8640   136.6410   -27.4500 
  243.8750   428.4920     2.1560    58.9860    23.7650    88.2440   133.3700   137.2310   -27.2580 
  244.0000   423.9060     2.1500    60.2340    23.8270    90.4390   135.6180   139.7490   -27.0570 
  244.1250   413.0300     2.1660    61.2270    23.9730   104.6380   140.4050   144.8870   -26.8460 
  244.2500   396.7970     2.1990    60.5190    24.0920   126.8610   146.9680   151.6770   -26.6390 
  244.3750   380.7920     2.2320    58.2090    24.1370   148.9610   153.8870   158.6150   -26.4390 
  244.5000   372.5320     2.2520    55.9090    24.1360   160.0290   158.9300   163.6430   -26.2480 
  244.6250   375.4980     2.2580    55.7010    24.1220   152.4280   159.1290   164.1790   -26.0990 
  244.7500   381.9260     2.2610    56.6290    24.1130   137.3210   154.7260   160.4470   -25.9620 
  244.8750   386.6810     2.2600    56.2340    24.1260   123.0960   147.1840   153.5880   -25.8720 
  245.0000   389.6490     2.2550    55.5140    24.1390   116.0660   138.5790   145.3670   -25.7850 
  245.1250   393.1080     2.2470    56.5470    24.1420   116.7670   130.6140   137.3630   -25.6980 
  245.2500   396.4700     2.2370    57.7280    24.1420   116.8440   123.7200   130.1860   -25.5900 
  245.3750   398.0930     2.2230    57.6370    24.1420   111.4380   117.8530   123.9100   -25.4890 
  245.5000   398.2420     2.2080    57.2240    24.1420   104.4540   112.8890   118.5700   -25.3910 
  245.6250   398.5300     2.2050    57.9010    24.1420   100.7580   109.0780   114.4760   -25.2340 
  245.7500   398.4100     2.2140    59.4340    24.1370    98.5220   106.5850   111.6920   -25.0590 
  245.8750   395.4050     2.2330    60.4440    24.1160    95.9520   105.7600   110.5410   -24.8410 
  246.0000   386.8280     2.2670    61.0160    24.0680    93.3660   107.0050   111.5710   -24.5980 
  246.1250   367.8400     2.3350    61.0120    24.0430    93.5060   111.4510   116.4260   -24.3190 
  246.2500   336.5230     2.4360    58.7460    24.0210    96.8740   119.6880   126.1310   -24.0160 
  246.3750   293.6540     2.5530    55.1840    23.9760   103.3720   132.9620   142.2080   -23.6790 
  246.5000   247.0350     2.6480    52.3460    23.8710   114.1970   152.5800   165.7590   -23.3050 
  246.6250   211.5910     2.6870    50.4260    23.7300   144.8050   179.5670   196.3030   -22.9220 
  246.7500   192.9760     2.6840    49.0540    23.5780   203.0460   204.2650   223.4350   -22.5210 
  246.8750   189.5330     2.6620    49.3090    23.5020   264.1920   201.4090   227.0780   -22.1170 
  247.0000   199.3030     2.6320    52.6960    23.4840   282.4470   152.0910   188.0110   -21.6820 
  247.1250   228.8120     2.5870    57.8570    23.4750   230.4490    89.6100   119.8900   -21.2660 
  247.2500   277.7190     2.5230    62.8420    23.4360   153.2380    48.3400    64.9860   -20.8440 
  247.3750   337.4410     2.4520    66.8950    23.3560    79.7200    25.8640    32.7270   -20.4180 
  247.5000   390.7730     2.3950    67.8370    23.2590    28.9310    14.3270    16.7530   -20.0020 
  247.6250   417.7670     2.3760    64.5380    23.2200    11.9850     9.0730    10.2150   -19.6080 
  247.7500   420.8040     2.3860    61.6250    23.2130     6.6440     6.5000     7.1420   -19.2390 
  247.8750   409.9880     2.4040    61.3120    23.2190     5.6220     5.6810     5.6230   -18.9130 
  248.0000   397.1670     2.4170    59.3820    23.2260     5.8800     5.4580     5.4440   -18.6750 
  248.1250   391.4740     2.4250    53.9360    23.2270     6.4200     5.7290     5.9370   -18.4880 
  248.2500   393.1750     2.4300    49.3970    23.2250     6.8030     6.1570     6.4920   -18.3730 
  248.3750   399.3500     2.4270    48.2280    23.2240     6.9490     6.4900     6.8450   -18.3580 
  248.5000   405.9780     2.4130    46.7530    23.2200     6.8410     6.6160     6.9050   -18.4280 
  248.6250   409.4880     2.4000    43.7130    23.2190     6.5680     6.5590     6.7560   -18.5620 
  248.7500   409.7800     2.3980    41.4520    23.2180     6.3880     6.4610     6.6060   -18.7450 
  248.8750   407.7360     2.4100    40.5360    23.2180     6.4440     6.3970     6.5580   -18.9630 
  249.0000   404.4610     2.4310    39.6790    23.2180     6.7060     6.4040     6.6440   -19.2030 
  249.1250   401.0340     2.4470    38.0560    23.2180     7.1200     6.4850     6.8670   -19.4470 
  249.2500   398.6810     2.4510    37.1740    23.2180     7.4930     6.5920     7.1510   -19.6910 
  249.3750   398.6780     2.4490    38.5710    23.2180     7.7130     6.6840     7.4320   -19.9120 
  249.5000   401.7690     2.4500    40.9130    23.2180     7.7620     6.7360     7.6470   -20.0990 
  249.6250   406.9870     2.4610    41.1300    23.2290     7.7410     6.7460     7.7370   -20.2780 
  249.7500   410.9000     2.4780    38.6280    23.2520     7.8370     6.7420     7.7390   -20.4350 
  249.8750   411.3400     2.4960    36.8280    23.2720     8.0370     6.7440     7.7210   -20.5810 
