~V
VERS. 2.00: Ver 2.00
~W
STRT.M 51.0000:
STOP.M 228.0000:
STEP.M 0.1250:
NULL. -999.2500:
UWI. DF314:
~C
DEPT.M :
DEN.GM/CC :
AC.US/MT :
GR.API :
CALI.CM :
RXO.OHMM :
RI. :
RML.OHMM :
SP.MV :
~A
# ...
  211.0000     2.4000   404.0380    47.9560    24.7840     5.8490     4.9840     5.7330   -15.6080 
  211.1250     2.3840   406.6570    44.9140    24.7360     5.4950     4.7430     5.4640   -15.3590 
  211.2500     2.3690   409.1750    42.7720    24.7000     5.0180     4.4500     5.1370   -15.1110 
  211.3750     2.3570   410.3400    40.6860    24.6890     4.5720     4.1690     4.8230   -14.9820 
  211.5000     2.3470   408.9350    37.0870    24.8040     4.2970     3.9540     4.5830   -14.9790 
  211.6250     2.3390   404.9360    32.6510    25.0430     4.2210     3.8510     4.4680   -15.0520 
  211.7500     2.3330   401.3200    31.3050    25.1170     4.2100     3.8350     4.4500   -15.1950 
  211.8750     2.3290   400.9700    32.6610    24.8810     4.2100     3.8790     4.5000   -15.4470 
  212.0000     2.3300   405.2670    34.4470    24.4720     4.2230     3.9520     4.5820   -15.8240 
  212.1250     2.3370   412.6720    36.5800    24.1630     4.2600     4.0210     4.6580   -16.3550 
  212.2500     2.3460   418.2010    37.9380    23.9860     4.3150     4.0610     4.7020   -16.8620 
  212.3750     2.3560   418.6050    36.9480    23.9240     4.4200     4.0690     4.7110   -17.2340 
  212.5000     2.3650   413.5850    34.3970    24.0670     4.6250     4.0600     4.7010   -17.5370 
  212.6250     2.3740   405.6340    34.1610    24.3740     4.8540     4.0620     4.7040   -17.8560 
  212.7500     2.3830   398.5900    36.4370    24.6280     4.9170     4.0920     4.7370   -18.1520 
  212.8750     2.3900   393.9520    37.9440    24.7220     4.8140     4.1450     4.7970   -18.3710 
  213.0000     2.3940   391.5060    37.9340    24.7200     4.7540     4.2200     4.8800   -18.4410 
  213.1250     2.3940   389.8080    37.2440    24.7380     4.9560     4.3250     4.9970   -18.2680 
  213.2500     2.3930   387.3450    37.1500    24.7690     5.2780     4.4490     5.1360   -18.0700 
  213.3750     2.3940   384.1070    37.6610    24.7940     5.5080     4.5660     5.2670   -17.9510 
  213.5000     2.3990   381.4990    39.3590    24.8210     5.5360     4.6300     5.3380   -17.8850 
  213.6250     2.4090   382.7870    40.7380    24.8470     5.3820     4.5870     5.2900   -17.7960 
  213.7500     2.4200   389.6240    40.8300    24.8300     5.1500     4.4600     5.1470   -17.6120 
  213.8750     2.4290   401.8260    38.8160    24.8220     4.8590     4.2850     4.9520   -17.3600 
  214.0000     2.4320   416.5530    35.6770    24.9690     4.5310     4.1100     4.7570   -17.1350 
  214.1250     2.4280   427.8550    34.3110    25.1500     4.2530     3.9830     4.6160   -17.0650 
  214.2500     2.4220   431.4690    35.8190    25.1030     4.1150     3.9220     4.5470   -17.0740 
  214.3750     2.4150   426.4000    37.9780    24.8740     4.1450     3.9280     4.5540   -17.0940 
  214.5000     2.4110   415.0740    38.0420    24.7200     4.2820     3.9880     4.6210   -17.0720 
  214.6250     2.4100   402.4350    36.6700    24.7550     4.4060     4.0760     4.7200   -17.0210 
  214.7500     2.4120   393.0290    37.4660    24.7860     4.4930     4.1680     4.8220   -17.0380 
  214.8750     2.4170   387.8200    41.5620    24.7880     4.6340     4.2630     4.9280   -17.0680 
  215.0000     2.4220   384.7910    49.0980    24.7870     4.9310     4.3870     5.0670   -17.1050 
  215.1250     2.4240   379.4350    56.9280    24.7750     5.4110     4.5870     5.2900   -17.2360 
  215.2500     2.4230   369.0480    61.1860    24.7450     6.0160     4.8900     5.6280   -17.5320 
  215.3750     2.4230   353.7110    62.3320    24.7330     6.9050     5.3300     6.1200   -18.0000 
  215.5000     2.4220   335.9560    61.7380    24.7930     8.4310     5.9230     6.7810   -18.6100 
  215.6250     2.4210   320.1910    59.9420    24.9290    10.8400     6.6920     7.6390   -19.2920 
  215.7500     2.4200   308.7420    57.2520    25.0430    13.2860     7.5930     8.6450   -19.9780 
  215.8750     2.4170   301.2150    55.6070    25.0910    14.8280     8.5640     9.7280   -20.6620 
  216.0000     2.4140   295.7860    57.4130    25.0890    15.2690     9.4910    10.7630   -21.3250 
  216.1250     2.4120   291.2770    60.6510    25.0690    15.2480    10.2270    11.5850   -21.9150 
  216.2500     2.4080   287.9120    61.9790    25.0430    15.2490    10.7700    12.1910   -22.3500 
  216.3750     2.4010   286.3820    60.8400    25.0200    15.1890    11.1760    12.6440   -22.6030 
  216.5000     2.3910   286.4970    58.9930    24.9800    15.2490    11.5200    13.0270   -22.7230 
  216.6250     2.3820   286.9020    58.8120    24.9150    16.0720    11.8280    13.3720   -22.7630 
  216.7500     2.3760   286.1980    58.9120    24.8940    17.3260    12.0480    13.6170   -22.7910 
  216.8750     2.3730   284.0240    58.8430    24.9110    17.9210    12.1100    13.6860   -22.8800 
  217.0000     2.3730   280.3760    59.9040    24.9500    17.3260    12.0210    13.5870   -23.0160 
  217.1250     2.3740   274.7390    62.4300    25.1530    16.0100    11.8830    13.4330   -23.1300 
  217.2500     2.3750   267.6090    64.9490    25.3340    14.7910    11.8700    13.4180   -23.2250 
  217.3750     2.3760   260.6490    65.1830    25.2460    14.2630    12.1310    13.7100   -23.3360 
  217.5000     2.3770   256.4940    63.7570    24.9560    15.3190    12.7980    14.4540   -23.4520 
  217.6250     2.3790   257.5870    64.3450    24.8480    18.4710    14.0360    15.8360   -23.5210 
  217.7500     2.3840   261.8280    66.8940    24.9560    22.2920    15.6570    17.6450   -23.4990 
  217.8750     2.3930   266.5360    68.9420    25.0160    25.9660    17.1960    19.3630   -23.3370 
  218.0000     2.4050   270.3190    69.2050    24.9900    29.2150    17.8400    20.0820   -22.9870 
  218.1250     2.4160   275.0150    69.2050    24.9500    29.9770    16.6310    18.7320   -22.3690 
  218.2500     2.4200   283.7360    69.2050    24.9430    26.1660    14.1500    15.9640   -21.5210 
  218.3750     2.4190   297.8290    69.2050    24.9480    23.6700    13.0060    14.6860   -20.5220 
  218.5000     2.4140   315.9430    69.2050    25.0410    11.5190     8.8840    10.0860   -19.4590 
  218.6250     2.4130   334.1250    69.2050    25.1030     7.5570     7.2470     8.2580   -18.4080 
  218.7500     2.4180   348.2910    69.2050    25.1500     6.0890     6.2390     7.1340   -17.4440 
  218.8750     2.4260   356.4980    69.2050    25.1660     5.8880     5.7240     6.5580   -17.0830 
  219.0000     2.4330   358.9040    69.2050    25.1420     6.0630     5.5620     6.3780   -15.9820 
  219.1250     2.4350   357.3590    69.2050    25.1030     6.2260     5.6480     6.4740   -15.5480 
  219.2500     2.4340   355.4600    69.2050    25.0820     6.3610     5.8420     6.6900   -15.3190 
  219.3750     2.4320   354.5580    69.2050    25.0810     6.5220     6.0920     6.9700   -15.2110 
  219.5000     2.4310   354.0200    69.2050    25.0810     6.7490     6.3600     7.2690   -15.1510 
  219.6250     2.4300   351.4190    69.2050    25.0800     7.0840     6.5990     7.5360   -15.1250 
  219.7500     2.4290   345.4350    69.2050    25.0830     7.4940     6.7930     7.7520   -15.1010 
  219.8750     2.4290   335.9170    69.2050    25.0880     7.9160     6.9620     7.9410   -15.0720 
  220.0000     2.4330   323.5960    69.2050    25.0890     8.3170     7.1650     8.1670   -15.0740 
  220.1250     2.4400   309.9410    69.2050    25.0880     8.7270     7.5600     8.3160   -15.1290 
  220.2500     2.4490   297.8890    69.2050    25.0900     9.1840     8.2090     8.3350   -15.2040 
  220.3750     2.4520   290.8410    69.2050    25.0900     9.8570     8.5450     9.2840   -15.2710 
  220.5000     2.4460   292.1000    69.2050    25.0620    10.8220     8.6800    10.1430   -15.3050 
  220.6250     2.4260   304.4350    69.2050    25.0110    11.2410     8.4480    10.4270   -15.3090 
  220.7500     2.4100   323.2320    69.2050    24.9960    10.3390     7.9490    10.1160   -15.3610 
  220.8750     2.3510   342.7560    69.2050    25.0330     8.5830     7.3360     9.3440   -15.5040 
