~V
VERS. 2.00: Ver 2.00
~W
STRT.M 65.0000:
STOP.M 277.0000:
STEP.M 0.1250:
NULL. -999.2500:
UWI. DF311:
~C
DEPT.M :
DEN.GM/CC :
SP.MV :
AC.US/MT :
GR.API :
CALI.CM :
RXO.OHMM :
RI. :
RML.OHMM :
~A
# ...
  175.0000     2.2160   -40.1500   424.4410    63.4920    23.7780   114.3280   213.3910   221.5660 
  175.1250     2.2200   -40.0980   422.7610    62.7570    23.7800   113.8790   209.2890   216.2530 
  175.2500     2.2200   -40.0430   419.7410    62.0740    23.7810   114.7080   205.6720   211.5180 
  175.3750     2.2200   -39.9660   416.6230    63.4880    23.7670   114.7970   204.2490   209.1550 
  175.5000     2.2230   -39.8940   415.0740    64.0070    23.6710   112.6680   205.4740   209.6980 
  175.6250     2.2260   -39.8250   416.0060    60.7180    23.4400   113.3210   208.5550   212.5920 
  175.7500     2.2290   -39.7230   417.6380    56.3210    23.2240   116.3490   211.4340   215.7430 
  175.8750     2.2330   -39.6440   418.2640    54.3800    23.1390   117.9400   212.5740   217.3650 
  176.0000     2.2420   -39.5770   417.2400    55.4800    23.1280   114.6510   211.1490   216.3400 
  176.1250     2.2500   -39.5050   415.0810    56.4520    23.1280   108.5180   207.8940   213.3780 
  176.2500     2.2520   -39.4520   412.9460    54.9600    23.1350   105.6390   205.8750   211.7960 
  176.3750     2.2500   -39.3850   411.5290    52.7800    23.1940   105.2000   207.8230   214.4820 
  176.5000     2.2460   -39.3020   411.5490    54.5930    23.3520   103.4860   215.5760   223.4480 
  176.6250     2.2360   -39.2280   413.9680    59.2210    23.5740   102.2590   229.9110   240.1520 
  176.7500     2.2240   -39.1500   417.9890    59.8770    23.6700   104.1580   246.3760   260.4360 
  176.8750     2.2160   -39.0260   421.9850    55.8000    23.6880   108.7690   259.6200   278.2480 
  177.0000     2.2150   -38.8940   424.1910    53.3590    23.6640   113.8590   264.9370   287.2190 
  177.1250     2.2170   -38.7580   423.7810    56.4810    23.6040   114.3330   259.8050   283.3830 
  177.2500     2.2150   -38.5580   422.5410    60.6510    23.5400   109.0390   249.6940   273.2910 
  177.3750     2.2100   -38.3580   421.9910    63.1030    23.5140   101.4820   240.1700   263.6490 
  177.5000     2.2040   -38.1620   422.6210    61.8790    23.5100    96.3450   235.4480   259.1990 
  177.6250     2.1990   -37.9400   423.8830    57.3620    23.5100    93.6440   237.1980   261.6430 
  177.7500     2.1960   -37.7250   424.9770    53.1120    23.5100    89.3840   241.7470   266.7770 
  177.8750     2.1950   -37.5240   425.7370    53.4480    23.5100    83.1490   245.6370   270.3780 
  178.0000     2.1930   -37.3020   426.1920    58.3740    23.4930    77.9220   246.2480   269.1840 
  178.1250     2.1930   -37.0530   426.3150    60.7510    23.4310    76.7340   242.2820   261.7370 
  178.2500     2.1950   -36.8650   426.2690    59.4170    23.3050    77.7980   234.6900   249.5330 
  178.3750     2.2030   -36.6870   426.2560    57.6680    23.1460    79.2720   223.8670   227.8910 
  178.5000     2.2170   -36.4780   426.2820    58.9260    23.0190    80.0360   196.5430   203.5600 
  178.6250     2.2360   -36.2810   425.2310    65.4010    22.9160    75.9080   159.0140   171.1970 
  178.7500     2.2590   -36.0940   421.5030    74.9550    22.8820    65.0640   123.6590   136.5640 
  178.8750     2.2860   -35.9240   414.6750    82.2990    22.8720    49.8330    95.6430   106.1470 
  179.0000     2.3110   -35.7770   407.0390    82.5520    22.8610    36.4680    75.6940    83.2400 
  179.1250     2.3270   -35.6730   403.6950    77.4060    22.8310    30.3360    63.2370    68.8510 
  179.2500     2.3300   -35.5720   405.6410    74.5290    22.7950    30.4960    55.3030    59.8120 
  179.3750     2.3260   -35.4720   409.7710    73.6700    22.7800    33.3150    50.6380    54.4890 
  179.5000     2.3200   -35.4230   411.7660    72.1750    22.7780    33.7570    48.4040    51.8720 
  179.6250     2.3090   -35.4150   409.4630    70.7880    22.7790    30.0290    48.3560    51.7050 
  179.7500     2.2960   -35.4500   405.2610    69.1220    22.8020    27.3660    49.9870    53.3830 
  179.8750     2.2860   -35.5040   400.5600    67.3710    22.8950    28.0240    53.4370    56.9880 
  180.0000     2.2830   -35.5690   395.8530    66.6870    23.1000    30.2230    58.9110    62.6740 
  180.1250     2.2820   -35.6470   393.1910    66.7260    23.2660    32.2210    66.6060    70.5160 
  180.2500     2.2770   -35.7370   394.8790    64.5100    23.3310    35.7770    75.3300    79.2030 
  180.3750     2.2690   -35.8310   400.5320    59.7830    23.3400    42.4210    83.4300    87.0780 
  180.5000     2.2630   -35.9110   406.4850    55.9100    23.3380    49.6250    88.6950    92.1410 
  180.6250     2.2630   -35.9810   408.7360    55.6500    23.3370    51.5120    88.5680    92.2130 
  180.7500     2.2680   -36.0110   408.9720    56.6840    23.3390    49.1140    84.4020    88.5040 
  180.8750     2.2740   -36.0280   410.2460    56.5360    23.3400    45.2790    78.4500    82.8950 
  181.0000     2.2780   -36.0570   413.5940    55.9230    23.3400    42.0120    72.9810    77.4280 
  181.1250     2.2750   -36.0460   416.8210    57.9460    23.3400    41.1630    69.4530    73.5740 
  181.2500     2.2680   -36.0330   417.0020    63.0220    23.3400    42.2940    66.9340    70.5740 
  181.3750     2.2650   -36.0460   412.8390    68.0680    23.3400    43.0750    63.7510    66.8400 
  181.5000     2.2800   -36.0630   404.8250    69.8880    23.3400    41.6370    58.6000    61.1990 
  181.6250     2.3200   -36.0570   395.9350    70.0820    23.3400    38.5790    51.6280    53.9920 
  181.7500     2.3570   -36.0690   390.8220    70.6970    23.3290    35.4300    44.9500    47.2940 
  181.8750     2.3630   -36.1000   392.2070    70.5700    23.2810    32.1790    40.1110    42.5120 
  182.0000     2.3310   -36.1490   399.7320    68.4230    23.1680    28.7180    37.9350    40.3300 
  182.1250     2.2870   -36.2540   410.0470    65.2600    23.0940    27.6750    38.9990    41.2780 
  182.2500     2.2610   -36.3470   418.6660    63.8370    23.0670    28.9570    42.4300    44.6050 
  182.3750     2.2520   -36.4440   424.0320    63.4410    23.0640    30.6310    47.5980    49.8030 
  182.5000     2.2490   -36.5630   426.5760    64.0000    23.0650    30.8380    53.7210    56.1210 
  182.6250     2.2400   -36.7050   427.3800    66.2640    23.0670    30.2260    59.8730    62.5490 
  182.7500     2.2290   -36.8710   427.4220    67.5490    23.0790    30.9690    65.3360    68.2130 
  182.8750     2.2220   -37.0610   426.6840    66.2260    23.1240    34.0410    69.6920    72.5930 
  183.0000     2.2280   -37.2470   425.1080    67.6760    23.2330    39.5610    72.5120    75.2150 
  183.1250     2.2440   -37.4280   422.8430    72.6120    23.3590    45.4930    73.0210    75.3380 
  183.2500     2.2600   -37.6340   420.3550    72.7730    23.4330    47.2000    71.7810    73.6710 
  183.3750     2.2650   -37.8310   417.9110    65.7430    23.4550    43.0770    69.9190    71.3510 
  183.5000     2.2620   -38.0400   415.9220    56.8570    23.4690    37.7880    68.7600    70.0350 
  183.6250     2.2580   -38.2970   415.1640    52.6070    23.6030    38.1390    69.7580    71.8000 
  183.7500     2.2540   -38.5400   415.4320    51.3430    23.9540    44.4910    73.5510    76.5770 
  183.8750     2.2450   -38.7690   415.9210    52.6610    24.4440    53.4450    80.0190    84.1880 
  184.0000     2.2340   -39.0030   415.9540    54.5620    24.8580    61.9530    88.4110    93.7950 
  184.1250     2.2240   -39.2180   415.6980    53.9650    25.0040    69.0520    97.4190   103.9330 
  184.2500     2.2200   -39.4060   415.6790    53.8790    25.0390    76.1580   105.7450   113.1530 
  184.3750     2.2210   -39.5840   415.7860    55.3960    25.0400    82.4670   113.1600   121.1660 
  184.5000     2.2260   -39.7350   415.8170    57.7480    25.0400    87.4260   120.2360   128.6330 
  184.6250     2.2300   -39.8240   416.1730    58.5990    25.0400    92.1900   127.8540   136.5830 
  184.7500     2.2280   -39.8970   417.0300    57.6980    25.0400    98.3620   136.1160   145.2070 
  184.8750     2.2240   -39.9380   417.5940    56.4290    25.0420   108.4520   144.4540   153.9350 
