~V
VERS. 2.00: Ver 2.00
~W
STRT.M 61.0000:
STOP.M 296.0000:
STEP.M 0.1250:
NULL. -999.2500:
UWI. DF312:
~C
DEPT.M :
DEN.GM/CC :
AC.US/MT :
GR.API :
CALI.CM :
RXO.OHMM :
RI. :
RML.OHMM :
SP.MV :
~A
# ...
  271.0000     2.3740   331.4890    98.9380    24.1910    14.1480    12.3830    12.3430   -12.7110 
  271.1250     2.3690   335.4040    97.6780    24.1530    12.1350    12.3480    12.2310   -12.4800 
  271.2500     2.3630   338.2870    97.7680    24.1440    11.7630    12.3020    12.1280   -12.1840 
  271.3750     2.3680   339.0430    98.1970    24.1530    12.3270    12.2050    11.9790   -11.8300 
  271.5000     2.3760   338.8630    97.8100    24.1900    12.8090    11.9850    11.7300   -11.4260 
  271.6250     2.3730   340.7780    96.6280    24.2040    11.9020    11.5530    11.4700   -10.9580 
  271.7500     2.3650   346.0430    96.5030    24.1510    10.1330    10.9510    11.2510   -10.5040 
  271.8750     2.3670   353.7640    99.9770    24.0420     8.7740    10.2610    10.9650   -10.1190 
  272.0000     2.3780   361.7740   105.2870    23.9540     8.4770     9.5810    10.5180    -9.8120 
  272.1250     2.3830   367.8400   107.3230    23.9570     8.5520     8.9950     9.9920    -9.6160 
  272.2500     2.3710   371.6980   104.7970    24.0150     8.5360     8.5170     9.5670    -9.5680 
  272.3750     2.3500   373.4250   101.7110    24.1000     8.4690     8.1750     9.2990    -9.6970 
  272.5000     2.3290   372.5620    99.6760    24.1650     8.4270     8.0390     9.2690   -10.0210 
  272.6250     2.3110   367.0610    98.7340    24.1820     8.7900     8.2850     9.7170   -10.5530 
  272.7500     2.2980   356.5280    99.9100    24.1770    10.4280     9.0150    10.7650   -11.1760 
  272.8750     2.3040   341.2140   101.2150    24.1640    14.3590    10.3900    12.5620   -11.8530 
  273.0000     2.3290   322.4310   100.0380    24.1530    20.5280    12.5760    15.2040   -12.5570 
  273.1250     2.3670   301.8830    96.6880    24.1240    27.2910    15.8370    18.8000   -13.2270 
  273.2500     2.4030   281.6720    93.5900    24.0770    32.8020    19.9280    22.9770   -13.7900 
  273.3750     2.4280   263.4770    91.7990    24.0220    38.8170    24.4970    27.3460   -14.2200 
  273.5000     2.4460   249.0440    90.5810    24.0260    45.7850    28.9970    31.4400   -14.5060 
  273.6250     2.4600   240.9100    89.1850    24.1280    50.9570    32.7100    34.6320   -14.6580 
  273.7500     2.4750   238.3700    87.1170    24.2250    52.1070    35.3110    36.6080   -14.7390 
  273.8750     2.4840   240.1810    85.3570    24.2780    50.5390    36.4200    37.0300   -14.7540 
  274.0000     2.4870   244.9160    85.9510    24.2420    47.8230    35.6660    35.7300   -14.7310 
  274.1250     2.4880   252.3840    88.9190    24.1690    42.6760    32.8960    32.7730   -14.7190 
  274.2500     2.4810   262.2060    91.4560    24.1270    34.9840    29.2780    29.1870   -14.7610 
  274.3750     2.4520   273.3580    91.6940    24.1250    26.9160    25.7400    25.7800   -14.8660 
  274.5000     2.4080   283.4650    90.5150    24.0840    22.4030    22.9190    23.1580   -15.0110 
  274.6250     2.3680   289.2970    91.4640    23.9280    23.1560    21.2720    21.7740   -15.1410 
  274.7500     2.3450   290.7740    94.8520    23.8710    26.6960    20.5930    21.3450   -15.2390 
  274.8750     2.3450   289.3510    98.0030    23.9420    31.2260    20.6240    21.4900   -15.3240 
  275.0000     2.3560   287.3000   100.1360    23.9760    35.0100    20.8970    21.6640   -15.3680 
  275.1250     2.3730   286.9740   101.6940    23.8410    34.1090    20.6800    21.2070   -15.3240 
  275.2500     2.3900   289.3130   101.1870    23.7220    28.8000    19.6710    20.0100   -15.1810 
  275.3750     2.3960   294.8060    99.1130    23.7130    21.4560    18.0350    18.2950   -14.9600 
  275.5000     2.3850   303.5150    98.1680    23.6990    15.4330    16.1860    16.4620   -14.7260 
  275.6250     2.3580   314.9470   100.0610    23.7410    12.6490    14.5350    14.9020   -14.5530 
  275.7500     2.3260   327.0820   102.3520    23.7760    11.8900    13.1990    13.6780   -14.3880 
  275.8750     2.3010   338.5800   101.0100    23.8170    11.6610    12.1570    12.7280   -14.1780 
  276.0000     2.2910   348.6020    96.6180    23.8800    11.2050    11.3470    11.9660   -13.9510 
  276.1250     2.2920   356.1870    93.5300    23.8760    10.1700    10.7560    11.3850   -13.7680 
  276.2500     2.3000   361.0780    95.5890    23.8220     9.3770    10.3550    11.0140   -13.6800 
  276.3750     2.3130   362.7890   101.0880    23.7560     9.0830    10.1870    10.9390   -13.6820 
  276.5000     2.3290   361.2480   104.0220    23.7270     9.3070    10.3150    11.2360   -13.7370 
  276.6250     2.3440   356.6410   103.5390    23.7190    10.0750    10.8430    11.9810   -13.8400 
  276.7500     2.3570   350.3960   102.9590    23.7300    11.2560    11.6990    13.0170   -14.0280 
  276.8750     2.3700   343.2880   103.0930    23.7480    12.6330    12.7760    14.1640   -14.2900 
  277.0000     2.3790   336.0360   103.4080    23.7630    14.2200    13.8730    15.1800   -14.5880 
  277.1250     2.3780   330.0050   103.8010    23.8330    15.6910    14.6160    15.7340   -14.8750 
  277.2500     2.3690   326.5480   104.3540    23.8720    16.2670    14.8030    15.7600   -15.0930 
  277.3750     2.3580   326.6370   102.9140    23.8510    15.3250    14.4300    15.3180   -15.1960 
  277.5000     2.3500   330.1050    99.1610    23.7870    13.3530    13.6770    14.5900   -15.1700 
  277.6250     2.3400   335.5600    95.8550    23.7810    11.7680    12.7930    13.8100   -15.0030 
  277.7500     2.3310   340.7750    95.3290    23.8010    11.2590    11.9960    13.1500   -14.7480 
  277.8750     2.3310   345.0700    96.5380    23.8330    11.1030    11.3590    12.6570   -14.4510 
  278.0000     2.3390   348.9350    96.7880    23.8390    10.6820    10.8810    12.3040   -14.1660 
  278.1250     2.3440   353.3950    96.7540    23.8080    10.1760    10.5330    12.0370   -13.9350 
  278.2500     2.3350   358.5650    97.7220    23.7680    10.0740    10.2450    11.7940   -13.7680 
  278.3750     2.3150   363.7110    98.9340    23.7410    10.0190    10.0050    11.5760   -13.6820 
  278.5000     2.3020   367.6270    99.0110    23.7580     9.8240     9.8370    11.4330   -13.6990 
  278.6250     2.3060   368.5740    98.2980    23.7950     9.5950     9.8200    11.4650   -13.8390 
  278.7500     2.3240   366.2700    97.2350    23.8540     9.7130     9.9910    11.7140   -14.0750 
  278.8750     2.3370   361.0260    95.7620    23.8820    10.4550    10.3790    12.1990   -14.3810 
  279.0000     2.3360   354.0570    95.0000    23.8610    11.6570    10.9800    12.8810   -14.7040 
  279.1250     2.3280   347.4580    95.4540    23.8800    12.7940    11.7150    13.6330   -14.9890 
  279.2500     2.3210   343.0080    96.1050    23.9190    13.5580    12.3710    14.2430   -15.2140 
  279.3750     2.3190   341.4490    96.9020    23.9490    14.1220    12.7690    14.5500   -15.3490 
  279.5000     2.3140   342.5550    97.7940    23.9400    14.3280    12.8070    14.4980   -15.3620 
  279.6250     2.3020   345.4160    98.1130    23.8570    13.5540    12.4500    14.0190   -15.2350 
  279.7500     2.2850   348.5350    97.9990    23.7810    12.4770    11.8520    13.1390   -14.9730 
  279.8750     2.2800   351.4130    97.9860    23.8300    12.1040    11.1180    11.9990   -14.6450 
  280.0000     2.2920   354.0280    97.6420    23.9070    12.5400    10.3630    10.9290   -14.3190 
  280.1250     2.3100   355.9520    97.0200    23.9060    12.1340     9.7520    10.2950   -14.0600 
  280.2500     2.3240   356.0200    97.6830    23.8530    10.7630     9.4020    10.0810   -13.9570 
  280.3750     2.3290   352.8330    99.7060    23.8190     9.9760     9.3970    10.2480   -14.0800 
  280.5000     2.3290   345.9850   100.4810    23.8510    10.9240     9.7660    10.8060   -14.4180 
  280.6250     2.3240   336.8500    98.0900    23.9450    12.6230    10.5080    11.6950   -14.9260 
  280.7500     2.3150   328.7430    95.8440    24.0130    13.6980    11.4160    12.6390   -15.5380 
  280.8750     2.3080   323.7230    95.5020    23.9960    14.1190    12.2720    13.3980   -16.1750 
