~V
VERS. 2.00: Ver 2.00
~W
STRT.M 56.0000:
STOP.M 209.0000:
STEP.M 0.1250:
NULL. -999.2500:
UWI. DF316:
~C
DEPT.M :
GR.API :
CALI.CM :
RXO.OHMM :
RI. :
RML.OHMM :
SP.MV :
DEN.GM/CC :
AC.US/MT :
~A
# ...
  106.0000    88.3390    23.6090    10.1920    10.4050    11.4500    -2.7250     2.4240   342.0070 
  106.1250    84.1560    23.7360    10.4500    10.5490    12.0260    -2.4490     2.3930   346.6890 
  106.2500    80.0310    23.8610    10.8130    10.2920    12.1180    -2.1720     2.3520   376.7970 
  106.3750    78.3120    24.1300    11.3130     9.7590    11.7270    -1.9110     2.3140   406.1230 
  106.5000    80.1460    24.4760    11.9940     9.1070    11.1950    -1.6570     2.2920   420.1550 
  106.6250    84.6800    24.7400    11.8170     8.4360    10.8020    -1.4130     2.2960   422.8300 
  106.7500    87.5490    24.7540    10.8310     8.1030    10.7650    -1.1810     2.3100   423.5730 
  106.8750    85.5990    24.7300     9.8740     8.2400    11.2090    -0.9610     2.3180   427.1160 
  107.0000    80.7040    24.6940     9.9130     8.7350    12.1740    -0.7350     2.3160   427.7170 
  107.1250    77.1740    24.6570    10.0320     9.7090    13.5350    -0.5020     2.3140   417.2200 
  107.2500    75.6860    24.6230    11.4180    11.1020    15.3440    -0.2540     2.3130   394.4740 
  107.3750    73.0220    24.5220    16.0970    13.2070    17.5960     0.0080     2.3040   372.4800 
  107.5000    69.9210    24.6050    21.9860    15.9700    20.4200     0.2790     2.2790   369.5010 
  107.6250    67.4920    24.4860    23.5740    19.3420    23.9190     0.5540     2.2480   388.3260 
  107.7500    65.7470    24.4680    21.8190    23.1930    28.2440     0.8220     2.2270   414.5260 
  107.8750    63.9550    24.6420    23.1360    27.4110    33.2350     1.0690     2.2150   429.0330 
  108.0000    62.6280    24.5540    31.7150    31.5670    38.2160     1.2980     2.2040   432.3040 
  108.1250    60.2490    24.4820    41.7040    35.2380    42.6540     1.5130     2.1900   430.6480 
  108.2500    56.2840    24.4120    49.9940    38.1270    46.3010     1.7180     2.1810   427.5040 
  108.3750    54.5680    24.3890    54.4760    39.9200    48.8530     1.9060     2.1780   423.4730 
  108.5000    54.7340    24.3850    56.9060    40.6890    50.3120     2.0980     2.1800   420.4550 
  108.6250    54.3260    24.3860    55.6700    41.0120    51.0680     2.2910     2.1840   418.5030 
  108.7500    51.5020    24.3960    47.1220    41.6350    51.8370     2.4910     2.1850   418.4870 
  108.8750    49.5130    24.3810    40.0890    42.4620    53.1000     2.7200     2.1820   421.7340 
  109.0000    50.5470    24.3610    57.0080    43.3570    54.3650     2.9720     2.1770   424.8510 
  109.1250    53.6810    24.3570    90.7050    43.8020    54.9520     3.2330     2.1750   424.6260 
  109.2500    56.7300    24.3300    97.5370    43.3590    53.9710     3.4990     2.1760   420.6980 
  109.3750    57.5560    24.1520    70.5340    42.0050    51.3850     3.7820     2.1760   417.7350 
  109.5000    58.3530    24.2630    45.5740    39.9690    47.9050     4.0630     2.1740   420.0590 
  109.6250    58.9860    24.3830    37.4880    37.5960    44.2700     4.3400     2.1660   428.2660 
  109.7500    57.9400    24.6980    34.5020    35.3470    40.9100     4.6090     2.1460   438.1550 
  109.8750    56.5160    25.0360    34.1210    33.8420    38.5500     4.8620     2.1200   442.9910 
  110.0000    56.2450    25.2670    35.5660    33.0900    36.9640     5.0980     2.1040   441.2150 
  110.1250    56.3200    25.3290    36.2230    32.6200    35.9420     5.3210     2.1100   433.8090 
  110.2500    56.3340    25.3220    35.8740    32.1750    35.2990     5.5270     2.1290   427.0040 
  110.3750    57.7860    25.1060    35.5190    31.8630    34.9620     5.7190     2.1500   426.8740 
  110.5000    58.9810    24.8630    34.6960    31.5710    34.7290     5.8820     2.1600   432.7820 
  110.6250    58.1450    24.9610    33.2630    31.0680    34.3300     6.0220     2.1510   439.9640 
  110.7500    56.4890    25.2480    32.0860    29.8320    33.3760     6.1420     2.1320   444.2550 
  110.8750    56.8450    25.3140    32.9480    27.5890    31.3130     6.2290     2.1220   443.9730 
  111.0000    58.4090    25.3800    32.9100    24.6450    28.4440     6.2940     2.1340   438.9410 
  111.1250    61.1940    25.3240    30.6780    21.4890    25.2140     6.3460     2.1700   431.6840 
  111.2500    66.5210    25.0150    26.1850    18.6930    22.1520     6.3900     2.2130   427.7000 
  111.3750    73.6730    24.7400    20.7110    16.6670    19.5980     6.4280     2.2530   428.7310 
  111.5000    79.3160    24.6680    16.2770    15.5920    18.1860     6.5090     2.2760   428.4280 
  111.6250    80.2400    24.4900    13.4610    15.7990    18.1370     6.6420     2.2750   423.2930 
  111.7500    74.8300    24.4230    12.9000    17.2030    19.4750     6.8340     2.2630   417.3350 
  111.8750    65.8030    24.6690    17.9510    19.7580    21.9970     7.1030     2.2530   418.7860 
  112.0000    60.4800    25.1140    24.9400    22.9970    25.2580     7.4040     2.2430   426.2230 
  112.1250    60.2770    25.2840    31.0080    26.6020    28.7210     7.7110     2.2120   434.5360 
  112.2500    59.7930    25.3000    35.2260    30.0790    32.0760     8.0210     2.1650   438.9920 
  112.3750    56.0200    25.3340    39.6550    32.4900    34.6370     8.2950     2.1240   437.9930 
  112.5000    52.2210    25.4320    43.2620    33.6140    36.0800     8.5120     2.1120   434.2750 
  112.6250    50.0220    25.6760    44.8960    33.6120    36.3560     8.6490     2.1280   432.0340 
  112.7500    49.4730    25.8950    43.5140    33.0670    36.1660     8.7000     2.1490   434.0650 
  112.8750    50.7950    25.8950    40.7560    32.4970    35.9510     8.6560     2.1610   439.4230 
  113.0000    50.6930    25.7250    39.5840    31.6330    35.5850     8.5460     2.1590   442.0650 
  113.1250    49.0460    25.2740    38.6470    30.6720    34.9840     8.3850     2.1420   440.1460 
  113.2500    49.2530    25.0610    36.7590    29.6770    34.1850     8.1830     2.1280   437.8170 
  113.3750    53.2580    25.0910    35.7130    28.9710    33.3780     7.9500     2.1310   437.6260 
  113.5000    57.1080    25.2010    34.9830    28.5900    32.6480     7.7070     2.1500   437.8730 
  113.6250    58.9580    25.0920    32.9410    28.3990    32.0900     7.4730     2.1590   438.9150 
  113.7500    60.4920    25.0350    30.9520    28.3660    31.6160     7.2440     2.1450   440.8860 
  113.8750    61.9320    24.9940    30.2820    28.6020    31.5670     7.0280     2.1190   440.7310 
  114.0000    62.4060    25.0090    29.7680    29.1170    31.8190     6.8340     2.1040   436.6870 
  114.1250    62.1940    25.1350    30.4980    29.7380    32.4570     6.6650     2.1140   432.7140 
  114.2500    61.3800    25.1820    32.9720    30.1560    33.0610     6.5180     2.1380   429.7490 
  114.3750    59.5280    25.0580    34.4450    30.7230    33.6480     6.3980     2.1620   422.2070 
  114.5000    56.9820    25.0360    35.2360    31.2190    34.0320     6.2940     2.1820   409.8190 
  114.6250    53.4010    25.0230    35.6230    31.5180    34.2850     6.1960     2.1960   398.7160 
  114.7500    50.0160    25.0200    34.5260    31.6060    34.1660     6.1080     2.2060   392.7890 
  114.8750    50.6060    24.8940    30.9320    31.1700    33.8070     6.0390     2.2060   390.3140 
  115.0000    54.6550    24.7860    29.2400    30.5670    33.3650     5.9710     2.1920   387.3080 
  115.1250    58.6010    24.9180    30.2680    29.9180    33.0290     5.9110     2.1560   383.0670 
  115.2500    59.2690    24.9890    31.4020    29.2120    32.7540     5.8560     2.1100   380.8570 
  115.3750    59.7160    24.9930    31.9540    28.5950    32.6810     5.8150     2.0790   387.1160 
  115.5000    62.5330    24.9430    31.4620    28.2250    32.6140     5.7830     2.0810   399.1480 
  115.6250    64.2390    24.9030    30.4050    28.3700    32.5660     5.7580     2.1080   408.4180 
  115.7500    63.6330    24.8880    30.1470    28.7890    32.6580     5.7540     2.1340   410.2690 
  115.8750    62.4470    24.8260    31.3220    29.1510    32.6900     5.7440     2.1470   410.7070 
