~V
VERS. 2.00: Ver 2.00
~W
STRT.M 60.0000:
STOP.M 262.0000:
STEP.M 0.1250:
NULL. -999.2500:
UWI. DF319:
~C
DEPT.M :
GR.API :
RML.OHMM :
RI. :
RXO.OHMM :
CALI.CM :
AC.US/MT :
DEN.GM/CC :
SP.MV :
~A
# ...
  120.0000    72.5040    11.6080     9.3180    16.6210    24.2820   259.1990     2.4940   -31.5730 
  120.1250    70.8890    11.5910     9.7470    15.4230    24.2050   259.7220     2.4790   -31.6830 
  120.2500    73.7200    10.3430     9.1880    11.7890    24.1220   304.2290     2.4250   -31.7630 
  120.3750    79.4150     8.5510     7.9920     8.9060    24.0880   359.0310     2.3560   -31.8280 
  120.5000    87.7150     6.9780     6.7110     7.4250    24.0950   397.2160     2.2980   -31.9030 
  120.6250    95.7360     6.0970     5.8140     6.8110    24.1180   415.1880     2.2720   -31.9790 
  120.7500    98.7680     5.8020     5.3660     6.5000    24.1420   425.4080     2.2650   -32.0040 
  120.8750    95.1050     5.9800     5.3320     6.5750    24.1200   430.8000     2.2650   -31.9960 
  121.0000    90.1680     6.4880     5.6170     7.0330    24.0270   430.5810     2.2600   -31.9950 
  121.1250    88.5250     7.1370     6.0930     7.6820    23.8740   426.7290     2.2440   -32.0300 
  121.2500    87.7020     7.6560     6.5360     8.1740    23.6970   423.5720     2.2220   -32.0680 
  121.3750    85.1180     7.8500     6.7770     8.3600    23.4380   423.4550     2.2030   -32.0510 
  121.5000    81.6430     7.6240     6.7090     8.1440    23.0790   427.5800     2.1910   -31.9640 
  121.6250    84.1200     7.0150     6.3030     7.3540    22.7090   434.5160     2.1940   -31.7860 
  121.7500    92.7930     6.3190     5.7570     6.3270    22.6270   440.6060     2.2090   -31.6040 
  121.8750   101.1550     5.7420     5.2340     5.4880    22.9060   444.8260     2.2350   -31.4220 
  122.0000   102.7900     5.3940     4.8510     5.2080    23.4680   447.0240     2.2630   -31.2010 
  122.1250    97.6190     5.3140     4.6780     5.3490    24.0730   445.9730     2.2830   -30.9600 
  122.2500    93.4500     5.3850     4.6530     5.7180    24.4350   440.6820     2.2920   -30.7430 
  122.3750    94.4860     5.5110     4.7090     6.0900    24.5500   432.0920     2.2950   -30.5590 
  122.5000   100.4900     5.6070     4.7760     6.2510    24.5530   425.1640     2.2960   -30.4080 
  122.6250   106.3700     5.6160     4.8000     5.8170    24.5250   425.3470     2.3020   -30.3050 
  122.7500   109.6670     5.5640     4.7820     5.5640    24.4820   429.4040     2.3090   -30.2250 
  122.8750   110.6030     5.4900     4.7450     5.3990    24.4550   431.6630     2.3110   -30.1530 
  123.0000   109.6780     5.4210     4.7190     5.3440    24.4470   430.5320     2.3080   -30.0960 
  123.1250   107.3550     5.3630     4.7230     5.3580    24.4460   429.6160     2.3010   -30.0110 
  123.2500   106.1860     5.3090     4.7530     5.3820    24.4460   429.9700     2.2990   -29.8860 
  123.3750   104.6060     5.2620     4.8040     5.4000    24.4470   430.1600     2.3060   -29.7880 
  123.5000   101.7130     5.2460     4.8730     5.4310    24.4460   425.0590     2.3200   -29.7670 
  123.6250   100.7090     5.2950     4.9670     5.4760    24.4370   407.4180     2.3320   -29.7670 
  123.7500    98.9230     5.4040     5.0780     5.5380    24.4310   392.4620     2.3360   -29.7240 
  123.8750    93.8450     5.5410     5.1880     5.6080    24.4280   394.0260     2.3290   -29.6770 
  124.0000    90.3790     5.6530     5.2660     5.7430    24.4270   406.6600     2.3180   -29.6750 
  124.1250    94.2450     5.6730     5.2660     5.8970    24.4260   410.4490     2.3120   -29.7350 
  124.2500    98.5250     5.6070     5.1870     5.9470    24.4240   405.2250     2.3120   -29.8130 
  124.3750    99.8410     5.4970     5.0470     5.8190    24.4220   405.8160     2.3160   -29.8630 
  124.5000   101.8170     5.4050     4.8870     5.5080    24.4230   414.4710     2.3190   -29.9010 
  124.6250   105.9530     5.3940     4.7670     5.2130    24.4250   422.2220     2.3170   -29.9740 
  124.7500   108.6100     5.4570     4.7170     5.1930    24.4250   422.6090     2.3130   -30.0660 
  124.8750   108.0020     5.5510     4.7300     5.4130    24.4240   418.7320     2.3100   -30.1480 
  125.0000   105.4350     5.6110     4.7700     5.8410    24.4220   412.4940     2.3130   -30.2000 
  125.1250   104.7890     5.5720     4.7780     6.3680    24.4210   401.3020     2.3220   -30.2350 
  125.2500   105.3170     5.4880     4.7570     6.8570    24.4130   392.5660     2.3330   -30.2920 
  125.3750   102.8760     5.5230     4.8040     7.2010    24.3940   395.4340     2.3390   -30.3480 
  125.5000    99.2960     5.9430     5.1200     7.4480    24.3790   409.5550     2.3390   -30.4020 
  125.6250    99.4020     7.1360     6.0520     9.0480    24.3750   416.3760     2.3430   -30.4140 
  125.7500    98.3370     9.0320     7.6270    13.7800    24.3740   396.7680     2.3620   -30.4260 
  125.8750    91.3800    11.3170     9.6690    20.9420    24.3710   347.2090     2.4000   -30.4790 
  126.0000    81.9930    13.3690    11.7050    28.4040    24.3570   285.1330     2.4450   -30.5600 
  126.1250    78.5740    14.1620    12.8740    32.0530    24.3130   255.3030     2.4650   -30.6270 
  126.2500    79.9020    13.4520    12.7860    27.2990    24.1910   274.5510     2.4410   -30.6460 
  126.3750    81.7240    11.6660    11.5820    17.8260    23.9510   328.3380     2.3790   -30.6410 
  126.5000    81.3070     9.6840     9.8700    11.1610    23.6490   385.6030     2.3040   -30.6090 
  126.6250    81.3660     8.2470     8.3320     8.8820    23.5380   417.9570     2.2480   -30.5770 
  126.7500    85.8640     7.3640     7.1950     7.9690    23.6460   429.6380     2.2200   -30.5210 
  126.8750    94.0850     6.8790     6.4270     7.3380    23.9390   433.3810     2.2190   -30.4230 
  127.0000   102.1540     6.6160     5.9310     6.6230    24.2390   435.6730     2.2360   -30.3280 
  127.1250   107.3960     6.4400     5.6390     6.0960    24.3580   429.6650     2.2580   -30.2550 
  127.2500   109.9650     6.2720     5.4640     5.8990    24.3830   421.8580     2.2770   -30.1970 
  127.3750   110.3950     6.1090     5.3770     5.8140    24.3810   422.3790     2.2900   -30.1480 
  127.5000   109.1680     5.9750     5.3570     5.7290    24.3760   430.4400     2.2970   -30.1330 
  127.6250   107.4980     5.8980     5.3840     5.6990    24.3700   435.4580     2.2990   -30.1820 
  127.7500   105.6670     5.8670     5.4280     5.7410    24.3630   436.8320     2.2980   -30.2860 
  127.8750   103.0710     5.8680     5.4780     5.8130    24.3570   429.1290     2.2930   -30.3890 
  128.0000   100.9920     5.8900     5.5420     5.8880    24.3530   399.5020     2.2830   -30.4630 
  128.1250   103.2370     5.9570     5.6530     6.0560    24.3500   358.6910     2.2720   -30.5570 
  128.2500   107.0370     6.0970     5.8310     6.3470    24.3320   335.3470     2.2660   -30.6730 
  128.3750   107.9460     6.3310     6.0750     6.6830    24.3020   334.9870     2.2710   -30.8030 
  128.5000   105.8180     6.6390     6.3510     7.0310    24.2820   342.2520     2.2900   -30.9080 
  128.6250   101.3880     6.9340     6.5810     7.2900    24.2770   343.1420     2.3160   -31.0150 
  128.7500    96.0780     7.1080     6.6940     7.5000    24.2790   344.7120     2.3330   -31.1160 
  128.8750    92.4520     7.1040     6.6550     7.5320    24.2900   358.9590     2.3330   -31.2070 
  129.0000    92.4640     6.9420     6.4870     7.6070    24.3160   387.8470     2.3200   -31.2800 
  129.1250    96.9710     6.7370     6.2770     7.8690    24.3380   412.9590     2.3060   -31.3260 
  129.2500   102.9390     6.6380     6.1460     8.1040    24.3440   421.7670     2.3010   -31.3690 
  129.3750   106.6410     6.7160     6.1600     8.3160    24.3350   421.3250     2.3000   -31.3930 
  129.5000   103.2100     6.9700     6.3330     8.4220    24.3100   421.0900     2.2950   -31.3960 
  129.6250    94.2080     7.3260     6.6200     8.6790    24.2950   422.3700     2.2780   -31.3780 
  129.7500    89.0070     7.6360     6.8930     9.2380    24.2890   423.5040     2.2540   -31.3480 
  129.8750    88.6770     7.7990     7.0580     9.4940    24.2910   424.9150     2.2330   -31.3220 
