~V
VERS. 2.00: Ver 2.00
~W
STRT.M 58.0000:
STOP.M 221.0000:
STEP.M 0.1250:
NULL. -999.2500:
UWI. DF318:
~C
DEPT.M :
DEN.GM/CC :
SP.MV :
AC.US/MT :
GR.API :
CALI.CM :
RXO.OHMM :
RI. :
RML.OHMM :
~A
# ...
  208.0000     2.3670   -15.0210   400.7380    73.0850    24.2710     6.7640     5.7060     6.7030 
  208.1250     2.4050   -15.4620   398.5290    72.5380    24.3480     7.3980     5.9670     7.0270 
  208.2500     2.4570   -15.9470   394.7610    67.9920    24.3740     8.4810     6.2200     7.3280 
  208.3750     2.4960   -16.4020   391.4380    60.2920    24.3740     8.6160     6.3680     7.4630 
  208.5000     2.4980   -16.7590   391.3710    52.8600    24.3270     7.7920     6.3780     7.4070 
  208.6250     2.4710   -17.0540   393.8960    47.1780    24.2300     6.8550     6.2800     7.2330 
  208.7500     2.4390   -17.3160   396.5460    43.7190    24.1510     6.5190     6.1440     7.0540 
  208.8750     2.4200   -17.5740   396.9790    44.0800    24.1290     6.6860     6.0320     6.9510 
  209.0000     2.4130   -17.7150   395.2930    48.2410    24.1330     6.8300     5.9470     6.8860 
  209.1250     2.4050   -17.7930   394.9620    54.3490    24.1090     6.7310     5.8540     6.7880 
  209.2500     2.3940   -17.7840   398.5350    58.2330    24.0760     6.3470     5.7110     6.5980 
  209.3750     2.3810   -17.7640   406.2420    57.1830    24.0560     5.9110     5.4970     6.3140 
  209.5000     2.3690   -17.7530   415.9520    54.3130    24.0510     5.6390     5.2630     6.0300 
  209.6250     2.3560   -17.7860   424.5310    52.5490    24.0540     5.5560     5.0610     5.8160 
  209.7500     2.3430   -17.8900   430.5490    53.5590    24.0540     5.5780     4.9290     5.7050 
  209.8750     2.3360   -18.0060   433.4890    54.6130    24.0470     5.6740     4.9000     5.7170 
  210.0000     2.3450   -18.1010   432.5850    53.1020    24.0460     5.8620     4.9520     5.8140 
  210.1250     2.3650   -18.2180   428.2500    52.0350    24.0600     6.1100     5.0670     5.9670 
  210.2500     2.3900   -18.3350   420.9460    52.0350    24.0910     6.3370     5.2270     6.1570 
  210.3750     2.4170   -18.4590   411.9520    52.0350    24.1340     6.5160     5.4310     6.3860 
  210.5000     2.4440   -18.6170   403.0160    52.0350    24.1940     6.7390     5.6720     6.6580 
  210.6250     2.4600   -18.7380   395.0810    52.0350    24.2570     7.0420     5.9440     6.9720 
  210.7500     2.4580   -18.8090   388.2090    52.0350    24.2710     7.4060     6.2350     7.3140 
  210.8750     2.4390   -18.7960   382.4290    52.0350    24.2630     7.7690     6.5180     7.6460 
  211.0000     2.4180   -18.7800   378.5080    52.0350    24.2750     7.9900     6.7580     7.9160 
  211.1250     2.4070   -18.7270   376.6390    52.0350    24.3060     8.0460     6.9270     8.0880 
  211.2500     2.4060   -18.6840   376.6510    52.0350    24.3280     8.0190     7.0060     8.1460 
  211.3750     2.4090   -18.6280   377.9410    52.0350    24.3260     7.9650     6.9790     8.0820 
  211.5000     2.4080   -18.6000   380.1440    52.0350    24.3440     7.7770     6.8730     7.9320 
  211.6250     2.4030   -18.6130   383.1840    52.0350    24.3810     7.4560     6.7100     7.7260 
  211.7500     2.3980   -18.6150   387.2420    52.0350    24.3920     7.1480     6.5170     7.4960 
  211.8750     2.3980   -18.6200   392.0760    52.0350    24.3510     6.9840     6.3240     7.2680 
  212.0000     2.4020   -18.6640   396.8520    52.0350    24.3220     6.9470     6.1480     7.0540 
  212.1250     2.4020   -18.7270   400.8220    52.0350    24.3120     6.9860     6.0000     6.8610 
  212.2500     2.3990   -18.7890   403.8400    52.0350    24.3110     6.9860     5.8860     6.7000 
  212.3750     2.3940   -18.9500   406.0810    52.0350    24.3110     6.8380     5.8340     6.6180 
  212.5000     2.3850   -19.0930   407.0310    52.0350    24.3100     6.7010     5.8690     6.6580 
  212.6250     2.3730   -19.2320   405.7590    52.0350    24.3020     6.7800     6.0070     6.8380 
  212.7500     2.3580   -19.4590   401.8620    52.0350    24.2850     7.2430     6.2310     7.1160 
  212.8750     2.3470   -19.8720   396.6920    52.0350    24.2620     8.0960     6.4590     7.3590 
  213.0000     2.3430   -20.2860   394.2440    52.0350    24.2350     8.6280     6.5690     7.4090 
  213.1250     2.3430   -20.5490   397.0250    52.0350    24.1740     8.1530     6.4830     7.1810 
  213.2500     2.3400   -20.6430   404.5480    52.0350    24.1050     7.0280     6.2050     6.7320 
  213.3750     2.3370   -20.5380   413.6830    52.0350    24.0690     6.2620     5.8300     6.2440 
  213.5000     2.3400   -20.3170   419.9830    52.0350    24.0650     6.0110     5.4960     5.8860 
  213.6250     2.3480   -20.1170   422.3830    52.0350    24.0520     6.0110     5.2710     5.7120 
  213.7500     2.3570   -19.7970   422.1940    52.0350    24.0320     6.0770     5.1730     5.7040 
  213.8750     2.3660   -19.2500   421.4240    52.0350    24.0240     6.1470     5.1840     5.7950 
  214.0000     2.3770   -18.6410   421.5040    52.0350    24.0400     6.2150     5.2300     5.8800 
  214.1250     2.3880   -18.2180   422.1630    52.0350    24.0640     6.3010     5.2670     5.9180 
  214.2500     2.3980   -18.0860   422.5890    52.0350    24.0780     6.3830     5.2860     5.9180 
  214.3750     2.4080   -18.0930   421.9110    52.0350    24.0750     6.4860     5.3340     5.9680 
  214.5000     2.4190   -18.1060   418.7760    52.0350    24.1000     6.7490     5.5020     6.1910 
  214.6250     2.4240   -17.9690   412.4950    52.0350    24.1590     7.3080     5.8680     6.6720 
  214.7500     2.4280   -17.7600   402.3040    52.0350    24.2230     8.0590     6.4510     7.4120 
  214.8750     2.4430   -17.5880   388.0810    52.0350    24.2650     8.9870     7.1810     8.2970 
  215.0000     2.4760   -17.4570   371.5010    52.0350    24.2670     9.9260     7.8590     9.0790 
  215.1250     2.5100   -17.2660   357.2160    52.0350    24.2890    10.4700     8.3360     9.5960 
  215.2500     2.5260   -16.9550   349.4440    52.0350    24.3170    10.1810     8.5690     9.8260 
  215.3750     2.5130   -16.6220   350.5140    52.0350    24.3070     9.1420     8.6200     9.8710 
  215.5000     2.4760   -16.3620   360.0700    52.0350    24.2370     8.2590     8.6240     9.8800 
  215.6250     2.4360   -16.2520   372.2550    52.0350    24.1650     7.8220     8.6240     9.8880 
  215.7500     2.4060   -16.2520   382.9940    52.0350    24.1270     7.5350     8.6240     9.8950 
  215.8750     2.3880   -16.2630   390.1720    52.0350    24.1170     7.2530     8.6240     9.8980 
  216.0000     2.3800   -16.2190   393.6850    52.0350    24.1170     7.0710     8.6240     9.8980 
  216.1250     2.3770   -16.2010   395.7410    52.0350    24.1190     6.9900     8.6240     9.8980 
  216.2500     2.3760   -16.1940   397.6610    52.0350    24.1270     6.8020     8.6240     9.8980 
  216.3750     2.3770   -16.2120   400.0950    52.0350    24.1270     6.5070     8.6240     9.8980 
  216.5000     2.3910   -16.3090   402.9780    52.0350    24.0870     6.2980     8.6240     9.8980 
  216.6250     2.4180   -16.3990   405.4870    52.0350    24.0280     6.2100     8.6240     9.8980 
  216.7500     2.4440   -16.4990   406.8360    52.0350    23.9950     6.2110     8.6240     9.8980 
  216.8750     2.4500   -16.6070   406.5550    52.0350    23.9880     6.3500     8.6240     9.8980 
  217.0000     2.4310   -16.7410   404.6190    52.0350    23.9980     6.5600     8.6240     9.8980 
  217.1250     2.4050   -16.8560   402.0480    52.0350    24.0420     6.7750     8.6240     9.8980 
  217.2500     2.3870   -17.0270   399.5540    52.0350    24.1370     6.9490     8.6240     9.8980 
  217.3750     2.3760   -17.0690   397.6020    52.0350    24.2200     7.1100     8.6240     9.8980 
  217.5000     2.3740   -17.0690   396.4590    52.0350    24.2620     7.2730     8.6240     9.8980 
  217.6250     2.3750  -999.2500   396.0080    52.0350    24.2920     7.3770     8.6240     9.8980 
  217.7500     2.3600  -999.2500   396.0400    52.0350    24.3240     7.3420     8.6240     9.8980 
  217.8750     2.3010  -999.2500   395.9040    52.0350    24.3290     7.1510     8.6240     9.8980 
