~V
VERS. 2.00: Ver 2.00
~W
STRT.M 58.0000:
STOP.M 221.0000:
STEP.M 0.1250:
NULL. -999.2500:
UWI. DF318:
~C
DEPT.M :
DEN.GM/CC :
SP.MV :
AC.US/MT :
GR.API :
CALI.CM :
RXO.OHMM :
RI. :
RML.OHMM :
~A
# ...
  128.0000     2.5490    -7.6680   245.2820    59.8250    24.6130    38.6990    42.7000    47.6960 
  128.1250     2.5610    -7.6950   244.7570    61.0930    24.6120    43.1140    44.2720    49.1950 
  128.2500     2.5610    -7.7280   249.4720    63.0130    24.6190    44.1350    44.2130    48.6160 
  128.3750     2.5510    -7.7720   257.6820    64.1530    24.6480    39.3570    42.1920    45.7760 
  128.5000     2.5350    -7.8510   265.9860    64.6840    24.6560    33.0510    39.3540    42.2410 
  128.6250     2.5120    -7.9550   271.5380    63.9240    24.6600    28.2400    36.7100    39.2470 
  128.7500     2.4910    -8.0700   273.8750    61.1920    24.6660    26.3300    34.9960    37.5710 
  128.8750     2.4820    -8.1890   274.2280    58.7120    24.6320    27.5570    34.7580    37.7200 
  129.0000     2.4890    -8.3390   274.1300    58.1090    24.5750    30.0520    35.7040    39.2000 
  129.1250     2.4990    -8.5150   273.9420    57.7030    24.4930    32.6160    37.4690    41.4780 
  129.2500     2.5080    -8.7180   273.1950    55.7050    24.4390    35.0490    39.4680    43.8010 
  129.3750     2.5170    -8.9290   272.0660    55.2340    24.4640    38.1730    40.8640    45.1610 
  129.5000     2.5250    -9.0950   272.2320    57.7180    24.5740    43.3590    41.2670    45.2400 
  129.6250     2.5250    -9.2540   274.6440    59.5030    24.6460    49.5420    40.7070    44.2070 
  129.7500     2.5160    -9.4080   278.3960    57.9340    24.6570    48.4280    39.5620    42.6280 
  129.8750     2.5030    -9.5360   280.9100    54.8140    24.5830    40.2060    38.4480    41.3090 
  130.0000     2.4910    -9.5890   279.0820    53.7170    24.5190    32.4190    37.8470    40.7530 
  130.1250     2.4840    -9.5950   274.0060    54.3180    24.4110    31.2790    37.9350    41.0950 
  130.2500     2.4890    -9.5070   268.5530    55.4250    24.3360    33.4760    38.6320    42.1600 
  130.3750     2.5010    -9.3750   265.6930    55.4810    24.3600    36.5340    39.6210    43.4750 
  130.5000     2.5170    -9.2450   266.8740    53.6500    24.3820    38.8840    40.4200    44.4450 
  130.6250     2.5360    -9.1080   269.5350    51.0190    24.3400    40.0500    40.8320    44.8830 
  130.7500     2.5530    -8.9600   271.0520    50.5650    24.3330    39.5670    40.9540    44.9860 
  130.8750     2.5640    -8.8190   269.7840    53.9650    24.5120    38.6590    41.0920    45.1960 
  131.0000     2.5630    -8.7290   265.8660    58.2510    24.6900    38.1560    41.4870    45.7850 
  131.1250     2.5590    -8.6620   261.5960    60.8140    24.7280    38.9810    42.1830    46.7570 
  131.2500     2.5590    -8.6270   258.5650    60.3480    24.6820    41.1640    43.0590    47.9030 
  131.3750     2.5670    -8.6070   257.5050    58.4830    24.6050    44.0530    43.8670    48.8720 
  131.5000     2.5730    -8.5540   258.5600    57.0100    24.5120    45.3200    44.4930    49.5650 
  131.6250     2.5650    -8.4640   260.4230    55.7050    24.4430    45.8440    45.0660    50.1780 
  131.7500     2.5440    -8.3470   261.5230    54.1910    24.4560    45.6600    45.8390    51.0360 
  131.8750     2.5230    -8.2110   260.3320    54.0520    24.5420    45.3730    47.0740    52.4250 
  132.0000     2.5260    -8.0490   256.1960    55.4390    24.5890    46.3170    48.6050    54.0890 
  132.1250     2.5470    -7.9330   251.5810    56.4810    24.6200    51.9180    50.0620    55.5430 
  132.2500     2.5690    -7.8450   249.3300    56.7140    24.6180    57.8800    50.9760    56.2280 
  132.3750     2.5800    -7.7940   251.1190    57.0550    24.6620    56.8280    50.8360    55.6120 
  132.5000     2.5900    -7.8070   256.6390    58.3320    24.6890    50.3350    49.8050    54.0330 
  132.6250     2.6040    -7.8530   262.6530    58.6800    24.6570    44.3120    48.2040    51.9590 
  132.7500     2.6080    -7.9530   267.1920    57.7190    24.6700    41.4700    46.4450    49.8870 
  132.8750     2.5870    -8.0940   269.8530    57.3910    24.7210    41.2360    44.8850    48.1730 
  133.0000     2.5490    -8.2880   271.5780    58.4810    24.7470    40.8270    43.5780    46.7670 
  133.1250     2.5190    -8.4310   273.7210    58.4210    24.7150    39.4730    42.4570    45.5440 
  133.2500     2.4990    -8.5680   276.4430    56.4160    24.6870    38.1190    41.4350    44.4000 
  133.3750     2.4810    -8.6730   279.0410    57.3820    24.6570    36.8320    40.5320    43.4000 
  133.5000     2.4670    -8.7710   280.1100    61.0570    24.6410    35.1300    39.8690    42.7090 
  133.6250     2.4680    -8.8670   279.2130    61.6970    24.5980    33.7270    39.5480    42.4330 
  133.7500     2.4880    -8.9670   276.8430    57.4140    24.5470    33.0270    39.5270    42.4990 
  133.8750     2.5170    -9.0610   274.4420    54.6740    24.4450    33.7150    39.6750    42.7350 
  134.0000     2.5440    -9.1630   274.0060    56.1620    24.2660    35.9250    39.8180    42.9410 
  134.1250     2.5530    -9.2690   275.8350    58.7470    24.0840    37.4080    39.8300    42.9660 
  134.2500     2.5390    -9.3970   279.1400    59.2950    23.9570    36.3440    39.5980    42.6820 
  134.3750     2.5210    -9.5360   282.5060    57.1310    23.8520    34.3470    39.1210    42.1200 
  134.5000     2.5180    -9.6330   283.6890    54.9330    23.7850    34.3180    38.6940    41.6470 
  134.6250     2.5170    -9.7080   281.2960    54.2570    23.9030    34.7480    38.6060    41.6000 
  134.7500     2.5030    -9.7390   274.9100    56.5750    24.1800    34.5440    39.0420    42.1720 
  134.8750     2.4920    -9.7340   266.0510    60.2140    24.4280    36.5090    39.9810    43.2770 
  135.0000     2.5130    -9.6330   258.9410    60.8610    24.5280    39.9500    40.8690    44.2190 
  135.1250     2.5470    -9.5000   256.9530    58.0030    24.5950    41.9840    41.1330    44.3140 
  135.2500     2.5660    -9.3500   260.2110    54.4980    24.6090    39.1880    40.4210    43.2090 
  135.3750     2.5670    -9.1630   265.7000    53.2290    24.5000    33.4760    38.7430    41.0660 
  135.5000     2.5640    -9.0040   268.6080    51.4070    24.4630    29.5300    36.7590    38.7460 
  135.6250     2.5600    -8.8630   267.8700    49.5390    24.4990    27.7250    34.9410    36.8040 
  135.7500     2.5520    -8.7110   265.4830    50.3110    24.5620    26.7790    33.5520    35.4680 
  135.8750     2.5490    -8.5770   264.2380    53.0810    24.5950    26.1550    32.5870    34.6220 
  136.0000     2.5590    -8.4570   265.6460    53.7260    24.5510    26.2940    31.7040    33.7960 
  136.1250     2.5730    -8.3430   268.0040    51.4870    24.5300    26.4880    30.6950    32.7610 
  136.2500     2.5770    -8.1970   269.6400    49.1340    24.5740    26.1520    29.5640    31.5760 
  136.3750     2.5700    -8.0650   269.7270    49.6670    24.6130    24.8390    28.5720    30.6070 
  136.5000     2.5650    -7.8970   268.1800    51.8720    24.6050    23.9360    28.0010    30.1730 
  136.6250     2.5640    -7.7140   264.8340    52.8300    24.5370    23.9400    27.9940    30.3960 
  136.7500     2.5600    -7.5360   258.0830    52.5260    24.4140    24.5630    28.5230    31.1900 
  136.8750     2.5470    -7.3330   247.3230    52.8180    24.3580    27.3030    29.4640    32.3600 
  137.0000     2.5280    -7.1520   235.3240    53.8400    24.4000    29.6390    30.5660    33.6280 
  137.1250     2.5170    -7.0040   226.9550    54.1900    24.4590    30.5710    31.7470    34.9320 
  137.2500     2.5200    -6.9160   224.4880    53.5040    24.4710    30.7850    33.0310    36.3480 
  137.3750     2.5440    -6.8500   226.9170    52.6820    24.4410    32.2440    34.5070    38.0410 
  137.5000     2.5800    -6.8130   230.4950    54.7790    24.4670    35.1730    36.1180    39.9540 
  137.6250     2.6080    -6.7730   231.8850    59.4290    24.5310    37.9620    37.6880    41.8560 
  137.7500     2.6240    -6.7330   231.1700    62.6750    24.5560    39.0620    38.9560    43.3920 
  137.8750     2.6350    -6.6890   230.2440    60.7930    24.5190    37.6020    39.4540    43.9420 
