~V
VERS. 2.00: Ver 2.00
~W
STRT.M 60.0000:
STOP.M 262.0000:
STEP.M 0.1250:
NULL. -999.2500:
UWI. DF319:
~C
DEPT.M :
GR.API :
RML.OHMM :
RI. :
RXO.OHMM :
CALI.CM :
AC.US/MT :
DEN.GM/CC :
SP.MV :
~A
# ...
  170.0000    61.4660    23.7490    24.1850    25.4720    23.6150   249.1590     2.5650   -24.7920 
  170.1250    61.0900    22.0010    22.4450    23.3890    23.5390   245.9810     2.5380   -24.8050 
  170.2500    60.3210    20.8000    21.1540    21.4580    23.3700   252.9570     2.5140   -24.7950 
  170.3750    60.4400    20.3220    20.4990    20.3300    23.1160   263.5200     2.4970   -24.7910 
  170.5000    61.2950    20.6060    20.5550    20.7570    22.8590   264.9170     2.4900   -24.8170 
  170.6250    62.0180    21.6470    21.3850    21.5160    22.9290   260.0520     2.4930   -24.8000 
  170.7500    62.7620    23.0890    22.6950    22.3350    23.4220   263.4820     2.4990   -24.7530 
  170.8750    63.6520    24.6070    24.2060    23.2660    23.8790   268.3270     2.5070   -24.7470 
  171.0000    63.4610    25.8160    25.5450    25.2530    24.1160   264.8440     2.5150   -24.7620 
  171.1250    61.7650    26.2100    26.1840    27.7030    24.2660   258.0260     2.5240   -24.7220 
  171.2500    60.3530    25.7460    25.9880    29.3730    24.4170   253.8170     2.5340   -24.6800 
  171.3750    59.6720    24.5840    25.0390    29.4900    24.4980   252.3050     2.5420   -24.6460 
  171.5000    58.9390    23.1080    23.6610    27.4580    24.5120   255.0730     2.5460   -24.6280 
  171.6250    58.2140    21.8620    22.3510    23.8560    24.4980   261.1870     2.5450   -24.6050 
  171.7500    57.5960    21.1500    21.4690    21.6140    24.4880   265.3030     2.5410   -24.5880 
  171.8750    56.5130    21.0150    21.1200    21.6240    24.4610   264.6110     2.5360   -24.5670 
  172.0000    55.5680    21.3180    21.2350    23.0460    24.3900   260.6190     2.5310   -24.5180 
  172.1250    57.5140    21.8460    21.6550    24.2120    24.3400   257.6180     2.5260   -24.5390 
  172.2500    60.3230    22.3670    22.1290    25.0360    24.3090   257.9460     2.5210   -24.6090 
  172.3750    61.2000    22.8060    22.5430    25.2730    24.2800   260.3840     2.5170   -24.6520 
  172.5000    59.7810    23.1670    22.8650    24.2670    24.2600   261.9420     2.5160   -24.6950 
  172.6250    57.9330    23.4650    23.1050    23.8490    24.2360   260.0610     2.5220   -24.7390 
  172.7500    56.6560    23.6740    23.2670    24.2800    24.1980   256.3090     2.5330   -24.7770 
  172.8750    56.2970    23.7050    23.2950    25.0180    24.1530   253.4520     2.5470   -24.8060 
  173.0000    57.8810    23.4580    23.1040    25.6430    24.1130   254.0720     2.5600   -24.8170 
  173.1250    59.8000    22.8210    22.5770    25.2520    24.0630   259.3700     2.5630   -24.8140 
  173.2500    59.4480    21.8950    21.7780    23.7930    24.0090   266.6640     2.5570   -24.8020 
  173.3750    59.1160    20.8130    20.8090    22.7970    23.9800   273.4980     2.5390   -24.7850 
  173.5000    60.8540    19.7520    19.8210    22.0020    23.9640   278.7790     2.5120   -24.7310 
  173.6250    62.7160    18.9360    19.0120    20.1980    23.9040   283.5600     2.4810   -24.7410 
  173.7500    62.8770    18.4310    18.4520    18.4960    23.7850   288.7200     2.4550   -24.7680 
  173.8750    61.9160    18.2000    18.1110    17.4040    23.6580   292.4510     2.4390   -24.7540 
  174.0000    60.9710    18.1020    17.8760    17.1940    23.5650   292.5500     2.4350   -24.7440 
  174.1250    61.7420    17.9230    17.5760    17.5250    23.5910   289.6150     2.4400   -24.7370 
  174.2500    64.8400    17.5310    17.1130    17.8300    23.7280   288.7650     2.4450   -24.7340 
  174.3750    67.6170    16.9250    16.4860    17.0960    23.8390   294.2100     2.4470   -24.7080 
  174.5000    66.6970    16.2190    15.7880    15.0590    23.7970   304.2270     2.4420   -24.6520 
  174.6250    64.3700    15.6180    15.1840    14.1500    23.7630   311.0550     2.4330   -24.5760 
  174.7500    63.0350    15.2370    14.7690    14.2330    23.8520   310.8980     2.4230   -24.5030 
  174.8750    61.6980    15.0920    14.5670    14.7880    24.0350   306.6360     2.4180   -24.4340 
  175.0000    60.3680    15.1310    14.5480    15.3680    24.1840   303.1880     2.4170   -24.3650 
  175.1250    60.5010    15.2910    14.6610    15.7890    24.2380   302.5610     2.4230   -24.3190 
  175.2500    60.9570    15.4890    14.8200    16.0980    24.2490   302.8600     2.4310   -24.2640 
  175.3750    61.8770    15.6900    14.9700    16.5130    24.2480   302.1220     2.4390   -24.2000 
  175.5000    63.3640    15.8560    15.0620    17.1540    24.2440   298.5860     2.4460   -24.1700 
  175.6250    63.6770    15.9110    15.0240    17.6870    24.2420   293.5410     2.4490   -24.1580 
  175.7500    63.0610    15.8220    14.8450    17.8700    24.2410   290.6090     2.4520   -24.1150 
  175.8750    63.1240    15.5990    14.5520    17.6180    24.2410   291.0300     2.4540   -24.0630 
  176.0000    63.1410    15.3170    14.2150    16.8510    24.2410   293.4830     2.4540   -24.0600 
  176.1250    60.5270    15.1190    13.9510    16.1000    24.2410   295.3820     2.4510   -24.0140 
  176.2500    58.7610    15.0940    13.8310    16.0190    24.2410   296.3890     2.4450   -23.9100 
  176.3750    59.3010    15.2640    13.8740    16.4060    24.2420   297.2680     2.4390   -23.8430 
  176.5000    60.3050    15.5870    14.0550    16.7160    24.2430   297.7790     2.4360   -23.8100 
  176.6250    59.6480    15.9680    14.3060    16.9840    24.2460   296.8890     2.4390   -23.7290 
  176.7500    58.4000    16.2530    14.5050    17.0100    24.2450   295.0180     2.4440   -23.6360 
  176.8750    57.8090    16.2880    14.5390    16.6540    24.2430   293.2580     2.4490   -23.5610 
  177.0000    57.9840    15.9450    14.2950    15.9580    24.2320   292.7960     2.4500   -23.4800 
  177.1250    59.2190    15.0310    13.6230    15.0940    24.1960   294.9440     2.4470   -23.4220 
  177.2500    59.7230    13.7090    12.5840    13.9560    24.1280   298.8510     2.4410   -23.4010 
  177.3750    60.4480    12.1340    11.2930    12.4030    23.9890   306.0680     2.4350   -23.3430 
  177.5000    63.8390    10.5260     9.9350    10.5250    23.6720   320.2630     2.4260   -23.2670 
  177.6250    68.3390     9.2940     8.7460     8.6360    23.2410   345.6400     2.4110   -23.2150 
  177.7500    68.7560     8.3250     7.8350     7.2390    22.9360   374.2740     2.3910   -23.1690 
  177.8750    64.8320     7.6320     7.2330     6.5300    22.8200   395.9450     2.3680   -23.1230 
  178.0000    60.7100     7.1910     6.9080     6.4060    22.8020   406.2910     2.3460   -23.0900 
  178.1250    58.4090     6.9720     6.8160     6.5000    22.8460   407.7210     2.3330   -23.0650 
  178.2500    55.1240     7.0270     6.8340     6.5870    22.9950   407.1950     2.3300   -23.0380 
  178.3750    51.9130     7.0950     6.8920     6.6660    23.2460   407.0020     2.3360   -23.0240 
  178.5000    50.1240     7.1300     6.9380     6.7450    23.4550   407.0050     2.3470   -23.0220 
  178.6250    49.3230     7.1050     6.9340     6.7890    23.4040   407.6630     2.3600   -23.0190 
  178.7500    47.9030     7.0430     6.8860     6.7990    23.2410   408.5740     2.3700   -23.0010 
  178.8750    47.4860     6.9680     6.8040     6.7570    23.1750   409.3980     2.3780   -22.9870 
  179.0000    48.4130     6.9080     6.7090     6.6670    23.2980   409.6880     2.3810   -22.9800 
  179.1250    47.9120     6.8930     6.6290     6.6130    23.5410   408.8440     2.3810   -22.9340 
  179.2500    44.9140     6.9180     6.5830     6.5570    23.7910   407.6560     2.3810   -22.8640 
  179.3750    41.8750     6.9640     6.5720     6.5870    23.9320   406.5550     2.3830   -22.8300 
  179.5000    41.5930     7.0080     6.5880     6.7930    24.0040   405.1030     2.3870   -22.7970 
  179.6250    43.1980     7.0280     6.6070     7.1470    24.1040   403.0490     2.3930   -22.7140 
  179.7500    44.4830     7.0250     6.6060     7.4410    24.2170   401.3760     2.3960   -22.6530 
  179.8750    45.4100     7.0060     6.5750     7.4410    24.2470   400.8500     2.3980   -22.6240 
