~V
VERS. 2.00: Ver 2.00
~W
STRT.M 51.0000:
STOP.M 228.0000:
STEP.M 0.1250:
NULL. -999.2500:
UWI. DF314:
~C
DEPT.M :
DEN.GM/CC :
AC.US/MT :
GR.API :
CALI.CM :
RXO.OHMM :
RI. :
RML.OHMM :
SP.MV :
~A
# ...
  171.0000     2.4880   253.3140    59.5640    25.1910    30.4810    17.7720    18.9640   -15.1330 
  171.1250     2.4710   260.8640    55.0430    25.1730    25.1170    16.7180    17.8350   -15.2530 
  171.2500     2.4470   269.2800    56.5820    25.1600    19.3590    15.3410    16.3580   -15.3340 
  171.3750     2.4220   277.0590    58.5090    25.1840    15.8300    14.1070    15.0340   -15.4060 
  171.5000     2.3990   283.8640    59.5470    25.2220    14.6250    13.3980    14.2740   -15.5090 
  171.6250     2.3800   290.8160    59.5430    25.1910    14.8740    13.6050    14.4960   -15.6710 
  171.7500     2.3630   299.0750    57.4380    25.0390    16.1860    14.6130    15.5770   -15.9180 
  171.8750     2.3480   308.4480    54.2470    24.8050    19.1790    16.0860    17.1560   -16.3090 
  172.0000     2.3350   317.7960    54.2880    24.6010    23.0170    17.2820    18.4390   -16.8560 
  172.1250     2.3280   325.9910    59.4840    24.4830    23.0280    17.0420    18.1820   -17.4470 
  172.2500     2.3270   333.4170    65.3630    24.3800    18.3990    15.4050    16.4260   -17.8520 
  172.3750     2.3330   340.4880    69.6190    24.2800    12.7230    13.4100    14.4160   -17.9460 
  172.5000     2.3420   346.4780    71.3690    24.2440     9.4700    11.3140    12.0650   -17.7240 
  172.6250     2.3500   348.5760    69.2390    24.3510     8.9850     9.7830    10.5150   -17.2580 
  172.7500     2.3540   345.8090    65.2510    24.5480     9.4730     8.8960     9.7370   -16.7610 
  172.8750     2.3550   339.3040    62.6380    24.7700    10.0760     8.5750     9.5030   -16.3250 
  173.0000     2.3560   332.1200    63.4330    24.9440    10.4700     8.6860     9.6280   -16.0910 
  173.1250     2.3600   328.0450    65.6640    25.0150    10.7170     9.0530    10.0140   -16.1160 
  173.2500     2.3640   327.6080    66.2910    25.0260    11.0490     9.4520    10.5490   -16.2690 
  173.3750     2.3650   329.6290    64.0280    25.0200    11.5510     9.8080    11.1440   -16.4490 
  173.5000     2.3620   332.9150    60.3390    25.0230    12.1070    10.1040    11.6150   -16.6000 
  173.6250     2.3570   338.4230    60.3280    25.0300    12.3500    10.3080    11.7300   -16.7840 
  173.7500     2.3560   347.6180    64.3910    25.0320    12.1010    10.3910    11.5670   -16.9330 
  173.8750     2.3620   360.5030    68.2210    25.0270    11.5010    10.3310    11.2530   -16.9070 
  174.0000     2.3710   374.4730    69.2560    25.0210    10.9180    10.1440    10.9100   -16.6620 
  174.1250     2.3780   384.4520    69.1810    25.0210    10.7250     9.8840    10.6600   -16.3280 
  174.2500     2.3780   388.1080    69.4850    25.0230    10.8960     9.6400    10.5370   -16.1260 
  174.3750     2.3730   385.8730    67.6560    25.0230    11.2930     9.4620    10.5460   -16.1880 
  174.5000     2.3640   380.0930    62.7240    25.0210    11.7530     9.3510    10.6600   -16.5090 
  174.6250     2.3540   373.2540    57.8630    25.0200    12.0590     9.3030    10.7870   -16.9750 
  174.7500     2.3460   366.7960    56.5880    25.0200    12.1040     9.2980    10.8190   -17.4110 
  174.8750     2.3380   361.1830    58.8380    25.0210    11.9850     9.3620    10.8140   -17.8350 
  175.0000     2.3300   356.8900    62.9100    25.0240    11.9770     9.5530    11.0250   -18.1850 
  175.1250     2.3240   354.2400    65.8560    25.0260    12.3910     9.9490    11.7010   -18.3170 
  175.2500     2.3190   352.1240    66.0990    25.0250    13.1140    10.5200    12.6200   -18.2510 
  175.3750     2.3150   349.3750    64.8760    25.0220    13.9140    11.1960    13.4820   -18.0230 
  175.5000     2.3100   345.2130    65.9030    25.0200    14.6270    11.8720    14.0130   -17.6840 
  175.6250     2.3040   339.4430    68.3340    25.0200    15.1720    12.4230    14.0300   -17.2790 
  175.7500     2.2970   333.1220    67.0680    25.0200    15.5000    12.7770    13.7210   -16.9300 
  175.8750     2.2920   327.5520    62.7880    25.0200    15.5890    12.8730    13.2640   -16.6790 
  176.0000     2.2910   324.4360    61.9250    25.0200    15.5300    12.7000    12.8000   -16.6150 
  176.1250     2.2960   325.9540    64.9020    25.0200    15.4250    12.3490    12.5030   -16.7720 
  176.2500     2.3020   331.1610    65.6020    25.0210    15.2940    12.0930    12.5740   -17.0380 
  176.3750     2.3050   337.9180    63.7580    25.0180    15.5620    12.1930    13.2490   -17.3610 
  176.5000     2.3000   343.5340    62.6320    25.0020    17.3990    12.9180    14.7410   -17.7270 
  176.6250     2.2910   345.6490    61.9530    24.9730    22.7810    14.7770    17.5570   -18.1120 
  176.7500     2.2820   344.6570    58.6520    24.9260    31.0870    18.0020    21.9130   -18.4890 
  176.8750     2.2800   341.3400    53.6930    24.8620    40.0760    22.8420    28.0440   -18.8820 
  177.0000     2.2850   336.6560    50.3660    24.8140    47.2200    29.0980    35.6050   -19.2240 
  177.1250     2.2920   331.9030    50.9250    24.8080    50.8820    35.4320    42.5190   -19.5160 
  177.2500     2.2960   328.8880    52.2440    24.7980    51.4950    39.6780    45.9230   -19.8410 
  177.3750     2.2970   329.3880    52.8020    24.8010    49.8900    40.7890    44.8840   -20.1820 
  177.5000     2.2950   334.3900    54.5700    24.8650    47.7200    39.4880    41.1900   -20.4580 
  177.6250     2.2930   342.8770    56.7840    24.9610    45.6880    37.6100    37.9280   -20.6670 
  177.7500     2.2890   349.9720    56.0680    24.9960    44.0870    36.6670    36.7930   -20.8920 
  177.8750     2.2860   351.3550    53.4140    24.9770    45.0700    37.1800    38.1270   -21.1820 
  178.0000     2.2880   345.0960    53.2880    24.9630    50.6670    39.1980    41.5930   -21.5230 
  178.1250     2.3020   332.6400    56.6960    24.9560    57.6480    42.1880    46.0740   -21.8410 
  178.2500     2.3300   319.4710    59.6000    24.9330    60.1720    44.7330    49.5040   -22.1100 
  178.3750     2.3680   308.1330    60.0900    24.9090    59.0890    45.7940    50.5320   -22.4230 
  178.5000     2.4100   298.3870    59.0800    24.8930    58.0130    44.9990    49.0650   -22.8510 
  178.6250     2.4470   288.4170    56.6490    24.8620    55.8590    42.5520    45.9660   -23.2780 
  178.7500     2.4760   278.1230    53.9890    24.8160    51.5740    39.5050    42.5740   -23.5360 
  178.8750     2.4960   269.6830    52.3420    24.7900    47.8920    36.4860    39.3650   -23.4810 
  179.0000     2.5040   265.5700    53.3440    24.8140    46.2270    33.9000    36.5350   -23.2610 
  179.1250     2.5000   266.4770    57.8580    24.9250    44.5720    32.2530    34.7060   -23.0050 
  179.2500     2.4890   268.1210    62.0740    25.0490    42.7440    31.8850    34.5580   -22.6650 
  179.3750     2.4750   266.6340    62.7870    25.0560    43.0640    33.0660    36.6130   -22.1760 
  179.5000     2.4590   260.4520    59.4200    24.9130    47.1840    35.5290    40.4750   -21.5520 
  179.6250     2.4340   251.8990    54.9400    24.7860    55.8070    37.5320    43.1980   -20.8810 
  179.7500     2.3940   246.6110    52.5440    24.7990    61.2490    36.2370    40.5730   -20.2530 
  179.8750     2.3370   248.3670    52.7370    24.8510    52.2250    30.4040    31.9490   -19.6860 
  180.0000     2.2710   258.1880    53.7810    24.8210    30.7970    22.0930    21.5860   -19.0820 
  180.1250     2.2180   275.3160    51.5740    24.8770    14.0410    14.9600    14.2770   -18.3860 
  180.2500     2.1920   295.8920    48.1070    25.1660     7.0760    10.1490    10.1120   -17.7160 
  180.3750     2.2000   317.1330    48.4400    25.5480     5.0410     7.3190     8.0260   -17.2470 
  180.5000     2.2370   335.5910    52.3090    26.0310     4.8220     5.8900     7.0020   -17.0250 
  180.6250     2.2870   346.1020    53.1810    26.8160     5.1980     5.5230     6.4840   -17.0130 
  180.7500     2.3290   347.7560    51.3730    27.4540     5.8140     5.7380     6.2480   -17.0340 
  180.8750     2.3550   341.5550    52.5630    27.2800     6.5960     6.2900     6.3590   -16.9530 
