~V
VERS. 2.00: Ver 2.00
~W
STRT.M 60.0000:
STOP.M 248.0000:
STEP.M 0.1250:
NULL. -999.2500:
UWI. DF313:
~C
DEPT.M :
DEN.GM/CC :
SP.MV :
AC.US/MT :
GR.API :
CALI.CM :
RXO.OHMM :
RI. :
RML.OHMM :
~A
# ...
  160.0000     2.4780   -16.5720   262.3250    51.8100    23.9350    18.3770    15.5940    19.1810 
  160.1250     2.4810   -16.5310   259.0620    53.0640    24.0260    17.8730    15.9650    19.7030 
  160.2500     2.4980   -16.4700   256.4760    54.2790    24.1460    19.0050    16.5090    20.5000 
  160.3750     2.5100   -16.4120   255.0260    52.2420    24.1850    21.0020    17.1250    21.3940 
  160.5000     2.5080   -16.3590   255.3290    49.1020    24.0780    22.1580    17.6240    22.0860 
  160.6250     2.5050   -16.3180   257.1470    48.9600    23.8630    21.4450    17.7990    22.2710 
  160.7500     2.5110   -16.3010   260.2530    50.8700    23.6760    19.6630    17.4460    21.6820 
  160.8750     2.5200   -16.2750   264.3290    52.5600    23.5680    18.3820    16.6740    20.5410 
  161.0000     2.5160   -16.2490   268.9910    53.0790    23.4750    17.6380    15.6410    19.0960 
  161.1250     2.4980   -16.2320   273.5340    54.0540    23.3510    16.7160    14.5330    17.5940 
  161.2500     2.4880   -16.2170   277.3240    57.8460    23.2510    15.2460    13.5220    16.2400 
  161.3750     2.4970   -16.1990   279.8230    60.8200    23.2170    13.9450    12.6840    15.1380 
  161.5000     2.5160   -16.1670   280.5590    61.6060    23.2370    13.3610    12.0880    14.4030 
  161.6250     2.5220   -16.1160   280.0790    61.4300    23.2980    13.4340    11.8050    14.1340 
  161.7500     2.5140   -16.0690   278.9960    61.4520    23.4100    14.0300    11.9670    14.4920 
  161.8750     2.5040   -16.0580   277.9830    60.8120    23.5270    15.3620    12.5360    15.3750 
  162.0000     2.5000   -16.0700   277.5830    58.5780    23.6120    17.7750    13.4600    16.6630 
  162.1250     2.4940   -16.0920   277.6110    56.5000    23.6840    20.8500    14.5950    18.1230 
  162.2500     2.4820   -16.1440   277.5620    55.3070    23.8010    22.7580    15.6810    19.3940 
  162.3750     2.4690   -16.2260   276.8410    54.5690    23.9520    22.5010    16.5090    20.2750 
  162.5000     2.4650   -16.3170   274.9960    54.1510    24.0740    20.8150    17.0230    20.7630 
  162.6250     2.4670   -16.4090   272.5500    53.4140    24.1080    19.2710    17.2760    20.9800 
  162.7500     2.4680   -16.4970   270.2270    53.9570    24.0520    19.0430    17.3180    20.9840 
  162.8750     2.4670   -16.5580   268.6620    55.2660    23.9660    19.4840    17.1770    20.7300 
  163.0000     2.4670   -16.5740   268.0420    55.9410    23.9080    19.4870    16.8050    20.1150 
  163.1250     2.4700   -16.5550   267.5400    55.9230    23.9270    18.4540    16.2200    19.2050 
  163.2500     2.4790   -16.5080   266.3190    55.8390    24.0630    17.1380    15.6100    18.3840 
  163.3750     2.4950   -16.4640   263.8810    57.7560    24.2510    16.8840    15.2490    18.0670 
  163.5000     2.5130   -16.4470   260.3040    60.5570    24.3840    18.4380    15.2890    18.4260 
  163.6250     2.5270   -16.4520   256.6260    61.8080    24.4190    21.8670    15.7490    19.3910 
  163.7500     2.5390   -16.4790   253.7220    60.2860    24.4640    25.5330    16.5250    20.6500 
  163.8750     2.5490   -16.5370   252.2220    57.5390    24.5910    26.7820    17.2910    21.6770 
  164.0000     2.5490   -16.6270   252.6430    55.6930    24.7320    25.5780    17.7830    22.1310 
  164.1250     2.5360   -16.7380   254.4440    55.1490    24.7940    24.2550    17.8580    21.9340 
  164.2500     2.5260   -16.8570   256.9310    54.7160    24.7810    24.3910    17.5500    21.2820 
  164.3750     2.5280   -16.9520   259.0830    53.4980    24.7710    24.3480    17.1900    20.6880 
  164.5000     2.5350   -17.0190   259.5380    51.4140    24.7690    22.9890    17.0660    20.5410 
  164.6250     2.5440   -17.0860   258.1630    49.4210    24.7710    21.0970    17.4050    21.1270 
  164.7500     2.5600   -17.1500   255.6810    48.8700    24.7770    21.4660    18.4340    22.7130 
  164.8750     2.5790   -17.1900   253.5300    48.4290    24.7850    25.4130    19.9730    24.9640 
  165.0000     2.5900   -17.2110   253.5410    48.3970    24.7960    31.2150    21.6540    27.2740 
  165.1250     2.5790   -17.2020   255.7880    48.9610    24.7790    34.1530    22.8190    28.6440 
  165.2500     2.5580   -17.1500   259.3900    50.5720    24.8750    30.6560    22.5570    27.8300 
  165.3750     2.5390   -17.0590   262.9370    52.5040    25.1730    24.8350    21.0720    25.3900 
  165.5000     2.5360   -16.9260   265.0500    53.8110    25.4140    20.4150    19.0370    22.4490 
  165.6250     2.5470   -16.7690   265.8300    54.9010    25.3100    18.5070    17.1880    20.0460 
  165.7500     2.5560   -16.5940   265.9380    54.7360    24.9320    18.7200    16.0460    18.8060 
  165.8750     2.5570   -16.4240   266.0880    53.0320    24.8410    19.3450    15.5100    18.4190 
  166.0000     2.5520   -16.2730   266.5250    50.6250    25.0970    19.4360    15.3660    18.4710 
  166.1250     2.5470   -16.1470   266.6660    48.4660    25.2750    18.8300    15.3240    18.4930 
  166.2500     2.5380   -16.0410   265.7400    47.6830    25.1070    17.9230    15.1240    18.1130 
  166.3750     2.5300   -15.9520   263.1750    47.4900    24.8660    17.1430    14.7760    17.4840 
  166.5000     2.5340   -15.8890   258.7400    48.0270    24.7820    16.6840    14.4550    16.9470 
  166.6250     2.5520   -15.8480   253.4740    49.8030    24.8000    16.8890    14.3840    16.8560 
  166.7500     2.5710   -15.8260   248.4400    51.3730    24.7890    18.5160    14.8010    17.5160 
  166.8750     2.5830   -15.8140   244.6550    50.9750    24.8280    21.2170    15.6190    18.7150 
  167.0000     2.5850   -15.8200   243.1050    49.3200    24.8920    23.8650    16.6060    20.0570 
  167.1250     2.5700   -15.8540   243.4590    48.8260    24.9230    25.1180    17.3460    20.9500 
  167.2500     2.5440   -15.9290   245.2390    49.5750    24.8960    23.8940    17.2820    20.6900 
  167.3750     2.5190   -16.0400   247.8200    50.9970    24.8490    21.0410    16.4750    19.4760 
  167.5000     2.5070   -16.1920   250.6020    53.5030    24.8120    17.9850    15.2700    17.8380 
  167.6250     2.5150   -16.3660   253.1020    55.6730    24.7880    16.2400    14.0940    16.3760 
  167.7500     2.5330   -16.5290   255.0310    54.6990    24.7740    16.4680    13.3250    15.5730 
  167.8750     2.5520   -16.6560   256.1750    52.8470    24.7650    17.3040    13.0130    15.3930 
  168.0000     2.5620   -16.7280   256.3610    51.6820    24.7800    17.7850    13.1310    15.7250 
  168.1250     2.5560   -16.7440   256.0660    51.3430    24.8220    17.8920    13.6060    16.4300 
  168.2500     2.5420   -16.7110   255.9360    51.7400    24.8460    18.4400    14.3680    17.4030 
  168.3750     2.5330   -16.6560   256.7240    52.0910    24.8260    19.7890    15.2490    18.4730 
  168.5000     2.5340   -16.5550   259.1960    51.6720    24.8080    21.7620    16.1130    19.4880 
  168.6250     2.5390   -16.4030   262.9010    50.3110    24.8290    23.8290    16.7990    20.2420 
  168.7500     2.5320   -16.2310   267.0010    50.0680    24.8560    24.9470    17.0910    20.4590 
  168.8750     2.5140   -16.0830   270.4300    51.7700    24.8560    24.3810    17.0050    20.2070 
  169.0000     2.4990   -15.9710   272.1090    53.2120    24.8450    22.2150    16.6500    19.6840 
  169.1250     2.5020   -15.8970   272.2780    52.6560    24.8050    19.8140    16.1990    19.1600 
  169.2500     2.5120   -15.8480   271.5530    49.7380    24.8240    19.3930    15.8330    18.8920 
  169.3750     2.5100   -15.8300   270.6590    47.0300    24.9970    20.7270    15.6370    18.9180 
  169.5000     2.4920   -15.8430   269.9870    46.2980    25.1800    21.8710    15.6280    19.1810 
  169.6250     2.4740   -15.8780   269.2120    47.3330    25.1390    21.3650    15.7800    19.5840 
  169.7500     2.4780   -15.9440   267.7920    49.6010    24.9580    20.2480    16.0590    20.0450 
  169.8750     2.5080   -16.0340   265.3750    51.0490    24.9440    20.6610    16.4260    20.5620 
