~V
VERS. 2.00: Ver 2.00
~W
STRT.M 60.0000:
STOP.M 248.0000:
STEP.M 0.1250:
NULL. -999.2500:
UWI. DF313:
~C
DEPT.M :
DEN.GM/CC :
SP.MV :
AC.US/MT :
GR.API :
CALI.CM :
RXO.OHMM :
RI. :
RML.OHMM :
~A
# ...
  170.0000     2.5470   -16.1240   262.0160    51.4810    25.0310    22.4990    16.9230    21.2450 
  170.1250     2.5780   -16.1890   258.5510    51.9430    24.9950    24.2240    17.6310    22.2440 
  170.2500     2.5930   -16.2500   255.6990    52.0040    24.8750    25.1120    18.6570    23.6960 
  170.3750     2.5890   -16.3050   253.9730    50.2150    24.8300    26.8970    19.8860    25.3910 
  170.5000     2.5700   -16.3420   253.8440    47.7400    24.8660    30.4780    21.1430    27.0330 
  170.6250     2.5500   -16.3600   255.1280    45.5910    24.8720    34.0030    22.2080    28.2980 
  170.7500     2.5430   -16.3420   257.7840    43.3640    24.8300    33.8200    22.7770    28.7840 
  170.8750     2.5390   -16.3050   261.6130    41.9040    24.7770    30.0920    22.7600    28.4800 
  171.0000     2.5220   -16.2460   266.0410    42.8400    24.7560    25.2980    22.1270    27.4460 
  171.1250     2.4880   -16.1590   269.8750    45.7950    24.7840    21.9470    20.9890    25.8680 
  171.2500     2.4610   -16.0410   272.1100    48.1590    24.8290    20.9080    19.5400    23.9850 
  171.3750     2.4580   -15.9060   272.2200    49.8040    24.8370    20.2970    18.0700    22.1060 
  171.5000     2.4810   -15.7560   270.2770    51.6200    24.8160    19.1570    16.7500    20.4350 
  171.6250     2.5210   -15.6100   267.6640    53.3950    24.8070    18.0690    15.6770    19.1110 
  171.7500     2.5610   -15.4910   265.3930    54.7130    24.7890    17.9760    14.9160    18.2350 
  171.8750     2.5850   -15.3870   264.0860    54.6060    24.7410    17.8570    14.3810    17.6690 
  172.0000     2.5860   -15.2880   264.1150    54.0520    24.7290    16.8740    14.0000    17.2760 
  172.1250     2.5630   -15.1950   265.2740    54.6180    24.7990    15.4780    13.6930    16.9100 
  172.2500     2.5350   -15.1160   267.6240    55.8640    24.8570    14.7270    13.3880    16.4560 
  172.3750     2.5180   -15.0180   271.2430    56.1900    24.8720    14.6060    13.0510    15.9150 
  172.5000     2.5180   -14.9110   276.0900    55.1580    24.8700    14.6240    12.6690    15.3140 
  172.6250     2.5200   -14.8050   281.3160    54.0740    24.8870    14.4470    12.2330    14.6760 
  172.7500     2.5090   -14.6750   286.1310    53.1420    24.9640    14.0000    11.7490    14.0370 
  172.8750     2.4870   -14.5030   289.9290    52.2360    25.0110    13.4140    11.2610    13.4450 
  173.0000     2.4660   -14.3170   292.3470    52.7010    24.9580    12.8180    10.7960    12.9080 
  173.1250     2.4620   -14.1460   293.8410    54.5260    24.8370    12.4420    10.3620    12.4080 
  173.2500     2.4750   -13.9890   294.7050    55.5910    24.7880    12.4180     9.9750    11.9420 
  173.3750     2.4920   -13.8590   295.0790    53.9720    24.8230    12.2550     9.6600    11.5660 
  173.5000     2.4990   -13.7800   294.9000    50.8850    24.8380    11.6920     9.4700    11.3890 
  173.6250     2.4920   -13.7490   294.3330    49.4450    24.8220    11.2520     9.4670    11.5200 
  173.7500     2.4800   -13.7780   293.6040    51.0230    24.7890    11.9610     9.7310    12.0560 
  173.8750     2.4690   -13.8410   292.9580    53.4210    24.7690    13.4760    10.1910    12.8350 
  174.0000     2.4620   -13.9400   292.5370    54.2420    24.7680    14.8240    10.7310    13.6350 
  174.1250     2.4700   -14.0850   292.2350    53.2170    24.7730    15.4110    11.1810    14.1880 
  174.2500     2.4930   -14.2830   291.9840    51.6220    24.7720    15.3390    11.3320    14.2290 
  174.3750     2.5170   -14.5210   291.8530    51.0590    24.7660    14.8980    11.2180    13.9090 
  174.5000     2.5220   -14.7860   292.1110    51.3970    24.7870    14.0790    10.9710    13.4670 
  174.6250     2.4990   -15.0730   292.8500    53.1860    24.8490    13.2830    10.7360    13.1200 
  174.7500     2.4680   -15.3460   294.0440    55.0870    24.8280    13.3130    10.6190    12.9990 
  174.8750     2.4410   -15.6070   295.6200    54.2970    24.6500    13.9240    10.6140    13.0650 
  175.0000     2.4290   -15.8400   297.7570    51.7350    24.4420    14.2200    10.6990    13.2700 
  175.1250     2.4360   -16.0250   300.6690    52.7020    24.4050    13.8050    10.8360    13.5530 
  175.2500     2.4490   -16.1270   304.5240    56.9030    24.6140    13.4300    10.9840    13.8340 
  175.3750     2.4510   -16.1470   309.0430    58.5600    24.8110    13.5770    11.0860    14.0080 
  175.5000     2.4390   -16.0750   313.0990    57.6530    24.8230    13.6000    11.0830    13.9720 
  175.6250     2.4310   -15.9390   315.3090    56.9430    24.7140    12.9140    10.9140    13.6580 
  175.7500     2.4420   -15.7700   314.7480    55.8800    24.6880    11.8230    10.5350    13.0560 
  175.8750     2.4630   -15.6010   311.3510    54.0140    24.7690    10.9760    10.0620    12.3850 
  176.0000     2.4800   -15.4540   305.9750    52.8520    24.8370    10.4380     9.6410    11.8690 
  176.1250     2.4890   -15.3420   300.6810    52.3180    24.8340    10.2210     9.4220    11.7120 
  176.2500     2.4910   -15.2670   296.7740    53.2590    24.8220    10.7900     9.5520    12.0810 
  176.3750     2.4830   -15.2070   294.7430    56.8760    24.8460    12.6160     9.9580    12.7920 
  176.5000     2.4690   -15.1660   294.1560    60.1460    24.8720    15.6940    10.5050    13.5870 
  176.6250     2.4650   -15.1460   293.4620    60.0590    24.8440    18.5330    11.0010    14.1660 
  176.7500     2.4760   -15.1890   291.6200    59.6180    24.7740    18.5910    11.2780    14.3460 
  176.8750     2.4910   -15.3080   288.3980    60.8530    24.7510    16.6480    11.4480    14.4300 
  177.0000     2.4970   -15.5050   284.9580    60.7830    24.7880    15.1170    11.7300    14.8130 
  177.1250     2.4960   -15.7810   283.6690    58.5700    24.7970    16.3450    12.3430    15.8190 
  177.2500     2.4880   -16.1440   286.6280    55.9670    24.6720    23.1270    13.4880    17.6370 
  177.3750     2.4610   -16.5740   294.8900    54.5880    24.4690    33.1820    14.9700    19.8100 
  177.5000     2.4080   -17.0450   308.2540    54.4120    24.2650    38.5960    16.4180    21.6970 
  177.6250     2.3460   -17.5070   323.3220    56.0160    24.1020    34.6440    17.3600    22.6610 
  177.7500     2.3050   -17.8970   337.4720    60.1290    23.9790    26.7980    17.4320    22.3740 
  177.8750     2.2970   -18.1960   349.0420    64.4960    23.9010    22.6080    16.9650    21.4850 
  178.0000     2.3130   -18.3760   357.4480    68.9610    23.8850    21.3030    16.2890    20.4880 
  178.1250     2.3290   -18.4280   364.1450    72.2100    23.9180    21.0470    15.6140    19.6180 
  178.2500     2.3340   -18.3520   369.9900    71.4280    23.9970    20.5440    14.9700    18.8190 
  178.3750     2.3300   -18.1930   375.2270    67.4160    24.1280    19.2880    14.2730    17.9140 
  178.5000     2.3280   -17.9840   379.3010    65.3410    24.3000    17.4660    13.5020    16.8730 
  178.6250     2.3330   -17.7450   381.8940    69.5030    24.4880    15.6270    12.7340    15.8250 
  178.7500     2.3350   -17.4870   382.8960    75.9350    24.6210    14.5140    12.1500    15.0550 
  178.8750     2.3220   -17.2450   382.5200    76.7370    24.6770    14.2440    11.8670    14.7480 
  179.0000     2.2980   -17.0340   381.0630    72.4040    24.6780    14.5690    11.9710    15.0170 
  179.1250     2.2840   -16.8540   379.1580    67.9560    24.7200    15.4000    12.4950    15.8710 
  179.2500     2.2930   -16.7200   377.1640    66.1520    24.9300    17.2940    13.4290    17.2160 
  179.3750     2.3170   -16.6530   375.3330    65.2110    25.0540    19.9210    14.5050    18.6150 
  179.5000     2.3380   -16.6500   373.7930    65.3730    24.8700    21.6930    15.4210    19.6380 
  179.6250     2.3360   -16.6960   372.4490    66.8670    24.5170    21.1480    15.8970    19.9520 
  179.7500     2.3160   -16.8010   371.2930    66.7030    24.3860    18.8060    15.7660    19.4610 
  179.8750     2.2910   -16.9400   370.4870    65.4400    24.4680    17.0010    15.3330    18.6920 
