~V
VERS. 2.00: Ver 2.00
~W
STRT.M 58.0000:
STOP.M 221.0000:
STEP.M 0.1250:
NULL. -999.2500:
UWI. DF318:
~C
DEPT.M :
DEN.GM/CC :
SP.MV :
AC.US/MT :
GR.API :
CALI.CM :
RXO.OHMM :
RI. :
RML.OHMM :
~A
# ...
  158.0000     2.4670    -8.2740   300.8030    51.9900    24.6460    13.9810    14.8040    17.4600 
  158.1250     2.4720    -8.2260   301.8110    54.8950    24.6560    14.0100    14.7650    17.4900 
  158.2500     2.4760    -8.2170   301.4300    56.3980    24.6760    14.3820    14.8710    17.7020 
  158.3750     2.4830    -8.2630   299.7150    54.7950    24.6590    14.8440    15.1050    18.0510 
  158.5000     2.4890    -8.3190   297.0670    53.9510    24.5900    15.1780    15.3920    18.4370 
  158.6250     2.4930    -8.3830   294.4200    55.5640    24.5310    15.4070    15.6850    18.8120 
  158.7500     2.5010    -8.4580   292.4710    56.7780    24.4480    15.6920    15.9560    19.1440 
  158.8750     2.5120    -8.5410   291.6370    54.0790    24.3320    15.9000    16.1680    19.3910 
  159.0000     2.5120    -8.6430   291.9150    51.1690    24.2720    16.1380    16.3240    19.5580 
  159.1250     2.4950    -8.7200   292.4230    51.1290    24.3650    16.5120    16.4270    19.6530 
  159.2500     2.4720    -8.7970   292.4230    53.0280    24.4840    16.7970    16.4850    19.6910 
  159.3750     2.4560    -8.8410   291.5750    55.1310    24.5490    16.6300    16.5020    19.6860 
  159.5000     2.4580    -8.8670   290.1870    55.5010    24.5780    16.3310    16.4890    19.6600 
  159.6250     2.4760    -8.8810   289.1210    54.3200    24.5740    16.2370    16.4390    19.6010 
  159.7500     2.4980    -8.8900   288.8920    53.6780    24.5570    16.1400    16.3390    19.4860 
  159.8750     2.5080    -8.8990   289.5500    55.8950    24.5440    15.6220    16.1680    19.2800 
  160.0000     2.5030    -8.9180   290.7450    58.9270    24.5210    15.0790    15.9290    18.9790 
  160.1250     2.4960    -8.9290   291.8960    58.7670    24.4360    14.6910    15.6170    18.5820 
  160.2500     2.4940    -8.9180   292.8070    55.6690    24.2910    14.3370    15.2550    18.1300 
  160.3750     2.4930    -8.9140   293.4930    53.5500    24.1940    13.8630    14.9060    17.7150 
  160.5000     2.4880    -8.8990   293.9310    54.2570    24.3540    13.1620    14.6360    17.4140 
  160.6250     2.4870    -8.9030   294.0250    56.0140    24.5120    12.7130    14.4840    17.2680 
  160.7500     2.4910    -8.9290   293.6600    55.4200    24.5500    12.7470    14.4660    17.2810 
  160.8750     2.4990    -8.9730   292.8810    53.6160    24.4760    13.1680    14.5730    17.4230 
  161.0000     2.5040    -9.0530   291.8980    54.2510    24.3650    13.4960    14.7130    17.5770 
  161.1250     2.5050    -9.1300   291.0890    55.5510    24.3020    13.7220    14.8180    17.6620 
  161.2500     2.5060    -9.2230   290.7240    53.8090    24.2540    14.0130    14.8550    17.6520 
  161.3750     2.5080    -9.3170   290.8450    49.3030    24.1460    14.1910    14.8390    17.5880 
  161.5000     2.5110    -9.4190   291.0730    47.4090    23.9330    14.0620    14.8480    17.5760 
  161.6250     2.5090    -9.4810   290.7550    48.9820    23.7520    13.9670    14.9480    17.7030 
  161.7500     2.5010    -9.4890   289.5420    51.0510    23.7420    14.2590    15.1710    17.9930 
  161.8750     2.4870    -9.4410   287.6350    51.6440    23.9600    14.7000    15.4730    18.3590 
  162.0000     2.4780    -9.3090   285.8600    51.3700    24.1760    14.8550    15.7240    18.6210 
  162.1250     2.4790    -9.1520   284.9950    51.2120    24.2410    14.9480    15.8290    18.6600 
  162.2500     2.4920    -8.9730   285.1930    51.4570    24.2550    14.9590    15.7410    18.4410 
  162.3750     2.5060    -8.7750   286.1030    51.1050    24.2400    14.6640    15.4750    18.0200 
  162.5000     2.5030    -8.5900   287.1810    51.5180    24.1550    14.3550    15.1680    17.5910 
  162.6250     2.4910    -8.4460   288.0830    53.0030    24.1000    14.3880    14.9130    17.2690 
  162.7500     2.4820    -8.3560   288.8690    53.8230    24.1970    14.6800    14.7540    17.0880 
  162.8750     2.4850    -8.3140   289.7840    52.6740    24.3630    14.8950    14.7010    17.0400 
  163.0000     2.5010    -8.3160   291.0670    50.6110    24.5110    14.9930    14.7010    17.0410 
  163.1250     2.5200    -8.3360   292.5530    50.5090    24.6230    14.9270    14.7060    17.0230 
  163.2500     2.5330    -8.3720   293.8670    52.9610    24.7120    14.6900    14.6770    16.9370 
  163.3750     2.5290    -8.4240   294.5540    55.4820    24.7470    14.4450    14.6010    16.7820 
  163.5000     2.5060    -8.4710   294.2430    56.4460    24.7740    14.1190    14.5220    16.6210 
  163.6250     2.4860    -8.4930   293.3270    55.1650    24.7820    13.8700    14.4780    16.5080 
  163.7500     2.4840    -8.4820   292.2660    53.1760    24.7800    13.7970    14.4920    16.4730 
  163.8750     2.5000    -8.4530   291.4770    51.6960    24.7660    13.8890    14.5690    16.5220 
  164.0000     2.5150    -8.4000   291.2940    51.4460    24.7270    13.8670    14.6860    16.6240 
  164.1250     2.5140    -8.3540   291.6060    52.7480    24.6570    13.7750    14.8360    16.7730 
  164.2500     2.5020    -8.3080   292.1360    55.2100    24.5420    13.6950    15.0160    16.9680 
  164.3750     2.4870    -8.2850   292.4950    56.8360    24.4900    13.8390    15.2180    17.2110 
  164.5000     2.4780    -8.2810   292.3300    55.3940    24.5310    14.2740    15.4100    17.4560 
  164.6250     2.4750    -8.3360   291.8040    52.8300    24.5760    14.7870    15.5380    17.6260 
  164.7500     2.4760    -8.4460   291.2670    52.2820    24.6590    15.0930    15.5380    17.6350 
  164.8750     2.4830    -8.6360   291.0740    52.9330    24.7570    14.7690    15.3740    17.4580 
  165.0000     2.4950    -8.9250   291.4420    52.3820    24.8070    14.2390    15.1580    17.2520 
  165.1250     2.5060    -9.2800   292.5410    52.4080    24.8050    13.7560    15.0160    17.1900 
  165.2500     2.5050    -9.6900   295.4790    53.0610    24.7890    13.7320    15.0770    17.4240 
  165.3750     2.4790   -10.1510   302.2050    52.5490    24.7710    14.7620    15.4980    18.1140 
  165.5000     2.4260   -10.6310   315.3800    53.6950    24.7610    16.4440    16.2720    19.2010 
  165.6250     2.3570   -11.0770   333.1610    58.0890    24.7620    18.1850    17.4030    20.6580 
  165.7500     2.2900   -11.4910   351.7420    62.2640    24.7260    19.8440    18.8920    22.4850 
  165.8750     2.2470   -11.8490   365.5050    63.8690    24.6670    22.0370    20.8150    24.7900 
  166.0000     2.2630   -12.1640   367.0410    64.7230    24.6000    25.4540    23.1030    27.5170 
  166.1250     2.3240   -12.4570   357.1570    65.8420    24.5280    29.4190    25.6770    30.5700 
  166.2500     2.3860   -12.7330   340.9690    66.0670    24.4810    32.9270    28.3500    33.6930 
  166.3750     2.4020   -12.9690   327.2400    66.3670    24.4540    34.9820    30.7010    36.3070 
  166.5000     2.3530   -13.1850   326.2660    66.9590    24.4430    35.7840    32.3540    37.9660 
  166.6250     2.2830   -13.4200   337.7260    66.2860    24.4130    35.7550    33.1310    38.5180 
  166.7500     2.2270   -13.6260   356.0450    65.5610    24.4440    35.3440    33.1560    38.2150 
  166.8750     2.2080   -13.7970   372.5990    66.4110    24.6070    34.4620    32.7700    37.5700 
  167.0000     2.2260   -13.9410   378.8530    67.9320    24.7300    33.6450    32.4460    37.1290 
  167.1250     2.2560   -14.0750   375.8420    68.9440    24.7080    34.0460    32.4060    37.1050 
  167.2500     2.2790   -14.1810   367.8050    67.9590    24.6050    35.2400    32.6990    37.4850 
  167.3750     2.2950   -14.2500   359.2940    64.5200    24.5080    35.8930    33.1910    38.0170 
  167.5000     2.3090   -14.3310   352.9930    60.4360    24.4790    35.4290    33.5250    38.2330 
  167.6250     2.3200   -14.3860   348.9250    59.2770    24.4840    34.5000    33.3790    37.7530 
  167.7500     2.3230   -14.4630   347.3900    60.9990    24.5380    33.3180    32.5570    36.4120 
  167.8750     2.3190   -14.5360   349.2460    61.3370    24.5860    31.6620    31.0350    34.2990 
