~V
VERS. 2.00: Ver 2.00
~W
STRT.M 100.0000:
STOP.M 292.0000:
STEP.M 0.1250:
NULL. -999.2500:
UWI. DF310:
~C
DEPT.M :
AC.US/MT :
DEN.GM/CC :
GR.API :
CALI.CM :
RXO.OHMM :
RI. :
RML.OHMM :
SP.MV :
~A
# ...
  200.0000   405.5560     2.2490    68.0670    22.9590    92.0130   126.7320   129.1400   -30.8780 
  200.1250   403.2750     2.2690    63.2490    22.9220    82.6790   117.6080   118.3270   -30.9300 
  200.2500   399.2900     2.2850    59.0430    22.8850    72.5800   106.3260   105.9520   -30.9640 
  200.3750   395.2330     2.2940    59.5930    22.9040    65.0160    95.1370    94.4550   -30.9820 
  200.5000   392.6430     2.2990    62.1410    23.0040    58.0840    85.7200    85.2660   -31.0030 
  200.6250   391.1220     2.3030    64.5390    23.0990    51.3170    79.2790    79.2000   -30.9970 
  200.7500   388.1110     2.3040    64.4530    23.1380    47.3330    75.4040    75.5850   -30.9940 
  200.8750   382.6380     2.3000    64.0930    23.1440    49.7220    73.7990    74.0670   -30.9770 
  201.0000   376.7790     2.2930    64.4530    23.1440    55.7110    74.0220    74.2190   -30.9610 
  201.1250   375.5610     2.2860    65.1520    23.1440    57.7960    75.8030    75.7800   -30.9620 
  201.2500   380.2590     2.2780    63.7590    23.1440    56.5290    78.6410    78.3150   -31.0000 
  201.3750   388.8010     2.2660    63.5810    23.1440    56.0540    82.5720    81.9190   -31.0610 
  201.5000   397.6950     2.2520    65.7220    23.1440    58.0100    87.6460    86.7470   -31.1340 
  201.6250   403.9960     2.2410    68.4450    23.1440    60.4040    93.4340    92.5750   -31.2350 
  201.7500   407.3960     2.2400    70.5690    23.1440    64.1630    98.2600    97.7180   -31.3480 
  201.8750   407.9750     2.2470    69.3930    23.1440    70.6760   100.2090    99.9860   -31.5080 
  202.0000   406.2210     2.2550    64.1240    23.1440    76.6220    98.1360    97.8760   -31.6620 
  202.1250   403.7410     2.2610    57.4860    23.1440    73.8310    92.4460    91.7410   -31.7930 
  202.2500   402.8230     2.2670    56.0710    23.1440    63.8350    86.0960    84.9580   -31.8970 
  202.3750   404.0520     2.2710    58.1220    23.1440    53.9230    81.0220    79.6740   -32.0080 
  202.5000   406.1270     2.2690    56.7960    23.1440    50.2950    78.1490    76.8220   -32.0950 
  202.6250   406.5180     2.2560    53.7620    23.1440    52.4150    77.6300    76.5000   -32.1590 
  202.7500   404.5310     2.2450    53.2330    23.1390    53.9470    78.2330    77.3820   -32.2080 
  202.8750   401.1660     2.2410    53.9350    23.1150    53.0090    79.0930    78.5740   -32.2450 
  203.0000   398.3700     2.2450    53.5910    23.0480    51.5170    79.7290    79.6000   -32.2750 
  203.1250   398.3620     2.2510    54.3570    22.9660    51.9060    80.3240    80.6740   -32.3100 
  203.2500   400.7130     2.2550    56.9350    22.9010    54.0300    81.5160    82.4490   -32.3420 
  203.3750   403.6280     2.2580    58.2070    22.8740    56.3170    83.7460    85.3980   -32.3530 
  203.5000   405.1420     2.2590    57.2380    22.8700    57.4870    87.1040    89.6460   -32.3760 
  203.6250   404.7320     2.2560    56.6120    22.8710    57.4700    91.5360    95.2210   -32.3940 
  203.7500   404.3080     2.2450    57.0410    22.8690    57.8120    96.5440   101.5970   -32.4150 
  203.8750   404.9760     2.2320    56.2630    22.8690    59.4620   101.7370   108.2540   -32.4080 
  204.0000   406.3570     2.2230    54.8890    22.8710    62.3240   106.6030   114.4600   -32.3910 
  204.1250   407.0640     2.2230    54.6840    22.8740    64.5610   110.2890   119.0410   -32.3470 
  204.2500   406.5600     2.2270    57.5700    22.8730    63.7530   112.4550   121.5750   -32.2990 
  204.3750   405.0850     2.2330    59.9580    22.8690    61.7660   112.9920   122.0010   -32.2130 
  204.5000   403.1340     2.2420    60.2010    22.8680    61.3880   112.0040   120.5640   -32.0860 
  204.6250   401.3380     2.2550    61.3420    22.8680    63.6780   109.3770   117.2240   -31.9500 
  204.7500   400.2450     2.2710    64.4910    22.8650    66.3550   105.3880   112.3350   -31.7570 
  204.8750   400.1230     2.2890    65.6370    22.8490    67.8200   100.2130   106.1160   -31.5400 
  205.0000   400.8590     2.3040    63.0330    22.8100    67.5630    94.2610    99.1050   -31.3110 
  205.1250   401.9970     2.3040    61.9030    22.7800    64.6710    88.2470    92.2070   -31.0920 
  205.2500   402.9180     2.2910    65.7070    22.7730    60.9070    82.8590    86.1460   -30.8540 
  205.3750   403.3140     2.2730    68.6790    22.7740    58.5190    78.2980    81.0920   -30.6420 
  205.5000   403.1020     2.2610    69.0390    22.7680    57.5510    74.4090    76.7970   -30.4630 
  205.6250   402.4800     2.2570    66.8400    22.7630    55.7480    70.8150    72.7860   -30.2940 
  205.7500   402.0840     2.2550    64.2010    22.7620    52.6660    67.0710    68.5680   -30.1580 
  205.8750   402.2560     2.2590    63.1840    22.7580    49.0710    63.0720    64.0710   -30.0500 
  206.0000   402.7030     2.2760    64.6860    22.7500    45.8330    59.0760    59.6650   -29.9750 
  206.1250   402.6080     2.3030    65.6790    22.7320    43.8490    55.8980    56.3050   -29.9140 
  206.2500   402.1430     2.3120    63.2700    22.7240    41.7280    54.1350    54.5950   -29.8660 
  206.3750   402.4380     2.2940    63.2050    22.7200    38.5580    54.0290    54.7740   -29.8120 
  206.5000   404.3660     2.2650    66.5700    22.7190    36.9370    55.2350    56.4750   -29.7650 
  206.6250   407.1510     2.2510    69.0880    22.7190    40.6550    56.5450    58.4390   -29.7220 
  206.7500   408.6410     2.2550    66.7660    22.7190    47.5100    56.4760    58.9580   -29.7010 
  206.8750   408.1080     2.2670    63.8560    22.7190    51.1280    54.4900    57.2400   -29.7020 
  207.0000   406.5450     2.2790    63.1310    22.7190    47.3350    51.1990    53.7780   -29.6770 
  207.1250   405.7730     2.2850    63.2780    22.7190    39.4020    48.1780    50.2800   -29.6550 
  207.2500   406.2130     2.2830    64.2840    22.7190    35.2240    46.7060    48.3890   -29.6580 
  207.3750   407.3110     2.2780    64.8730    22.7190    37.1100    47.3270    48.7950   -29.6730 
  207.5000   408.4040     2.2730    64.6500    22.7200    42.5610    50.0410    51.4570   -29.6460 
  207.6250   409.0050     2.2700    64.2410    22.7230    47.1880    54.4340    55.7420   -29.6140 
  207.7500   409.0520     2.2690    64.0760    22.7290    49.2600    58.9790    59.9010   -29.5790 
  207.8750   408.6230     2.2750    62.7890    22.7330    50.5070    62.1790    62.3840   -29.5120 
  208.0000   407.9060     2.2890    60.2910    22.7400    51.8510    62.7910    62.0940   -29.4420 
  208.1250   407.0940     2.3070    58.1620    22.7410    51.7000    60.0800    58.5900   -29.3490 
  208.2500   406.4090     2.3190    60.1700    22.7340    48.7310    55.4110    53.4180   -29.2430 
  208.3750   406.0430     2.3200    65.7530    22.6940    42.9640    49.9770    47.7920   -29.1490 
  208.5000   406.0210     2.3160    71.8620    22.6100    36.1600    44.7320    42.6200   -29.0730 
  208.6250   405.9960     2.3190    74.1500    22.5470    31.3740    40.2260    38.4340   -28.9920 
  208.7500   405.5090     2.3360    72.6240    22.5150    29.6960    36.2300    34.8860   -28.9320 
  208.8750   404.5030     2.3590    72.2100    22.4980    29.5510    32.5030    31.6070   -28.8880 
  209.0000   403.3640     2.3760    73.2970    22.4630    28.2260    29.0710    28.4760   -28.8680 
  209.1250   402.7930     2.3760    74.5920    22.3910    24.4500    26.4740    25.9870   -28.8800 
  209.2500   403.0950     2.3590    75.4460    22.3300    20.6180    25.1580    24.8150   -28.8900 
  209.3750   404.3220     2.3290    76.9430    22.3080    19.2040    25.6640    25.7370   -28.8670 
  209.5000   406.2620     2.2920    76.1180    22.3170    21.6880    28.6640    29.5090   -28.8590 
  209.6250   408.2150     2.2610    71.3240    22.4030    29.1350    35.6830    37.5060   -28.8740 
  209.7500   409.2610     2.2470    65.1090    22.6050    40.7160    46.8000    49.5300   -28.8770 
  209.8750   409.0610     2.2480    61.1520    22.8530    52.5900    61.2460    64.8470   -28.9050 
