~V
VERS. 2.00: Ver 2.00
~W
STRT.M 51.0000:
STOP.M 228.0000:
STEP.M 0.1250:
NULL. -999.2500:
UWI. DF314:
~C
DEPT.M :
DEN.GM/CC :
AC.US/MT :
GR.API :
CALI.CM :
RXO.OHMM :
RI. :
RML.OHMM :
SP.MV :
~A
# ...
  181.0000     2.3660   330.1140    57.2730    26.3070     7.3400     6.9400     6.8070   -16.8340 
  181.1250     2.3670   316.0820    59.5450    25.4170     7.6050     7.4510     7.3350   -16.7580 
  181.2500     2.3640   302.2500    59.2940    25.0130     7.2560     7.7390     7.6210   -16.6720 
  181.3750     2.3590   290.7430    57.7810    24.9120     6.6300     7.8180     7.5970   -16.3840 
  181.5000     2.3530   283.7840    55.3260    24.9510     6.2700     7.7290     7.4000   -15.8390 
  181.6250     2.3450   284.1780    55.4440    25.0040     6.2910     7.4600     7.1850   -15.1510 
  181.7500     2.3360   291.4860    58.7420    24.9640     6.1740     7.0250     6.9160   -14.6180 
  181.8750     2.3280   305.6850    60.9220    24.8580     5.7040     6.4400     6.4870   -14.4920 
  182.0000     2.3240   326.2620    58.2970    24.7860     5.0570     5.7840     5.8960   -14.6420 
  182.1250     2.3300   351.5290    56.5510    24.7310     4.5710     5.2010     5.3080   -14.8740 
  182.2500     2.3480   375.6740    62.3200    24.5970     4.4050     4.8060     4.9380   -15.0870 
  182.3750     2.3700   392.4900    70.2330    24.4300     4.6720     4.6680     4.8850   -15.2670 
  182.5000     2.3900   396.8570    73.2720    24.3680     5.4520     4.8090     5.1680   -15.4000 
  182.6250     2.4000   386.3640    70.6290    24.4920     6.6800     5.2410     5.8160   -15.3850 
  182.7500     2.4020   369.5950    68.8310    24.6660     7.8690     5.8340     6.6770   -15.1290 
  182.8750     2.3970   354.8520    70.8070    24.7940     8.6830     6.4700     7.6010   -14.6090 
  183.0000     2.3870   347.8140    74.9850    24.8760     9.0690     7.0250     8.4100   -13.9140 
  183.1250     2.3720   349.0810    79.0570    24.9330     9.1050     7.3690     8.8680   -13.2910 
  183.2500     2.3560   351.6800    82.2570    24.9480     8.9380     7.5140     8.9700   -12.9400 
  183.3750     2.3440   350.9330    86.4160    24.9140     8.6940     7.5190     8.8270   -12.9580 
  183.5000     2.3420   346.1490    92.2010    24.8480     8.5510     7.4780     8.6390   -13.3030 
  183.6250     2.3500   341.0770    96.0280    24.8030     8.6440     7.5030     8.5980   -13.7500 
  183.7500     2.3610   339.8820    95.5300    24.8180     9.1770     7.6670     8.7500   -14.2120 
  183.8750     2.3710   343.5050    92.2320    24.8890    10.6400     8.0180     9.1440   -14.6600 
  184.0000     2.3760   350.5980    87.9140    24.9720    13.1170     8.5490     9.7520   -15.0890 
  184.1250     2.3760   358.8330    86.3170    25.0230    14.9950     9.1620    10.4290   -15.4530 
  184.2500     2.3710   365.8120    87.8190    25.0570    15.1680     9.7000    11.0820   -15.7020 
  184.3750     2.3650   370.1270    89.7220    25.0760    14.6860    10.1370    11.7860   -15.7720 
  184.5000     2.3600   371.0750    88.0130    25.0710    15.0440    10.5930    12.6640   -15.7250 
  184.6250     2.3570   368.3310    81.9060    25.0590    16.4950    11.3260    13.8700   -15.8140 
  184.7500     2.3570   363.3910    76.3190    25.0690    18.8040    12.4750    15.3950   -16.0180 
  184.8750     2.3570   357.4060    73.2970    25.0830    22.2200    14.0550    17.1880   -16.2470 
  185.0000     2.3590   351.3730    71.8450    25.0730    25.7550    15.9240    19.1060   -16.4790 
  185.1250     2.3630   345.9090    69.1050    25.0420    27.3150    17.7990    20.9950   -16.7040 
  185.2500     2.3680   340.8850    64.9000    25.0220    27.6870    19.4440    22.7960   -16.8560 
  185.3750     2.3720   336.1860    62.8530    25.0190    28.6890    20.7860    24.4050   -16.9640 
  185.5000     2.3700   332.1490    63.9680    25.0210    30.8360    21.8770    25.7230   -17.0140 
  185.6250     2.3630   330.1690    66.2860    25.0200    32.6460    22.8650    26.7450   -17.0100 
  185.7500     2.3540   331.1520    67.8370    25.0240    32.9720    23.9670    27.6820   -17.0520 
  185.8750     2.3460   335.4930    68.2390    25.0340    32.4980    25.3000    28.7940   -17.1960 
  186.0000     2.3390   342.7580    66.9760    25.0380    32.7260    26.8920    30.3170   -17.4750 
  186.1250     2.3330   351.8210    64.1610    25.0320    34.8300    28.7020    32.3620   -17.8990 
  186.2500     2.3300   360.3070    62.1770    25.0390    38.7060    30.4910    34.4980   -18.4980 
  186.3750     2.3290   366.0860    61.5780    25.0720    43.2730    31.9420    36.1480   -19.1570 
  186.5000     2.3310   367.5280    62.1870    25.1150    45.7010    32.6530    36.7480   -19.7620 
  186.6250     2.3340   363.7230    64.2460    25.1420    43.3020    32.1390    35.7810   -20.1860 
  186.7500     2.3350   357.4300    65.4830    25.1530    38.8080    30.7160    33.7950   -20.3370 
  186.8750     2.3340   351.6880    63.7790    25.1490    34.8880    28.8610    31.5210   -20.3010 
  187.0000     2.3310   349.1220    61.7660    25.1300    32.3310    27.1230    29.6620   -20.1980 
  187.1250     2.3260   350.9040    64.1100    25.1090    31.4040    26.0910    28.8920   -20.0460 
  187.2500     2.3210   354.3450    67.7650    25.0980    32.4280    25.9170    29.1860   -19.8120 
  187.3750     2.3170   356.6120    69.2510    25.0990    35.4830    26.6250    30.3450   -19.5500 
  187.5000     2.3140   355.4260    67.5230    25.1000    39.7790    28.0830    31.9910   -19.3380 
  187.6250     2.3110   349.8680    62.9360    25.0870    43.3180    30.0830    33.7330   -19.2720 
  187.7500     2.3060   343.0310    58.0460    25.0590    43.8830    32.2200    35.3100   -19.4640 
  187.8750     2.2940   337.8630    55.9080    25.0320    41.5350    34.2860    36.6530   -19.9030 
  188.0000     2.2750   335.7330    56.7740    25.0220    39.6020    36.2720    37.8830   -20.4140 
  188.1250     2.2530   335.9360    57.1360    25.0110    43.3290    38.3810    39.3850   -20.8850 
  188.2500     2.2360   336.4610    56.9180    24.9680    51.5790    40.6930    41.3590   -21.4130 
  188.3750     2.2330   337.0720    56.1680    24.9080    58.9030    42.9450    43.5340   -22.0150 
  188.5000     2.2440   338.7780    56.6170    24.8450    60.8600    44.4930    45.0970   -22.5000 
  188.6250     2.2690   342.9980    59.8720    24.7630    57.2070    44.1640    44.5320   -22.6500 
  188.7500     2.2930   348.7130    61.9270    24.7300    51.0590    41.7780    41.7080   -22.6010 
  188.8750     2.3100   354.1640    61.1410    24.8240    43.1560    37.7650    37.4790   -22.4440 
  189.0000     2.3180   358.3490    60.3770    25.0620    35.0540    33.0590    32.9820   -22.2950 
  189.1250     2.3170   361.9800    63.4280    25.3360    29.0640    28.6100    28.9020   -22.1380 
  189.2500     2.3140   366.1410    67.3610    25.5200    25.2990    24.8720    25.3350   -21.8650 
  189.3750     2.3100   370.3250    70.0600    25.5980    23.1330    22.0810    22.4900   -21.5810 
  189.5000     2.3020   373.1650    72.5950    25.6010    21.9500    20.4400    20.7920   -21.5080 
  189.6250     2.2890   373.5070    74.9470    25.5980    21.9920    20.4600    20.9740   -21.8180 
  189.7500     2.2740   372.4560    74.9600    25.6000    25.1870    22.2980    23.1260   -22.3010 
  189.8750     2.2620   371.4460    72.0760    25.6020    36.2250    26.4180    27.4400   -22.7320 
  190.0000     2.2570   371.7410    67.0610    25.5980    59.6200    33.1580    33.8950   -22.9170 
  190.1250     2.2570   374.4210    62.7530    25.5700    82.9930    42.0540    42.8920   -22.7120 
  190.2500     2.2590   379.4370    61.8950    25.5140    88.2380    50.2840    53.8300   -22.1690 
  190.3750     2.2590   386.6070    62.5200    25.4380    79.4590    56.2580    60.2350   -21.3890 
  190.5000     2.2540   394.7360    62.6030    25.3660    71.4820    58.4120    62.5450   -20.5490 
  190.6250     2.2470   400.9810    61.8300    25.3190    66.9350    57.8210    61.9120   -19.8240 
  190.7500     2.2390   403.6390    62.4130    25.3070    62.7060    57.0960    61.1350   -19.4200 
  190.8750     2.2330   403.0000    63.3460    25.3250    61.4640    57.3250    61.3790   -19.4150 
