~V
VERS. 2.00: Ver 2.00
~W
STRT.M 51.0000:
STOP.M 228.0000:
STEP.M 0.1250:
NULL. -999.2500:
UWI. DF314:
~C
DEPT.M :
DEN.GM/CC :
AC.US/MT :
GR.API :
CALI.CM :
RXO.OHMM :
RI. :
RML.OHMM :
SP.MV :
~A
# ...
   81.0000     2.2050   477.9030    64.0990    25.9860    22.7840    19.6310    20.5760   -14.3420 
   81.1250     2.2040   487.2440    66.6250    25.8980    18.8650    16.5270    17.1710   -14.5030 
   81.2500     2.1970   486.1820    71.0240    25.6810    15.2040    14.4250    14.9360   -14.6550 
   81.3750     2.1870   480.0520    74.4580    25.4780    14.4330    13.4610    14.2050   -14.8040 
   81.5000     2.1830   473.0050    72.7510    25.3470    17.1870    13.7030    15.0380   -15.0150 
   81.6250     2.1960   466.6780    65.8260    25.3120    21.2240    15.2430    17.2990   -15.2590 
   81.7500     2.2240   459.4880    60.1280    25.3170    23.2510    17.2810    19.7880   -15.4780 
   81.8750     2.2630   449.3730    57.6150    25.3540    22.7010    18.5060    20.8960   -15.5630 
   82.0000     2.3010   436.1910    59.2120    25.4440    20.0900    17.5660    19.2340   -15.4580 
   82.1250     2.3230   423.9310    67.5500    25.5020    15.4680    14.4570    15.1720   -15.2810 
   82.2500     2.3260   417.9800    80.1690    25.4390    10.5920    11.1810    11.2160   -15.2330 
   82.3750     2.3110   420.7270    88.8470    25.3020     7.3170     8.6910     8.4920   -15.3010 
   82.5000     2.2860   430.5350    87.4030    25.2100     6.2120     7.1740     7.1680   -15.3670 
   82.6250     2.2570   442.8310    79.9930    25.2040     7.0550     6.6520     7.1730   -15.3380 
   82.7500     2.2340   453.2440    73.6030    25.2300     8.8260     6.8740     7.9650   -15.1730 
   82.8750     2.2210   461.0550    68.9200    25.3180    10.6020     7.7200     9.1940   -14.9110 
   83.0000     2.2190   467.2480    67.0420    25.5230    11.5800     8.9000    10.4740   -14.6380 
   83.1250     2.2280   472.7510    69.4920    25.7900    11.6670     9.7810    11.3000   -14.4210 
   83.2500     2.2420   477.8610    74.7070    25.9150    11.2550     9.9580    11.3790   -14.1970 
   83.3750     2.2550   482.4690    80.7480    25.7930    10.1600     9.5180    10.7070   -13.9630 
   83.5000     2.2620   486.2590    84.1810    25.5160     8.7050     8.8400     9.6050   -13.7970 
   83.6250     2.2550   488.0190    80.8970    25.2820     8.1710     8.3350     8.6400   -13.7250 
   83.7500     2.2390   487.0500    74.2350    25.2000     8.8240     8.1600     8.1830   -13.7760 
   83.8750     2.2200   483.0380    70.5950    25.3490     9.8800     8.3460     8.3650   -13.9210 
   84.0000     2.2020   476.1610    72.7240    25.7280    10.5740     8.8600     9.1390   -14.0820 
   84.1250     2.1880   466.5590    77.0450    26.1310    10.8860     9.6390    10.2530   -14.1740 
   84.2500     2.1750   455.5880    77.6720    26.3760    11.3880    10.5070    11.2960   -14.2360 
   84.3750     2.1620   444.7230    73.3690    26.4910    12.4560    11.3750    12.1480   -14.3090 
   84.5000     2.1500   435.8790    68.0240    26.4670    14.2290    12.2190    12.9150   -14.3310 
   84.6250     2.1420   431.3110    64.8590    26.2370    16.1450    13.0010    13.7350   -14.2650 
   84.7500     2.1390   430.3280    64.7930    25.9800    17.1160    13.5820    14.4860   -14.1000 
   84.8750     2.1380   431.4890    67.1360    25.8440    16.9390    13.7810    14.8780   -13.8700 
   85.0000     2.1420   433.3640    69.1190    25.7970    16.3380    13.5460    14.6520   -13.6830 
   85.1250     2.1490   435.2950    67.6220    25.7530    15.8430    13.0140    13.8570   -13.5890 
   85.2500     2.1550   436.8180    66.1200    25.7040    15.1810    12.5520    13.1720   -13.5700 
   85.3750     2.1570   436.9140    66.9530    25.6260    14.6000    12.4590    13.1700   -13.6550 
   85.5000     2.1510   434.4710    67.5070    25.5160    15.0480    12.9410    14.1450   -13.8480 
   85.6250     2.1420   429.4320    65.4350    25.4940    17.1510    14.0930    16.0140   -14.1530 
   85.7500     2.1390   424.6780    64.8260    25.5810    19.3460    15.4700    17.8780   -14.5670 
   85.8750     2.1480   422.8940    66.3280    25.6860    20.1580    16.4250    18.7920   -15.1220 
   86.0000     2.1680   425.0740    66.0840    25.7170    19.1430    16.2870    18.1640   -15.8210 
   86.1250     2.1980   429.3760    65.7770    25.6510    16.4630    14.7370    16.1420   -16.6770 
   86.2500     2.2310   431.4450    69.9180    25.5250    13.1380    12.6590    13.8530   -17.5430 
   86.3750     2.2640   428.2540    78.0310    25.3760    10.2390    10.7710    11.9460   -18.2440 
   86.5000     2.2930   418.8770    84.0520    25.2610     8.6410     9.4530    10.6730   -18.6570 
   86.6250     2.3110   405.4510    82.9130    25.2210     8.7640     8.8590    10.1080   -18.8110 
   86.7500     2.3120   394.3710    79.6580    25.1870     9.9140     8.7350     9.9810   -18.9020 
   86.8750     2.2980   390.7290    79.4530    25.0840    11.0040     8.8490    10.0650   -19.0460 
   87.0000     2.2770   396.4800    84.5550    24.9500    10.8420     8.9260    10.0730   -19.3010 
   87.1250     2.2610   409.4290    89.8700    24.9350     9.3970     8.7000     9.6710   -19.6220 
   87.2500     2.2540   422.4490    89.6120    25.0430     8.2050     8.2080     8.9330   -19.9120 
   87.3750     2.2540   431.8990    85.1570    25.1690     7.7240     7.6020     8.1190   -20.1070 
   87.5000     2.2580   438.1050    82.4380    25.2140     7.4980     7.0420     7.4810   -20.2050 
   87.6250     2.2640   444.5330    84.2070    25.1740     7.1640     6.6460     7.1940   -20.2060 
   87.7500     2.2710   452.8570    86.7320    25.1200     7.0310     6.4130     7.1920   -20.1470 
   87.8750     2.2780   461.0630    87.8600    25.0870     7.2650     6.3430     7.3830   -19.9580 
   88.0000     2.2860   465.8710    88.6270    25.0910     7.4950     6.4330     7.6540   -19.5540 
   88.1250     2.2900   464.8530    89.2700    25.1310     7.3270     6.6800     7.9520   -18.9470 
   88.2500     2.2920   460.6990    88.9500    25.1610     7.3000     7.0040     8.2080   -18.3620 
   88.3750     2.2900   456.6450    87.6680    25.1350     7.7670     7.3120     8.3280   -18.0000 
   88.5000     2.2840   455.0400    86.3500    25.0730     8.1840     7.5040     8.2620   -17.9470 
   88.6250     2.2740   456.0600    85.4860    25.0500     7.7830     7.4770     8.0750   -18.1400 
   88.7500     2.2640   457.1420    86.1960    25.0790     7.1720     7.2880     7.9550   -18.2780 
   88.8750     2.2570   456.7140    89.6160    25.1160     7.0230     7.0090     7.9940   -18.2550 
   89.0000     2.2520   454.8440    93.2910    25.1270     7.2910     6.7240     8.1640   -18.1480 
   89.1250     2.2470   453.7110    93.2850    25.1240     7.5450     6.5550     8.3770   -17.9530 
   89.2500     2.2400   455.4430    88.6830    25.1220     7.7300     6.5840     8.6160   -17.5790 
   89.3750     2.2310   460.0020    81.9740    25.1230     8.0930     6.8340     8.9480   -16.8570 
   89.5000     2.2230   464.8880    77.1010    25.1240     9.0970     7.2660     9.4090   -15.7250 
   89.6250     2.2170   465.3710    76.7180    25.1370    11.3580     7.8190    10.0320   -14.3690 
   89.7500     2.2120   459.8970    78.5930    25.2120    13.7890     8.4060    10.7290   -13.1270 
   89.8750     2.2070   450.0470    80.1280    25.3270    14.6980     9.0030    11.4360   -12.1530 
   90.0000     2.2020   439.9240    79.5660    25.4060    13.9810     9.6300    12.2310   -11.4510 
   90.1250     2.1980   434.8130    77.2770    25.4210    14.1370    10.4120    13.3490   -11.1430 
   90.2500     2.1980   435.4410    74.9580    25.4280    16.5780    11.4440    14.8470   -11.1930 
   90.3750     2.1990   439.8460    73.7320    25.4650    20.0010    12.7440    16.6180   -11.6370 
   90.5000     2.2020   444.4450    73.0330    25.5460    22.3730    14.2420    18.4040   -12.4460 
   90.6250     2.2000   445.0080    73.2400    25.6420    22.7460    15.7420    19.8270   -13.4270 
   90.7500     2.1920   441.1310    74.9290    25.6710    22.3550    16.9980    20.7960   -14.3180 
   90.8750     2.1780   434.6290    75.9980    25.6650    21.8020    17.9050    21.5250   -14.9870 
