~V
VERS. 2.00: Ver 2.00
~W
STRT.M 100.0000:
STOP.M 292.0000:
STEP.M 0.1250:
NULL. -999.2500:
UWI. DF310:
~C
DEPT.M :
AC.US/MT :
DEN.GM/CC :
GR.API :
CALI.CM :
RXO.OHMM :
RI. :
RML.OHMM :
SP.MV :
~A
# ...
  150.0000   408.8790     2.2130    62.7410    22.3870    10.7450    12.6630    16.1870   -24.6440 
  150.1250   406.3220     2.2120    70.3860    22.4780    11.3110    13.0990    15.2980   -24.3480 
  150.2500   406.0010     2.2130    74.8930    22.5490    11.8300    13.5840    14.7200   -23.9730 
  150.3750   408.6170     2.2170    71.2570    22.5830    12.4020    13.8570    14.4120   -23.5060 
  150.5000   412.1290     2.2250    64.5780    22.5910    12.8380    13.5220    13.8730   -22.9910 
  150.6250   413.1850     2.2510    62.3050    22.5870    12.4670    12.1720    12.4120   -22.4430 
  150.7500   412.3430     2.3000    66.8560    22.5880    11.0040    10.2170    10.2750   -21.8690 
  150.8750   411.8720     2.3660    76.5150    22.6470     8.7840     8.1930     8.0570   -21.3030 
  151.0000   412.4190     2.4240    89.5530    22.8730     6.6150     6.5220     6.2950   -20.7800 
  151.1250   411.7880     2.4370    99.1280    23.3450     5.4640     5.4690     5.3350   -20.3300 
  151.2500   409.2240     2.4130    97.5100    23.7560     5.2480     4.9190     5.0120   -19.9780 
  151.3750   406.5920     2.3790    93.2580    23.9410     5.4560     4.7870     5.1400   -19.7590 
  151.5000   405.6710     2.3560    93.2670    23.9670     5.6820     4.9770     5.4980   -19.6540 
  151.6250   405.5730     2.3450    95.7070    23.9230     5.8510     5.4040     5.8820   -19.6590 
  151.7500   404.0450     2.3300    94.1000    23.8540     6.1760     5.9100     6.2160   -19.7520 
  151.8750   401.2700     2.3130    90.2780    23.8150     6.8410     6.3890     6.5200   -19.8860 
  152.0000   399.1260     2.3070    87.6150    23.8280     7.5670     6.7220     6.8360   -20.0140 
  152.1250   399.0050     2.3190    86.3770    23.8900     7.6650     6.7530     7.0900   -20.1510 
  152.2500   400.0280     2.3360    86.1860    23.9440     7.2490     6.4950     7.0930   -20.2760 
  152.3750   401.7350     2.3470    86.3930    23.9740     6.7990     6.0480     6.7380   -20.4110 
  152.5000   403.0710     2.3590    86.8170    23.9790     6.5830     5.6010     6.1480   -20.5690 
  152.6250   398.5500     2.3820    89.6780    23.9600     6.4060     5.3640     5.7000   -20.7640 
  152.7500   384.5860     2.4090    89.9830    23.9240     6.2690     5.3970     5.7380   -21.0390 
  152.8750   365.3360     2.4230    86.4840    23.8790     6.7730     5.7250     6.4410   -21.4460 
  153.0000   352.8180     2.4190    83.0470    23.7950     8.8930     6.3270     7.7620   -21.9940 
  153.1250   360.0320     2.3950    81.1700    23.6480    10.9780     7.1420     9.3270   -22.6460 
  153.2500   379.6140     2.3580    78.9930    23.4960    11.1770     7.9620    10.4840   -23.3930 
  153.3750   399.0300     2.3100    76.5090    23.3900    10.4060     8.6070    10.8620   -24.1940 
  153.5000   409.3770     2.2660    75.0430    23.3160    10.4150     8.9700    10.5330   -24.9790 
  153.6250   409.6060     2.2400    71.7190    23.2870    10.5260     9.0540     9.9880   -25.7050 
  153.7500   407.0250     2.2280    69.8900    23.2850    10.1090     9.0670     9.7270   -26.3400 
  153.8750   405.6550     2.2160    76.1560    23.2920     9.7210     9.1290     9.8550   -26.8420 
  154.0000   406.8050     2.1980    83.2090    23.2870     9.7230     9.2710    10.2090   -27.2000 
  154.1250   409.8990     2.1820    81.8440    23.2730     9.9100     9.4770    10.5920   -27.4030 
  154.2500   412.8740     2.1780    75.1540    23.2630    10.0600     9.6820    10.9850   -27.4260 
  154.3750   414.4240     2.1860    72.0770    23.2550    10.1920     9.8050    11.3780   -27.2500 
  154.5000   414.1110     2.1980    71.7810    23.2430    10.3160     9.7520    11.6340   -26.9070 
  154.6250   411.9360     2.2070    70.6500    23.2330    10.3260     9.4450    11.4980   -26.4270 
  154.7500   407.7500     2.2230    70.9270    23.2300    10.2420     9.0260    11.0400   -25.8030 
  154.8750   399.2210     2.2580    72.5030    23.2530     9.9200     8.6940    10.5430   -25.0210 
  155.0000   382.4210     2.3170    73.6310    23.3470     9.2840     8.6800    10.4210   -24.1410 
  155.1250   352.4680     2.3910    74.1400    23.5510     9.1410     9.3480    11.2770   -23.2430 
  155.2500   314.1760     2.4630    73.6800    23.6960    10.5590    10.8520    13.3080   -22.3870 
  155.3750   275.7910     2.5240    70.1390    23.7190    14.6640    13.3190    16.5870   -21.6140 
  155.5000   246.8310     2.5690    62.7010    23.6620    20.6310    16.5320    20.8480   -20.9570 
  155.6250   236.9610     2.5880    54.7690    23.6140    25.8900    19.3340    24.6640   -20.4090 
  155.7500   244.0970     2.5840    51.3320    23.5710    28.0620    20.3590    26.0140   -19.9840 
  155.8750   262.9350     2.5670    52.1050    23.5490    26.7230    19.4780    24.4970   -19.7180 
  156.0000   283.3950     2.5480    54.9690    23.5340    22.0520    17.7880    21.6530   -19.5750 
  156.1250   291.7140     2.5350    59.0970    23.5260    17.0390    16.6640    19.5450   -19.4960 
  156.2500   286.1290     2.5280    62.4270    23.5170    16.0520    16.6350    19.0700   -19.4590 
  156.3750   273.7670     2.5310    62.6700    23.5040    19.5910    17.8260    20.5110   -19.4620 
  156.5000   264.4490     2.5430    59.6420    23.4950    24.5940    20.1800    23.8620   -19.4800 
  156.6250   262.9980     2.5480    56.3710    23.4900    27.5780    23.4180    28.6290   -19.5170 
  156.7500   263.4280     2.5390    57.4120    23.4860    28.1980    26.5800    33.0430   -19.5750 
  156.8750   261.2730     2.5260    60.7870    23.4960    28.4690    28.8840    35.6620   -19.6600 
  157.0000   257.1380     2.5240    61.9910    23.5330    29.9740    30.0610    36.1770   -19.7580 
  157.1250   255.7550     2.5340    58.8520    23.5870    31.7720    30.2750    35.3660   -19.8650 
  157.2500   258.2380     2.5440    56.5000    23.5560    31.7220    30.0240    34.3650   -19.9650 
  157.3750   261.9660     2.5580    57.7720    23.4600    30.0220    29.4950    33.4770   -20.0720 
  157.5000   263.8340     2.5740    58.5800    23.3880    28.9520    28.8510    32.7020   -20.1820 
  157.6250   262.4570     2.5830    57.2260    23.3620    30.1510    28.2480    31.9450   -20.2920 
  157.7500   259.9920     2.5810    58.6830    23.3540    30.7700    27.7370    31.2350   -20.3800 
  157.8750   258.8580     2.5730    61.9750    23.3300    29.6720    27.3070    30.7000   -20.4460 
  158.0000   260.6440     2.5660    61.4730    23.2700    28.2410    26.9500    30.4410   -20.4930 
  158.1250   264.3090     2.5650    56.8480    23.1940    27.0360    26.7380    30.4830   -20.5220 
  158.2500   265.8850     2.5690    54.3710    23.1610    26.0080    26.7450    30.6890   -20.5450 
  158.3750   263.4940     2.5780    54.3650    23.1520    25.3930    26.9910    30.9850   -20.5430 
  158.5000   258.5590     2.5880    54.3840    23.1470    25.8720    27.3620    31.2920   -20.5390 
  158.6250   254.7320     2.5890    52.8700    23.1470    26.3960    27.5460    31.4690   -20.5390 
  158.7500   253.8090     2.5770    53.4600    23.1630    26.5130    27.2330    31.1910   -20.5630 
  158.8750   255.7150     2.5610    58.1110    23.2080    26.2340    26.2600    30.1210   -20.6210 
  159.0000   259.8060     2.5460    62.1650    23.2710    25.8150    24.7040    28.1890   -20.7130 
  159.1250   265.1130     2.5320    60.5960    23.3940    24.3900    22.8500    25.6440   -20.8590 
  159.2500   270.1590     2.5130    54.1820    23.5530    21.6280    21.0810    23.1240   -21.0510 
  159.3750   274.8050     2.4880    49.4090    23.6980    19.0450    19.5640    21.0140   -21.2840 
  159.5000   280.1140     2.4590    47.3430    23.7680    17.7130    18.3530    19.5440   -21.5420 
  159.6250   286.6640     2.4330    46.7330    23.7820    17.1720    17.4850    18.8300   -21.8360 
  159.7500   291.9760     2.4170    49.7050    23.7900    16.2160    16.8930    18.5050   -22.1490 
  159.8750   293.1040     2.4160    54.0840    23.8150    15.1420    16.5830    18.2900   -22.4270 
