~V
VERS. 2.00: Ver 2.00
~W
STRT.M 100.0000:
STOP.M 292.0000:
STEP.M 0.1250:
NULL. -999.2500:
UWI. DF310:
~C
DEPT.M :
AC.US/MT :
DEN.GM/CC :
GR.API :
CALI.CM :
RXO.OHMM :
RI. :
RML.OHMM :
SP.MV :
~A
# ...
  220.0000   394.2080     2.3210    64.0420    22.1770    43.0640    47.7060    48.8600   -34.1300 
  220.1250   394.3180     2.3140    65.4750    22.1830    42.5070    47.6680    48.8210   -34.1370 
  220.2500   393.1740     2.3060    65.7520    22.1840    42.4900    48.4810    49.6510   -34.1600 
  220.3750   389.3460     2.3020    66.9030    22.1850    42.8480    50.1880    51.3910   -34.1370 
  220.5000   382.6950     2.3060    68.6710    22.1850    43.6180    52.4890    53.7390   -34.1230 
  220.6250   375.7080     2.3160    70.3020    22.1850    45.9740    54.5760    54.8980   -34.1140 
  220.7500   371.5290     2.3270    69.2910    22.1900    49.4340    55.5400    56.4080   -34.0870 
  220.8750   370.7300     2.3330    65.9550    22.1990    50.9820    54.8920    56.1840   -34.0470 
  221.0000   371.9360     2.3340    62.5430    22.2130    46.8450    52.7850    54.2130   -33.9980 
  221.1250   373.9830     2.3260    60.2800    22.2170    39.6530    49.8230    51.1470   -33.9360 
  221.2500   376.9810     2.3170    60.2520    22.2150    35.4960    46.7360    47.9620   -33.8490 
  221.3750   381.2310     2.3150    61.4490    22.2110    35.7740    43.7220    44.9610   -33.7730 
  221.5000   386.1560     2.3170    63.5490    22.2090    38.0610    40.8380    42.1680   -33.6900 
  221.6250   390.5460     2.3160    65.0130    22.2090    39.6900    38.1850    39.5730   -33.6080 
  221.7500   393.8450     2.3110    63.9660    22.2090    37.8270    35.9090    37.2440   -33.5500 
  221.8750   396.1450     2.3090    61.5880    22.2070    33.3060    34.2620    35.4570   -33.5410 
  222.0000   397.8730     2.3120    60.8330    22.2020    29.7370    33.4320    34.5130   -33.5590 
  222.1250   399.4850     2.3100    65.5960    22.1990    29.6920    33.5270    34.6340   -33.5820 
  222.2500   401.1210     2.3010    74.8220    22.1990    31.6090    34.1380    35.3720   -33.6230 
  222.3750   402.6970     2.2900    80.1300    22.1990    33.4220    34.8370    36.2340   -33.6830 
  222.5000   404.1840     2.2850    77.0540    22.1990    34.7080    35.1290    36.6080   -33.7330 
  222.6250   405.5190     2.2870    68.9990    22.1990    35.6480    34.5560    35.8820   -33.7700 
  222.7500   406.6120     2.2880    64.0450    22.1990    35.5480    33.3240    34.3730   -33.7760 
  222.8750   407.5180     2.2870    63.7790    22.1990    33.9710    31.7390    32.5570   -33.7470 
  223.0000   408.5120     2.2860    64.7810    22.1990    31.3940    30.1440    30.8900   -33.6840 
  223.1250   409.7470     2.2860    65.5710    22.1990    29.5590    28.8810    29.7230   -33.5990 
  223.2500   410.7780     2.2840    67.1140    22.1990    29.0690    28.0040    29.0030   -33.5070 
  223.3750   411.1290     2.2810    68.9170    22.1990    29.1380    27.4400    28.5650   -33.4040 
  223.5000   410.7630     2.2770    68.6330    22.1990    28.8340    27.0520    28.2060   -33.2790 
  223.6250   410.2300     2.2730    67.4710    22.1990    28.2710    26.7210    27.8290   -33.1310 
  223.7500   410.1090     2.2700    67.1420    22.1990    27.7150    26.4230    27.4800   -32.9580 
  223.8750   410.3370     2.2670    66.6740    22.1990    26.9710    26.2340    27.2470   -32.7480 
  224.0000   410.4450     2.2640    65.1960    22.2070    26.5930    26.1840    27.2190   -32.4700 
  224.1250   409.5690     2.2700    63.0740    22.2400    27.7030    26.1930    27.3760   -32.1470 
  224.2500   406.2190     2.2910    62.0690    22.3110    29.8830    26.1690    27.6160   -31.7570 
  224.3750   396.9090     2.3330    62.2560    22.4020    31.4030    26.1930    28.0580   -31.2550 
  224.5000   377.2900     2.3920    63.3700    22.4590    30.9680    26.4490    28.9180   -30.7200 
  224.6250   346.3520     2.4520    65.7700    22.4940    28.9340    27.0190    30.2040   -30.1520 
  224.7500   317.3050     2.4920    66.3470    22.5470    29.8540    27.5210    31.3360   -29.5730 
  224.8750   305.0580     2.4980    64.2720    22.6430    35.8580    27.4660    31.6330   -29.0270 
  225.0000   316.3530     2.4750    62.5110    22.7900    41.8130    26.5640    30.6110   -28.5420 
  225.1250   341.3120     2.4430    64.1580    22.8630    38.4770    25.0070    28.4040   -28.1160 
  225.2500   356.8480     2.4250    68.5370    22.8880    28.4810    23.5760    26.2410   -27.7730 
  225.3750   353.5650     2.4310    70.3070    22.8890    22.0950    22.7520    24.9870   -27.5770 
  225.5000   337.1710     2.4560    68.0080    22.8960    23.7740    22.6770    24.9660   -27.4590 
  225.6250   323.7720     2.4830    64.6790    22.9310    30.3520    23.1900    25.9830   -27.3920 
  225.7500   323.1160     2.5000    66.2570    22.9910    34.7780    23.6090    26.9130   -27.3650 
  225.8750   334.1940     2.5050    72.4840    23.0340    33.6810    23.2930    26.6670   -27.3330 
  226.0000   350.3100     2.5040    76.9280    23.0480    28.9550    21.9770    24.8330   -27.2910 
  226.1250   362.4640     2.5020    76.9480    23.0480    24.3290    20.0640    22.2070   -27.2270 
  226.2500   365.4320     2.5010    75.4710    23.0480    21.7180    18.3910    20.1490   -27.1020 
  226.3750   357.7440     2.5080    75.5110    23.0480    19.1120    17.3150    19.1440   -26.8580 
  226.5000   343.1470     2.5240    76.1200    23.0480    17.0200    16.8250    19.0430   -26.5320 
  226.6250   333.9360     2.5490    76.7550    23.0480    16.9670    16.5720    19.2360   -26.1320 
  226.7500   340.5110     2.5700    77.5060    23.0460    18.8030    15.9810    18.8810   -25.6440 
  226.8750   362.0430     2.5680    78.4520    23.0420    20.5280    14.7800    17.5670   -25.0760 
  227.0000   386.7340     2.5350    81.5270    23.0390    19.2320    13.1100    15.4870   -24.4880 
  227.1250   398.5960     2.4850    87.8680    23.0350    14.3650    11.4560    13.3930   -23.9100 
  227.2500   396.4690     2.4510    93.6600    23.0120    10.6570    10.2210    11.9310   -23.3570 
  227.3750   385.9450     2.4460    94.7920    22.9530     9.7120     9.5590    11.2660   -22.8720 
  227.5000   372.6280     2.4620    91.6180    22.8850    10.3710     9.4960    11.3250   -22.4360 
  227.6250   358.5640     2.4810    87.9120    22.8910    11.2620    10.1050    12.1090   -22.0230 
  227.7500   343.2430     2.4970    84.7850    22.9850    12.2610    11.2600    13.5120   -21.6490 
  227.8750   326.4930     2.5130    81.4720    23.1200    13.6060    12.8940    15.5770   -21.3070 
  228.0000   311.2530     2.5310    77.8380    23.2000    15.1270    14.8000    18.1880   -20.9660 
  228.1250   306.8890     2.5440    74.3910    23.2170    17.9130    16.3540    20.6470   -20.6010 
  228.2500   317.5920     2.5510    71.6120    23.2130    20.8910    16.8410    21.7810   -20.2280 
  228.3750   339.2950     2.5480    69.5880    23.2090    22.2480    15.9950    20.9430   -19.8370 
  228.5000   361.0170     2.5310    71.0530    23.2080    20.4510    14.2240    18.5760   -19.4590 
  228.6250   372.1970     2.5010    80.3110    23.2080    15.6080    12.3070    15.8440   -19.1310 
  228.7500   375.5300     2.4780    91.4830    23.2080    11.8810    10.8250    13.7550   -18.8430 
  228.8750   374.7860     2.4780    92.1250    23.2080    10.9690     9.9680    12.6440   -18.5960 
  229.0000   368.5160     2.4990    83.4400    23.2010    11.9470     9.7890    12.5640   -18.3730 
  229.1250   350.7150     2.5340    76.0470    23.1780    12.3730    10.4150    13.6520   -18.1550 
  229.2500   326.6680     2.5700    78.8470    23.1280    12.7990    11.6610    15.5860   -17.9280 
  229.3750   307.6220     2.6010    85.0210    23.0660    14.8790    13.2510    17.9540   -17.7020 
  229.5000   303.7080     2.6210    87.3760    23.0240    18.2340    14.5940    19.9240   -17.4520 
  229.6250   319.2060     2.6230    84.0170    22.9930    19.6860    14.6500    19.9390   -17.1930 
  229.7500   344.2980     2.6130    78.7660    22.9610    17.8110    13.2660    17.7500   -16.9210 
  229.8750   371.0740     2.5920    77.0960    22.9360    13.9470    10.9720    14.1800   -16.6190 
