~V
VERS. 2.00: Ver 2.00
~W
STRT.M 60.0000:
STOP.M 247.0000:
STEP.M 0.1250:
NULL. -999.2500:
UWI. DF315:
~C
DEPT.M :
DEN.GM/CC :
AC.US/MT :
GR.API :
RML.OHMM :
RI. :
RXO.OHMM :
CALI.CM :
SP.MV :
~A
# ...
  190.0000     2.4040   369.4870    73.3130    12.1090    11.0580    11.2760    24.7470    -9.2160 
  190.1250     2.4020   372.6350    74.1890    12.3420    11.2760    11.1270    24.7470    -9.2830 
  190.2500     2.4000   376.7000    73.7330    12.5920    11.5050    11.0190    24.7470    -9.3750 
  190.3750     2.3940   381.3880    75.4230    12.8620    11.7500    11.3550    24.7470    -9.4480 
  190.5000     2.3830   385.1600    77.9770    13.1380    12.0070    12.2480    24.7470    -9.4670 
  190.6250     2.3680   385.7040    75.9480    13.3830    12.2570    13.4960    24.7470    -9.4960 
  190.7500     2.3530   383.8790    70.5650    13.5960    12.4970    14.4080    24.7470    -9.6010 
  190.8750     2.3430   381.1200    67.4960    13.7740    12.7720    14.9070    24.7470    -9.7240 
  191.0000     2.3380   378.5040    69.2900    14.0560    13.1870    15.3080    24.7470    -9.7960 
  191.1250     2.3340   377.1670    71.6290    14.7960    13.9880    16.2730    24.7470    -9.8540 
  191.2500     2.3250   377.2390    72.0770    16.3060    15.3340    18.0860    24.7470    -9.9490 
  191.3750     2.3130   377.9850    71.2440    18.8310    17.3720    21.2410    24.7470   -10.0980 
  191.5000     2.2970   378.7460    69.8910    22.5850    20.1590    25.6350    24.7470   -10.2900 
  191.6250     2.2830   380.7580    67.5680    27.2320    23.6790    30.7310    24.7470   -10.4540 
  191.7500     2.2720   382.9700    66.0850    31.8340    27.5040    35.8180    24.7470   -10.5560 
  191.8750     2.2680   382.4650    66.7190    35.4830    31.2130    40.3050    24.7470   -10.6450 
  192.0000     2.2740   377.8750    67.3210    38.4330    34.3880    42.5950    24.7470   -10.7910 
  192.1250     2.2910   368.1170    65.3440    40.3940    36.6430    43.6250    24.7470   -10.9850 
  192.2500     2.3150   354.7670    60.9310    41.6680    38.1950    44.4390    24.7470   -11.1450 
  192.3750     2.3360   341.9750    56.3130    42.6460    39.3630    45.4240    24.7470   -11.2500 
  192.5000     2.3450   332.8860    54.2160    43.8220    40.5370    45.7180    24.7290   -11.2980 
  192.6250     2.3390   325.1150    57.0320    45.6260    42.0600    44.3490    24.6570   -11.3270 
  192.7500     2.3260   319.3440    62.4070    47.6850    43.7610    45.4200    24.5370   -11.3920 
  192.8750     2.3130   321.7650    66.0960    49.0940    45.0570    47.8080    24.4710   -11.4810 
  193.0000     2.3050   334.8250    66.8240    48.6570    45.1000    49.9500    24.5190   -11.5300 
  193.1250     2.3060   352.3040    65.8770    45.0590    42.7420    50.4240    24.6650   -11.4850 
  193.2500     2.3140   366.1800    66.7980    39.2940    38.3610    47.0590    24.7310   -11.4140 
  193.3750     2.3260   374.0340    70.4890    33.0730    33.0300    39.0120    24.7490   -11.3560 
  193.5000     2.3360   376.5680    74.4730    28.1920    28.2730    29.8010    24.7600   -11.3460 
  193.6250     2.3340   378.1280    75.5120    26.0990    25.6170    24.8510    24.7870   -11.3390 
  193.7500     2.3220   381.8350    74.0080    26.5370    25.1640    25.7200    24.8120   -11.2880 
  193.8750     2.3030   385.3240    73.0670    29.2440    26.8000    30.6660    24.8210   -11.2150 
  194.0000     2.2870   387.7090    73.8690    33.7760    30.1910    38.5500    24.8220   -11.1570 
  194.1250     2.2800   390.6130    72.8040    39.6250    34.9430    41.3710    24.8220   -11.1820 
  194.2500     2.2810   392.9090    69.4350    45.8230    40.1590    42.2890    24.8220   -11.2400 
  194.3750     2.2850   391.2180    66.0550    51.7910    45.2670    44.6090    24.8220   -11.2660 
  194.5000     2.2880   384.2060    64.9000    57.1240    49.8710    49.3260    24.8180   -11.2300 
  194.6250     2.2830   372.7940    64.5790    61.2560    53.5950    54.6490    24.7810   -11.2170 
  194.7500     2.2720   361.6720    63.5690    63.8320    56.2970    59.9250    24.7110   -11.2460 
  194.8750     2.2580   355.5800    63.1280    64.4280    57.6360    62.3830    24.6480   -11.2840 
  195.0000     2.2470   358.0960    64.0240    63.1490    57.4210    60.7390    24.6040   -11.2910 
  195.1250     2.2460   370.4720    66.2370    60.9070    55.8450    54.9120    24.5030   -11.2320 
  195.2500     2.2530   384.2860    67.3350    59.1770    54.0030    50.1040    24.3620   -11.1480 
  195.3750     2.2620   391.4970    65.6920    58.6510    52.6970    47.6810    24.2380   -11.0920 
  195.5000     2.2690   388.5130    64.0910    59.3600    52.4020    49.1090    24.1820   -11.1080 
  195.6250     2.2660   380.1900    67.7840    60.9220    53.3190    53.5330    24.1740   -11.1500 
  195.7500     2.2550   375.4110    72.1400    62.6230    54.9310    58.2330    24.1710   -11.1570 
  195.8750     2.2400   375.0490    72.1780    64.1720    56.8510    60.2070    24.1540   -11.1140 
  196.0000     2.2260   376.6550    68.7870    65.5500    58.7660    60.0790    24.1110   -11.0660 
  196.1250     2.2210   375.9780    67.2610    66.7430    60.3670    59.4380    24.0710   -11.0730 
  196.2500     2.2400   368.5570    66.7950    67.4490    61.3710    59.3980    24.0550   -11.1140 
  196.3750     2.2930   352.7920    65.9860    67.0420    61.2970    58.5830    24.0610   -11.1280 
  196.5000     2.3840   330.7270    65.4140    64.5760    59.4980    56.7160    24.0920   -11.0660 
  196.6250     2.4950   308.1870    66.2870    59.0990    54.9460    50.1980    24.1950   -10.9450 
  196.7500     2.5850   291.9940    65.7380    50.9570    47.9240    40.1270    24.3200   -10.8430 
  196.8750     2.6230   284.3860    64.1020    41.2140    39.0160    31.8900    24.4390   -10.7500 
  197.0000     2.5990   283.8640    63.5720    31.3720    29.4040    26.7370    24.5270   -10.6020 
  197.1250     2.5270   288.6900    65.0750    22.1680    20.8580    25.2740    24.5470   -10.3330 
  197.2500     2.4460   304.1810    68.4950    15.1950    14.2950    20.3230    24.3880    -9.9880 
  197.3750     2.3740   335.7270    72.2940    10.5000     9.8400    12.1280    24.2000    -9.6570 
  197.5000     2.3210   378.3880    75.2970     7.6900     7.1580     5.8790    24.1130    -9.3810 
  197.6250     2.2920   415.5990    76.3810     6.4440     5.9540     4.4410    24.1200    -9.1020 
  197.7500     2.2830   434.3770    76.4070     6.1150     5.6030     4.3690    24.1760    -8.8070 
  197.8750     2.2910   433.6750    77.4620     6.4320     5.8440     4.8990    24.3120    -8.5540 
  198.0000     2.3110   419.8280    79.3940     7.1530     6.4600     5.7510    24.5330    -8.3980 
  198.1250     2.3400   403.1030    82.8830     8.0180     7.2280     6.7490    24.6790    -8.3650 
  198.2500     2.3680   391.2550    87.1150     8.7420     7.9040     7.5190    24.7310    -8.3830 
  198.3750     2.3910   385.4610    89.3760     9.1820     8.3380     7.7820    24.7380    -8.3920 
  198.5000     2.4060   383.8190    90.8850     9.3130     8.4780     7.8200    24.7380    -8.3800 
  198.6250     2.4120   383.3660    92.6620     9.1950     8.4160     7.8710    24.7380    -8.4140 
  198.7500     2.4120   382.6760    96.2710     8.9930     8.1930     7.8760    24.7380    -8.5020 
  198.8750     2.4050   382.4400   101.3710     8.7840     8.0120     7.8390    24.7380    -8.6140 
  199.0000     2.3930   383.0090   107.2530     8.6020     7.8620     7.7710    24.7380    -8.7040 
  199.1250     2.3820   384.2220   112.0690     8.4670     7.7550     7.7530    24.7380    -8.7490 
  199.2500     2.3750   385.5630   113.3220     8.3830     7.6750     7.8080    24.7380    -8.8170 
  199.3750     2.3740   386.5880   114.2080     8.3560     7.6160     7.9060    24.7380    -8.9480 
  199.5000     2.3770   386.9330   117.2120     8.3370     7.5690     8.0040    24.7380    -9.1250 
  199.6250     2.3800   386.6870   118.5680     8.2820     7.5260     8.0510    24.7380    -9.2820 
  199.7500     2.3830   386.6650   116.5010     8.2110     7.4880     8.1250    24.7380    -9.3810 
  199.8750     2.3860   387.4670   116.7710     8.1610     7.4730     8.2100    24.7380    -9.4670 
