~V
VERS. 2.00: Ver 2.00
~W
STRT.M 65.0000:
STOP.M 277.0000:
STEP.M 0.1250:
NULL. -999.2500:
UWI. DF311:
~C
DEPT.M :
DEN.GM/CC :
SP.MV :
AC.US/MT :
GR.API :
CALI.CM :
RXO.OHMM :
RI. :
RML.OHMM :
~A
# ...
  195.0000     2.2820   -37.0640   404.2330    66.2850    24.0590    48.7420    57.8930    68.3800 
  195.1250     2.2810   -37.2270   403.8470    66.2150    24.0630    48.8600    60.3480    70.8060 
  195.2500     2.2810   -37.3720   404.1550    67.3880    24.0830    48.9910    60.9090    70.8860 
  195.3750     2.2850   -37.5070   405.8700    67.0730    24.1290    48.4880    59.6340    68.8850 
  195.5000     2.3000   -37.6130   408.3090    65.7920    24.1910    47.5620    56.7640    65.1710 
  195.6250     2.3210   -37.6950   408.7710    69.5240    24.2360    46.2590    52.8660    60.4170 
  195.7500     2.3290   -37.7650   405.7050    76.0900    24.2310    42.9710    49.2110    56.0540 
  195.8750     2.3210   -37.8260   399.9930    78.2040    24.1920    37.2110    46.8240    53.2820 
  196.0000     2.3020   -37.9050   394.6190    75.2490    24.1590    31.7330    46.5590    53.0810 
  196.1250     2.2830   -38.0030   393.5010    75.9180    24.1480    31.7420    49.6710    56.8260 
  196.2500     2.2650   -38.1220   396.6220    78.0280    24.1480    38.7850    56.2110    64.4750 
  196.3750     2.2520   -38.2360   401.9520    74.3290    24.1470    53.1400    66.1500    76.0520 
  196.5000     2.2460   -38.3870   406.7620    66.8470    24.1420    74.5320    78.4840    90.6350 
  196.6250     2.2450   -38.5400   408.6960    63.1250    24.1250    92.9960    90.4650   105.2010 
  196.7500     2.2470   -38.6920   408.0710    63.6150    24.1180    97.0160    99.1660   115.7970 
  196.8750     2.2510   -38.8360   406.0900    64.2160    24.1150    89.1060   103.6960   120.9860 
  197.0000     2.2550   -38.9610   404.4430    63.1270    24.1120    80.4900   105.1550   122.2650 
  197.1250     2.2560   -39.0630   404.7740    61.4410    24.1080    77.8410   105.4220   122.2750 
  197.2500     2.2520   -39.1410   406.8020    60.5040    24.1040    78.4190   105.9630   122.7410 
  197.3750     2.2480   -39.2050   409.6000    60.8490    24.0910    81.3910   107.0870   123.8150 
  197.5000     2.2460   -39.2410   412.0690    61.1050    24.0600    85.3560   108.8050   125.2980 
  197.6250     2.2450   -39.2610   412.6860    60.4330    24.0180    88.0910   111.4830   127.3960 
  197.7500     2.2420   -39.2630   410.4700    60.3940    23.9970    88.1590   115.4470   130.5870 
  197.8750     2.2380   -39.2500   405.2720    60.2140    23.9900    89.9950   120.4770   134.7850 
  198.0000     2.2350   -39.2230   398.9930    63.8710    23.9880    98.5000   124.7960   138.0420 
  198.1250     2.2370   -39.1820   396.0940    74.0670    23.9880   113.7660   123.7410   134.6350 
  198.2500     2.2420   -39.1220   398.1040    79.0160    23.9870   121.1460   115.0090   122.1060 
  198.3750     2.2470   -39.0490   402.6800    72.9130    23.9770   107.2040    99.5730   102.7620 
  198.5000     2.2510   -38.9790   405.7570    61.9100    23.9170    75.0600    81.5760    82.2250 
  198.6250     2.2600   -38.9040   405.0300    60.1950    23.7700    48.7340    66.2140    65.9360 
  198.7500     2.2720   -38.8450   403.1750    66.0320    23.5870    37.6450    55.2720    54.6560 
  198.8750     2.2800   -38.7990   402.3720    72.5400    23.4590    34.9730    48.5930    47.8300 
  199.0000     2.2830   -38.7720   402.8570    75.5510    23.3780    34.1580    45.3920    44.5720 
  199.1250     2.2870   -38.7700   403.6100    72.7210    23.3480    33.6220    45.2440    44.4220 
  199.2500     2.2940   -38.8110   404.0830    68.6890    23.3460    34.4570    46.9200    46.1040 
  199.3750     2.3010   -38.8890   404.4680    67.2720    23.3650    37.3590    49.5410    48.7320 
  199.5000     2.3050   -38.9790   404.9170    67.9030    23.4020    41.6350    52.0210    51.2390 
  199.6250     2.3060   -39.0980   405.2790    69.6660    23.4200    44.2190    53.0610    52.3040 
  199.7500     2.3050   -39.2380   405.2900    73.1500    23.4250    43.0230    52.5600    51.7600 
  199.8750     2.3010   -39.4010   404.7140    75.5920    23.4250    38.8280    51.2060    50.2890 
  200.0000     2.2930   -39.5890   403.4750    73.5180    23.4250    34.8420    50.1970    49.1640 
  200.1250     2.2870   -39.7980   401.7870    69.3370    23.4330    34.6250    51.0220    49.9770 
  200.2500     2.2810   -40.0160   400.2670    67.0560    23.4820    38.3490    54.0330    53.1190 
  200.3750     2.2710   -40.2340   399.3740    66.1650    23.5870    44.3990    59.1430    58.5480 
  200.5000     2.2530   -40.4610   399.2630    63.1720    23.6650    50.2400    65.7350    65.6910 
  200.6250     2.2390   -40.6890   399.7260    59.4990    23.6910    53.6510    72.6740    73.3500 
  200.7500     2.2360   -40.9040   400.2300    56.5490    23.6910    54.5530    78.8420    80.1130 
  200.8750     2.2400   -41.0870   400.6260    54.9880    23.6910    55.2200    83.9750    85.5260 
  201.0000     2.2440   -41.2300   401.0830    56.1390    23.6910    57.5860    88.3770    89.9410 
  201.1250     2.2460   -41.3210   401.8540    59.1440    23.6910    61.0370    92.2450    93.7870 
  201.2500     2.2500   -41.3820   402.8470    60.8160    23.6910    63.4530    95.3150    96.9600 
  201.3750     2.2550   -41.4160   403.8940    60.9190    23.6910    64.9190    96.9590    98.7990 
  201.5000     2.2570   -41.4070   404.9260    61.4040    23.6910    64.8450    96.8010    98.8230 
  201.6250     2.2550   -41.3530   406.0390    62.1820    23.6910    63.7820    94.9710    97.0970 
  201.7500     2.2540   -41.2700   407.2410    60.2420    23.6910    60.9240    92.7300    94.9450 
  201.8750     2.2540   -41.1810   408.3150    55.3240    23.6910    58.9500    91.0610    93.4050 
  202.0000     2.2560   -41.0770   408.8240    51.3520    23.6910    59.6880    90.6130    93.1340 
  202.1250     2.2540   -40.9690   408.2800    54.9780    23.6900    62.4980    91.8930    94.5970 
  202.2500     2.2470   -40.8400   407.2790    63.7520    23.6870    63.8170    94.7120    97.5510 
  202.3750     2.2330   -40.7010   406.8410    69.5560    23.6860    63.2410    99.2840   102.1530 
  202.5000     2.2180   -40.5770   407.6810    67.2860    23.6800    62.5890   106.1400   108.8790 
  202.6250     2.2090   -40.4670   409.4230    60.4510    23.6700    63.8500   116.6940   119.1700 
  202.7500     2.2030   -40.3700   410.7450    56.2570    23.6400    66.2040   130.9270   133.4110 
  202.8750     2.1960   -40.2720   411.3920    56.1130    23.5670    68.2970   147.7480   151.1930 
  203.0000     2.1880   -40.1810   412.1530    58.1630    23.4190    69.0270   163.7610   169.4270 
  203.1250     2.1870   -40.0910   413.8040    59.1960    23.1930    70.5480   172.3940   180.1990 
  203.2500     2.1900   -40.0040   415.1770    57.0910    22.9760    72.1070   171.6220   179.8730 
  203.3750     2.1870   -39.9080   414.5900    53.6090    22.8670    68.9130   163.5940   171.0700 
  203.5000     2.1780   -39.8030   411.6410    51.5740    22.8410    59.9200   153.3720   160.1560 
  203.6250     2.1770   -39.6620   408.7770    51.0750    22.8440    55.3390   146.6180   153.4180 
  203.7500     2.1870   -39.5100   409.5000    50.6440    22.8830    58.6070   145.0650   152.3580 
  203.8750     2.1990   -39.3340   414.6240    50.9070    23.0360    62.1770   148.0780   156.3290 
  204.0000     2.2090   -39.1380   421.2480    51.9200    23.3490    64.1730   153.5490   163.1920 
  204.1250     2.2280   -38.9010   422.8770    51.6410    23.7370    72.7920   158.4040   169.3450 
  204.2500     2.2590   -38.6280   416.2240    50.6510    23.9980    83.6940   160.7760   172.2370 
  204.3750     2.2930   -38.3230   400.9480    53.5930    24.0810    83.5520   161.0100   172.1700 
  204.5000     2.3230   -37.9730   378.4670    59.3420    23.9510    71.2020   160.9910   171.4730 
  204.6250     2.3560   -37.5850   351.1550    60.6240    23.5800    59.4330   163.1610   173.0100 
  204.7500     2.3940   -37.1550   325.6330    56.2640    23.2370    54.1070   167.6160   176.9900 
  204.8750     2.4180   -36.6880   310.5130    49.4400    23.0510    52.9850   172.8510   181.8760 
