~V
VERS. 2.00: Ver 2.00
~W
STRT.M 60.0000:
STOP.M 262.0000:
STEP.M 0.1250:
NULL. -999.2500:
UWI. DF319:
~C
DEPT.M :
GR.API :
RML.OHMM :
RI. :
RXO.OHMM :
CALI.CM :
AC.US/MT :
DEN.GM/CC :
SP.MV :
~A
# ...
   70.0000   103.3760     4.9420     5.8230     5.9200    23.8230  -999.2500  -999.2500   -49.5180 
   70.1250   100.4450     4.9940     5.7490     6.0110    23.6890  -999.2500  -999.2500   -49.3830 
   70.2500    92.3830     5.2360     5.9060     6.6770    23.6810  -999.2500  -999.2500   -49.3620 
   70.3750    85.1530     5.6280     6.2570     7.7250    23.7600  -999.2500  -999.2500   -49.4690 
   70.5000    80.5320     6.0790     6.7070     8.9130    23.8510  -999.2500  -999.2500   -49.6580 
   70.6250    76.7340     6.4300     7.0990     9.8730    23.8880  -999.2500  -999.2500   -49.9050 
   70.7500    74.2150     6.5750     7.3040    10.0550    23.8990  -999.2500  -999.2500   -50.1920 
   70.8750    74.4210     6.4980     7.2670     9.7650    23.9210  -999.2500  -999.2500   -50.4560 
   71.0000    76.7880     6.2670     7.0200     9.2590    23.9730  -999.2500  -999.2500   -50.6220 
   71.1250    80.3940     6.0230     6.6770     8.6380    24.0170  -999.2500  -999.2500   -50.6410 
   71.2500    83.1740     5.9020     6.3990     8.0080    24.0340  -999.2500  -999.2500   -50.6070 
   71.3750    83.3550     5.9690     6.2830     7.6450    24.0360  -999.2500  -999.2500   -50.5460 
   71.5000    81.2170     6.2370     6.3690     7.9770    24.0340  -999.2500  -999.2500   -50.4580 
   71.6250    81.3720     6.6760     6.6630     8.8490    24.0300  -999.2500  -999.2500   -50.4130 
   71.7500    84.0260     7.1510     7.0510     9.4650    24.0360  -999.2500  -999.2500   -50.3540 
   71.8750    83.8200     7.5420     7.4300     9.4760    24.0960  -999.2500  -999.2500   -50.3450 
   72.0000    80.2920     7.7520     7.7000     9.1760    24.2460  -999.2500  -999.2500   -50.3720 
   72.1250    77.9930     7.7290     7.7660     8.9460    24.4110  -999.2500  -999.2500   -50.4650 
   72.2500    77.7790     7.5810     7.6670     8.8900    24.3470  -999.2500  -999.2500   -50.5890 
   72.3750    77.5160     7.4060     7.4670     9.0170    24.1900  -999.2500  -999.2500   -50.6990 
   72.5000    76.5090     7.2810     7.2470     9.2160    24.1340  -999.2500  -999.2500   -50.7930 
   72.6250    75.1660     7.2460     7.0870     9.3960    24.1900  -999.2500  -999.2500   -50.9060 
   72.7500    73.9410     7.2800     7.0150     9.5370    24.2720  -999.2500  -999.2500   -51.0800 
   72.8750    75.2810     7.3670     7.0250     9.7180    24.3070  -999.2500  -999.2500   -51.2630 
   73.0000    80.4810     7.4870     7.0910     9.7740    24.3120  -999.2500  -999.2500   -51.4590 
   73.1250    83.7640     7.6170     7.1810     9.7450    24.3210  -999.2500  -999.2500   -51.6540 
   73.2500    80.9280     7.7210     7.2560     9.8300    24.3900  -999.2500  -999.2500   -51.8190 
   73.3750    74.9610     7.7790     7.2990    10.1470    24.5870  -999.2500  -999.2500   -51.9420 
   73.5000    69.8330     7.7880     7.3000    10.4470    24.9110  -999.2500  -999.2500   -52.0750 
   73.6250    67.0900     7.7740     7.2610    10.6000    25.0770  -999.2500  -999.2500   -52.1350 
   73.7500    65.4190     7.7880     7.2080    10.6760    25.1280  -999.2500  -999.2500   -52.1180 
   73.8750    65.7550     7.8600     7.1680    10.7030    25.1300  -999.2500  -999.2500   -52.0600 
   74.0000    67.8300     7.9900     7.1670    10.8260    25.1300  -999.2500  -999.2500   -51.9590 
   74.1250    68.3450     8.1450     7.2220    11.1980    25.1300  -999.2500  -999.2500   -51.8280 
   74.2500    67.0140     8.2700     7.3060    11.5210    25.1300  -999.2500  -999.2500   -51.6420 
   74.3750    66.7710     8.3250     7.3830    11.6920    25.1300  -999.2500  -999.2500   -51.4050 
   74.5000    69.9260     8.2880     7.4120    11.7460    25.1580  -999.2500  -999.2500   -51.1050 
   74.6250    73.9460     8.1460     7.3460    11.6980    25.2410  -999.2500  -999.2500   -50.7700 
   74.7500    75.1200     7.9440     7.2040    11.4310    25.3510  -999.2500  -999.2500   -50.4330 
   74.8750    74.1920     7.7330     7.0240    10.8970    25.3940  -999.2500  -999.2500   -50.0500 
   75.0000    73.8890     7.5750     6.8640    10.2960    25.3290  -999.2500  -999.2500   -49.6340 
   75.1250    75.7870     7.5490     6.8000     9.8860    25.0650  -999.2500  -999.2500   -49.2160 
   75.2500    77.5610     7.6460     6.8460     9.7950    24.6630  -999.2500  -999.2500   -48.7760 
   75.3750    77.3960     7.8050     6.9690     9.9070    24.3780  -999.2500  -999.2500   -48.3500 
   75.5000    74.7660     7.9110     7.0860    10.0550    24.2940  -999.2500  -999.2500   -47.9370 
   75.6250    72.8560     7.7890     7.0470    10.0390    24.3460  -999.2500  -999.2500   -47.4990 
   75.7500    75.6060     7.4000     6.7840     9.6930    24.3320  -999.2500  -999.2500   -47.0030 
   75.8750    83.9300     6.7930     6.3060     8.9120    24.1670  -999.2500  -999.2500   -46.4800 
   76.0000    96.9330     6.1070     5.7040     7.8120    23.8010  -999.2500  -999.2500   -45.9350 
   76.1250   111.9390     5.5310     5.1340     6.4700    23.6830  -999.2500  -999.2500   -45.3930 
   76.2500   123.3500     5.1530     4.7100     5.3020    23.8800  -999.2500  -999.2500   -44.9370 
   76.3750   126.6490     4.9910     4.4740     4.7790    24.2400  -999.2500  -999.2500   -44.5490 
   76.5000   121.7260     5.0210     4.4260     4.8340    24.4970  -999.2500  -999.2500   -44.2140 
   76.6250   115.9720     5.2180     4.5550     5.1000    24.5630  -999.2500  -999.2500   -43.9910 
   76.7500   113.3800     5.4850     4.7760     5.3400    24.5400  -999.2500  -999.2500   -43.8870 
   76.8750   110.2390     5.7480     5.0230     5.6930    24.4620  -999.2500  -999.2500   -43.8930 
   77.0000   102.5160     5.9390     5.2310     6.2470    24.4020  -999.2500  -999.2500   -44.0180 
   77.1250    93.0350     6.0030     5.3440     6.9740    24.3800  -999.2500  -999.2500   -44.2060 
   77.2500    89.2440     5.9820     5.3770     7.2810    24.3780  -999.2500  -999.2500   -44.3450 
   77.3750    92.6460     5.9300     5.3630     6.7400    24.3750  -999.2500  -999.2500   -44.4790 
   77.5000    98.9500     5.9020     5.3430     6.1170    24.3610  -999.2500  -999.2500   -44.6170 
   77.6250    99.9720     5.9330     5.3490     6.4460    24.3280  -999.2500  -999.2500   -44.7780 
   77.7500    94.1460     6.0200     5.3980     7.4660    24.3080  -999.2500  -999.2500   -44.9460 
   77.8750    85.5750     6.1990     5.5250     8.4700    24.2920  -999.2500  -999.2500   -45.1370 
   78.0000    80.3340     6.5570     5.7960     8.7170    24.2610  -999.2500  -999.2500   -45.3430 
   78.1250    79.9940     7.2690     6.3410     8.5950    24.1640  -999.2500  -999.2500   -45.5870 
   78.2500    78.7730     8.3330     7.1590     9.2910    24.0280  -999.2500  -999.2500   -45.9070 
   78.3750    74.0900     9.6320     8.1810    11.0220    23.9520  -999.2500  -999.2500   -46.2740 
   78.5000    67.6880    10.8850     9.2260    13.4090    23.9760  -999.2500  -999.2500   -46.7040 
   78.6250    64.9510    11.5890     9.9460    14.8780    23.9680  -999.2500  -999.2500   -47.1370 
   78.7500    65.8940    11.5410    10.1470    13.3170    23.8870  -999.2500  -999.2500   -47.5310 
   78.8750    69.1920    10.8210     9.8180    11.2970    23.8180  -999.2500  -999.2500   -47.8790 
   79.0000    73.6710     9.7870     9.1530    10.4130    23.8460  -999.2500  -999.2500   -48.1750 
   79.1250    78.0490     8.9030     8.4550    10.0680    23.9660  -999.2500  -999.2500   -48.3920 
   79.2500    80.3330     8.3700     7.9400     9.6830    24.0210  -999.2500  -999.2500   -48.5560 
   79.3750    80.4630     8.1770     7.6580     9.4120    24.0340  -999.2500  -999.2500   -48.6750 
   79.5000    80.7530     8.2210     7.5700     9.4970    24.0640  -999.2500  -999.2500   -48.7360 
   79.6250    82.3180     8.3780     7.6060    10.1270    24.1620  -999.2500  -999.2500   -48.7530 
   79.7500    82.7950     8.5190     7.6620    10.6820    24.2950  -999.2500  -999.2500   -48.7760 
   79.8750    80.0450     8.5880     7.6820    10.7950    24.3610  -999.2500  -999.2500   -48.8040 
