~V
VERS. 2.00: Ver 2.00
~W
STRT.M 58.0000:
STOP.M 221.0000:
STEP.M 0.1250:
NULL. -999.2500:
UWI. DF318:
~C
DEPT.M :
DEN.GM/CC :
SP.MV :
AC.US/MT :
GR.API :
CALI.CM :
RXO.OHMM :
RI. :
RML.OHMM :
~A
# ...
   68.0000     2.4820    -0.1170   285.8940    79.3990    24.8290    18.9500    15.2620    13.1330 
   68.1250     2.4910    -1.5320   275.7420    77.4730    24.5630    14.5790    15.4570    13.2600 
   68.2500     2.4450    -3.0120   295.7060    74.9580    24.2130    10.6620    14.1780    11.9460 
   68.3750     2.3580    -4.5660   338.3980    72.9010    23.8300     9.7650    12.4360    10.4670 
   68.5000     2.2660    -6.0720   387.5080    71.8460    23.7170     9.8050    11.0960     9.5000 
   68.6250     2.1940    -7.4900   426.9350    70.2110    24.1290    10.0190    10.3510     9.1010 
   68.7500     2.1460    -8.8100   451.6560    65.6140    24.7710    10.1340    10.1300     9.1520 
   68.8750     2.1210   -10.0120   463.6970    62.4210    25.1300    10.2190    10.2610     9.4630 
   69.0000     2.1180   -10.8870   467.2450    65.3310    25.1570    10.3480    10.4410     9.7420 
   69.1250     2.1220   -11.5930   467.4640    70.5220    25.1570    10.3280    10.5090     9.8420 
   69.2500     2.1180   -12.0960   465.7850    74.2870    25.2400     9.9550    10.4160     9.7600 
   69.3750     2.1070   -12.4640   463.0360    77.1440    25.2820     9.4930    10.2080     9.5870 
   69.5000     2.1050   -12.8050   460.3600    79.2490    25.1870     9.3180    10.0000     9.4410 
   69.6250     2.1140   -13.0320   458.5050    78.5370    25.1260     9.3930     9.8570     9.3760 
   69.7500     2.1260   -13.2590   457.5110    74.9700    25.1280     9.4700     9.8060     9.4110 
   69.8750     2.1350   -13.4380   457.1420    73.7520    25.1380     9.5170     9.8400     9.5480 
   70.0000     2.1370   -13.6650   457.2220    73.9950    25.0930     9.6380     9.9070     9.7350 
   70.1250     2.1380   -13.8840   457.4150    72.3630    25.0600     9.7410     9.9730     9.9320 
   70.2500     2.1400   -14.1480   457.3730    69.4430    25.0400     9.6630    10.0210    10.1050 
   70.3750     2.1470   -14.4040   456.9130    68.7110    25.0450     9.5130    10.0490    10.2320 
   70.5000     2.1610   -14.6660   456.2530    70.1330    24.9930     9.5380    10.0660    10.3270 
   70.6250     2.1710   -14.9600   455.9010    70.4720    24.9310     9.6910    10.0800    10.4020 
   70.7500     2.1690   -15.2440   456.0440    67.9190    24.9520     9.7560    10.0840    10.4560 
   70.8750     2.1510   -15.5020   456.5110    65.0430    25.0180     9.6640    10.0610    10.4660 
   71.0000     2.1310   -15.6980   456.9040    64.6970    25.0500     9.5530     9.9970    10.4190 
   71.1250     2.1290   -15.8570   456.9590    67.6390    25.0360     9.4400     9.8840    10.3060 
   71.2500     2.1460   -15.9610   456.6040    71.2000    25.0080     9.3620     9.7340    10.1450 
   71.3750     2.1610   -16.0360   455.8280    72.6950    25.0020     9.3460     9.5650     9.9660 
   71.5000     2.1540   -16.0730   454.6850    73.6270    25.0740     9.3840     9.4070     9.8080 
   71.6250     2.1390   -16.0880   453.5590    75.4490    25.0870     9.3860     9.2830     9.6920 
   71.7500     2.1330   -16.0640   452.8920    76.6320    25.0240     9.3210     9.2070     9.6290 
   71.8750     2.1350   -16.0290   452.9460    75.4790    24.9310     9.2000     9.1890     9.6230 
   72.0000     2.1300   -16.0050   453.4890    73.3350    24.8900     9.1020     9.2100     9.6580 
   72.1250     2.1200   -15.9600   453.6760    72.2570    24.8640     9.1210     9.2580     9.7340 
   72.2500     2.1130   -15.8810   452.8570    70.9300    24.8540     9.1030     9.3350     9.8700 
   72.3750     2.1150   -15.7140   450.9050    70.1300    24.9060     8.8710     9.4390    10.0700 
   72.5000     2.1210   -15.4330   448.6830    72.3870    24.9320     8.5670     9.5100    10.2340 
   72.6250     2.1300   -15.0120   447.8100    76.4640    24.8350     8.4280     9.4300    10.1860 
   72.7500     2.1410   -14.4370   449.3690    78.2780    24.6810     8.4180     9.0530     9.7350 
   72.8750     2.1620   -13.6720   453.3140    77.9390    24.5490     8.1420     8.2610     8.2290 
   73.0000     2.2000   -12.7020   458.2800    83.6050    24.4100     7.3490     7.2530     7.0650 
   73.1250     2.2480   -11.7030   462.2710    95.9160    24.3930     6.3090     6.2670     6.0140 
   73.2500     2.2920   -10.8190   464.4050   107.8080    24.5150     5.5150     5.5070     5.3290 
   73.3750     2.3150   -10.2460   464.7530   113.9770    24.6500     5.3130     5.1460     5.2140 
   73.5000     2.3000   -10.0600   463.7920   114.4590    24.7190     5.6890     5.1480     5.5750 
   73.6250     2.2580   -10.2390   461.8700   109.1150    24.7420     6.4700     5.4660     6.2890 
   73.7500     2.2060   -10.6930   458.7260   100.2620    24.7580     7.2220     5.9630     7.0890 
   73.8750     2.1600   -11.3740   454.6910    92.8850    24.8100     7.5000     6.3680     7.5260 
   74.0000     2.1370   -12.1900   451.5000    87.2880    24.8590     7.5550     6.5340     7.5090 
   74.1250     2.1400   -12.9660   449.3790    80.8740    24.7920     7.4800     6.5600     7.3070 
   74.2500     2.1720   -13.5550   444.5190    76.3000    24.6420     7.4120     6.6680     7.3210 
   74.3750     2.2320   -13.8190   430.6580    78.1110    24.5510     8.1720     7.1200     7.9320 
   74.5000     2.3100   -13.7910   403.3250    82.1780    24.5460    11.8310     7.9410     9.0910 
   74.6250     2.3770   -13.6610   372.7210    82.1540    24.5550    17.7480     9.0150    10.5400 
   74.7500     2.4010   -13.5810   352.9010    76.9320    24.5570    20.8020    10.0160    11.7490 
   74.8750     2.3670   -13.6430   354.6680    72.1510    24.5130    17.0480    10.4180    12.0060 
   75.0000     2.2890   -13.8990   380.0980    70.3040    24.4760    12.6040    10.2060    11.4640 
   75.1250     2.2130   -14.3130   412.6960    69.0980    24.5220    10.5230     9.6600    10.6250 
   75.2500     2.1590   -14.8690   440.1530    67.6820    24.7010    10.0720     9.1300     9.9870 
   75.3750     2.1320   -15.5680   457.0060    68.4050    24.9300    10.2340     8.8780     9.8420 
   75.5000     2.1240   -16.2470   464.2560    70.0270    25.0740    10.4420     8.8590     9.9990 
   75.6250     2.1210   -16.7650   468.1280    70.3390    25.1990    10.4980     8.9260    10.1860 
   75.7500     2.1220   -17.0080   470.8450    71.0870    25.3150    10.3150     8.9180    10.1730 
   75.8750     2.1320   -16.9730   472.6860    73.7200    25.1390     9.8870     8.7360     9.8680 
   76.0000     2.1530   -16.6930   473.3290    76.8850    24.7810     9.3020     8.4700     9.4730 
   76.1250     2.1750   -16.3440   473.1240    80.2730    24.5440     8.7740     8.2330     9.1700 
   76.2500     2.1840   -15.9830   472.1580    83.5490    24.4320     8.6050     8.1140     9.0750 
   76.3750     2.1760   -15.6190   470.2750    84.4570    24.3750     8.9590     8.1720     9.2360 
   76.5000     2.1630   -15.3650   467.0700    82.7870    24.3850     9.5830     8.3450     9.5260 
   76.6250     2.1580   -15.1840   462.7890    81.4730    24.4380     9.9270     8.5600     9.8240 
   76.7500     2.1620   -15.0900   457.9650    80.4130    24.5400     9.7030     8.7490    10.0380 
   76.8750     2.1640   -15.1000   453.4360    77.4330    24.6180     9.2600     8.8870    10.1560 
   77.0000     2.1590   -15.2390   450.4660    75.1510    24.6600     9.0750     9.0210    10.2670 
   77.1250     2.1510   -15.4250   449.3540    75.1920    24.6910     9.2160     9.1870    10.4270 
   77.2500     2.1450   -15.5840   449.3480    75.7030    24.7210     9.6030     9.3930    10.6390 
   77.3750     2.1440   -15.7070   448.9200    74.9560    24.7400    10.1590     9.5960    10.8360 
   77.5000     2.1480   -15.7240   446.4250    73.4390    24.7430    10.4420     9.7210    10.9250 
   77.6250     2.1510   -15.6920   442.8530    70.2440    24.7480    10.2170     9.7250    10.8680 
   77.7500     2.1500   -15.6780   440.5610    66.7050    24.7100     9.6850     9.6230    10.7030 
   77.8750     2.1460   -15.6700   441.4840    66.9820    24.6410     9.3730     9.4830    10.5250 
