~V
VERS. 2.00: Ver 2.00
~W
STRT.M 65.0000:
STOP.M 277.0000:
STEP.M 0.1250:
NULL. -999.2500:
UWI. DF311:
~C
DEPT.M :
DEN.GM/CC :
SP.MV :
AC.US/MT :
GR.API :
CALI.CM :
RXO.OHMM :
RI. :
RML.OHMM :
~A
# ...
   75.0000  -999.2500   -33.9340  -999.2500    70.8200    23.6460     8.6330     7.1740     8.3570 
   75.1250  -999.2500   -33.9940  -999.2500    74.3980    23.6120     8.1820     7.1010     8.2910 
   75.2500  -999.2500   -34.1300  -999.2500    74.2870    23.4850     8.3980     7.1450     8.3820 
   75.3750  -999.2500   -34.3160  -999.2500    72.8990    23.2720     9.1420     7.2980     8.6250 
   75.5000  -999.2500   -34.5380  -999.2500    71.8250    23.1390     9.7960     7.5140     8.9530 
   75.6250  -999.2500   -34.7810  -999.2500    70.0090    23.1020    10.0300     7.7220     9.2520 
   75.7500  -999.2500   -35.0110  -999.2500    67.6180    23.1080     9.9760     7.8670     9.4490 
   75.8750  -999.2500   -35.2270  -999.2500    67.6660    23.1210     9.7960     7.9390     9.5410 
   76.0000  -999.2500   -35.4290  -999.2500    69.5900    23.1060     9.6190     7.9500     9.5660 
   76.1250  -999.2500   -35.5860  -999.2500    68.2950    23.0910     9.5750     7.9120     9.5560 
   76.2500  -999.2500   -35.6880  -999.2500    64.6020    23.0920     9.6760     7.8380     9.5310 
   76.3750  -999.2500   -35.7720  -999.2500    61.6340    23.1680     9.9850     7.7430     9.5030 
   76.5000  -999.2500   -35.8380  -999.2500    61.4530    23.3730    10.3530     7.6460     9.4890 
   76.6250  -999.2500   -35.9030  -999.2500    63.3310    23.7670    10.3350     7.5600     9.4890 
   76.7500  -999.2500   -35.9870  -999.2500    64.6550    23.9580    10.0120     7.4680     9.4600 
   76.8750  -999.2500   -36.0480  -999.2500    64.7980    23.9400     9.8910     7.3450     9.3650 
   77.0000  -999.2500   -36.0630  -999.2500    65.7930    23.8710    10.0700     7.1780     9.1850 
   77.1250  -999.2500   -36.0590  -999.2500    68.0420    23.9460     9.8000     6.9630     8.9230 
   77.2500  -999.2500   -36.0690  -999.2500    68.2180    23.9560     9.1220     6.7420     8.6500 
   77.3750  -999.2500   -36.0800  -999.2500    65.3240    24.0060     8.7160     6.5630     8.4460 
   77.5000  -999.2500   -36.1060  -999.2500    62.6470    24.1480     8.9020     6.4700     8.3740 
   77.6250  -999.2500   -36.1410  -999.2500    63.0670    24.2910     9.2160     6.5010     8.4870 
   77.7500  -999.2500   -36.1670  -999.2500    63.2270    24.0110     9.2620     6.6300     8.7390 
   77.8750  -999.2500   -36.2200  -999.2500    62.5760    23.8150     9.4290     6.8230     9.0700 
   78.0000  -999.2500   -36.3070  -999.2500    62.1950    23.7460     9.8230     7.0150     9.3850 
   78.1250  -999.2500   -36.3880  -999.2500    62.0290    23.7090     9.9940     7.1150     9.5560 
   78.2500  -999.2500   -36.4440  -999.2500    62.6740    23.6460     9.8680     7.0930     9.5480 
   78.3750  -999.2500   -36.4600  -999.2500    64.4330    23.5660     9.4290     6.9620     9.3850 
   78.5000  -999.2500   -36.4350  -999.2500    65.7970    23.5200     8.9100     6.7730     9.1480 
   78.6250  -999.2500   -36.3480  -999.2500    66.0000    23.5410     8.5790     6.6130     8.9660 
   78.7500  -999.2500   -36.1970  -999.2500    65.0430    23.6540     8.5560     6.5460     8.9230 
   78.8750  -999.2500   -35.9820  -999.2500    63.7830    23.8910     8.7370     6.5870     9.0320 
   79.0000  -999.2500   -35.7280  -999.2500    64.2850    24.0710     8.9890     6.7170     9.2460 
   79.1250  -999.2500   -35.4530  -999.2500    66.8730    24.1040     9.1990     6.8930     9.4740 
   79.2500  -999.2500   -35.1390  -999.2500    67.2400    23.8470     9.4300     7.0470     9.6200 
   79.3750  -999.2500   -34.8020  -999.2500    64.4810    23.6530     9.7110     7.1390     9.6420 
   79.5000  -999.2500   -34.4340  -999.2500    62.2410    23.5360     9.8500     7.1640     9.5540 
   79.6250  -999.2500   -34.0520  -999.2500    63.3440    23.4840     9.7830     7.1550     9.4310 
   79.7500  -999.2500   -33.6540  -999.2500    64.3740    23.4330     9.6160     7.1720     9.3780 
   79.8750  -999.2500   -33.2190  -999.2500    63.6100    23.3460     9.4920     7.2400     9.4430 
   80.0000  -999.2500   -32.7140  -999.2500    60.8550    23.2180     9.3910     7.3420     9.6090 
   80.1250  -999.2500   -32.1100  -999.2500    59.5030    23.1720     9.2700     7.4060     9.7620 
   80.2500  -999.2500   -31.4420  -999.2500    62.5660    23.2410     9.1500     7.3290     9.7200 
   80.3750  -999.2500   -30.6880  -999.2500    68.9370    23.4810     8.9170     7.0250     9.3260 
   80.5000  -999.2500   -29.8720  -999.2500    75.6350    23.8850     8.3830     6.4720     8.5400 
   80.6250  -999.2500   -29.0340  -999.2500    81.9530    24.1460     7.5230     5.7580     7.5190 
   80.7500  -999.2500   -28.2220  -999.2500    87.6560    24.3760     6.6310     5.0960     6.6090 
   80.8750  -999.2500   -27.4820  -999.2500    90.6720    24.5400     5.7750     4.6450     6.0480 
   81.0000  -999.2500   -26.8340  -999.2500    89.1400    24.5800     5.1270     4.5170     5.9760 
   81.1250  -999.2500   -26.3030  -999.2500    82.9510    24.5060     5.2960     4.8260     6.5360 
   81.2500  -999.2500   -25.8300  -999.2500    75.9330    24.3970     6.3750     5.4780     7.5770 
   81.3750  -999.2500   -25.4080  -999.2500    71.2090    24.3580     8.0160     6.3390     8.8910 
   81.5000  -999.2500   -25.0160  -999.2500    70.8070    24.4610     9.5390     7.1470    10.0510 
   81.6250  -999.2500   -24.6580  -999.2500    76.5770    24.8060     9.6770     7.4760    10.3480 
   81.7500  -999.2500   -24.3360  -999.2500    82.5640    25.2770     8.8090     7.2610     9.7530 
   81.8750  -999.2500   -24.0230  -999.2500    83.7100    25.8240     7.6720     6.6800     8.6730 
   82.0000  -999.2500   -23.7290  -999.2500    81.3510    26.2430     6.6360     6.0090     7.6020 
   82.1250  -999.2500   -23.4730  -999.2500    82.2880    26.3310     5.7860     5.4750     6.8820 
   82.2500  -999.2500   -23.2900  -999.2500    85.7660    26.0170     5.3930     5.1190     6.4850 
   82.3750  -999.2500   -23.1980  -999.2500    87.1080    26.0710     5.2920     4.9140     6.3150 
   82.5000  -999.2500   -23.2170  -999.2500    87.3850    26.4770     5.2100     4.8060     6.2640 
   82.6250  -999.2500   -23.3370  -999.2500    88.4940    26.3490     5.0920     4.7510     6.2510 
   82.7500  -999.2500   -23.5000  -999.2500    88.7600    25.8720     5.0350     4.7200     6.2490 
   82.8750  -999.2500   -23.7230  -999.2500    87.3470    25.4280     5.0510     4.7300     6.2910 
   83.0000  -999.2500   -23.9850  -999.2500    84.5960    25.2160     5.1090     4.8080     6.4240 
   83.1250  -999.2500   -24.2810  -999.2500    81.2120    25.1410     5.2470     4.9740     6.6830 
   83.2500  -999.2500   -24.6010  -999.2500    77.7010    25.0620     5.5250     5.1800     6.9960 
   83.3750  -999.2500   -24.9030  -999.2500    76.5850    24.9120     5.8880     5.3580     7.2590 
   83.5000  -999.2500   -25.1690  -999.2500    78.2730    24.6470     6.1060     5.4350     7.3670 
   83.6250  -999.2500   -25.3970  -999.2500    81.0200    24.4370     5.8900     5.3590     7.2450 
   83.7500  -999.2500   -25.6230  -999.2500    85.0900    24.2300     5.5220     5.1930     7.0020 
   83.8750  -999.2500   -25.8260  -999.2500    89.1780    24.0460     5.2440     5.0130     6.7620 
   84.0000  -999.2500   -26.0290  -999.2500    91.5540    23.9550     5.1710     4.8920     6.6390 
   84.1250  -999.2500   -26.2680  -999.2500    92.7940    23.9600     5.3110     4.8890     6.7250 
   84.2500  -999.2500   -26.5410  -999.2500    93.7870    24.0100     5.6130     4.9720     6.9580 
   84.3750  -999.2500   -26.8960  -999.2500    93.1150    24.0820     6.0690     5.0860     7.2460 
   84.5000  -999.2500   -27.3280  -999.2500    88.7590    24.1450     6.7160     5.1700     7.4750 
   84.6250  -999.2500   -27.8040  -999.2500    84.1760    24.2280     7.1600     5.1630     7.5270 
   84.7500  -999.2500   -28.3010  -999.2500    81.6830    24.4300     7.0400     5.0850     7.4320 
   84.8750  -999.2500   -28.8300  -999.2500    83.0880    24.8170     6.6140     4.9980     7.2940 
