~V
VERS. 2.00: Ver 2.00
~W
STRT.M 56.0000:
STOP.M 209.0000:
STEP.M 0.1250:
NULL. -999.2500:
UWI. DF316:
~C
DEPT.M :
GR.API :
CALI.CM :
RXO.OHMM :
RI. :
RML.OHMM :
SP.MV :
DEN.GM/CC :
AC.US/MT :
~A
# ...
   96.0000    76.4180    24.8210     8.9340     8.7960    12.7270    -7.0670     2.3290   428.2670 
   96.1250    72.8120    24.7830    10.1630    11.0180    15.6100    -6.7460     2.3710   422.1180 
   96.2500    66.3530    24.5680    13.6360    13.5110    18.6890    -6.4240     2.4420   389.5550 
   96.3750    58.3200    24.5340    26.5900    15.6640    21.3820    -6.1000     2.5160   322.5920 
   96.5000    54.5920    24.5310    40.0780    17.0720    22.8210    -5.7820     2.5510   260.6210 
   96.6250    56.9220    24.5530    40.8100    17.4060    22.8590    -5.4700     2.5050   242.2470 
   96.7500    62.0600    24.5320    29.1540    16.8240    21.7140    -5.1560     2.4130   278.9260 
   96.8750    64.0720    24.6150    17.1840    15.5390    20.1310    -4.8380     2.3210   349.7330 
   97.0000    61.4790    24.8080    12.8590    14.2340    18.8190    -4.5350     2.2580   411.5910 
   97.1250    56.9680    24.8420    12.5410    13.3430    18.1970    -4.2540     2.2290   447.7320 
   97.2500    53.3570    24.8550    14.4400    13.0450    18.4260    -3.9990     2.2210   458.8030 
   97.3750    51.8470    24.9570    15.5420    13.4640    19.3200    -3.7800     2.2200   457.2690 
   97.5000    51.4480    25.2340    15.6960    14.2580    20.5730    -3.6020     2.2150   457.4310 
   97.6250    51.6040    25.3390    15.5880    15.2000    21.7840    -3.4780     2.2060   458.9240 
   97.7500    52.5170    25.2100    16.4940    16.3090    22.6790    -3.3930     2.2080   458.1610 
   97.8750    56.5320    25.0840    17.6280    17.2750    22.8770    -3.3660     2.2230   454.4490 
   98.0000    61.6900    25.0280    18.3490    17.7360    22.5100    -3.4030     2.2390   452.6790 
   98.1250    64.2600    25.1390    18.2490    17.6870    21.6420    -3.5050     2.2370   453.0430 
   98.2500    63.1340    25.1740    18.0980    17.0510    20.5220    -3.6620     2.2210   452.7770 
   98.3750    62.0090    25.2080    18.2610    16.2200    19.1200    -3.8570     2.2060   453.0120 
   98.5000    64.1210    25.1330    17.6220    15.3810    17.9060    -4.0670     2.2050   453.9060 
   98.6250    68.1030    25.0210    15.0250    14.6320    16.9040    -4.2750     2.2220   453.7720 
   98.7500    69.7680    24.8900    12.4550    13.9940    16.3730    -4.4770     2.2420   451.5780 
   98.8750    68.4110    24.8970    11.3690    13.6250    16.3090    -4.6450     2.2520   447.3810 
   99.0000    67.2680    24.9790    12.1700    13.5700    16.6550    -4.7610     2.2490   441.8720 
   99.1250    67.4820    25.0180    12.9270    13.7990    17.2440    -4.8260     2.2410   437.9100 
   99.2500    66.0970    25.0050    13.5450    14.1880    18.0130    -4.8450     2.2360   438.5500 
   99.3750    63.8480    24.9320    14.5040    14.6230    18.8550    -4.7950     2.2330   443.3570 
   99.5000    62.5650    24.9650    15.8460    15.0210    19.6060    -4.7100     2.2280   446.5620 
   99.6250    59.4360    25.0040    17.1380    15.3870    20.1590    -4.6050     2.2230   446.4810 
   99.7500    54.1340    25.0070    17.9090    15.6760    20.3550    -4.4990     2.2100   445.9870 
   99.8750    50.9730    25.0150    18.2560    15.5700    20.2460    -4.4210     2.1860   447.6130 
  100.0000    51.7790    24.9920    18.1830    15.2640    19.8910    -4.3830     2.1620   450.3540 
  100.1250    53.8760    24.9920    17.5480    14.7930    19.4200    -4.3720     2.1630   453.3000 
  100.2500    55.8580    25.0000    16.2600    14.3360    18.7640    -4.3790     2.1830   455.5970 
  100.3750    57.9830    24.9870    14.4440    14.0460    18.1460    -4.4300     2.1990   455.1250 
  100.5000    59.6080    24.8930    12.8390    13.8100    17.3840    -4.4970     2.1960   450.5690 
  100.6250    62.3140    24.7640    11.9110    13.5760    16.5950    -4.5720     2.1790   444.1140 
  100.7500    66.3450    24.6800    11.6140    13.3720    15.8720    -4.6570     2.1640   440.1040 
  100.8750    70.4120    24.4760    11.3110    13.2120    15.4780    -4.7540     2.1620   441.5840 
  101.0000    73.0210    23.9870    10.2580    13.2880    15.5070    -4.8510     2.1860   444.5030 
  101.1250    75.7330    23.7180     8.6650    13.6110    16.2090    -4.9380     2.2420   444.1190 
  101.2500    77.8830    23.5950     7.2070    14.1820    17.5980    -5.0200     2.3150   430.9910 
  101.3750    76.2000    23.5300     8.3230    15.1560    19.5250    -5.0870     2.3970   394.0520 
  101.5000    70.5880    23.3220    14.4660    16.2860    21.4070    -5.1410     2.4860   353.5550 
  101.6250    63.3660    23.0220    24.1650    17.3000    22.9050    -5.1800     2.5610   331.2210 
  101.7500    58.4740    23.1370    31.8230    17.7200    23.5360    -5.2120     2.5790   334.6340 
  101.8750    57.8310    23.3030    31.5710    17.2290    22.9230    -5.2270     2.5220   361.8040 
  102.0000    58.9170    23.8820    25.0310    16.2550    21.7320    -5.2160     2.4170   398.5810 
  102.1250    58.9640    24.5340    17.6120    15.3340    20.6750    -5.2090     2.3210   430.1210 
  102.2500    56.8290    24.7800    13.7500    15.1330    20.6580    -5.2120     2.2570   443.6130 
  102.3750    54.6960    24.8370    13.5000    16.2310    22.4660    -5.2530     2.2230   447.3020 
  102.5000    54.7380    24.9720    15.1030    18.5580    25.9110    -5.3570     2.2210   452.7560 
  102.6250    56.0990    24.8690    17.5120    22.0900    30.1110    -5.5280     2.2650   449.6400 
  102.7500    56.2100    24.5340    21.9780    26.0930    34.0060    -5.7500     2.3400   420.0970 
  102.8750    53.4280    24.1260    43.1580    28.6690    35.4670    -6.0120     2.4220   355.2940 
  103.0000    51.8670    23.8980    80.2200    28.6470    33.7970    -6.3050     2.4900   277.9030 
  103.1250    54.0870    23.7900   111.1090    25.7990    29.2360    -6.6040     2.5360   215.0550 
  103.2500    59.4580    23.7770   107.6350    21.4240    23.3550    -6.8860     2.5580   188.0480 
  103.3750    66.1220    23.8020    63.5950    17.0780    17.8650    -7.1140     2.5380   212.0030 
  103.5000    73.1840    23.9570    26.3670    13.5260    13.7530    -7.2680     2.4710   269.5760 
  103.6250    80.5460    24.2240    11.3590    10.9260    11.1080    -7.3410     2.3810   338.3040 
  103.7500    85.7690    24.6220     9.4150     9.1940     9.6210    -7.3340     2.3110   393.9370 
  103.8750    86.3090    24.6970    10.1690     8.1630     9.0380    -7.2490     2.2830   419.8230 
  104.0000    86.3650    24.6990    10.1470     7.4590     8.7540    -7.1290     2.2900   425.8970 
  104.1250    87.8350    24.6900     8.9980     6.9580     8.5260    -6.9680     2.3160   422.3020 
  104.2500    88.6650    24.6690     7.4670     6.6180     8.2840    -6.7790     2.3400   414.2750 
  104.3750    88.2860    24.6680     6.7710     6.3020     8.0720    -6.5550     2.3560   405.6380 
  104.5000    90.6560    24.6810     7.0620     6.2670     7.8540    -6.3010     2.3620   400.5720 
  104.6250    93.5220    24.7070     7.5410     6.3630     7.7120    -6.0210     2.3610   401.9730 
  104.7500    92.7040    24.6820     7.7480     6.4220     7.5320    -5.7240     2.3580   410.7290 
  104.8750    90.4450    24.6070     7.2550     6.4580     7.3180    -5.4160     2.3570   422.4590 
  105.0000    92.4280    24.4660     6.9300     6.4190     7.0860    -5.0880     2.3580   429.3090 
  105.1250    95.1520    24.3940     6.8860     6.4010     6.9490    -4.7600     2.3650   430.8810 
  105.2500    94.1230    24.2290     6.6510     6.5160     6.8360    -4.4350     2.3720   430.8390 
  105.3750    91.1930    24.0990     6.0680     6.7590     7.0010    -4.1130     2.3710   432.9220 
  105.5000    89.6040    24.0730     5.5370     7.2610     7.4620    -3.8180     2.3690   434.2960 
  105.6250    89.8650    23.8710     5.6160     8.0250     8.2410    -3.5380     2.3820   428.3230 
  105.7500    90.4050    23.6320     6.2910     9.0110     9.3210    -3.2650     2.4070   406.2490 
  105.8750    90.1510    23.5980     8.3860     9.8720    10.4920    -2.9940     2.4270   368.3910 
