~V
VERS. 2.00: Ver 2.00
~W
STRT.M 61.0000:
STOP.M 325.0000:
STEP.M 0.1250:
NULL. -999.2500:
UWI. DF320:
~C
DEPT.M :
GR.API :
RML.OHMM :
RI. :
RXO.OHMM :
CALI.CM :
SP.MV :
DEN.GM/CC :
AC.US/MT :
~A
# ...
   81.0000    75.6020    10.4400     9.4300     9.5640    23.4400   -18.8420     2.2090   452.4770 
   81.1250    76.8880    10.0840     9.0970     9.1770    23.3850   -18.4080     2.2030   453.6870 
   81.2500    80.8350     9.6550     8.6960     8.5420    23.2530   -17.8620     2.1930   454.9710 
   81.3750    83.2190     9.2580     8.3250     7.7730    23.1280   -17.2420     2.1870   454.9600 
   81.5000    83.4440     8.9510     8.0390     7.1160    23.0940   -16.5830     2.1930   451.6740 
   81.6250    85.3630     8.7420     7.8430     6.9230    23.1570   -15.9740     2.2170   445.1340 
   81.7500    86.8100     8.5680     7.6800     7.0380    23.2550   -15.4080     2.2480   438.9420 
   81.8750    85.9470     8.3950     7.5190     7.0880    23.3780   -14.8650     2.2750   436.1680 
   82.0000    84.8870     8.2150     7.3500     6.8240    23.5030   -14.3920     2.2920   437.9750 
   82.1250    87.6440     8.0310     7.1790     6.4540    23.5290   -14.0200     2.2970   442.2790 
   82.2500    91.9090     7.8440     7.0050     6.1290    23.5090   -13.7600     2.2960   444.1800 
   82.3750    93.9080     7.6550     6.8250     6.0740    23.5470   -13.6150     2.2950   441.5230 
   82.5000    93.8220     7.4650     6.6450     6.1740    23.6650   -13.5560     2.2950   436.1110 
   82.6250    94.7950     7.3010     6.4880     6.1770    23.8110   -13.5330     2.2970   431.9150 
   82.7500    99.4520     7.1620     6.3710     6.0640    23.9340   -13.5710     2.3000   430.4600 
   82.8750   105.1380     7.0520     6.2900     5.9490    23.9970   -13.7100     2.3020   431.2960 
   83.0000   108.8720     6.9370     6.2130     5.9270    23.9940   -13.9280     2.3000   433.9570 
   83.1250   108.3270     6.7530     6.0750     6.1150    23.9630   -14.2410     2.2910   437.7120 
   83.2500   104.2080     6.5470     5.8570     6.3110    23.9450   -14.6240     2.2800   441.0100 
   83.3750    98.0870     6.3320     5.6080     6.4960    23.9440   -15.0530     2.2700   443.3420 
   83.5000    95.8150     6.2020     5.4480     6.6980    23.9020   -15.5150     2.2630   444.2430 
   83.6250    99.1020     6.3330     5.5900     6.8850    23.8380   -16.0160     2.2610   440.8000 
   83.7500    96.0560     6.9070     6.1260     7.3720    23.7360   -16.5470     2.2670   429.1230 
   83.8750    82.5440     7.9190     7.0730     8.5180    23.5540   -17.1230     2.2900   404.8900 
   84.0000    68.5180     9.2570     8.3320    10.0930    23.3280   -17.7430     2.3340   366.7720 
   84.1250    65.0840    10.6140     9.6070    11.2030    23.3020   -18.3360     2.3970   320.2390 
   84.2500    67.4300    11.5880    10.5310    11.5280    23.4210   -18.8840     2.4540   281.2790 
   84.3750    70.7010    11.9210    10.8470    11.2400    23.5070   -19.3910     2.4790   263.6620 
   84.5000    73.1230    11.5850    10.5060    10.4940    23.4830   -19.8850     2.4550   275.5510 
   84.6250    72.8660    10.7890     9.7470     9.6600    23.3850   -20.3490     2.3850   317.9610 
   84.7500    71.3730     9.9750     8.9980     9.2090    23.2610   -20.6970     2.3070   371.2230 
   84.8750    70.5320     9.3610     8.4570     9.1810    23.1420   -20.8850     2.2420   417.7930 
   85.0000    70.9240     9.0210     8.2080     9.4910    23.0260   -20.9110     2.2000   446.2320 
   85.1250    73.2330     8.9400     8.2010     9.9090    22.8680   -20.7840     2.1830   455.0600 
   85.2500    76.6750     8.9590     8.2470    10.0030    22.6890   -20.5410     2.1790   456.4830 
   85.3750    78.5650     8.9640     8.2010     9.6170    22.5440   -20.1980     2.1800   456.8920 
   85.5000    78.5560     8.8820     8.0490     8.7960    22.4470   -19.7690     2.1850   457.8460 
   85.6250    79.7590     8.6960     7.8140     7.6560    22.3360   -19.3010     2.1930   458.4300 
   85.7500    81.9880     8.4800     7.5990     6.7970    22.1760   -18.8810     2.2020   458.6780 
   85.8750    82.9170     8.3030     7.4320     6.6490    21.9650   -18.5670     2.2110   459.1500 
   86.0000    83.1140     8.2190     7.3480     7.1180    21.6630   -18.3530     2.2150   460.2130 
   86.1250    84.9330     8.2750     7.3960     7.7980    21.2440   -18.2310     2.2120   460.3910 
   86.2500    86.4840     8.4340     7.5560     8.2070    20.7730   -18.1980     2.2040   457.8940 
   86.3750    84.5590     8.6540     7.7940     8.1480    20.1050   -18.2460     2.1950   452.7300 
   86.5000    78.5460     8.8770     8.0760     7.8170    19.1440   -18.3780     2.1870   447.1360 
   86.6250    72.9460     9.0390     8.3080     7.4640    18.1020   -18.5380     2.1840   444.3820 
   86.7500    71.2050     9.1220     8.4410     7.1550    17.1710   -18.6490     2.1860   444.7040 
   86.8750    71.7350     9.1320     8.4200     6.9460    16.4590   -18.7100     2.1910   446.6470 
   87.0000    73.6390     9.0890     8.3020     6.8860    16.0980   -18.7260     2.1990   448.2010 
   87.1250    77.9680     9.0150     8.1700     6.9480    16.0570   -18.7480     2.2050   447.8460 
   87.2500    81.2940     8.9430     8.0670     7.0640    16.1610   -18.8140     2.2070   446.4820 
   87.3750    80.4800     8.8920     8.0100     7.1910    16.3640   -18.8930     2.2050   445.3940 
   87.5000    77.7400     8.8700     7.9970     7.3080    16.7220   -18.9330     2.2020   445.0230 
   87.6250    78.5810     8.8770     8.0550     7.4500    17.2820   -18.9380     2.2010   444.2710 
   87.7500    80.9410     8.8890     8.1210     7.6670    18.0410   -18.9640     2.2030   442.6630 
   87.8750    79.8040     8.8870     8.1340     7.9040    19.0020   -19.0030     2.2070   441.1630 
   88.0000    76.1250     8.8580     8.0780     8.1390    20.0950   -19.0860     2.2080   440.9850 
   88.1250    73.5570     8.8090     7.9800     8.4130    20.8890   -19.2020     2.2060   442.1150 
   88.2500    72.7300     8.7640     7.9150     8.6320    21.2410   -19.3270     2.2010   443.0280 
   88.3750    72.4150     8.7410     7.9140     8.7880    21.3380   -19.4560     2.1970   442.9050 
   88.5000    73.0800     8.7440     7.9690     8.9210    21.4620   -19.6040     2.1940   441.8990 
   88.6250    75.9980     8.7560     8.0020     9.0390    21.7920   -19.7950     2.1920   440.9430 
   88.7500    77.5580     8.7540     7.9670     9.1340    22.2240   -19.9860     2.1880   440.8930 
   88.8750    75.9420     8.7360     7.8870     9.1940    22.6110   -20.1720     2.1810   441.9700 
   89.0000    74.9210     8.7180     7.8260     9.2300    22.8110   -20.3550     2.1730   443.7960 
   89.1250    77.7660     8.7280     7.8270     9.2710    22.8900   -20.5500     2.1670   445.4740 
   89.2500    79.9620     8.7830     7.8770     9.3870    22.9930   -20.7210     2.1650   446.5650 
   89.3750    78.3850     8.8810     7.9750     9.6260    23.1840   -20.8650     2.1640   447.2930 
   89.5000    75.7090     9.0170     8.1180     9.9000    23.4630   -20.9900     2.1650   448.1630 
   89.6250    73.3780     9.1710     8.2980    10.0520    23.6590   -21.0710     2.1660   449.3340 
   89.7500    68.4950     9.3340     8.4890    10.1220    23.7650   -21.1430     2.1670   450.1250 
   89.8750    62.2680     9.4860     8.6400    10.1630    23.8020   -21.2190     2.1690   449.9500 
   90.0000    62.1250     9.5710     8.7010    10.1730    23.8180   -21.2890     2.1710   448.7980 
   90.1250    69.4190     9.5660     8.6560    10.1110    23.8340   -21.3240     2.1710   447.7490 
   90.2500    75.4730     9.5120     8.5710    10.0950    23.8520   -21.2980     2.1700   447.7850 
   90.3750    76.3610     9.4030     8.4560    10.0600    23.8590   -21.2310     2.1700   448.8210 
   90.5000    75.3020     9.2150     8.3030     9.9690    23.8600   -21.1360     2.1730   449.9450 
   90.6250    75.5540     9.0030     8.1410     9.7170    23.8600   -21.0390     2.1810   450.1300 
   90.7500    77.4440     8.7770     7.9570     9.3770    23.8600   -20.9440     2.1910   449.6070 
   90.8750    79.9900     8.5590     7.7870     9.0480    23.8600   -20.8500     2.2010   448.6780 
