~V
VERS. 2.00: Ver 2.00
~W
STRT.M 62.0000:
STOP.M 272.0000:
STEP.M 0.1250:
NULL. -999.2500:
UWI. DF32143:
~C
DEPT.M :
SP.MV :
GR.API :
CALI.CM :
RXO.OHMM :
RI. :
RML.OHMM :
DEN.GM/CC :
~A
# ...
  152.0000   -17.6120    78.4400    25.5720    11.5060     8.7260    10.6470     2.2640 
  152.1250   -17.5300    78.3130    25.6190    14.8380     9.9100    12.2460     2.3780 
  152.2500   -17.5140    75.6810    25.3500    17.8600    11.1530    13.8780     2.4960 
  152.3750   -17.5790    70.1270    24.7760    19.1710    12.2110    15.1760     2.5740 
  152.5000   -17.7050    65.8720    24.1800    18.5500    12.8110    15.7650     2.5880 
  152.6250   -17.8820    65.2230    23.9200    16.5260    12.6730    15.3180     2.5270 
  152.7500   -18.0850    67.8730    23.8940    14.1220    11.9830    14.1950     2.4210 
  152.8750   -18.2820    74.2140    23.9010    12.0430    10.9970    12.7990     2.3060 
  153.0000   -18.4460    81.5340    23.8480    10.5220     9.9880    11.4930     2.2150 
  153.1250   -18.5550    84.3520    23.8380     9.3300     9.2000    10.5770     2.1680 
  153.2500   -18.5880    82.7520    23.9770     8.4720     8.6990    10.0870     2.1460 
  153.3750   -18.5660    80.3810    24.2630     8.1540     8.4950     9.9970     2.1320 
  153.5000   -18.4950    79.5960    24.7000     8.2340     8.5390    10.2040     2.1120 
  153.6250   -18.3780    78.3870    25.2820     8.3540     8.7470    10.5460     2.0920 
  153.7500   -18.2190    76.4200    25.7790     8.4130     8.9610    10.7960     2.0870 
  153.8750   -18.0350    75.5030    25.9580     8.4710     9.0690    10.8260     2.1030 
  154.0000   -17.8410    75.8360    25.7960     8.5090     9.0130    10.6160     2.1300 
  154.1250   -17.6530    75.2350    25.5140     8.3940     8.8050    10.2520     2.1540 
  154.2500   -17.4700    73.8160    25.3280     8.0450     8.5520     9.8980     2.1700 
  154.3750   -17.2870    73.7530    25.2710     7.5570     8.3290     9.6390     2.1790 
  154.5000   -17.1190    75.2330    25.3070     7.2430     8.1840     9.5110     2.1800 
  154.6250   -16.9850    74.9770    25.3680     7.4130     8.1480     9.5200     2.1690 
  154.7500   -16.8900    73.4450    25.3970     7.8470     8.1890     9.5980     2.1530 
  154.8750   -16.8420    74.0160    25.3520     8.2800     8.2790     9.6950     2.1430 
  155.0000   -16.8410    78.2130    25.1930     8.5340     8.3920     9.7900     2.1390 
  155.1250   -16.8800    81.9590    24.8620     8.4670     8.5300     9.9220     2.1370 
  155.2500   -16.9600    80.1760    24.3810     8.2770     8.7370    10.1900     2.1380 
  155.3750   -17.0520    75.9900    23.8390     8.2930     9.0810    10.6960     2.1420 
  155.5000   -17.1290    75.2190    23.3750     8.6980     9.5970    11.4570     2.1480 
  155.6250   -17.1640    77.0890    23.0950     9.5350    10.1870    12.2590     2.1470 
  155.7500   -17.1530    76.4120    22.9880    10.6170    10.5270    12.6090     2.1510 
  155.8750   -17.0870    75.3110    23.0360    11.5360    10.2870    12.0650     2.1780 
  156.0000   -16.9780    78.0870    23.2360    11.3900     9.3490    10.5630     2.2360 
  156.1250   -16.8420    83.6730    23.6280     9.5060     7.9320     8.5570     2.3050 
  156.2500   -16.6730    87.1450    24.1290     7.0860     6.5540     6.7690     2.3510 
  156.3750   -16.4920    88.2170    24.5670     5.2620     5.4640     5.4900     2.3680 
  156.5000   -16.3090    89.0900    24.7840     4.3680     4.7400     4.7590     2.3620 
  156.6250   -16.1470    89.2580    24.7930     4.1860     4.4040     4.5400     2.3460 
  156.7500   -16.0040    87.2170    24.7940     4.2690     4.3220     4.6050     2.3350 
  156.8750   -15.8980    83.2760    24.8090     4.5380     4.4070     4.8170     2.3340 
  157.0000   -15.8310    80.3430    24.7000     4.9510     4.5710     5.0560     2.3440 
  157.1250   -15.8210    80.4550    24.3150     5.2930     4.7270     5.2210     2.3580 
  157.2500   -15.9090    82.2640    23.7910     5.4340     4.8300     5.2930     2.3720 
  157.3750   -16.1170    83.1080    23.3730     5.3880     4.8760     5.2880     2.3790 
  157.5000   -16.4600    81.8140    23.2970     5.2050     4.8880     5.2460     2.3750 
  157.6250   -16.9510    80.7740    23.6760     4.9900     4.9040     5.2340     2.3560 
  157.7500   -17.5530    83.2910    24.1690     4.9260     4.9570     5.2990     2.3330 
  157.8750   -18.2150    87.7530    24.3200     5.1360     5.0610     5.4550     2.3100 
  158.0000   -18.8610    88.8120    23.8820     5.5870     5.2110     5.6830     2.2900 
  158.1250   -19.3940    83.5160    23.1040     6.0140     5.3870     5.9320     2.2720 
  158.2500   -19.7740    78.3750    22.4960     6.1650     5.5550     6.1460     2.2540 
  158.3750   -19.9480    75.9170    22.1600     6.0510     5.6950     6.3010     2.2380 
  158.5000   -19.9150    76.4210    21.9750     5.8800     5.7980     6.3980     2.2250 
  158.6250   -19.6640    81.5640    21.8980     5.8440     5.8620     6.4480     2.2170 
  158.7500   -19.2710    88.1720    21.9500     5.8870     5.8970     6.4660     2.2100 
  158.8750   -18.7900    89.9240    22.0940     5.8960     5.9030     6.4500     2.2070 
  159.0000   -18.3000    83.6220    22.2660     5.8310     5.8780     6.3970     2.2080 
  159.1250   -17.8710    76.8730    22.4360     5.7410     5.8270     6.3220     2.2140 
  159.2500   -17.5140    76.4510    22.5770     5.7040     5.7690     6.2670     2.2190 
  159.3750   -17.2680    79.5490    22.6620     5.7690     5.7170     6.2530     2.2220 
  159.5000   -17.1240    82.0330    22.6330     5.9520     5.6740     6.2780     2.2240 
  159.6250   -17.0730    83.3840    22.4660     6.1250     5.6330     6.3040     2.2250 
  159.7500   -17.0780    82.8970    22.3200     6.1000     5.5860     6.2880     2.2250 
  159.8750   -17.1260    80.3840    22.3120     5.9060     5.5470     6.2520     2.2220 
  160.0000   -17.1970    77.0880    22.4860     5.7910     5.5720     6.3010     2.2090 
  160.1250   -17.2900    74.4260    22.8660     5.9980     5.8100     6.6990     2.1970 
  160.2500   -17.4220    72.8120    23.3490     6.9550     6.3860     7.6370     2.2090 
  160.3750   -17.5790    71.3900    23.7670    10.0630     7.4740     9.3410     2.2540 
  160.5000   -17.7580    69.1800    24.0840    16.8750     9.2900    12.0450     2.3140 
  160.6250   -17.9460    65.0120    24.5790    25.9850    12.2690    16.1840     2.3480 
  160.7500   -18.1220    61.3830    25.2570    32.6650    16.3980    21.5890     2.3320 
  160.8750   -18.2680    60.8530    25.8010    36.4290    21.5080    27.9050     2.2810 
  161.0000   -18.3680    61.8460    26.0150    40.5220    27.0470    34.3460     2.2290 
  161.1250   -18.3980    63.9000    26.0110    46.2240    32.0370    39.6160     2.2110 
  161.2500   -18.3490    65.9000    25.9890    50.7070    35.6980    42.9140     2.2210 
  161.3750   -18.2300    66.0620    25.9530    52.2950    37.3290    43.4850     2.2410 
  161.5000   -18.0460    63.4030    25.8950    50.2380    36.2690    40.6870     2.2610 
  161.6250   -17.8240    61.9520    25.8360    42.4400    32.0480    34.4730     2.2840 
  161.7500   -17.5950    66.4420    25.7790    31.0770    26.3150    27.2050     2.3070 
  161.8750   -17.3870    74.3350    25.6790    20.0830    20.5530    20.5720     2.3200 
  162.0000   -17.2220    79.3780    25.5040    12.4850    15.7550    15.4170     2.3100 
  162.1250   -17.1200    78.7630    25.3010     8.9590    12.4050    12.0250     2.2780 
  162.2500   -17.0650    78.2190    25.1630     7.5550    10.0840     9.7720     2.2460 
  162.3750   -17.0430    80.8690    25.0930     7.0740     8.5170     8.2980     2.2280 
  162.5000   -17.0560    85.0620    25.0550     6.7370     7.4990     7.3530     2.2270 
  162.6250   -17.0800    88.6100    25.0560     6.1690     6.9950     6.9200     2.2350 
  162.7500   -17.1000    88.8890    25.0880     5.5920     6.9130     6.9580     2.2450 
  162.8750   -17.1010    84.9290    25.0950     5.7940     7.2750     7.5270     2.2680 
  163.0000   -17.0850    77.7520    25.0190     7.9160     8.1000     8.6600     2.3170 
  163.1250   -17.0350    72.8190    24.8420    12.2880     9.4110    10.3490     2.3910 
