~V
VERS. 2.00: Ver 2.00
~W
STRT.M 55.0000:
STOP.M 256.0000:
STEP.M 0.1250:
NULL. -999.2500:
UWI. DF327:
~C
DEPT.M :
SP.MV :
DEN.GM/CC :
AC.US/MT :
GR.API :
RML.OHMM :
RI. :
RXO.OHMM :
CALI.CM :
~A
# ...
  245.0000   -10.3210     2.4570   301.3060    75.3110    10.5220    10.3650    10.3510    23.8810 
  245.1250   -10.3810     2.4490   299.0490    73.8600    10.3120    10.0790     9.9770    23.8950 
  245.2500   -10.4400     2.4450   297.5770    72.3830    10.0960     9.8310     9.7650    23.9150 
  245.3750   -10.5180     2.4400   298.3970    72.0800     9.8450     9.6330     9.6310    23.9230 
  245.5000   -10.5830     2.4320   301.4470    72.4030     9.5830     9.4740     9.5080    23.9110 
  245.6250   -10.6190     2.4230   304.9370    72.2320     9.4100     9.3190     9.4390    23.8610 
  245.7500   -10.6480     2.4170   305.9780    72.0900     9.1950     9.1220     9.3610    23.8190 
  245.8750   -10.6900     2.4190   302.3180    72.0900     8.8950     8.8510     9.0960    23.8200 
  246.0000   -10.7480     2.4290   293.4920    72.0900     8.4810     8.5020     8.6860    23.8530 
  246.1250   -10.8730     2.4460   282.6280    72.0900     7.9340     8.1130     8.4050    23.8450 
  246.2500   -11.0050     2.4580   275.3500    72.0900     7.5530     7.7740     8.6540    23.8450 
  246.3750   -11.1040     2.4590   273.7500    72.0900     7.3560     7.5770     9.7710    23.8460 
  246.5000   -11.1690     2.4500   275.5330    72.0900     7.4310     7.6000    11.9400    23.7980 
  246.6250   -11.2400     2.4420   275.2660    72.0900     7.8560     7.9530    14.9140    23.7170 
  246.7500   -11.3160     2.4470   271.0060    72.0900     8.5530     8.6080    17.9090    23.6970 
  246.8750   -11.3970     2.4660   265.2570    72.0900     9.4630     9.5330    20.3320    23.7500 
  247.0000   -11.4750     2.4900   261.6230    72.0900    10.4970    10.6400    21.4020    23.8230 
  247.1250   -11.5340     2.5010   261.3950    72.0900    11.5030    11.7490    22.1280    23.8160 
  247.2500   -11.5940     2.4910   260.5190    72.0900    12.3020    12.6390    23.6670    23.7850 
  247.3750   -11.6760     2.4650   251.9920    72.0900    12.7530    13.1440    25.7450    23.7590 
  247.5000   -11.7740     2.4360   234.1760    72.0900    12.7900    13.1820    27.8220    23.7560 
  247.6250   -11.9160     2.4180   217.8450    72.0900    12.4070    12.7310    28.6290    23.7480 
  247.7500   -12.0670     2.4170   214.4180    72.0900    11.8070    12.0170    26.8790    23.7290 
  247.8750   -12.1760     2.4310   224.8820    72.0900    11.1400    11.2090    24.8270    23.7180 
  248.0000   -12.2190     2.4530   242.1750    72.0900    10.5360    10.4590    21.7760    23.7640 
  248.1250   -12.2190     2.4740   256.5390    72.0900    10.1190     9.9130    17.1760    23.7910 
  248.2500   -12.2010     2.4870   263.1870    72.0900     9.8990     9.5960    13.2550    23.7980 
  248.3750   -12.1320     2.4910   263.5320    72.0900     9.8500     9.4980    11.6550    23.7700 
  248.5000   -12.0610     2.4890   262.9920    72.0900     9.9180     9.5740    11.6550    23.7030 
  248.6250   -11.9830     2.4820   264.9690    72.0900    10.0330     9.7580    12.1150    23.6410 
  248.7500   -11.9020     2.4750   268.8010    72.0900    10.1340     9.9560    12.6350    23.6370 
  248.8750   -11.8480     2.4680   273.6960    72.0900    10.2030    10.1160    13.3060    23.6810 
  249.0000   -11.8530     2.4660   278.0120    72.0900    10.2500    10.2180    14.4320    23.7080 
  249.1250   -11.8650     2.4710   279.6720    72.0900    10.2930    10.2570    15.3750    23.7020 
  249.2500   -11.8770     2.4800   278.3310    72.0900    10.3400    10.2650    15.7020    23.6830 
  249.3750   -11.9170     2.4900   274.5990    72.0900    10.3820    10.2600    15.4070    23.7030 
  249.5000   -11.9450     2.4960   269.9470    72.0900    10.4010    10.2520    15.5310    23.7190 
  249.6250   -11.9370     2.4930   265.5870    72.0900    10.3900    10.2500    16.5990    23.6630 
  249.7500   -11.8930     2.4850   260.9940    72.0900    10.3680    10.2550    18.0810    23.6150 
  249.8750   -11.8300     2.4720   255.4850    72.0900    10.3560    10.2630    19.1250    23.6090 
  250.0000   -11.7550     2.4570   249.9140    72.0900    10.3680    10.2720    19.9310    23.5870 
  250.1250   -11.6710     2.4460   246.1150    72.0900    10.4050    10.2800    19.9920    23.5260 
  250.2500   -11.5940     2.4380   243.4520    72.0900    10.4490    10.2860    21.5850    23.4350 
  250.3750   -11.5340     2.4340   240.5050    72.0900    10.4800    10.2910    23.9830    23.3330 
  250.5000   -11.5050     2.4290   237.0670    72.0900    10.4890    10.2970    26.6540    23.2460 
  250.6250   -11.4930     2.4200   234.9870    72.0900    10.4710    10.3020    27.6030    23.0970 
  250.7500   -11.4990     2.4090   235.3710    72.0900    10.4380    10.3060    25.7630    22.8230 
  250.8750   -11.5140     2.3980   238.0090    72.0900    10.4060    10.3080    23.4950    22.3220 
  251.0000   -11.5050     2.3930   241.9770    72.0900    10.3880    10.3100    22.0770    21.5750 
  251.1250   -11.4940     2.3930   245.6420    72.0900    10.3900    10.3090    18.2080    20.7530 
  251.2500   -11.4990     2.3930   247.5220    72.0900    10.3980    10.3080    14.6800    20.0220 
  251.3750   -11.5040     2.3880   247.4230    72.0900    10.4010    10.3060    13.0060    19.4790 
  251.5000   -11.5360     2.3760   246.4910    72.0900    10.3960    10.3040    13.0700    19.0990 
  251.6250   -11.5910     2.3570   246.2360    72.0900    10.3920    10.3040    14.0260    18.8390 
  251.7500   -11.6550     2.3370   245.9740    72.0900    10.3920    10.3040    15.3420    18.6490 
  251.8750   -11.7230     2.3200   244.1560    72.0900    10.3920    10.3040    16.3170    18.5210 
  252.0000   -11.8040     2.3090   240.5430    72.0900    10.3920    10.3040    16.3670    18.4560 
  252.1250   -11.9080     2.3060   237.0460    72.0900    10.3920    10.3040    15.4310    18.4040 
  252.2500   -11.9900     2.3070   235.2660    72.0900    10.3920    10.3040    14.0690    18.3140 
  252.3750   -12.0450     2.3080   234.8470    72.0900    10.3920    10.3040    12.5330    18.2040 
  252.5000   -12.0420     2.3040   234.8460    72.0900    10.3920    10.3040    11.2510    18.0850 
  252.6250   -12.0180     2.2940   234.9150    72.0900    10.3920    10.3040    10.7150    17.9340 
  252.7500   -11.9810     2.2800   235.1180    72.0900    10.3920    10.3040    10.3160    17.7140 
  252.8750   -11.9580     2.2640   235.3490    72.0900    10.3920    10.3040     9.9060    17.4270 
  253.0000   -11.9630     2.2480   235.4490    72.0900    10.3920    10.3040     9.4800    17.0260 
  253.1250   -11.9480     2.2350   235.4130    72.0900    10.3920    10.3040     9.0880    16.4790 
  253.2500   -11.9260     2.2250   235.3880    72.0900    10.3920    10.3040     8.6820    15.8940 
  253.3750   -11.8870     2.2200   235.4190    72.0900    10.3920    10.3040     8.3140    15.2160 
  253.5000   -11.8530     2.2170   235.5000    72.0900    10.3920    10.3040     7.9510    14.4950 
  253.6250   -11.7950     2.2170   235.5690    72.0900    10.3920    10.3040     7.7040    13.8910 
  253.7500   -11.6610     2.2170   235.5960    72.0900    10.3920    10.3040     7.5830    13.6580 
  253.8750   -11.4720     2.2160   235.5650    72.0900    10.3920    10.3040     7.5500    13.6060 
  254.0000   -11.2850     2.2150  -999.2500    72.0900    10.3920    10.3040     7.5460    13.6010 
  254.1250   -11.0850     2.2130  -999.2500    72.0900    10.3920    10.3040     7.5440    13.5920 
  254.2500   -10.9040     2.2110  -999.2500    72.0900    10.3920    10.3040     7.5440    13.5790 
  254.3750   -10.7730     2.2100  -999.2500    72.0900    10.3920    10.3040     7.5440    13.5750 
  254.5000   -10.6510     2.2090  -999.2500    72.0900    10.3920    10.3040     7.5460    13.5620 
  254.6250   -10.5710     2.2090  -999.2500    72.0900    10.3920    10.3040     7.5470    13.5590 
  254.7500   -10.5710  -999.2500  -999.2500    72.0900    10.3920    10.3040     7.5470    13.5580 
  254.8750   -10.5710  -999.2500  -999.2500    72.0900    10.3920    10.3040     7.5470    13.5580 
