~V
VERS. 2.00: Ver 2.00
~W
STRT.M 60.0000:
STOP.M 271.0000:
STEP.M 0.1250:
NULL. -999.2500:
UWI. DF324:
~C
DEPT.M :
SP.MV :
AC.US/MT :
DEN.GM/CC :
GR.API :
CALI.CM :
RXO.OHMM :
RI. :
RML.OHMM :
~A
   60.0000    91.8850  -999.2500     2.2870    57.0320    25.3030    -0.3510     0.3750 307449.7190 
   60.1250    91.5560  -999.2500     2.2190    58.2020    25.3030    -0.0390     0.3880 269012.6560 
   60.2500    91.2080  -999.2500     2.1960    60.1680    25.3030     0.4750     0.3940 102483.0700 
   60.3750    90.8400  -999.2500     2.2460    63.2400    25.3030     0.8480     0.3890 12813.2930 
   60.5000    90.4540  -999.2500     2.3280    66.6480    25.3030     0.6730     0.3750     2.1300 
   60.6250    90.0280  -999.2500     2.3760    68.6250    25.3030    -0.0080     0.3540     1.6410 
   60.7500    89.5470  -999.2500     2.3850    69.1340    25.3030    -0.5410     0.3360     1.6660 
   60.8750    88.9980  -999.2500     2.3870    68.9800    25.3030    -0.7420     0.3260     2.1690 
   61.0000    88.3620  -999.2500     2.4120    68.7250    25.3030    -0.7030     0.3240     3.0450 
   61.1250    87.5860  -999.2500     2.4540    68.1440    25.3030    -0.5020     0.3260     4.0800 
   61.2500    86.6490  -999.2500     2.4890    67.1760    25.3030    -0.2020     0.3300     4.9660 
   61.3750    85.5240  -999.2500     2.5140    66.3470    25.3030     0.0790     0.3340     5.4030 
   61.5000    84.1890   190.6340     2.5390    66.2360    25.3030     0.2110     0.3360     5.2640 
   61.6250    82.5700   190.6340     2.5690    66.8420    25.3030     0.1710     0.3340     4.5990 
   61.7500    80.6620   190.5580     2.5900    67.5040    25.3030     0.1030     0.3300     3.8080 
   61.8750    78.4100   190.5640     2.5930    68.0760    25.3030     0.1360     0.3270     3.1280 
   62.0000    75.7420   190.5730     2.5740    68.2530    25.3030     0.3090     0.3270     2.6420 
   62.1250    72.4770   190.4830     2.5400    66.9210    25.3030     0.5400     0.3290     2.2330 
   62.2500    68.5870   190.3050     2.5120    64.6370    25.3030     0.6780     0.3320     1.7860 
   62.3750    63.9640   190.0840     2.5060    63.3910    25.3030     0.7300     0.3320     1.3380 
   62.5000    58.5020   189.8440     2.5190    64.3830    25.3030     0.7720     0.3280     0.9850 
   62.6250    51.9890   189.5390     2.5270    66.0150    25.3030     0.7680     0.3210     0.7650 
   62.7500    44.6260   189.1340     2.5080    65.9300    25.3030     0.7390     0.3180     0.6220 
   62.8750    36.5770   188.6240     2.4680    64.5420    25.3030     0.7110     0.3430     0.5260 
   63.0000    28.0980   188.1260     2.4520    64.1330    25.3030     0.7230     0.4590     0.4660 
   63.1250    19.5310   188.7740     2.5070    67.1960    25.3030     1.3100     0.8120     0.4670 
   63.2500    11.2530   193.2750     2.5820    72.3990    25.3030     5.6480     1.4980     0.6040 
   63.3750     3.5620   205.6730     2.6140    77.0010    25.3030    19.1370     2.5950     1.0150 
   63.5000    -3.2820   229.4350     2.5820    79.1550    25.3030    43.8000     4.0400     1.8060 
   63.6250    -8.9070   266.6040     2.5040    79.4000    25.3030    54.3860     5.5300     2.8930 
   63.7500   -13.4180   311.6700     2.4030    79.7850    25.3030    44.3920     6.6600     3.8470 
   63.8750   -16.8720   359.6510     2.2910    80.5910    25.3030    25.2300     7.2200     4.3990 
   64.0000   -19.4120   403.3820     2.1930    81.3840    25.3030    12.9920     7.2530     4.5620 
   64.1250   -21.1280   432.5950     2.1380    81.8520    25.3030    10.1350     6.9790     4.5140 
   64.2500   -22.3380   447.9740     2.1050    81.8170    25.3620     9.3520     6.7220     4.4630 
   64.3750   -23.1860   454.9480     2.0680    81.2690    25.6220     8.6720     6.6120     4.4860 
   64.5000   -23.7820   458.7770     2.0210    80.5840    26.2160     7.8290     6.6580     4.6190 
   64.6250   -24.1850   459.9600     1.9790    80.1740    26.5880     7.1290     6.8160     4.8450 
   64.7500   -24.4760   459.2600     1.9520    79.4280    26.6550     6.6040     6.9880     5.0650 
   64.8750   -24.6840   461.3910     1.9370    77.6890    26.5110     6.4410     7.1220     5.2210 
   65.0000   -24.8320   473.3670     1.9340    75.7390    26.2300     6.7130     7.1990     5.2990 
   65.1250   -24.9380   498.3850     1.9480    75.6800    25.8480     7.3770     7.2190     5.3000 
   65.2500   -25.0370   523.7720     1.9750    77.4740    25.6230     7.9460     7.2070     5.2710 
   65.3750   -25.1520   538.0750     2.0090    79.8000    25.4790     8.0120     7.1850     5.2510 
   65.5000   -25.2970   539.6460     2.0470    81.5980    25.2640     7.7150     7.1670     5.2740 
   65.6250   -25.4830   532.4470     2.0900    83.2940    24.8640     7.6510     7.1690     5.3630 
   65.7500   -25.7150   514.9320     2.1390    84.9700    24.2740     8.3420     7.1920     5.4960 
   65.8750   -26.0080   480.6920     2.1820    85.4290    23.7610     9.2930     7.2250     5.6460 
   66.0000   -26.3590   435.5930     2.2070    83.8710    23.6210     9.9700     7.2530     5.7920 
   66.1250   -26.7540   404.8180     2.2020    81.7410    24.1280     9.9080     7.2580     5.9060 
   66.2500   -27.1600   402.4650     2.1710    80.8780    25.1640     9.6410     7.2350     5.9750 
   66.3750   -27.5600   423.1750     2.1230    80.6760    26.4810     9.5270     7.1870     5.9960 
   66.5000   -27.9500   451.2180     2.0640    80.0710    27.8610     9.7080     7.1270     5.9850 
   66.6250   -28.3280   469.9930     2.0140    80.0240    29.0780    10.0850     7.0690     5.9790 
   66.7500   -28.6830   475.7990     1.9890    81.7590    29.6220    10.4290     7.0260     5.9950 
   66.8750   -28.9980   473.7080     1.9960    84.2290    29.0170    10.5110     7.0120     6.0500 
   67.0000   -29.2650   472.3690     2.0280    85.3330    27.5920    10.2680     7.0350     6.1580 
   67.1250   -29.4860   475.6740     2.0670    83.9100    26.1900    10.1640     7.0970     6.3060 
   67.2500   -29.6840   476.9570     2.1020    81.5100    25.1660    10.4360     7.1840     6.4650 
   67.3750   -29.8620   471.8070     2.1340    79.2670    24.5960    10.8500     7.2800     6.6140 
   67.5000   -30.0220   462.7140     2.1620    77.6130    24.3900    11.0280     7.3650     6.7250 
   67.6250   -30.1610   456.2160     2.1770    77.0590    24.4400    10.9470     7.4110     6.7570 
   67.7500   -30.2780   454.3260     2.1800    77.2230    24.6200    10.8610     7.4120     6.7180 
   67.8750   -30.3760   455.6120     2.1790    77.1870    24.8780    10.8200     7.3740     6.6320 
   68.0000   -30.4620   457.9580     2.1760    76.1900    25.0770    10.8290     7.3110     6.5300 
   68.1250   -30.5410   459.2950     2.1690    74.7710    25.1170    10.8240     7.2550     6.4650 
   68.2500   -30.6140   458.3660     2.1570    74.5300    25.0270    10.6950     7.2350     6.4680 
   68.3750   -30.6870   453.9910     2.1450    76.0570    24.8430    10.4180     7.2690     6.5450 
   68.5000   -30.7650   444.1880     2.1350    78.5410    24.5910    10.0140     7.3580     6.6870 
   68.6250   -30.8400   425.5910     2.1340    80.4720    24.4640     9.8560     7.4900     6.8710 
   68.7500   -30.9180   401.6560     2.1440    81.3880    24.3340    10.1780     7.6170     7.0400 
   68.8750   -31.0070   380.5280     2.1560    81.6550    24.1520    10.8640     7.6960     7.1490 
   69.0000   -31.1060   372.7160     2.1530    81.4330    23.8270    11.4830     7.6980     7.1690 
   69.1250   -31.2030   386.1310     2.1240    80.3110    23.4500    11.6790     7.5890     7.0780 
   69.2500   -31.2940   410.3950     2.0840    77.7490    23.2060    11.6100     7.3870     6.8990 
   69.3750   -31.3750   434.1310     2.0480    73.9970    23.1440    11.4140     7.1300     6.6760 
   69.5000   -31.4410   450.7400     2.0230    70.4070    23.2610    11.0590     6.8980     6.5040 
   69.6250   -31.4810   461.1430     2.0130    69.1940    23.5950    10.5500     6.8510     6.5660 
   69.7500   -31.4980   468.1510     2.0210    70.0490    24.0140    10.2660     7.0860     6.9800 
   69.8750   -31.4900   465.2660     2.0570    71.6450    24.3640    10.3640     7.6590     7.7880 
