~V
VERS. 2.00: Ver 2.00
~W
STRT.M 60.0000:
STOP.M 258.0000:
STEP.M 0.1250:
NULL. -999.2500:
UWI. DF32100:
~C
DEPT.M :
SP.MV :
GR.API :
CALI.CM :
RXO.OHMM :
RI. :
RML.OHMM :
DEN.GM/CC :
~A
# ...
   93.7500   -26.4250    77.8190    22.3700     7.2540     5.8420     7.4820     2.1830 
   93.8750   -26.0930    81.9900    22.3650     7.0660     5.5900     7.1630     2.1990 
   94.0000   -25.8150    81.5250    22.3580     7.0040     5.4540     7.0090     2.1990 
   94.1250   -25.6030    78.3020    22.3540     6.9680     5.4250     7.0320     2.1930 
   94.2500   -25.4000    76.9590    22.3520     6.9170     5.4230     7.1400     2.1920 
   94.3750   -25.2250    78.9300    22.3520     6.8480     5.3950     7.2190     2.1970 
   94.5000   -25.0830    82.2160    22.3390     6.7730     5.3160     7.1550     2.2030 
   94.6250   -24.9980    82.7370    22.2890     6.6860     5.1610     6.8870     2.2070 
   94.7500   -25.0430    81.6820    22.2060     6.4730     4.9570     6.5350     2.2100 
   94.8750   -25.1760    82.9980    22.1420     6.1200     4.7720     6.2400     2.2190 
   95.0000   -25.3700    86.5660    22.0900     5.8650     4.7030     6.1350     2.2300 
   95.1250   -25.6080    87.5350    22.0330     6.1720     4.8400     6.3330     2.2270 
   95.2500   -25.8670    85.4530    21.9350     6.7300     5.1120     6.7490     2.2070 
   95.3750   -26.1450    82.8620    21.8170     7.1200     5.4290     7.2580     2.1820 
   95.5000   -26.4310    80.2700    21.7380     7.2300     5.7100     7.6970     2.1650 
   95.6250   -26.7320    76.8390    21.6890     7.1800     5.8900     7.8880     2.1580 
   95.7500   -26.9800    76.0280    21.6260     7.1560     5.9740     7.8750     2.1530 
   95.8750   -27.1780    78.1930    21.5490     7.1610     5.9890     7.7800     2.1480 
   96.0000   -27.3460    79.1800    21.5010     7.1800     5.9800     7.7150     2.1400 
   96.1250   -27.4530    78.0040    21.4910     7.2080     6.0100     7.7460     2.1340 
   96.2500   -27.5170    77.4830    21.4960     7.2670     6.0920     7.8550     2.1320 
   96.3750   -27.5670    77.2620    21.5310     7.3520     6.1940     8.0070     2.1370 
   96.5000   -27.6020    75.4820    21.6190     7.4450     6.2590     8.1560     2.1430 
   96.6250   -27.6340    74.2770    21.7070     7.5620     6.2620     8.2590     2.1490 
   96.7500   -27.6480    74.0700    21.7570     7.7030     6.2550     8.3300     2.1540 
   96.8750   -27.6530    73.8030    21.7720     7.8150     6.2880     8.4130     2.1580 
   97.0000   -27.6390    73.6460    21.7760     7.9100     6.3760     8.5470     2.1670 
   97.1250   -27.6440    74.8950    21.7770     8.0020     6.5120     8.7520     2.1880 
   97.2500   -27.6630    75.1600    21.7770     8.1200     6.6500     8.9700     2.2150 
   97.3750   -27.6920    73.7050    21.8000     8.2660     6.7510     9.1330     2.2330 
   97.5000   -27.7430    73.4450    21.8910     8.3790     6.7900     9.2060     2.2340 
   97.6250   -27.8100    75.5640    22.1670     8.4230     6.7790     9.1830     2.2180 
   97.7500   -27.8920    76.8360    22.5200     8.4680     6.7840     9.1240     2.1980 
   97.8750   -27.9700    76.6100    22.8720     8.6070     6.8410     9.0720     2.1830 
   98.0000   -28.0230    76.8480    23.1350     8.8120     6.9290     9.0480     2.1770 
   98.1250   -28.0200    77.3780    23.3860     9.0150     6.9760     9.0470     2.1750 
   98.2500   -27.9900    77.7390    23.5590     9.1120     6.9610     9.0480     2.1710 
   98.3750   -27.9040    78.1380    23.6290     9.0750     6.9180     9.0260     2.1650 
   98.5000   -27.7670    78.4770    23.6400     8.9490     6.8780     8.9610     2.1640 
   98.6250   -27.5550    78.6530    23.6400     8.7310     6.8010     8.8050     2.1670 
   98.7500   -27.2670    79.1880    23.6400     8.5350     6.6210     8.5210     2.1700 
   98.8750   -26.9330    79.5630    23.6400     8.2400     6.3120     8.0840     2.1730 
   99.0000   -26.5900    78.8660    23.6400     7.7050     5.9080     7.5280     2.1840 
   99.1250   -26.2680    79.0720    23.6400     6.8740     5.4890     6.9680     2.2070 
   99.2500   -26.0040    82.8800    23.6400     6.1910     5.1460     6.5480     2.2270 
   99.3750   -25.8040    86.8330    23.6320     5.9100     4.9550     6.3670     2.2310 
   99.5000   -25.6570    87.1260    23.6030     6.2190     4.9820     6.4800     2.2150 
   99.6250   -25.5420    84.6360    23.5320     6.9380     5.2720     6.9210     2.1900 
   99.7500   -25.4280    83.7450    23.4670     7.6910     5.6980     7.5260     2.1670 
   99.8750   -25.2910    83.7890    23.4000     8.1970     6.1220     8.1000     2.1500 
  100.0000   -25.1080    82.0500    23.2990     8.4570     6.4130     8.4260     2.1420 
  100.1250   -24.8120    80.7130    23.1860     8.4250     6.4730     8.3470     2.1450 
  100.2500   -24.3690    80.2890    23.1400     8.0650     6.3530     8.0410     2.1550 
  100.3750   -23.8130    79.9340    23.1270     7.4840     6.1030     7.6680     2.1750 
  100.5000   -23.1860    80.8850    23.1230     6.9530     5.7870     7.3260     2.2080 
  100.6250   -22.5100    84.3190    23.1230     6.6300     5.4860     7.0510     2.2520 
  100.7500   -21.8200    87.5290    23.1330     6.3820     5.2480     6.8170     2.2850 
  100.8750   -21.1520    89.1490    23.1880     6.0050     5.0730     6.6120     2.2960 
  101.0000   -20.5260    90.2130    23.3110     5.5900     4.9490     6.4430     2.2880 
  101.1250   -20.0090    91.7930    23.4280     5.3420     4.8730     6.3330     2.2730 
  101.2500   -19.5870    92.7790    23.3970     5.3810     4.8280     6.2720     2.2610 
  101.3750   -19.2010    93.2770    23.2810     5.5090     4.7750     6.2170     2.2530 
  101.5000   -18.8430    93.9060    23.1730     5.4260     4.6700     6.0980     2.2510 
  101.6250   -18.5240    95.9390    23.1420     5.0930     4.4930     5.8560     2.2560 
  101.7500   -18.2600    99.4530    23.1350     4.7620     4.3000     5.5470     2.2690 
  101.8750   -18.0380   104.9400    23.1380     4.5270     4.1390     5.2570     2.2880 
  102.0000   -17.8240   110.6020    23.1400     4.4270     4.0360     5.0720     2.3050 
  102.1250   -17.6010   112.6180    23.1420     4.5590     4.0220     5.0630     2.3090 
  102.2500   -17.3760   111.1750    23.1810     4.8760     4.0990     5.1920     2.3020 
  102.3750   -17.1550   110.2040    23.2890     5.0890     4.2590     5.4150     2.2920 
  102.5000   -16.9210   110.2920    23.4620     5.1720     4.4640     5.6910     2.2870 
  102.6250   -16.7020   108.7880    23.6510     5.2580     4.6670     5.9910     2.2920 
  102.7500   -16.4880   105.7120    23.8820     5.3840     4.8280     6.2600     2.3070 
  102.8750   -16.2930   106.2590    24.0500     5.5830     4.9220     6.4410     2.3240 
  103.0000   -16.1160   110.0770    24.1170     5.7600     4.9290     6.4740     2.3320 
  103.1250   -15.9590   110.5590    24.1230     5.6570     4.8070     6.2750     2.3240 
  103.2500   -15.8290   107.5250    24.1230     5.2640     4.5740     5.9020     2.3020 
  103.3750   -15.7500   106.2240    24.1230     4.8490     4.2560     5.4420     2.2820 
  103.5000   -15.7200   108.3230    24.1230     4.5210     3.9070     4.9770     2.2830 
  103.6250   -15.7360   110.1590    24.1220     4.3480     3.5960     4.5800     2.3060 
  103.7500   -15.7740   111.6730    24.1110     4.2610     3.3750     4.2980     2.3250 
  103.8750   -15.8400   114.4560    24.0700     4.1990     3.2930     4.2060     2.3330 
  104.0000   -15.9640   116.4760    23.9740     4.2010     3.3980     4.3930     2.3450 
  104.1250   -16.1710   114.0310    23.9020     4.6300     3.7550     4.9900     2.3700 
  104.2500   -16.4270   110.0880    23.8350     6.0130     4.3230     5.9420     2.3960 
  104.3750   -16.7340   106.3230    23.7820     8.4480     5.0240     7.1050     2.4240 
  104.5000   -17.1040   102.0510    23.7420    10.4460     5.6710     8.1120     2.4520 
  104.6250   -17.4900    97.6790    23.7000     9.4470     5.9390     8.3440     2.4490 
  104.7500   -17.8880    97.4080    23.6570     7.3400     5.7990     7.8440     2.4040 
  104.8750   -18.2680   102.8800    23.6390     6.0480     5.4100     7.0280     2.3350 
