~V
VERS. 2.00: Ver 2.00
~W
STRT.M 61.0000:
STOP.M 262.0000:
STEP.M 0.1250:
NULL. -999.2500:
UWI. DF32115:
~C
DEPT.M :
GR.API :
CALI.CM :
RXO.OHMM :
RI. :
RML.OHMM :
DEN.GM/CC :
SP.MV :
~A
   61.0000    65.5440    25.9910     1.2580     0.6350     0.1420     2.2160   -11.2870 
   61.1250    70.6220    25.7580     2.1800     0.7160     0.1130     2.2340   -11.0720 
   61.2500    71.4540    25.1830     3.7160     0.9120     0.4020     2.2310   -10.8630 
   61.3750    70.8940    24.4570     5.2590     1.2890     1.1000     2.2030   -10.7350 
   61.5000    72.9770    23.9100     6.0900     1.9180     2.3270     2.1750   -10.7560 
   61.6250    77.9590    23.7300     6.1450     2.7960     3.8110     2.1590   -11.0430 
   61.7500    81.1080    23.6810     6.1100     3.6760     4.7020     2.1460   -11.6290 
   61.8750    80.5300    23.6160     6.1460     4.3840     4.9400     2.1320   -12.4740 
   62.0000    79.2080    23.4810     6.1650     4.8970     4.9930     2.1210   -13.4930 
   62.1250    80.3170    23.2860     6.1580     5.2650     5.1710     2.1220   -14.5380 
   62.2500    81.3730    23.1210     6.2110     5.5570     5.4670     2.1330   -15.4670 
   62.3750    80.0890    22.9820     6.3140     5.7930     5.8180     2.1500   -16.2650 
   62.5000    76.9960    22.7250     6.3980     5.9820     6.1610     2.1680   -16.9530 
   62.6250    73.9020    22.2900     6.5420     6.1160     6.4330     2.1760   -17.5410 
   62.7500    71.6350    21.9580     6.8980     6.1950     6.6130     2.1690   -18.0800 
   62.8750    71.9680    21.9390     7.4300     6.2200     6.7020     2.1490   -18.5830 
   63.0000    75.6280    22.2090     7.9290     6.2210     6.7460     2.1290   -19.0270 
   63.1250    77.6550    22.6400     8.1940     6.2930     6.8940     2.1290   -19.4040 
   63.2500    75.1640    23.0890     8.3170     6.5440     7.3040     2.1590   -19.7400 
   63.3750    71.5470    23.4660     8.4710     7.0670     8.1090     2.2260   -20.0380 
   63.5000    70.6690    23.7460     8.9580     7.8850     9.3690     2.3280   -20.3110 
   63.6250    71.4810    24.0130    10.2250     8.8810    10.9390     2.4420   -20.5690 
   63.7500    70.0670    24.2730    11.6370     9.6730    12.1440     2.5130   -20.8030 
   63.8750    68.1720    24.4400    11.9640     9.9060    12.3050     2.5070   -21.0120 
   64.0000    68.0950    24.4850    10.7930     9.4590    11.3390     2.4300   -21.2040 
   64.1250    69.8890    24.4640     9.2750     8.5340     9.8940     2.3220   -21.3960 
   64.2500    69.6820    24.4490     8.5210     7.6070     8.7010     2.2350   -21.6140 
   64.3750    67.1860    24.4490     8.3610     6.9030     7.9610     2.1850   -21.8600 
   64.5000    65.3500    24.4610     8.3650     6.4980     7.6640     2.1670   -22.1260 
   64.6250    66.4290    24.4820     8.3850     6.4050     7.7560     2.1670   -22.4020 
   64.7500    68.3630    24.5090     8.4470     6.4920     8.0410     2.1660   -22.6750 
   64.8750    69.1300    24.5450     8.5460     6.6670     8.3860     2.1590   -22.9120 
   65.0000    69.1000    24.5850     8.6660     6.8400     8.6620     2.1480   -23.0970 
   65.1250    70.5680    24.6180     8.7850     6.9050     8.7040     2.1360   -23.1780 
   65.2500    73.7960    24.6350     8.8520     6.8200     8.4790     2.1330   -23.1210 
   65.3750    77.3530    24.6410     8.7490     6.5950     8.0470     2.1460   -22.9520 
   65.5000    80.0300    24.6420     8.3140     6.2990     7.5620     2.1740   -22.7210 
   65.6250    80.4050    24.6350     7.5820     6.0490     7.2300     2.2000   -22.5080 
   65.7500    77.5170    24.6030     7.0960     5.9330     7.1460     2.2080   -22.3850 
   65.8750    71.8320    24.5250     7.2860     5.9820     7.3350     2.1960   -22.3970 
   66.0000    66.1560    24.4060     8.0630     6.1820     7.7440     2.1770   -22.5460 
   66.1250    63.1750    24.3000     8.7960     6.4680     8.2420     2.1670   -22.8420 
   66.2500    62.3350    24.2490     9.1010     6.7290     8.6390     2.1660   -23.2650 
   66.3750    63.2560    24.2410     9.1280     6.8950     8.8320     2.1630   -23.7950 
   66.5000    64.8230    24.2440     9.1080     6.9430     8.8320     2.1570   -24.3850 
   66.6250    65.4380    24.2460     9.0840     6.8960     8.7300     2.1480   -24.9540 
   66.7500    65.7650    24.2500     9.0190     6.8220     8.6410     2.1410   -25.4470 
   66.8750    65.9880    24.2530     8.9280     6.7500     8.5930     2.1350   -25.8410 
   67.0000    65.8790    24.2550     8.8790     6.6900     8.5730     2.1320   -26.1420 
   67.1250    63.8370    24.2550     8.9450     6.6360     8.5480     2.1330   -26.3860 
   67.2500    62.1800    24.2520     9.0510     6.5810     8.4990     2.1330   -26.5840 
   67.3750    62.0800    24.2430     9.0940     6.5180     8.4200     2.1300   -26.7080 
   67.5000    64.1230    24.2300     9.0330     6.4460     8.3140     2.1230   -26.7570 
   67.6250    67.3690    24.2190     8.9030     6.3670     8.1850     2.1210   -26.7250 
   67.7500    68.4910    24.2110     8.7630     6.2920     8.0570     2.1290   -26.6130 
   67.8750    67.9060    24.1990     8.6340     6.2350     7.9510     2.1430   -26.4280 
   68.0000    68.2070    24.1850     8.5760     6.2060     7.8910     2.1530   -26.1810 
   68.1250    69.4100    24.1770     8.6950     6.2250     7.9190     2.1550   -25.8640 
   68.2500    68.3030    24.1760     8.9270     6.2890     8.0380     2.1530   -25.4660 
   68.3750    66.9060    24.1770     9.1230     6.3870     8.2200     2.1510   -24.9590 
   68.5000    69.3420    24.1740     9.1750     6.4740     8.3790     2.1470   -24.3270 
   68.6250    74.8960    24.1730     9.1290     6.4450     8.3170     2.1540   -23.5420 
   68.7500    81.1250    24.2080     8.9620     6.2370     7.9310     2.1840   -22.5820 
   68.8750    88.3670    24.2880     8.4030     5.8450     7.2520     2.2310   -21.4500 
   69.0000    96.5740    24.3790     7.3010     5.3460     6.4510     2.2750   -20.2180 
   69.1250   101.4820    24.4980     6.0060     4.8770     5.7890     2.2960   -18.9530 
   69.2500   103.5630    24.7150     5.1080     4.5430     5.3970     2.3050   -17.7340 
   69.3750   104.4910    25.0200     4.8110     4.3810     5.2910     2.3140   -16.6360 
   69.5000   103.9910    25.2920     4.9540     4.3800     5.4090     2.3230   -15.6890 
   69.6250   101.8750    25.3610     5.1540     4.4950     5.6300     2.3170   -14.9400 
   69.7500   101.1050    25.2600     5.1790     4.6330     5.8110     2.3020   -14.4350 
   69.8750   103.1800    25.1470     5.0890     4.7490     5.9080     2.2940   -14.1930 
   70.0000   105.0880    25.1790     4.9960     4.8270     5.9390     2.2970   -14.1470 
   70.1250   101.5800    25.3130     5.0030     4.8650     5.9440     2.2940   -14.2450 
   70.2500    96.7940    25.3330     5.2190     4.8780     5.9580     2.2780   -14.3940 
   70.3750    97.9910    25.2270     5.5490     4.8720     5.9830     2.2620   -14.5350 
   70.5000   103.5750    25.1740     5.6010     4.8360     5.9860     2.2620   -14.6500 
   70.6250   102.1200    25.2500     5.1840     4.7410     5.8970     2.2790   -14.7320 
   70.7500    95.3480    25.4780     4.9380     4.5800     5.6740     2.2930   -14.7840 
   70.8750    94.5170    25.8480     5.2460     4.3580     5.3150     2.2930   -14.7820 
   71.0000   101.9490    26.1470     5.7290     4.1220     4.9120     2.2850   -14.7180 
   71.1250   105.6030    26.1240     5.6590     3.9950     4.7110     2.2940   -14.6270 
   71.2500   100.1640    25.9600     5.2090     4.0880     4.9280     2.3290   -14.5890 
   71.3750    92.2450    25.8320     5.1380     4.5040     5.7440     2.3850   -14.6570 
   71.5000    88.2700    25.6760     6.3360     5.3330     7.2950     2.4470   -14.8740 
   71.6250    88.4340    25.3990     9.7930     6.6830     9.7000     2.4970   -15.2740 
   71.7500    88.1480    25.1850    13.9850     8.3050    12.4260     2.5210   -15.8090 
   71.8750    84.4140    25.0720    16.1760     9.7600    14.6150     2.5120   -16.5000 
   72.0000    78.5350    25.0150    15.2650    10.5180    15.3660     2.4730   -17.3580 
   72.1250    74.6060    24.9480    13.0460    10.2590    14.3820     2.4140   -18.3040 
