~V
VERS. 2.00: Ver 2.00
~W
STRT.M 63.0000:
STOP.M 291.0000:
STEP.M 0.1250:
NULL. -999.2500:
UWI. DF325:
~C
DEPT.M :
DEN.GM/CC :
SP.MV :
AC.US/MT :
GR.API :
RML.OHMM :
RI. :
RXO.OHMM :
CALI.CM :
~A
# ...
  273.0000     2.4580    -8.7370   344.8970    70.0610     9.3110     8.4240     9.8300    25.1260 
  273.1250     2.4450    -8.7880   346.6870    70.0840     9.3260     8.3640     9.8400    25.0980 
  273.2500     2.4260    -8.8400   348.7270    68.3290     9.3000     8.2760     9.6680    25.0890 
  273.3750     2.4100    -8.8880   351.3050    66.5780     9.2440     8.1640     9.2750    25.0810 
  273.5000     2.4050    -8.9200   354.3570    67.6960     9.1760     8.0210     8.8480    25.0640 
  273.6250     2.4150    -8.9520   355.4300    71.3390     9.1280     7.9080     8.6690    25.0060 
  273.7500     2.4320    -8.9870   352.1980    72.9230     9.1150     7.8860     8.6200    24.9210 
  273.8750     2.4490    -9.0040   345.4210    70.7360     9.1320     7.9060     8.8160    24.8540 
  274.0000     2.4590    -8.9990   339.3470    67.8610     9.1600     7.9560     9.1220    24.8850 
  274.1250     2.4640    -8.9850   339.0760    67.2310     9.1750     8.0150     8.9010    25.0100 
  274.2500     2.4670    -8.9720   343.2690    67.7690     9.1660     8.0620     8.8500    25.1250 
  274.3750     2.4680    -8.9530   348.0730    68.1720     9.1350     8.0830     8.9930    25.1610 
  274.5000     2.4650    -8.9320   350.5280    67.4240     9.0760     8.0720     9.1870    25.1570 
  274.6250     2.4560    -8.8910   350.7840    67.0500     8.9890     8.0200     9.3150    25.1490 
  274.7500     2.4450    -8.8740   351.3680    67.4410     8.8770     7.9400     9.3100    25.1430 
  274.8750     2.4350    -8.8620   353.2030    67.5960     8.7510     7.8460     8.9790    25.1270 
  275.0000     2.4260    -8.8400   355.6490    66.7910     8.6450     7.7550     8.4440    25.1000 
  275.1250     2.4190    -8.7980   357.2340    65.0450     8.5930     7.6890     7.9130    25.1020 
  275.2500     2.4120    -8.7760   357.2010    62.7800     8.5920     7.6570     7.4580    25.0960 
  275.3750     2.4060    -8.7590   354.6670    62.1120     8.6340     7.6660     7.1620    25.0630 
  275.5000     2.4030    -8.7430   348.9850    64.0170     8.7160     7.7120     7.0320    25.0050 
  275.6250     2.4050    -8.7120   339.7400    65.6010     8.8570     7.7760     7.0630    24.9790 
  275.7500     2.4110    -8.6420   329.1730    64.6980     8.9880     7.8290     7.1680    24.9730 
  275.8750     2.4180    -8.5720   320.5550    62.3560     9.0260     7.8540     7.3380    24.9750 
  276.0000     2.4240    -8.5410   317.8910    60.4590     8.9900     7.8490     7.5680    24.9700 
  276.1250     2.4270    -8.5090   324.9210    59.5080     8.9310     7.8150     7.8410    24.9470 
  276.2500     2.4250    -8.4800   337.6920    58.9820     8.8680     7.7660     8.0980    24.9100 
  276.3750     2.4210    -8.4600   351.3920    59.0150     8.8080     7.7000     8.2470    24.8770 
  276.5000     2.4160    -8.4310   362.3990    58.6520     8.7430     7.6120     8.2240    24.8600 
  276.6250     2.4140    -8.4310   368.6780    57.7360     8.6640     7.5000     7.9790    24.8570 
  276.7500     2.4150    -8.4770   370.9220    56.9910     8.5780     7.3840     7.6660    24.8370 
  276.8750     2.4180    -8.5280   369.9500    56.8570     8.4970     7.2860     7.4160    24.7990 
  277.0000     2.4200    -8.5410   368.0250    56.7870     8.4310     7.2180     7.2910    24.7730 
  277.1250     2.4170    -8.5990   368.2810    56.1060     8.3840     7.1840     7.3490    24.7970 
  277.2500     2.4090    -8.6630   369.9510    55.5970     8.3490     7.1650     7.2600    24.8110 
  277.3750     2.3980    -8.7050   369.8180    56.0510     8.3300     7.1530     6.9450    24.7750 
  277.5000     2.3880    -8.7370   365.7720    56.6410     8.3340     7.1450     6.6160    24.7300 
  277.6250     2.3800    -8.7490   359.3770    56.9890     8.3680     7.1490     6.5950    24.7440 
  277.7500     2.3750    -8.7460   354.7770    57.4340     8.4170     7.1700     6.8670    24.8040 
  277.8750     2.3740    -8.7610   353.2900    57.5550     8.4620     7.2130     7.2300    24.8790 
  278.0000     2.3770    -8.8160   353.6270    57.1750     8.5020     7.2800     7.4990    24.9160 
  278.1250     2.3870    -8.8480   352.9040    56.3810     8.5550     7.3770     7.6540    24.9230 
  278.2500     2.3980    -8.8530   349.6060    55.3540     8.6350     7.4980     7.7420    24.9350 
  278.3750     2.4090    -8.8570   344.2480    54.7520     8.7420     7.6350     7.8640    24.9500 
  278.5000     2.4160    -8.8710   338.2950    55.2790     8.8650     7.7740     8.2250    24.9590 
  278.6250     2.4190    -8.8820   334.4260    56.7220     8.9840     7.8900     8.9270    24.9590 
  278.7500     2.4180    -8.8650   335.3980    57.4030     9.0870     7.9680     9.6200    24.9540 
  278.8750     2.4110    -8.8250   342.9720    57.7180     9.1670     8.0030     9.9550    24.9370 
  279.0000     2.4030    -8.7790   355.1360    57.4840     9.2190     7.9990     9.4840    24.8770 
  279.1250     2.3950    -8.7490   365.2560    56.4180     9.2240     7.9610     7.8800    24.7940 
  279.2500     2.3920    -8.7240   369.2890    56.8530     9.1790     7.9030     6.9970    24.7640 
  279.3750     2.3930    -8.7270   368.4870    58.5030     9.0880     7.8240     6.6980    24.7750 
  279.5000     2.3940    -8.7670   366.3260    58.1460     8.9560     7.7210     6.6280    24.7750 
  279.6250     2.3890    -8.8110   365.6540    55.6780     8.7810     7.5820     6.5550    24.7550 
  279.7500     2.3770    -8.8590   367.3650    54.6150     8.5750     7.4070     6.4440    24.7330 
  279.8750     2.3610    -8.9200   371.7210    55.6770     8.3430     7.2050     6.2680    24.7200 
  280.0000     2.3460    -8.9690   377.3870    57.2180     8.0960     6.9910     6.0780    24.7050 
  280.1250     2.3380    -8.9900   380.8910    58.1870     7.8570     6.7940     5.9770    24.6750 
  280.2500     2.3390    -9.0080   380.0080    57.1060     7.6600     6.6440     5.9660    24.6510 
  280.3750     2.3490    -9.0220   374.5810    54.9700     7.5370     6.5550     6.0580    24.6380 
  280.5000     2.3640    -9.0360   366.0120    55.8390     7.4970     6.5270     6.2630    24.6420 
  280.6250     2.3790    -9.0840   357.4540    55.8400     7.5180     6.5340     6.5190    24.6470 
  280.7500     2.3890    -9.1390   352.7190    55.8400     7.5340     6.5300     6.7190    24.6210 
  280.8750     2.3940    -9.1900   353.4350    55.8400     7.5160     6.4960     6.7950    24.5970 
  281.0000     2.3980    -9.2490   357.8390    55.8400     7.4940     6.4570     6.7550    24.5600 
  281.1250     2.4080    -9.3510   360.1780    55.8400     7.5750     6.5090     6.7890    24.5710 
  281.2500     2.4230    -9.5000   355.3530    55.8400     7.8490     6.7460     7.1680    24.5710 
  281.3750     2.4360    -9.6520   342.4070    55.8400     8.3780     7.2410     7.9970    24.5350 
  281.5000     2.4370    -9.7800   324.4630    55.8400     9.1900     8.0280     9.1910    24.4930 
  281.6250     2.4160    -9.9110   308.0400    55.8400    10.2830     9.0920    10.5800    24.5020 
  281.7500     2.3820   -10.0820   297.6200    55.8400    11.4660    10.2360    11.7000    24.5570 
  281.8750     2.3430   -10.2400   294.1130    55.8400    12.5160    11.2430    12.2450    24.5790 
  282.0000     2.3020   -10.3780   296.9170    55.8400    13.1890    11.8760    12.1550    24.5900 
  282.1250     2.2620   -10.4870   306.6280    55.8400    13.1750    11.8570    11.4280    24.5820 
  282.2500     2.2250   -10.5250   322.6670    55.8400    12.6020    11.2900    10.3950    24.5520 
  282.3750     2.1970   -10.5220   343.7780    55.8400    11.6400    10.3570     9.1520    24.5070 
  282.5000     2.1840   -10.4880   365.5020    55.8400    10.5740     9.3070     7.9120    24.4730 
  282.6250     2.1910   -10.4060   380.1420    55.8400     9.4930     8.3820     6.8860    24.4590 
  282.7500     2.2120   -10.2660   385.6220    55.8400     8.5610     7.6790     6.3530    24.4590 
  282.8750     2.2370   -10.1300   384.8580    55.8400     7.9330     7.2180     6.2120    24.4710 
