~V
VERS. 2.00: Ver 2.00
~W
STRT.M 59.0000:
STOP.M 261.0000:
STEP.M 0.1250:
NULL. -999.2500:
UWI. DF32116:
~C
DEPT.M :
SP.MV :
GR.API :
CALI.CM :
RXO.OHMM :
RI. :
RML.OHMM :
DEN.GM/CC :
~A
# ...
   70.2500   -26.8640    72.0670    24.2600     8.6990     6.7710     8.7800     2.1680 
   70.3750   -26.5060    78.2460    24.4320     7.5180     6.2050     7.7560     2.2210 
   70.5000   -26.1020    87.2060    24.6200     6.2090     5.8240     7.2750     2.2990 
   70.6250   -25.7810    91.3670    24.7500     6.8030     5.9000     7.7810     2.3880 
   70.7500   -25.6000    88.4990    24.7820    10.4510     6.4410     9.1430     2.4670 
   70.8750   -25.6160    81.3050    24.7360    15.7390     7.3820    11.0790     2.5100 
   71.0000   -25.8530    74.7390    24.6390    18.6640     8.4640    12.9380     2.4960 
   71.1250   -26.3110    74.6130    24.4870    16.4600     9.1230    13.5790     2.4200 
   71.2500   -26.8860    77.4380    24.3120    12.6850     9.0860    12.8540     2.3270 
   71.3750   -27.4860    77.2400    24.1770     9.9450     8.5090    11.3930     2.2490 
   71.5000   -28.0590    73.7380    24.1290     8.6330     7.7670     9.9980     2.1960 
   71.6250   -28.5230    72.3190    24.1440     8.3740     7.1830     9.1560     2.1660 
   71.7500   -28.8720    74.3100    24.1580     8.4090     6.8060     8.7460     2.1540 
   71.8750   -29.0850    76.9440    24.1580     8.3860     6.5940     8.6130     2.1570 
   72.0000   -29.1720    78.6170    24.1470     8.2360     6.4960     8.6300     2.1670 
   72.1250   -29.1470    77.2590    24.1150     8.0930     6.4760     8.7160     2.1750 
   72.2500   -29.0670    73.4550    24.0950     8.0350     6.4870     8.8060     2.1770 
   72.3750   -28.9830    70.5400    24.1170     8.0210     6.5050     8.8710     2.1750 
   72.5000   -28.9230    69.9350    24.1610     8.0070     6.5190     8.9040     2.1730 
   72.6250   -28.9130    70.4850    24.1890     7.9840     6.5260     8.9180     2.1790 
   72.7500   -28.9550    72.5510    24.2030     7.9450     6.5420     8.9610     2.1880 
   72.8750   -29.0440    75.4630    24.2160     7.9340     6.5840     9.0800     2.1950 
   73.0000   -29.1720    76.0540    24.2160     8.0720     6.6700     9.3070     2.1970 
   73.1250   -29.3260    72.5900    24.1990     8.4100     6.8100     9.6520     2.1900 
   73.2500   -29.4870    69.7190    24.1910     8.7170     6.9680    10.0180     2.1820 
   73.3750   -29.6510    68.9480    24.1980     8.8180     7.0910    10.2790     2.1770 
   73.5000   -29.8010    68.4580    24.2190     8.7430     7.1230    10.3170     2.1800 
   73.6250   -29.9290    69.0870    24.2500     8.5640     7.0250    10.0760     2.1900 
   73.7500   -30.0620    71.9430    24.2560     8.2850     6.8590     9.7240     2.2030 
   73.8750   -30.2170    74.3600    24.2180     8.0350     6.6970     9.4320     2.2120 
   74.0000   -30.4060    73.4150    24.1600     8.1130     6.6060     9.3340     2.2090 
   74.1250   -30.6460    70.5900    24.1830     8.6290     6.6380     9.5120     2.1890 
   74.2500   -30.9240    70.1180    24.3490     9.1630     6.7580     9.8490     2.1650 
   74.3750   -31.2310    70.3620    24.6390     9.4710     6.9180    10.2230     2.1500 
   74.5000   -31.5580    68.3290    24.9460     9.6090     7.0650    10.5170     2.1470 
   74.6250   -31.8840    65.7250    25.1620     9.6620     7.1470    10.6310     2.1450 
   74.7500   -32.1850    65.4540    25.3430     9.6270     7.1670    10.6050     2.1370 
   74.8750   -32.4500    66.2320    25.6030     9.5310     7.1400    10.4940     2.1280 
   75.0000   -32.6560    66.3260    25.9690     9.4190     7.0900    10.3510     2.1220 
   75.1250   -32.7850    66.0650    26.3110     9.2290     7.0410    10.2200     2.1170 
   75.2500   -32.8490    67.4890    26.5160     8.8610     7.0200    10.1520     2.1080 
   75.3750   -32.8430    68.5690    26.5830     8.3510     7.0520    10.2000     2.1010 
   75.5000   -32.7680    66.0110    26.4580     8.0490     7.1560    10.4010     2.1010 
   75.6250   -32.6150    60.9200    25.9480     8.5490     7.3510    10.7730     2.1080 
   75.7500   -32.3830    57.5380    25.1190     9.6400     7.5900    11.1940     2.1180 
   75.8750   -32.0740    58.7180    24.2870    10.6610     7.8000    11.5110     2.1320 
   76.0000   -31.6660    62.5500    23.7780    11.1070     7.8970    11.5820     2.1490 
   76.1250   -31.1410    65.7340    23.6640    11.0310     7.8120    11.3360     2.1660 
   76.2500   -30.5500    67.0860    23.6710    10.7460     7.6120    10.9500     2.1750 
   76.3750   -29.9120    66.6560    23.6730    10.1780     7.3700    10.5650     2.1730 
   76.5000   -29.2350    66.9250    23.6730     9.4320     7.1370    10.2460     2.1680 
   76.6250   -28.5440    70.9090    23.6790     8.9250     6.9190     9.9650     2.1780 
   76.7500   -27.8790    76.5230    23.7370     8.4810     6.6850     9.6260     2.2100 
   76.8750   -27.2610    77.7030    23.8920     7.6520     6.4120     9.1690     2.2530 
   77.0000   -26.7320    73.0480    24.0940     6.5600     6.1050     8.6180     2.2830 
   77.1250   -26.3130    70.9150    24.2100     5.9820     5.8070     8.1000     2.2860 
   77.2500   -25.9360    75.5260    24.2220     5.9640     5.5670     7.7330     2.2800 
   77.3750   -25.5780    80.6460    24.2030     5.9940     5.4090     7.5550     2.2760 
   77.5000   -25.2240    80.0150    24.2090     5.8200     5.3290     7.5220     2.2750 
   77.6250   -24.8480    76.6960    24.2280     5.6590     5.2850     7.5020     2.2720 
   77.7500   -24.4480    76.0400    24.2520     5.6410     5.2030     7.3480     2.2730 
   77.8750   -24.0190    78.7340    24.3130     5.5890     5.0470     7.0200     2.2850 
   78.0000   -23.5740    83.3070    24.4240     5.3450     4.8200     6.5700     2.3040 
   78.1250   -23.1300    89.3610    24.5380     4.9040     4.5590     6.0920     2.3170 
   78.2500   -22.7380    94.2130    24.6070     4.5070     4.3210     5.6850     2.3210 
   78.3750   -22.4220    95.7760    24.6210     4.3260     4.1510     5.4220     2.3200 
   78.5000   -22.2230    93.3270    24.5830     4.3330     4.0820     5.3690     2.3170 
   78.6250   -22.1790    90.4650    24.4820     4.3800     4.1640     5.6360     2.3090 
   78.7500   -22.2280    89.5230    24.3340     4.5050     4.3860     6.1940     2.2920 
   78.8750   -22.3420    88.3120    24.1430     4.9340     4.7190     6.9590     2.2640 
   79.0000   -22.4910    85.4780    23.9420     5.8010     5.0870     7.7310     2.2330 
   79.1250   -22.6790    82.2280    23.7970     6.8160     5.3360     8.1480     2.2170 
   79.2500   -22.8960    81.2260    23.7210     7.1510     5.3700     8.0530     2.2290 
   79.3750   -23.1500    81.0100    23.7340     6.4540     5.1800     7.5030     2.2660 
   79.5000   -23.4480    79.6320    23.8440     5.3050     4.8580     6.7750     2.3030 
   79.6250   -23.8280    78.3170    23.9490     4.7570     4.5810     6.2780     2.3130 
   79.7500   -24.2920    78.9350    23.9190     4.8940     4.4800     6.2220     2.3010 
   79.8750   -24.8250    80.0770    23.7860     5.3630     4.6200     6.6810     2.2860 
   80.0000   -25.4190    78.7930    23.6750     6.0330     5.0230     7.6360     2.2820 
   80.1250   -26.0050    74.0530    23.6680     7.0430     5.6880     8.9980     2.2830 
   80.2500   -26.5050    69.5530    23.7510     8.1340     6.4660    10.4250     2.2700 
   80.3750   -26.8660    66.4770    23.9090     8.8950     7.2040    11.6090     2.2390 
   80.5000   -27.0250    65.6770    24.0770     9.1600     7.7450    12.3040     2.2110 
   80.6250   -26.8790    68.9670    24.1620     9.0410     7.9070    12.2740     2.2160 
   80.7500   -26.4660    75.1750    24.1920     8.7340     7.7130    11.6550     2.2490 
   80.8750   -25.8330    81.6810    24.1660     8.1230     7.2290    10.6120     2.2900 
   81.0000   -25.0090    85.7540    24.0350     7.1000     6.5740     9.3700     2.3200 
   81.1250   -24.0840    86.4170    23.8700     5.8660     5.8780     8.1790     2.3320 
   81.2500   -23.1910    86.2570    23.8560     4.8780     5.2540     7.2100     2.3370 
   81.3750   -22.3830    87.1270    23.9870     4.3300     4.7620     6.5400     2.3430 
