~V
VERS. 2.00: Ver 2.00
~W
STRT.M 60.0000:
STOP.M 232.0000:
STEP.M 0.1250:
NULL. -999.2500:
UWI. DF323:
~C
DEPT.M :
GR.API :
RML.OHMM :
RI. :
RXO.OHMM :
CALI.CM :
SP.MV :
DEN.GM/CC :
AC.US/MT :
~A
# ...
  170.0000    95.2070    11.9280    11.1530     9.2910    29.3370   -16.4220     2.3090   314.8800 
  170.1250    91.7410    11.3170    10.6950    10.3510    29.3360   -16.4560     2.3090   323.2450 
  170.2500    87.2690    10.5920    10.1890    10.8440    29.3370   -16.4890     2.3110   337.0850 
  170.3750    85.0730     9.9040     9.6920    11.0730    29.3360   -16.5230     2.3140   348.3570 
  170.5000    84.1840     9.3760     9.2700    11.7910    29.3270   -16.5430     2.3160   351.0890 
  170.6250    82.0780     9.0950     8.9980    12.1860    29.3020   -16.5350     2.3140   345.9970 
  170.7500    80.5950     9.0080     8.8690    11.3780    29.2650   -16.5260     2.3070   340.3330 
  170.8750    79.9150     9.0800     8.8620    10.3940    29.2280   -16.5230     2.3010   336.6000 
  171.0000    76.3670     9.2530     8.9360     9.7840    29.2020   -16.5230     2.2970   333.7290 
  171.1250    70.3320     9.4280     9.0430     8.8740    29.1830   -16.4910     2.2980   330.1280 
  171.2500    66.8170     9.5180     9.1330     8.2140    29.1780   -16.4190     2.3040   326.2870 
  171.3750    67.7180     9.5210     9.1910     8.5550    29.2030   -16.3470     2.3120   323.4080 
  171.5000    69.6390     9.4930     9.2300     9.8060    29.2390   -16.3420     2.3230   322.3900 
  171.6250    70.0520     9.5150     9.2760    11.0040    29.2140   -16.3830     2.3380   322.5280 
  171.7500    70.8230     9.6150     9.3650    11.9050    29.1200   -16.4290     2.3550   321.1240 
  171.8750    72.2950     9.8010     9.5270    12.6070    29.0170   -16.4890     2.3690   316.6540 
  172.0000    73.5410    10.0960     9.7810    13.2480    28.9650   -16.5830     2.3770   309.9230 
  172.1250    72.5810    10.5860    10.1370    13.9650    28.9630   -16.7590     2.3780   303.9410 
  172.2500    71.2210    11.2690    10.5470    14.2940    28.9600   -17.0300     2.3740   300.6930 
  172.3750    71.3170    12.0350    10.9540    13.9250    28.9580   -17.3300     2.3700   300.2440 
  172.5000    71.7530    12.6670    11.2860    13.4200    28.9620   -17.5970     2.3670   301.7010 
  172.6250    70.3980    12.8690    11.4340    13.7570    28.9670   -17.8450     2.3630   304.5270 
  172.7500    68.6360    12.6470    11.3810    14.4720    28.9650   -18.0670     2.3580   308.3900 
  172.8750    70.3540    12.1540    11.1560    14.5260    28.9570   -18.2430     2.3470   313.1540 
  173.0000    76.3370    11.6300    10.8500    13.5710    28.9540   -18.3690     2.3330   318.0930 
  173.1250    82.3020    11.3340    10.6090    12.7030    28.9640   -18.4130     2.3210   320.8330 
  173.2500    84.7770    11.3240    10.5300    12.5720    28.9670   -18.3830     2.3150   319.5110 
  173.3750    84.8360    11.5710    10.6540    12.5610    28.9580   -18.3170     2.3170   314.1980 
  173.5000    83.5390    11.9890    10.9590    12.3130    28.9510   -18.2210     2.3220   307.6260 
  173.6250    81.9730    12.4550    11.3830    12.7230    28.9620   -18.1190     2.3260   304.0350 
  173.7500    82.0190    12.8390    11.8110    13.8840    28.9700   -18.0100     2.3270   303.6340 
  173.8750    84.3350    13.1080    12.1850    14.3350    28.9620   -17.9360     2.3270   304.1340 
  174.0000    86.0910    13.3110    12.4980    13.4770    28.9550   -17.9390     2.3280   303.4250 
  174.1250    84.0680    13.5490    12.7770    13.3020    28.9620   -18.0280     2.3310   301.3890 
  174.2500    81.4110    13.8510    13.0600    14.6870    28.9690   -18.1840     2.3310   299.3420 
  174.3750    82.5410    14.1820    13.3480    16.9100    28.9700   -18.3660     2.3280   297.6100 
  174.5000    86.2110    14.4750    13.6100    18.5640    28.9690   -18.5240     2.3230   296.1410 
  174.6250    86.3910    14.6810    13.8050    18.7010    28.9720   -18.6060     2.3180   295.1210 
  174.7500    82.4370    14.8460    13.9430    18.2720    28.9650   -18.6310     2.3160   294.6730 
  174.8750    78.5140    15.0240    14.0570    18.2750    28.9550   -18.6060     2.3200   294.6400 
  175.0000    77.4100    15.2430    14.1840    19.4770    28.9580   -18.5240     2.3300   294.6970 
  175.1250    80.0080    15.5030    14.3650    21.2960    28.9630   -18.4030     2.3460   294.0640 
  175.2500    82.6520    15.7810    14.6160    21.8780    28.9580   -18.2520     2.3620   292.0400 
  175.3750    83.5900    16.0770    14.9340    20.6770    28.9530   -18.0600     2.3750   288.6640 
  175.5000    85.3830    16.3880    15.2940    18.5400    28.9590   -17.8660     2.3850   284.7800 
  175.6250    88.3940    16.7240    15.6520    16.8530    28.9650   -17.6910     2.3920   281.4680 
  175.7500    87.2590    17.0570    15.9710    16.1300    28.9540   -17.5840     2.3970   279.0630 
  175.8750    80.2820    17.3540    16.2210    16.0130    28.9430   -17.5320     2.4010   277.7520 
  176.0000    74.0800    17.5880    16.3860    15.6350    28.9470   -17.4960     2.4020   277.6080 
  176.1250    75.0080    17.7130    16.4670    14.9950    28.9560   -17.4140     2.4010   277.8690 
  176.2500    79.5630    17.7330    16.5030    14.9060    28.9690   -17.3150     2.4000   277.1880 
  176.3750    86.1390    17.6830    16.5150    15.5160    29.0120   -17.2510     2.4020   275.2280 
  176.5000    91.5540    17.6190    16.5250    15.9290    29.0930   -17.2280     2.4070   272.7860 
  176.6250    91.9640    17.5740    16.5520    15.4490    29.1840   -17.2110     2.4110   271.0830 
  176.7500    89.0530    17.5460    16.5980    15.3290    29.2640   -17.1340     2.4080   270.6380 
  176.8750    86.4520    17.5440    16.6630    15.7810    29.3630   -16.9860     2.3940   271.8760 
  177.0000    84.5440    17.5770    16.7520    15.9880    29.4920   -16.8180     2.3710   274.9000 
  177.1250    83.0220    17.6830    16.8810    16.0060    29.6080   -16.7090     2.3520   278.5920 
  177.2500    83.0800    17.8730    17.0460    17.7360    29.6860   -16.6370     2.3450   280.9210 
  177.3750    83.8430    18.1040    17.2430    22.5670    29.7120   -16.5550     2.3550   281.3630 
  177.5000    82.7990    18.3030    17.4640    27.9200    29.6520   -16.4360     2.3760   280.9960 
  177.6250    81.0740    18.4430    17.7060    28.5690    29.5040   -16.3420     2.3970   281.5120 
  177.7500    81.7690    18.6320    17.9770    27.6210    29.3580   -16.2840     2.4080   283.1040 
  177.8750    84.1340    18.9780    18.2940    27.7210    29.2650   -16.2680     2.4080   284.8130 
  178.0000    86.3710    19.4880    18.6590    28.6600    29.2190   -16.2810     2.4010   285.5150 
  178.1250    87.1430    20.0070    19.0190    29.3950    29.2000   -16.2880     2.3960   284.7520 
  178.2500    86.0170    20.2770    19.2740    30.2100    29.2030   -16.2880     2.3970   283.7870 
  178.3750    84.9430    20.1550    19.3370    30.7890    29.2110   -16.3030     2.4030   283.8680 
  178.5000    86.2060    19.6750    19.1590    29.5870    29.2260   -16.3480     2.4120   285.4650 
  178.6250    88.7370    19.0170    18.7310    26.9890    29.2680   -16.3720     2.4170   287.9900 
  178.7500    88.4130    18.4020    18.1800    25.1770    29.3090   -16.3990     2.4170   290.1940 
  178.8750    86.3430    17.9080    17.6010    24.3150    29.3110   -16.4360     2.4150   291.6740 
  179.0000    85.0190    17.5490    17.0880    24.0220    29.2410   -16.4420     2.4140   292.5490 
  179.1250    83.2820    17.3660    16.7580    23.5570    29.0600   -16.4300     2.4160   292.4990 
  179.2500    79.6950    17.3540    16.6420    22.3030    28.7870   -16.3950     2.4200   290.7220 
  179.3750    77.3040    17.5170    16.7380    20.8000    28.4410   -16.3500     2.4240   286.5710 
  179.5000    78.8640    17.8070    16.9940    21.0290    28.1820   -16.3150     2.4270   280.4260 
  179.6250    82.6340    18.1000    17.3070    23.5560    28.2890   -16.2860     2.4270   273.8710 
  179.7500    84.9050    18.2730    17.5410    25.3590    28.6730   -16.2170     2.4240   268.8840 
  179.8750    84.6180    18.2660    17.6080    24.5150    29.0700   -16.0730     2.4180   266.5720 
