~V
VERS. 2.00: Ver 2.00
~W
STRT.M 62.0000:
STOP.M 235.0000:
STEP.M 0.1250:
NULL. -999.2500:
UWI. DF32059:
~C
DEPT.M :
SP.MV :
GR.API :
CALI.CM :
RXO.OHMM :
RI. :
RML.OHMM :
DEN.GM/CC :
~A
# ...
  185.7500   -10.5830    97.9930    24.1120     5.8620     5.8410     8.0080     2.4060 
  185.8750   -10.6870    92.8780    23.9110     6.9330     6.3470     8.7390     2.3910 
  186.0000   -10.7790    89.1090    24.0580     8.6540     7.0050     9.6420     2.3840 
  186.1250   -10.9160    85.2750    24.2210     9.5850     7.7770    10.6470     2.3790 
  186.2500   -11.0620    85.0930    24.3370     9.6590     8.6250    11.7370     2.3680 
  186.3750   -11.2320    89.2920    24.3790    10.0740     9.5600    12.9510     2.3580 
  186.5000   -11.3890    92.1610    24.4000    12.3780    10.5900    14.2780     2.3600 
  186.6250   -11.5790    87.6780    24.4040    16.4390    11.6850    15.6350     2.3780 
  186.7500   -11.7790    80.9400    24.4060    18.6990    12.7920    16.9400     2.3930 
  186.8750   -11.9880    76.9690    24.4100    17.6930    13.9520    18.2660     2.3870 
  187.0000   -12.2240    75.9360    24.4370    15.9010    15.3360    19.8740     2.3610 
  187.1250   -12.4580    74.5580    24.4620    17.8290    17.3730    22.3890     2.3280 
  187.2500   -12.7150    70.8070    24.4140    24.0890    20.3450    26.2040     2.2920 
  187.3750   -12.9820    67.4680    24.2390    32.8700    24.4850    31.6110     2.2560 
  187.5000   -13.2860    69.2410    24.2190    40.5550    29.8020    38.5520     2.2290 
  187.6250   -13.5860    73.8610    24.0660    44.8570    35.9600    46.3960     2.2180 
  187.7500   -13.8930    74.1890    24.1310    48.8050    41.8940    53.6370     2.2170 
  187.8750   -14.1950    71.3270    24.4190    53.6070    46.7230    59.1910     2.2200 
  188.0000   -14.4870    68.6040    24.5490    59.9570    50.0040    62.7530     2.2230 
  188.1250   -14.7770    65.7350    24.3100    63.3030    51.7310    64.6050     2.2210 
  188.2500   -15.0430    64.7960    24.0450    61.1230    52.7370    65.7440     2.2160 
  188.3750   -15.3080    67.8520    24.1570    56.1850    53.6040    66.7590     2.2120 
  188.5000   -15.5430    72.6030    24.4090    54.4920    54.8140    68.1570     2.2110 
  188.6250   -15.7730    74.1760    24.5860    59.8840    56.8130    70.4380     2.2090 
  188.7500   -15.9910    73.9380    24.6760    67.4120    59.7300    73.7630     2.2050 
  188.8750   -16.2180    72.8110    24.6610    71.0510    63.8930    78.4910     2.2030 
  189.0000   -16.4520    71.1840    24.4450    69.5810    69.7470    85.1050     2.2030 
  189.1250   -16.6580    70.9310    23.9320    71.7010    77.9210    94.3570     2.2000 
  189.2500   -16.8540    71.3610    23.6800    85.1710    87.4600   105.2830     2.1970 
  189.3750   -17.0190    70.6610    23.5840   108.0510    96.2670   115.2510     2.1990 
  189.5000   -17.2080    69.0960    23.5590   125.7740   101.0620   119.5380     2.2020 
  189.6250   -17.3540    71.5510    23.5410   119.7640    98.3980   113.6780     2.2040 
  189.7500   -17.4950    76.2130    23.5010    98.6250    90.9740   102.7630     2.2070 
  189.8750   -17.6170    78.6650    23.4330    78.4170    82.4630    92.0840     2.2150 
  190.0000   -17.7450    76.8710    23.3800    64.4900    75.7820    84.5770     2.2230 
  190.1250   -17.8680    74.0200    23.3710    58.0850    72.9100    81.6700     2.2210 
  190.2500   -18.0160    72.8960    23.3820    64.4300    73.5480    82.4850     2.2130 
  190.3750   -18.1780    71.3980    23.3850    74.6490    77.5030    86.6600     2.2080 
  190.5000   -18.3430    68.5860    23.4060    75.0710    84.7190    94.0900     2.2050 
  190.6250   -18.5420    66.6390    23.4970    73.9940    96.2440   105.8320     2.2000 
  190.7500   -18.7450    65.6730    23.5760    89.3210   111.6200   121.5930     2.1940 
  190.8750   -18.9390    64.7050    23.4610   118.5210   129.3180   140.1840     2.1890 
  191.0000   -19.1050    64.5170    23.2920   140.5730   145.5970   157.7470     2.1840 
  191.1250   -19.2640    65.9420    23.1650   139.1070   153.4550   165.5690     2.1820 
  191.2500   -19.3920    65.3050    23.1320   124.8090   150.4780   160.3520     2.1870 
  191.3750   -19.4830    63.2780    23.2110   107.9730   138.6950   145.7420     2.1950 
  191.5000   -19.5380    64.9250    23.4760    92.4010   123.7670   129.2430     2.1970 
  191.6250   -19.5640    69.6130    23.9130    82.5950   111.8710   116.8600     2.1950 
  191.7500   -19.5990    70.9930    24.0690    76.9660   105.1160   109.1260     2.2100 
  191.8750   -19.6390    69.4400    23.9320    73.0800   102.8660   106.3720     2.2520 
  192.0000   -19.7030    69.2230    23.5480    71.1210   104.6370   107.8890     2.3030 
  192.1250   -19.7550    69.8480    23.2970    79.2710   109.9540   113.0530     2.3190 
  192.2500   -19.8130    67.3870    23.3780    98.9720   116.8150   119.8210     2.2880 
  192.3750   -19.8710    63.4100    23.7120   120.6740   123.6620   126.7470     2.2290 
  192.5000   -19.9530    62.2480    23.8670   130.0020   129.1240   132.5090     2.1670 
  192.6250   -20.0200    64.6640    23.8040   125.1470   131.7710   135.5670     2.1360 
  192.7500   -20.0690    65.9210    23.9410   118.0600   131.6800   135.8720     2.1520 
  192.8750   -20.0900    62.5560    24.0110   113.0330   129.3170   133.9570     2.2070 
  193.0000   -20.0870    57.4860    23.8620   108.4500   125.6760   130.9500     2.2640 
  193.1250   -20.0840    57.1390    23.7710   103.6000   122.1120   128.2270     2.2810 
  193.2500   -20.0630    60.5110    23.8590   100.2790   119.7310   126.6560     2.2630 
  193.3750   -20.0280    63.3910    23.7210   100.9590   118.9590   126.5020     2.2320 
  193.5000   -19.9530    63.9250    23.5290   106.7400   119.4850   127.5010     2.2060 
  193.6250   -19.8770    65.5480    23.4370   115.6180   120.0430   128.6730     2.1890 
  193.7500   -19.7760    68.7630    23.4340   122.2110   118.8650   128.4520     2.1760 
  193.8750   -19.6850    70.7660    23.4220   122.5070   114.9410   125.6680     2.1700 
  194.0000   -19.5870    70.5090    23.3960   114.2870   108.5070   120.0720     2.1770 
  194.1250   -19.5080    69.1630    23.4470   100.3480   100.7380   112.3150     2.1960 
  194.2500   -19.4040    68.6380    23.5720    88.2400    92.7550   103.7980     2.2080 
  194.3750   -19.3050    69.4930    23.6320    80.2650    84.7280    95.0500     2.2110 
  194.5000   -19.1970    70.3150    23.5040    75.4910    76.9190    86.5470     2.2110 
  194.6250   -19.1160    68.6770    23.4150    71.1770    70.2320    79.2310     2.2160 
  194.7500   -19.0320    66.6210    23.3880    63.6380    65.4400    73.8580     2.2210 
  194.8750   -18.9570    68.0770    23.3730    54.6970    63.2380    71.1810     2.2220 
  195.0000   -18.8730    71.2340    23.3590    52.0660    64.0660    71.7500     2.2230 
  195.1250   -18.8080    72.3640    23.3510    59.3760    68.4660    76.2130     2.2260 
  195.2500   -18.7700    71.2000    23.3110    71.2340    75.4070    83.4010     2.2250 
  195.3750   -18.7640    67.9870    23.2160    81.1990    83.8710    92.1030     2.2150 
  195.5000   -18.7760    64.2140    23.1330    87.2650    92.4290   100.7510     2.1970 
  195.6250   -18.7850    61.9260    23.0970    89.9730    99.5840   107.8700     2.1800 
  195.7500   -18.8060    62.5680    23.0920    91.6420   105.4360   113.6370     2.1720 
  195.8750   -18.8280    65.0350    23.0980    94.1850   110.6290   118.6260     2.1750 
  196.0000   -18.8370    68.2620    23.1040    97.8280   115.5340   123.1040     2.1870 
  196.1250   -18.8470    69.8730    23.0970   103.5160   119.4820   126.3670     2.2000 
  196.2500   -18.8250    67.3100    23.0860   108.6440   121.5420   127.6890     2.2050 
  196.3750   -18.7930    62.3680    23.0810   111.6320   120.9500   126.5470     2.2010 
  196.5000   -18.7390    59.8440    23.0810   112.6480   117.7090   123.0610     2.1950 
  196.6250   -18.7130    62.0660    23.0820   111.0180   112.5400   117.8770     2.1920 
  196.7500   -18.6780    64.8680    23.0870   105.2620   107.2090   112.5410     2.1940 
  196.8750   -18.6250    64.8020    23.0930    96.6390   102.9710   108.2690     2.1970 
