~V
VERS. 2.00: Ver 2.00
~W
STRT.M 60.0000:
STOP.M 276.0000:
STEP.M 0.1250:
NULL. -999.2500:
UWI. DF32145:
~C
DEPT.M :
SP.MV :
GR.API :
CALI.CM :
RXO.OHMM :
RI. :
RML.OHMM :
DEN.GM/CC :
~A
# ...
  206.2500   -28.1850    71.6660    23.7720    52.5610    66.0310    80.9110     2.2350 
  206.3750   -28.1990    70.4640    23.7720    50.9490    65.4620    79.6850     2.2340 
  206.5000   -28.2000    69.4060    23.7720    51.6800    65.5920    79.4060     2.2260 
  206.6250   -28.2110    68.3450    23.7720    52.6640    66.2450    79.8500     2.2130 
  206.7500   -28.2640    68.4290    23.7710    53.2200    67.0010    80.4270     2.2060 
  206.8750   -28.2860    70.1210    23.7680    53.2180    67.5160    80.6450     2.2060 
  207.0000   -28.2740    70.7370    23.7600    53.4340    67.5030    80.1270     2.2090 
  207.1250   -28.2020    69.3010    23.7540    54.0680    66.6960    78.5680     2.2100 
  207.2500   -28.1640    68.6170    23.7550    53.9840    65.1920    76.1200     2.2090 
  207.3750   -28.1210    70.4070    23.7590    52.5690    63.0340    72.8840     2.2050 
  207.5000   -28.1030    72.3160    23.7600    50.5630    60.4190    69.2250     2.2050 
  207.6250   -28.0680    70.1300    23.7600    48.8600    57.9460    66.0390     2.2110 
  207.7500   -28.0300    66.9050    23.7600    46.6050    56.3970    64.1930     2.2200 
  207.8750   -28.0370    65.9160    23.7610    44.2150    56.4440    64.3230     2.2290 
  208.0000   -28.1090    67.3950    23.7630    44.3850    58.5660    66.8250     2.2350 
  208.1250   -28.2110    69.4840    23.7650    51.9460    63.2350    72.1890     2.2360 
  208.2500   -28.2830    69.9460    23.7640    63.8740    69.5470    79.4800     2.2330 
  208.3750   -28.3540    70.2890    23.7650    75.3890    76.5130    87.5970     2.2270 
  208.5000   -28.4140    70.3270    23.7660    81.9590    83.0970    95.2510     2.2190 
  208.6250   -28.5100    66.9320    23.7700    82.0890    88.8130   101.7660     2.2130 
  208.7500   -28.6150    61.5500    23.7710    81.9620    94.6180   108.3910     2.2090 
  208.8750   -28.7200    58.2600    23.7760    87.5550   101.7500   116.7940     2.2070 
  209.0000   -28.7860    59.9060    23.7890   107.6170   111.0470   128.1940     2.2030 
  209.1250   -28.8150    63.9650    23.8150   141.2060   122.5640   142.8470     2.2050 
  209.2500   -28.8770    67.4780    23.8260   161.8710   134.5610   158.3110     2.2150 
  209.3750   -28.9630    68.2600    23.8290   153.0270   145.6230   172.3340     2.2280 
  209.5000   -29.0850    65.2890    23.8110   131.0440   155.2470   183.9090     2.2320 
  209.6250   -29.1920    61.8890    23.7520   130.3580   164.4020   194.0960     2.2220 
  209.7500   -29.2980    61.2120    23.6630   148.3250   174.3090   204.7320     2.2090 
  209.8750   -29.3960    61.3680    23.5980   169.6760   184.3010   215.1060     2.1990 
  210.0000   -29.5480    60.8370    23.5500   180.3250   191.9590   222.0770     2.1970 
  210.1250   -29.7440    60.9430    23.5270   184.1460   193.4160   220.7610     2.1960 
  210.2500   -29.8810    61.9690    23.5190   188.7090   188.9800   212.3970     2.1920 
  210.3750   -29.9680    64.5880    23.5190   179.9100   180.7520   200.2490     2.1840 
  210.5000   -30.0060    67.9440    23.5190   161.2080   171.5730   187.7750     2.1800 
  210.6250   -30.0180    69.3760    23.5190   151.7990   163.6290   177.3080     2.1830 
  210.7500   -30.0210    67.5290    23.5190   153.9470   157.1310   168.8390     2.1870 
  210.8750   -29.9740    64.0410    23.5190   150.7000   151.7670   161.8740     2.1910 
  211.0000   -29.8600    63.6430    23.5190   136.5970   147.1220   155.7420     2.1950 
  211.1250   -29.7620    66.5490    23.5090   122.2060   142.7350   149.7910     2.2030 
  211.2500   -29.6920    68.6740    23.4810   115.8470   138.1610   143.6450     2.2130 
  211.3750   -29.6630    68.3100    23.4420   113.0360   133.3070   137.3470     2.2260 
  211.5000   -29.6460    66.2060    23.4190   107.0150   128.3770   131.1950     2.2380 
  211.6250   -29.6170    65.5370    23.3880    98.8050   123.8850   125.7710     2.2360 
  211.7500   -29.5580    66.5570    23.3200    91.9960   120.2850   121.4440     2.2180 
  211.8750   -29.5390    68.2280    23.2240    88.0550   117.9580   118.5490     2.1910 
  212.0000   -29.5910    67.7580    23.1200    87.8070   117.0530   117.2200     2.1700 
  212.1250   -29.6170    65.4360    23.0600    91.5530   117.5050   117.4200     2.1620 
  212.2500   -29.5910    66.0240    23.0390    95.1270   118.5020   118.3050     2.1600 
  212.3750   -29.4740    68.3880    23.0360    94.7180   119.4850   119.2760     2.1570 
  212.5000   -29.2980    69.0160    23.0540    90.0930   120.1050   119.9630     2.1530 
  212.6250   -29.1060    68.4660    23.1580    87.6470   120.1760   120.2370     2.1520 
  212.7500   -28.9110    69.4740    23.3540    90.5240   119.8340   120.2560     2.1520 
  212.8750   -28.6520    71.3510    23.5270    96.5060   119.1490   120.0620     2.1510 
  213.0000   -28.2550    71.9290    23.6030   101.7970   118.2960   119.7500     2.1490 
  213.1250   -27.8400    69.5430    23.6110   105.3450   118.0710   120.0300     2.1430 
  213.2500   -27.4260    67.3180    23.6110   108.9850   119.7320   122.1490     2.1360 
  213.3750   -27.0290    68.2790    23.6110   111.3930   124.6900   127.5820     2.1340 
  213.5000   -26.6080    70.5600    23.6120   113.9390   134.1900   137.7030     2.1370 
  213.6250   -26.2130    70.5630    23.6140   126.7680   149.8730   154.5430     2.1420 
  213.7500   -25.8520    68.9250    23.6140   162.7860   170.2470   177.0210     2.1450 
  213.8750   -25.6280    67.5420    23.6120   209.6270   192.9390   202.9610     2.1470 
  214.0000   -25.4920    66.1760    23.6110   229.3110   214.0370   227.8490     2.1530 
  214.1250   -25.3970    64.9800    23.6110   217.6190   228.0260   244.5200     2.1630 
  214.2500   -25.3820    63.5600    23.6100   211.5080   233.7570   251.1320     2.1750 
  214.3750   -25.5040    62.0120    23.6070   224.9870   231.8370   248.6060     2.1810 
  214.5000   -25.7720    62.4130    23.5990   236.0500   224.0610   239.3860     2.1780 
  214.6250   -26.1260    65.7100    23.5810   226.7960   212.3730   226.1050     2.1750 
  214.7500   -26.4740    67.0970    23.5490   199.1010   200.2250   212.8800     2.1830 
  214.8750   -26.7620    64.7610    23.4950   164.8380   190.4080   202.7770     2.2040 
  215.0000   -27.0660    61.9070    23.4070   134.0070   185.3820   198.1350     2.2290 
  215.1250   -27.4090    61.4690    23.3130   115.1700   187.6070   201.2090     2.2400 
  215.2500   -27.7120    62.5430    23.2520   116.7580   195.4090   210.1200     2.2320 
  215.3750   -27.9560    63.8620    23.2310   135.3800   206.4840   222.3700     2.2110 
  215.5000   -28.1030    63.5430    23.2280   154.2340   217.8490   234.5150     2.1900 
  215.6250   -28.1650    62.6970    23.2830   156.8860   226.5930   243.0000     2.1810 
  215.7500   -28.2120    62.6240    23.4100   157.7300   232.6500   248.0490     2.1830 
  215.8750   -28.2780    63.8730    23.5520   167.9110   237.2480   251.5150     2.1900 
  216.0000   -28.2860    64.5620    23.6370   189.8150   241.1210   254.4760     2.1870 
  216.1250   -28.2020    62.9980    23.6880   218.7630   240.1490   251.1970     2.1650 
  216.2500   -28.0720    61.1710    23.7080   242.5330   227.9760   232.9980     2.1440 
  216.3750   -27.9330    61.8690    23.7020   246.2470   201.4260   198.0660     2.1410 
  216.5000   -27.8340    65.4160    23.6290   217.1500   164.7960   155.7920     2.1550 
  216.6250   -27.7310    66.9770    23.4480   158.8240   128.4190   119.5050     2.1710 
  216.7500   -27.5350    65.3540    23.2390    99.1110    99.8280    93.1620     2.1810 
  216.8750   -27.2850    65.9260    23.1440    62.4730    80.5100    75.8230     2.1890 
  217.0000   -27.1150    69.5190    23.1280    48.5730    68.9250    65.2590     2.1970 
  217.1250   -27.0090    71.4020    23.1260    47.0140    63.1780    59.8890     2.2050 
  217.2500   -26.9590    70.6670    23.1240    47.6720    60.2390    57.2020     2.2100 
  217.3750   -26.8720    71.1550    23.1250    47.7260    58.7680    55.9670     2.2080 
