~V
VERS. 2.00: Ver 2.00
~W
STRT.M 63.0000:
STOP.M 291.0000:
STEP.M 0.1250:
NULL. -999.2500:
UWI. DF325:
~C
DEPT.M :
DEN.GM/CC :
SP.MV :
AC.US/MT :
GR.API :
RML.OHMM :
RI. :
RXO.OHMM :
CALI.CM :
~A
# ...
  253.0000     2.2640   -17.3060   346.2080    73.0810    59.9060    54.7270    53.6410    25.2350 
  253.1250     2.2600   -17.1400   344.6560    77.1160    61.7560    55.9640    56.2350    25.2690 
  253.2500     2.2590   -16.9460   341.6640    76.8820    63.2280    57.0960    57.8900    25.2710 
  253.3750     2.2600   -16.7430   336.0870    72.7430    63.8980    57.6840    58.6640    25.2470 
  253.5000     2.2610   -16.5250   328.8720    70.5100    63.6040    57.4860    59.4360    25.2190 
  253.6250     2.2570   -16.2710   323.8190    72.0260    62.6330    56.6240    58.4160    25.2290 
  253.7500     2.2480   -16.0240   324.7910    73.6780    61.8380    55.8950    56.3690    25.2300 
  253.8750     2.2380   -15.8090   332.5880    72.8190    61.9760    56.1150    54.5910    25.2470 
  254.0000     2.2340   -15.6150   343.2520    70.8610    63.4520    57.9960    54.5220    25.2810 
  254.1250     2.2420   -15.4000   348.3370    70.0670    67.0630    62.1900    60.6400    25.3190 
  254.2500     2.2580   -15.1360   344.8080    68.5570    72.4290    67.9520    71.7920    25.3160 
  254.3750     2.2750   -14.8680   336.3610    66.8550    79.1010    74.2470    84.8530    25.2840 
  254.5000     2.2850   -14.6510   329.8120    66.0290    84.8440    79.6640    96.5280    25.2580 
  254.6250     2.2820   -14.4570   329.9720    67.2510    87.6170    82.2800   102.4730    25.2620 
  254.7500     2.2720   -14.1930   333.7010    69.7080    86.9600    81.6600    99.1450    25.3050 
  254.8750     2.2590   -13.8740   337.0140    71.4080    83.0740    77.9940    87.4630    25.3070 
  255.0000     2.2490   -13.5520   337.3220    71.9970    77.2540    72.5040    77.4250    25.2930 
  255.1250     2.2480   -13.2350   332.4530    69.9230    73.8890    69.3290    72.7750    25.2930 
  255.2500     2.2610   -12.8900   320.8870    67.5730    79.1150    74.2600    69.4910    25.3090 
  255.3750     2.2950   -12.5270   300.0770    67.0420    97.4710    91.5760    67.6490    25.3180 
  255.5000     2.3510   -12.1550   270.2730    67.4820   128.5520   120.8980    73.7430    25.2660 
  255.6250     2.4210   -11.7650   238.6250    68.1960   161.8980   152.3570   100.0810    25.1850 
  255.7500     2.4820   -11.3860   217.0950    68.6680   179.0190   168.5090   135.9020    25.1530 
  255.8750     2.5140   -11.0420   213.4540    67.9270   165.0820   155.3610   168.7980    25.1790 
  256.0000     2.5110   -10.7320   229.8730    64.7890   120.5120   113.3130   178.9330    25.1910 
  256.1250     2.4800   -10.4550   263.8350    61.4440    71.2490    66.8380   115.4360    25.1110 
  256.2500     2.4450   -10.1980   301.4060    62.3990    39.2620    36.6620    41.9820    25.0180 
  256.3750     2.4160    -9.9510   331.5000    65.7690    22.9470    21.2710    16.1680    24.9400 
  256.5000     2.3980    -9.7190   348.5050    66.8560    15.6280    14.3660     9.3890    24.8670 
  256.6250     2.3900    -9.5670   354.5190    63.8830    12.8350    11.7310     7.9940    24.7780 
  256.7500     2.3850    -9.4900   358.4190    61.4320    11.6440    10.6080     7.6490    24.7090 
  256.8750     2.3820    -9.4370   363.0620    60.8550    11.3080    10.2900     7.5780    24.6980 
  257.0000     2.3820    -9.3650   367.5160    59.1670    11.4080    10.3850     7.6020    24.7690 
  257.1250     2.3850    -9.2810   368.9460    55.7240    11.6400    10.6040     7.7210    24.8540 
  257.2500     2.3930    -9.2550   366.5050    55.1160    11.7890    10.7440     7.9760    24.9210 
  257.3750     2.4020    -9.2890   361.0860    56.7820    11.7830    10.7390     8.2790    24.9260 
  257.5000     2.4110    -9.3160   355.3030    57.1630    11.6210    10.5860     8.4660    24.8910 
  257.6250     2.4140    -9.2800   352.1660    54.7610    11.3330    10.3140     8.5070    24.8480 
  257.7500     2.4100    -9.2220   351.5610    54.9440    10.9960     9.9970     8.4770    24.8480 
  257.8750     2.4010    -9.1780   352.3730    59.3580    10.6540     9.6740     8.3470    24.8660 
  258.0000     2.3880    -9.1460   353.7720    62.7070    10.3350     9.3710     8.2160    24.8710 
  258.1250     2.3800    -9.0830   355.7320    61.5890    10.0710     9.1180     8.2980    24.8970 
  258.2500     2.3770    -8.9650   358.0450    59.2070     9.8570     8.9180     8.4770    24.9540 
  258.3750     2.3780    -8.8110   359.9530    58.4500     9.6930     8.7740     8.5940    24.9710 
  258.5000     2.3790    -8.6690   360.2840    58.8590     9.5420     8.6750     8.7540    25.0060 
  258.6250     2.3760    -8.5370   358.1530    60.8260     9.4050     8.6040     8.7870    25.0510 
  258.7500     2.3710    -8.3860   355.1430    63.5300     9.2580     8.5390     8.6680    25.1100 
  258.8750     2.3700    -8.2250   352.7040    63.2960     9.1260     8.4710     8.4110    25.1440 
  259.0000     2.3760    -8.0900   351.0240    60.6690     9.0450     8.4040     8.1470    25.1510 
  259.1250     2.3900    -8.0190   349.6060    59.7630     8.9990     8.3480     7.9560    25.1220 
  259.2500     2.4040    -7.9770   348.8570    59.4300     9.0080     8.3170     7.9110    25.0660 
  259.3750     2.4140    -7.9390   349.6250    57.9930     9.0520     8.3200     8.0220    25.0290 
  259.5000     2.4170    -7.8940   351.8560    56.2080     9.1520     8.3580     8.1510    25.0490 
  259.6250     2.4160    -7.8870   354.2210    54.8630     9.2890     8.4270     8.1580    25.1050 
  259.7500     2.4140    -7.9160   355.3960    54.9240     9.4150     8.5040     8.1440    25.1250 
  259.8750     2.4120    -7.9490   354.6720    57.0410     9.4820     8.5680     8.1550    25.1030 
  260.0000     2.4080    -7.9610   351.3290    59.8720     9.5170     8.6000     8.2210    25.0940 
  260.1250     2.4020    -7.9660   344.5760    59.4120     9.5070     8.5920     8.3060    25.1090 
  260.2500     2.3970    -8.0010   335.8570    57.3390     9.4710     8.5580     8.3330    25.1030 
  260.3750     2.3960    -8.0590   326.9460    55.8420     9.4290     8.5180     8.3350    25.0980 
  260.5000     2.4000    -8.1080   319.7400    54.3180     9.4030     8.4930     8.3950    25.1040 
  260.6250     2.4040    -8.1250   315.8690    53.3140     9.4160     8.5060     8.4160    25.0830 
  260.7500     2.4050    -8.1540   314.6020    53.7300     9.4710     8.5580     8.4600    25.0710 
  260.8750     2.4030    -8.1920   314.4740    54.8350     9.5630     8.6450     8.5100    25.0980 
  261.0000     2.3970    -8.2240   313.5620    55.5620     9.6780     8.7530     8.5510    25.0990 
  261.1250     2.3920    -8.2300   309.6690    57.4680     9.7910     8.8600     8.5880    25.0440 
  261.2500     2.3900    -8.2330   302.2380    61.0480     9.8840     8.9470     8.6020    24.9840 
  261.3750     2.3920    -8.2450   291.8870    62.5100     9.9510     9.0110     8.6340    24.9700 
  261.5000     2.3980    -8.2730   280.6590    59.7130    10.0070     9.0650     8.7220    24.9820 
  261.6250     2.4100    -8.3030   271.1160    56.4570    10.1000     9.1470     8.8880    24.9780 
  261.7500     2.4220    -8.2910   263.7490    55.6890    10.2530     9.2840     9.0740    24.9780 
  261.8750     2.4310    -8.2610   258.0650    56.4380    10.4700     9.4820     9.2180    25.0040 
  262.0000     2.4360    -8.2540   253.7670    57.2220    10.6870     9.7180     9.2520    25.0590 
  262.1250     2.4340    -8.2970   251.3110    57.4450    10.8260     9.9220     9.1470    25.0970 
  262.2500     2.4300    -8.3640   250.5670    55.3660    10.8130    10.0330     9.0140    25.1400 
  262.3750     2.4280    -8.4410   252.1180    53.5790    10.6690    10.0380     8.9970    25.1570 
  262.5000     2.4280    -8.5230   256.4350    56.5560    10.5940     9.9930     9.3620    25.1670 
  262.6250     2.4330    -8.6430   263.1360    61.1870    10.7300    10.0330    10.6270    25.1970 
  262.7500     2.4390    -8.7920   270.1580    60.4520    11.1250    10.2620    12.5210    25.2470 
  262.8750     2.4430    -8.9400   276.5480    55.6500    11.7440    10.7070    14.6770    25.2690 
