~V
VERS. 2.00: Ver 2.00
~W
STRT.M 62.0000:
STOP.M 243.0000:
STEP.M 0.1250:
NULL. -999.2500:
UWI. DF32072:
~C
DEPT.M :
SP.MV :
GR.API :
CALI.CM :
RXO.OHMM :
RI. :
RML.OHMM :
DEN.GM/CC :
~A
# ...
  163.2500   -46.7170    73.7120    24.4800   137.2050   151.9000   165.8500     2.2250 
  163.3750   -47.0750    72.1030    24.4070   127.5460   138.2860   153.2690     2.2210 
  163.5000   -47.3970    70.4780    24.2090   105.9850   120.8480   135.0970     2.2290 
  163.6250   -47.8120    71.6660    24.2340    80.3750   107.0930   118.8540     2.2470 
  163.7500   -48.1690    73.2130    24.1430    64.4280   100.4450   110.2850     2.2540 
  163.8750   -48.5070    73.2450    23.9420    65.7970   102.5400   112.8330     2.2420 
  164.0000   -48.9280    72.8700    23.8900    85.1850   114.7910   128.6510     2.2240 
  164.1250   -49.2070    73.4350    24.1060   118.6050   141.6020   160.9510     2.2220 
  164.2500   -49.4340    72.9530    24.4900   155.0340   182.8370   204.9400     2.2330 
  164.3750   -49.6660    69.4380    24.9870   187.8770   234.9370   253.1210     2.2400 
  164.5000   -49.7940    64.7040    25.4480   214.5110   284.4230   294.1630     2.2300 
  164.6250   -49.8600    62.9700    25.5860   234.5630   312.8300   317.8020     2.2100 
  164.7500   -49.9220    63.4210    25.7030   252.7540   326.8740   330.7060     2.1980 
  164.8750   -49.9760    64.7910    25.7730   275.9420   338.3350   341.2540     2.1920 
  165.0000   -49.9290    66.2500    25.8080   309.1490   353.3910   354.5560     2.1870 
  165.1250   -49.9300    65.8270    25.8290   346.1290   372.2860   370.8490     2.1810 
  165.2500   -49.9190    62.5220    25.8390   370.2700   387.8100   384.1890     2.1770 
  165.3750   -49.8490    59.4530    25.8290   371.3240   391.1520   387.6170     2.1780 
  165.5000   -49.8430    59.9780    25.7080   348.2690   377.5270   376.8960     2.1790 
  165.6250   -49.7390    61.3150    25.3730   307.6000   350.0160   353.0560     2.1780 
  165.7500   -49.5930    61.2200    24.9750   267.6390   321.0200   326.3480     2.1800 
  165.8750   -49.4420    61.9990    24.8060   241.8980   297.0300   303.3860     2.1880 
  166.0000   -49.2580    65.6660    24.7870   235.6310   279.8090   286.8600     2.2000 
  166.1250   -49.0320    70.1500    24.7950   242.9240   268.4670   276.5390     2.2110 
  166.2500   -48.7820    70.9150    24.8230   246.5020   259.9080   269.3590     2.2150 
  166.3750   -48.4860    67.7680    24.8820   236.4100   253.1110   264.1750     2.2150 
  166.5000   -48.1290    63.6120    24.9820   214.9120   247.6440   260.4200     2.2110 
  166.6250   -47.7340    62.4100    25.1220   200.6300   242.4880   256.9970     2.2070 
  166.7500   -47.2960    62.8020    25.2620   204.7380   235.0950   251.3880     2.2030 
  166.8750   -46.7850    64.3390    25.3050   216.3890   222.2640   240.5590     2.1990 
  167.0000   -46.2200    67.7000    25.2770   214.1240   201.9860   222.3390     2.1930 
  167.1250   -45.6310    69.0100    25.1620   185.3220   175.7440   196.9100     2.1880 
  167.2500   -45.0520    67.4520    25.0450   147.3020   149.6130   169.7600     2.1890 
  167.3750   -44.4900    67.4040    24.9970   115.4710   127.1160   145.0600     2.2010 
  167.5000   -43.9020    71.9540    24.9940    96.4080   109.9540   125.6320     2.2220 
  167.6250   -43.4110    75.6350    24.9700    89.6640    99.5240   113.9210     2.2370 
  167.7500   -42.9440    74.8760    24.9160    88.6930    94.6030   108.8310     2.2380 
  167.8750   -42.4870    72.7720    24.8330    91.7650    94.7360   109.7600     2.2270 
  168.0000   -42.1570    70.7090    24.7670    99.1290    99.1600   115.6760     2.2080 
  168.1250   -41.8200    68.4800    24.6980   107.7940   106.5010   124.7620     2.1910 
  168.2500   -41.4950    67.8080    24.5800   110.0020   113.2880   132.9350     2.1870 
  168.3750   -41.2300    69.3290    24.4240   102.9140   116.4390   136.9710     2.1980 
  168.5000   -41.0350    71.4780    24.2760    92.0950   114.1900   135.2530     2.2150 
  168.6250   -40.8110    72.2650    24.1260    87.2570   106.4210   127.4430     2.2250 
  168.7500   -40.6570    72.2990    23.9980    88.0190    96.2450   116.3990     2.2320 
  168.8750   -40.5570    71.5080    23.8640    87.6620    85.8550   104.3520     2.2390 
  169.0000   -40.4000    69.8760    23.7410    80.9050    76.8400    93.2810     2.2450 
  169.1250   -40.3670    69.9440    23.6540    70.0650    70.5240    85.0010     2.2490 
  169.2500   -40.3790    72.0050    23.6480    64.4620    66.8300    79.7580     2.2530 
  169.3750   -40.4140    75.9240    23.6520    67.8180    65.6630    77.6630     2.2560 
  169.5000   -40.4980    80.8720    23.6450    75.9410    66.7230    78.4130     2.2530 
  169.6250   -40.6490    83.4230    23.6740    80.3980    69.8500    81.7080     2.2430 
  169.7500   -40.7780    80.4330    23.8250    80.1140    74.2580    86.5380     2.2370 
  169.8750   -40.9360    74.5520    24.1230    79.6400    79.6310    92.5640     2.2390 
  170.0000   -41.1570    71.0240    24.4640    83.6560    86.0360    99.9090     2.2410 
  170.1250   -41.2990    70.2640    24.5720    94.6710    94.5100   109.7100     2.2380 
  170.2500   -41.4460    69.4420    24.5990   110.3870   105.6650   122.2900     2.2300 
  170.3750   -41.5990    68.8840    24.4220   128.3120   119.3600   136.9760     2.2230 
  170.5000   -41.7060    69.7940    24.2290   144.1310   133.6040   151.3970     2.2170 
  170.6250   -41.8170    70.7130    24.1700   150.4360   143.7790   161.2710     2.2110 
  170.7500   -41.9040    69.8980    24.1540   146.3950   147.6480   164.9560     2.2090 
  170.8750   -41.9730    68.4650    24.1520   135.8630   145.8260   162.8450     2.2120 
  171.0000   -42.0600    67.0890    24.1460   124.8640   140.7840   157.0430     2.2180 
  171.1250   -42.1480    67.5850    24.1330   118.4860   135.1150   150.2000     2.2250 
  171.2500   -42.2330    71.0130    24.1100   117.1610   130.2970   144.2540     2.2330 
  171.3750   -42.3460    74.7070    24.0870   119.7280   126.5000   139.6170     2.2410 
  171.5000   -42.4680    75.8270    24.0470   123.2230   123.4110   136.0590     2.2460 
  171.6250   -42.6130    73.8510    24.0280   123.4650   120.8550   133.3780     2.2460 
  171.7500   -42.8040    73.5540    24.0240   120.2040   119.2560   131.8160     2.2490 
  171.8750   -43.0130    75.3420    24.0340   116.3330   119.8000   132.5780     2.2500 
  172.0000   -43.1880    76.1220    24.0540   117.0110   123.9840   137.4410     2.2390 
  172.1250   -43.4150    76.1550    24.0650   131.6750   134.2720   149.4510     2.2100 
  172.2500   -43.6330    77.1170    24.0590   161.8900   150.5100   168.1690     2.1800 
  172.3750   -43.8100    76.2990    24.0370   199.4120   171.1480   191.0360     2.1570 
  172.5000   -44.0110    71.4940    24.0000   225.5590   190.6570   211.6740     2.1450 
  172.6250   -44.1150    64.6470    23.9590   218.2780   196.1950   218.4400     2.1440 
  172.7500   -44.2130    61.8910    23.9480   186.4970   184.0690   208.6520     2.1550 
  172.8750   -44.2690    62.8630    23.9580   149.0660   161.2470   187.0460     2.1720 
  173.0000   -44.2620    64.2030    23.9920   121.8240   138.6360   162.7870     2.1880 
  173.1250   -44.2340    64.5260    24.0170   110.4770   123.7320   144.7450     2.1990 
  173.2500   -44.1820    64.5270    24.0650   109.0020   115.9470   134.7120     2.2090 
  173.3750   -44.1080    65.6030    24.1560   115.0860   113.9410   131.9580     2.2190 
  173.5000   -44.0180    66.3640    24.2360   125.5720   116.2090   134.7370     2.2200 
  173.6250   -43.9340    65.3340    24.2750   133.0330   121.4910   141.3410     2.2110 
  173.7500   -43.7980    65.5360    24.2950   133.4040   127.6440   148.9820     2.1980 
  173.8750   -43.6620    67.7470    24.2930   130.2060   132.7460   155.2980     2.1870 
  174.0000   -43.5780    69.2820    24.2800   129.9900   134.4170   157.5920     2.1830 
  174.1250   -43.4090    67.3350    24.2820   132.5900   129.9080   152.7960     2.1870 
  174.2500   -43.2310    65.2310    24.2840   128.0430   120.8530   142.5190     2.1970 
  174.3750   -43.0750    67.0530    24.2850   112.6070   109.9070   129.5230     2.2100 
