~V
VERS. 2.00: Ver 2.00
~W
STRT.M 50.0000:
STOP.M 264.0000:
STEP.M 0.1250:
NULL. -999.2500:
UWI. DF32158:
~C
DEPT.M :
GR.API :
RML.OHMM :
RI. :
RXO.OHMM :
CALI.CM :
DEN.GM/CC :
SP.MV :
~A
   50.0000  -999.2500  -999.2500  -999.2500  -999.2500  -999.2500  -999.2500   141.1470 
   50.1250  -999.2500  -999.2500  -999.2500  -999.2500  -999.2500     2.0950   141.8460 
   50.2500  -999.2500  -999.2500  -999.2500  -999.2500  -999.2500     2.0950   142.5000 
   50.3750  -999.2500  -999.2500  -999.2500  -999.2500  -999.2500     2.0820   143.0570 
   50.5000  -999.2500  -999.2500  -999.2500  -999.2500  -999.2500     2.0520   143.5110 
   50.6250  -999.2500  -999.2500  -999.2500  -999.2500  -999.2500     2.0230   143.7750 
   50.7500  -999.2500  -999.2500  -999.2500  -999.2500  -999.2500     2.0090   143.9540 
   50.8750  -999.2500  -999.2500  -999.2500  -999.2500  -999.2500     1.9780   144.1040 
   51.0000  -999.2500  -999.2500  -999.2500  -999.2500  -999.2500     1.9530   144.3020 
   51.1250  -999.2500  -999.2500  -999.2500  -999.2500  -999.2500     1.9320   144.5650 
   51.2500  -999.2500  -999.2500  -999.2500  -999.2500  -999.2500     1.9150   144.8500 
   51.3750  -999.2500  -999.2500  -999.2500  -999.2500  -999.2500     1.9030   145.1730 
   51.5000  -999.2500  -999.2500  -999.2500  -999.2500  -999.2500     1.9020   145.5550 
   51.6250  -999.2500  -999.2500  -999.2500  -999.2500  -999.2500     1.9140   145.9500 
   51.7500  -999.2500  -999.2500  -999.2500  -999.2500  -999.2500     1.9390   146.2900 
   51.8750  -999.2500  -999.2500  -999.2500  -999.2500  -999.2500     1.9730   146.5840 
   52.0000  -999.2500  -999.2500  -999.2500  -999.2500  -999.2500     2.0100   146.8120 
   52.1250  -999.2500  -999.2500  -999.2500  -999.2500  -999.2500     2.0400   147.0060 
   52.2500  -999.2500  -999.2500  -999.2500  -999.2500  -999.2500     2.0560   147.1830 
   52.3750  -999.2500  -999.2500  -999.2500  -999.2500  -999.2500     2.0600   147.3050 
   52.5000  -999.2500  -999.2500  -999.2500  -999.2500  -999.2500     2.0580   147.3010 
   52.6250  -999.2500  -999.2500  -999.2500  -999.2500  -999.2500     2.0560   147.2170 
   52.7500  -999.2500  -999.2500  -999.2500  -999.2500  -999.2500     2.0560   147.1160 
   52.8750  -999.2500  -999.2500  -999.2500  -999.2500  -999.2500     2.0540   146.9470 
   53.0000  -999.2500  -999.2500  -999.2500  -999.2500  -999.2500     2.0520   146.7280 
   53.1250  -999.2500  -999.2500  -999.2500  -999.2500  -999.2500     2.0530   146.5090 
   53.2500  -999.2500  -999.2500  -999.2500  -999.2500  -999.2500     2.0600   146.3380 
   53.3750  -999.2500  -999.2500  -999.2500  -999.2500  -999.2500     2.0700   146.2170 
   53.5000    49.4240     6.7160     3.1920     3.4230    26.0720     2.0790   146.1100 
   53.6250    49.4240     6.7160     3.1920     3.4230    26.0720     2.0740   146.0360 
   53.7500    48.1240     6.7160     3.1920     3.4230    26.0720     2.0540   145.9480 
   53.8750    46.2000     6.7160     3.1920     3.4230    26.0720     2.0210   145.8930 
   54.0000    45.0640     6.7160     3.1920     3.4230    26.0720     1.9860   145.8180 
   54.1250    45.5250     6.8240     3.1510     3.1720    26.0710     1.9610   145.6490 
   54.2500    48.6790     6.9430     3.1440     2.8510    26.0680     1.9510   145.3470 
   54.3750    53.4710     7.0950     3.1710     2.5750    26.0650     1.9540   144.8600 
   54.5000    56.6730     7.2310     3.2020     2.3770    26.0610     1.9640   144.2570 
   54.6250    54.7660     7.2840     3.2080     2.3320    26.0570     1.9720   143.4450 
   54.7500    51.9790     7.2610     3.2010     2.3470    26.0560     1.9760   142.4660 
   54.8750    52.0150     7.1960     3.1920     2.3080    26.0620     1.9730   141.2390 
   55.0000    53.3090     7.1300     3.1890     2.1940    26.0690     1.9640   139.7150 
   55.1250    52.9760     7.0980     3.1940     2.1370    26.0680     1.9520   137.8140 
   55.2500    51.3290     7.0900     3.1980     2.2260    26.0650     1.9440   135.5930 
   55.3750    50.5180     7.0780     3.1990     2.3400    26.0560     1.9460   133.1910 
   55.5000    51.9460     7.0470     3.1980     2.4310    26.0410     1.9580   130.6520 
   55.6250    52.3750     6.9950     3.2020     2.3790    26.0470     1.9740   128.0560 
   55.7500    50.6260     6.9520     3.2140     2.3300    26.0560     1.9850   125.3090 
   55.8750    48.3240     6.9450     3.2330     2.3720    26.0620     1.9900   122.3930 
   56.0000    47.4660     6.9720     3.2570     2.4630    26.0580     1.9910   119.3540 
   56.1250    48.2560     6.9880     3.2780     2.3530    26.0470     1.9930   116.2210 
   56.2500    47.7730     6.9560     3.2970     2.0690    26.0440     1.9960   113.0510 
   56.3750    45.8510     6.8810     3.3210     1.8680    26.0440     1.9940   109.8260 
   56.5000    44.4680     6.8100     3.3540     1.9160    26.0390     1.9880   106.5620 
   56.6250    46.3360     6.8040     3.4010     2.1640    26.0260     1.9780   103.1270 
   56.7500    48.8900     6.8520     3.4510     2.3840    26.0180     1.9690    99.6950 
   56.8750    48.8800     6.9030     3.4910     2.5470    26.0320     1.9630    96.4520 
   57.0000    48.2290     6.9110     3.5120     2.5980    26.0290     1.9570    93.5520 
   57.1250    48.5890     6.8480     3.5110     2.6760    26.0030     1.9490    91.1260 
   57.2500    48.2070     6.7240     3.4980     2.7560    26.0120     1.9430    89.0070 
   57.3750    47.3080     6.5370     3.4800     2.8300    26.0900     1.9410    87.0430 
   57.5000    48.5470     6.2770     3.4450     2.9140    26.0950     1.9490    85.1570 
   57.6250    50.4760     5.9550     3.3770     3.0360    26.0690     1.9650    83.4070 
   57.7500    49.7400     5.6630     3.2920     3.1130    26.0480     1.9820    81.7120 
   57.8750    47.4620     5.4760     3.2090     3.1430    26.0440     1.9920    79.8750 
   58.0000    45.6120     5.3290     3.0930     3.0210    26.0300     1.9910    77.6890 
   58.1250    43.3630     4.7120     2.7340     2.5270    25.9590     1.9860    74.8530 
   58.2500    41.0980     3.4580     2.0790     1.9770    25.8390     2.0050    71.3970 
   58.3750    41.3400     2.1020     1.3400     1.6340    25.7540     2.0790    67.2550 
   58.5000    44.7620     1.1420     0.7610     1.6200    25.7400     2.2140    62.2020 
   58.6250    49.8660     0.6780     0.4520     1.7380    25.7320     2.3640    55.9120 
   58.7500    54.1290     0.5070     0.3350     1.8550    25.8280     2.4460    48.4730 
   58.8750    58.0070     0.5820     0.4050     2.4590    26.4970     2.4100    40.2170 
   59.0000    63.6980     0.9290     0.7130     4.0950    28.4380     2.2650    31.7230 
   59.1250    70.4720     1.6930     1.4400     6.4170    31.2670     2.0860    23.4570 
   59.2500    73.2410     2.8420     2.6350     7.7380    32.0570     1.9650    15.6270 
   59.3750    70.8150     4.1580     4.1770     8.5690    30.0210     1.9330     8.4450 
   59.5000    68.7130     5.1960     5.6560     9.9830    27.0740     1.9730     2.2150 
   59.6250    72.3900     5.6300     6.6190    11.5120    24.9920     2.0430    -2.6450 
   59.7500    77.5010     5.7940     7.2030    11.8980    23.8540     2.1030    -6.1830 
   59.8750    79.8180     5.9490     7.6120    11.5400    23.3070     2.1390    -8.6130 
   60.0000    77.9820     6.1740     7.9490    11.2110    23.1080     2.1550   -10.4140 
   60.1250    73.6100     6.4350     8.2340    11.3250    23.0670     2.1560   -11.7820 
   60.2500    69.8840     6.6790     8.5020    11.5600    23.0910     2.1510   -12.8200 
   60.3750    70.1810     6.8910     8.7720    11.6160    23.1890     2.1400   -13.5410 
   60.5000    74.3210     7.0850     9.0510    11.3530    23.4290     2.1230   -13.9230 
   60.6250    79.1290     7.2720     9.3030    11.0270    23.6350     2.1070   -13.9230 
   60.7500    81.7900     7.4040     9.4390    10.6770    23.6880     2.1010   -13.5950 
   60.8750    84.2100     7.4070     9.3640     9.9850    23.4890     2.1130   -13.0010 
   61.0000    91.2320     7.2300     9.0360     9.1950    22.9660     2.1440   -12.1430 
   61.1250   102.2980     6.8500     8.4700     8.6390    22.3250     2.1930   -11.0360 
