~V
VERS. 2.00: Ver 2.00
~W
STRT.M 60.0000:
STOP.M 276.0000:
STEP.M 0.1250:
NULL. -999.2500:
UWI. DF32145:
~C
DEPT.M :
SP.MV :
GR.API :
CALI.CM :
RXO.OHMM :
RI. :
RML.OHMM :
DEN.GM/CC :
~A
# ...
  150.0000   -23.9490    79.2180    22.5070    12.3270    12.2520    14.3660     2.3600 
  150.1250   -23.9930    73.3260    22.7390    15.4950    15.2960    18.2700     2.3200 
  150.2500   -24.0770    68.9190    22.9920    19.6910    19.2540    23.3620     2.2640 
  150.3750   -24.1650    65.6450    23.2930    25.8410    23.9180    29.3400     2.2160 
  150.5000   -24.2600    63.9470    23.7950    32.8620    28.7850    35.4600     2.1860 
  150.6250   -24.3240    63.3880    24.5960    37.6260    33.0100    40.5160     2.1730 
  150.7500   -24.3660    62.0600    24.6570    40.2620    36.1090    44.0270     2.1660 
  150.8750   -24.4050    60.7410    24.6690    41.3020    37.8840    45.9090     2.1620 
  151.0000   -24.4550    61.7290    24.6690    40.7470    38.3850    46.3230     2.1630 
  151.1250   -24.5450    64.3220    24.6690    39.6580    37.8040    45.5520     2.1690 
  151.2500   -24.6650    65.6220    24.6690    38.9650    36.7630    44.3000     2.1750 
  151.3750   -24.7630    65.9800    24.6690    37.7190    35.5650    42.8860     2.1790 
  151.5000   -24.8090    67.1310    24.6690    35.2880    34.4060    41.5070     2.1820 
  151.6250   -24.8860    69.5840    24.6690    32.7170    33.4400    40.3170     2.1850 
  151.7500   -24.9790    70.6680    24.6690    31.6710    32.6590    39.2830     2.1860 
  151.8750   -25.0770    67.7870    24.6690    31.7320    32.0330    38.3510     2.1840 
  152.0000   -25.1320    62.6680    24.6690    32.0990    31.5490    37.5320     2.1820 
  152.1250   -25.1090    60.5410    24.6680    32.0840    31.2840    37.0110     2.1820 
  152.2500   -25.0470    62.6430    24.6620    30.9740    31.2390    36.8710     2.1870 
  152.3750   -24.9930    65.9130    24.6370    29.6520    31.2930    36.9620     2.2060 
  152.5000   -24.9730    67.0780    24.5600    29.0380    31.0900    36.7580     2.2470 
  152.6250   -24.9200    67.2690    24.2150    29.0770    30.0220    35.3470     2.3050 
  152.7500   -24.8480    68.6190    23.5060    27.9560    28.0330    32.6320     2.3520 
  152.8750   -24.7540    69.5290    22.7290    24.3780    25.3980    29.0550     2.3750 
  153.0000   -24.6870    68.3160    22.2400    19.4210    22.6140    25.3940     2.3700 
  153.1250   -24.6680    66.9830    22.1720    15.9830    20.2620    22.4760     2.3410 
  153.2500   -24.7020    70.0100    22.4950    15.4320    18.5140    20.4190     2.2990 
  153.3750   -24.7490    76.3320    23.0650    15.6970    17.3410    19.1010     2.2590 
  153.5000   -24.7960    81.9830    23.6670    15.1860    16.6210    18.3120     2.2300 
  153.6250   -24.8670    82.9530    23.9070    14.8480    16.2690    17.9140     2.2150 
  153.7500   -24.9860    79.8920    23.9590    14.3630    16.1100    17.7330     2.2130 
  153.8750   -25.1590    74.9410    23.9350    13.6870    16.0560    17.7170     2.2240 
  154.0000   -25.3760    71.1600    23.8910    13.2290    16.0160    17.7840     2.2400 
  154.1250   -25.5830    72.2270    23.8290    13.6340    15.8110    17.6890     2.2440 
  154.2500   -25.7540    76.2490    23.7490    14.2140    15.2900    17.1720     2.2310 
  154.3750   -25.8980    81.7460    23.6630    13.7330    14.3980    16.1380     2.2110 
  154.5000   -26.0040    85.1830    23.6030    12.2140    13.2520    14.7520     2.1990 
  154.6250   -26.0620    83.2570    23.6060    10.8030    12.1460    13.4420     2.2000 
  154.7500   -26.0900    79.8200    23.6690    10.1810    11.4050    12.6320     2.2050 
  154.8750   -26.0300    78.5920    23.7680    10.2210    11.2640    12.6050     2.2110 
  155.0000   -25.8950    79.4920    23.8510    10.6870    11.8820    13.5560     2.2290 
  155.1250   -25.7310    78.4730    23.8820    12.2390    13.4790    15.7940     2.2830 
  155.2500   -25.5710    76.1300    23.8810    15.6400    15.8220    19.0440     2.3680 
  155.3750   -25.4200    73.6280    23.8580    20.0710    18.5640    22.8300     2.4630 
  155.5000   -25.2660    69.6630    23.8030    22.9000    21.0990    26.2490     2.5410 
  155.6250   -25.1140    66.7470    23.7550    23.0970    22.6380    28.1180     2.5820 
  155.7500   -24.9430    66.5250    23.7040    22.3310    23.2230    28.6280     2.5970 
  155.8750   -24.8220    66.7930    23.6700    22.1300    23.2620    28.4950     2.5970 
  156.0000   -24.7420    65.7070    23.6570    22.7200    23.2360    28.4310     2.5930 
  156.1250   -24.6790    64.8150    23.6570    23.7930    23.4550    28.8340     2.5930 
  156.2500   -24.6010    65.1110    23.6570    26.0220    23.8310    29.5020     2.5950 
  156.3750   -24.5460    63.8910    23.6570    28.2040    24.1490    30.0780     2.5980 
  156.5000   -24.5040    61.3400    23.6570    28.3410    24.2110    30.2360     2.6030 
  156.6250   -24.5010    60.9200    23.6850    25.7880    23.9230    29.8440     2.6060 
  156.7500   -24.5010    61.2390    23.7590    23.1210    23.4710    29.2300     2.6080 
  156.8750   -24.5010    60.5970    23.8530    21.1860    23.0140    28.6570     2.6130 
  157.0000   -24.4910    58.9500    23.9340    20.2670    22.6520    28.2720     2.6200 
  157.1250   -24.4660    59.6000    23.9600    20.5390    22.3630    28.0090     2.6230 
  157.2500   -24.4550    62.7720    23.9670    20.9530    21.9050    27.4660     2.6190 
  157.3750   -24.4440    65.7590    23.9670    20.6280    20.9850    26.2000     2.6080 
  157.5000   -24.4610    67.0620    23.9670    19.4530    19.4420    24.0100     2.5930 
  157.6250   -24.4790    67.8100    23.9670    17.5350    17.3850    21.1270     2.5710 
  157.7500   -24.5010    69.5370    23.9670    15.0540    15.3190    18.3180     2.5440 
  157.8750   -24.4810    72.3440    23.9670    12.6160    13.6070    16.0960     2.5230 
  158.0000   -24.4430    75.1320    23.9670    11.0040    12.4730    14.7460     2.5170 
  158.1250   -24.4030    74.6840    23.9670    10.8280    12.1010    14.4920     2.5280 
  158.2500   -24.3540    69.4860    23.9520    11.8660    12.3330    15.0740     2.5430 
  158.3750   -24.2960    62.3260    23.8950    13.7120    13.0290    16.2540     2.5510 
  158.5000   -24.2110    59.0410    23.7740    15.4580    13.9360    17.6290     2.5540 
  158.6250   -24.0750    60.0820    23.6840    16.2120    14.6230    18.5530     2.5610 
  158.7500   -23.9180    60.4260    23.6500    15.7350    14.8140    18.7150     2.5730 
  158.8750   -23.7750    60.0300    23.6480    14.5770    14.5110    18.1950     2.5830 
  159.0000   -23.6440    62.4120    23.6750    13.1560    13.9180    17.3360     2.5870 
  159.1250   -23.4770    67.9970    23.7570    12.5530    13.3090    16.5360     2.5840 
  159.2500   -23.2900    70.3780    23.8780    12.3860    12.8730    16.0110     2.5710 
  159.3750   -23.1070    69.3930    23.9480    12.3530    12.6790    15.8430     2.5530 
  159.5000   -22.9600    68.4330    23.9670    12.2930    12.7470    16.0600     2.5380 
  159.6250   -22.9020    67.4810    23.9670    12.7960    13.0810    16.6690     2.5330 
  159.7500   -22.8750    64.6090    23.9670    13.7770    13.5300    17.4250     2.5360 
  159.8750   -22.8840    61.4900    23.9670    14.8270    13.9180    18.0400     2.5440 
  160.0000   -22.8930    60.7390    23.9670    15.2890    14.0500    18.1890     2.5530 
  160.1250   -22.9680    59.9940    23.9670    14.5150    13.7410    17.5860     2.5560 
  160.2500   -23.0430    58.7010    23.9670    13.0620    13.1270    16.5250     2.5450 
  160.3750   -23.1450    58.1880    23.9670    11.9000    12.4090    15.3940     2.5240 
  160.5000   -23.2710    58.9740    23.9660    11.5160    11.8120    14.5660     2.5030 
  160.6250   -23.4210    60.4800    23.9440    11.8870    11.6140    14.4050     2.4940 
  160.7500   -23.5580    62.2690    23.8710    12.5520    11.8780    14.9140     2.5000 
  160.8750   -23.7000    66.5390    23.7680    13.3330    12.5940    16.0240     2.5240 
  161.0000   -23.8570    71.8350    23.7370    14.4660    13.6290    17.5040     2.5590 
  161.1250   -24.0680    71.9910    23.8080    15.9370    14.6640    18.8710     2.5830 
