~V
VERS. 2.00: Ver 2.00
~W
STRT.M 61.0000:
STOP.M 325.0000:
STEP.M 0.1250:
NULL. -999.2500:
UWI. DF320:
~C
DEPT.M :
GR.API :
RML.OHMM :
RI. :
RXO.OHMM :
CALI.CM :
SP.MV :
DEN.GM/CC :
AC.US/MT :
~A
# ...
  161.0000    69.4440     9.6860     8.9910    10.3640    23.6640   -16.9620     2.1940   429.5990 
  161.1250    75.7980     9.2570     8.5700     9.6190    23.7250   -16.0140     2.2090   427.8440 
  161.2500    79.7750     8.8490     8.1510     8.6710    23.8240   -15.0760     2.2200   425.8890 
  161.3750    80.5740     8.4620     7.7500     7.7330    23.9300   -14.2200     2.2290   423.8550 
  161.5000    81.5960     8.0820     7.3690     7.3220    23.9950   -13.4830     2.2370   421.8250 
  161.6250    84.2960     7.7200     7.0240     7.0600    24.0670   -12.8520     2.2520   419.7090 
  161.7500    89.6100     7.4000     6.7350     6.5970    24.1800   -12.2890     2.2710   417.7800 
  161.8750    96.8820     7.1410     6.5180     6.2570    24.2720   -11.8180     2.2900   416.6700 
  162.0000   102.8380     6.9390     6.3750     6.1610    24.2970   -11.4750     2.3040   416.5130 
  162.1250   102.4970     6.8040     6.2970     6.1780    24.2710   -11.3220     2.3110   416.2720 
  162.2500    97.8980     6.7490     6.2580     6.2750    24.2470   -11.2850     2.3140   414.6170 
  162.3750    94.1250     6.7850     6.2490     6.3420    24.2430   -11.2760     2.3180   411.8390 
  162.5000    94.8500     6.8730     6.2680     6.2520    24.2630   -11.2550     2.3190   409.7290 
  162.6250    98.8570     6.9930     6.3190     6.1690    24.3050   -11.2810     2.3160   410.2460 
  162.7500   101.8690     7.0870     6.3840     6.0910    24.3900   -11.3650     2.3070   412.6860 
  162.8750   100.6350     7.1280     6.4390     6.1110    24.4590   -11.4720     2.2920   415.7140 
  163.0000    97.4740     7.1050     6.4610     6.2230    24.4980   -11.5480     2.2770   418.3500 
  163.1250    98.5150     7.0080     6.4320     6.2990    24.5260   -11.5100     2.2680   420.0080 
  163.2500   100.2960     6.8770     6.3670     6.3370    24.5490   -11.4040     2.2690   420.4360 
  163.3750    98.0840     6.7680     6.2880     6.2560    24.5770   -11.3040     2.2800   419.4450 
  163.5000    92.5600     6.6940     6.2130     6.1410    24.6160   -11.2300     2.2970   416.9450 
  163.6250    91.2120     6.6590     6.1660     6.0270    24.6450   -11.1450     2.3110   412.9370 
  163.7500    93.3980     6.6580     6.1490     6.0100    24.6530   -11.0140     2.3170   409.1010 
  163.8750    93.6150     6.6870     6.1580     6.0460    24.6470   -10.8640     2.3120   407.3550 
  164.0000    88.9810     6.7210     6.1820     6.1360    24.6350   -10.7060     2.3030   408.5470 
  164.1250    83.6180     6.7270     6.2000     6.1860    24.6270   -10.6140     2.2980   410.6180 
  164.2500    84.0320     6.7200     6.1950     6.0850    24.6390   -10.5960     2.2990   410.9330 
  164.3750    90.8140     6.6930     6.1560     5.9180    24.6550   -10.5910     2.3050   409.6870 
  164.5000   100.4090     6.6380     6.0800     5.8420    24.6640   -10.5590     2.3110   408.4940 
  164.6250   106.4030     6.5380     5.9610     5.7200    24.6690   -10.4950     2.3160   408.8320 
  164.7500   106.8590     6.4180     5.8120     5.6360    24.6800   -10.4640     2.3190   410.4340 
  164.8750   102.7080     6.2770     5.6460     5.5510    24.6990   -10.4750     2.3260   413.3770 
  165.0000    98.9930     6.1340     5.4800     5.4560    24.7180   -10.5410     2.3360   417.5680 
  165.1250   101.7950     6.0240     5.3330     5.3670    24.7260   -10.6280     2.3470   421.9050 
  165.2500   108.2020     5.9310     5.2220     5.3220    24.7270   -10.6930     2.3540   424.9890 
  165.3750   112.7250     5.8680     5.1670     5.3860    24.7240   -10.7770     2.3530   426.1720 
  165.5000   111.7710     5.8810     5.1910     5.4890    24.7150   -10.9440     2.3440   425.6690 
  165.6250   106.7710     6.0670     5.3350     5.6610    24.6900   -11.2090     2.3270   423.7160 
  165.7500   101.3140     6.3650     5.5740     5.9250    24.6350   -11.4930     2.3050   421.1180 
  165.8750    96.4430     6.7000     5.8610     6.3350    24.5420   -11.7490     2.2810   419.0650 
  166.0000    91.5070     6.9640     6.1170     6.8200    24.4280   -11.9450     2.2570   419.1230 
  166.1250    87.9030     7.0310     6.2340     7.1740    24.3170   -12.0410     2.2420   422.6660 
  166.2500    86.7510     6.9070     6.1870     7.1610    24.3060   -12.0790     2.2400   428.1340 
  166.3750    89.3800     6.6540     6.0020     6.5480    24.4040   -12.0670     2.2510   433.5880 
  166.5000    97.0690     6.3590     5.7540     5.7790    24.5330   -11.9750     2.2700   437.4040 
  166.6250   106.8110     6.1160     5.5380     5.4750    24.6010   -11.7920     2.2920   438.3800 
  166.7500   110.0080     5.9400     5.4000     5.4170    24.5950   -11.5780     2.3130   436.1290 
  166.8750   106.3170     5.8440     5.3400     5.5830    24.5460   -11.3920     2.3310   429.0170 
  167.0000   103.4440     5.8220     5.3370     5.9300    24.5040   -11.2790     2.3490   416.4040 
  167.1250   104.9730     5.9090     5.3740     6.1790    24.5020   -11.3100     2.3610   401.8400 
  167.2500   105.8550     6.0680     5.4480     6.0830    24.5110   -11.4620     2.3620   392.9530 
  167.3750   105.1420     6.3480     5.5790     6.0490    24.5020   -11.6880     2.3490   393.1460 
  167.5000   103.7200     6.7350     5.7900     6.1760    24.4580   -11.9810     2.3250   399.5370 
  167.6250   100.2620     7.1240     6.0910     6.5220    24.3810   -12.3730     2.2940   405.5240 
  167.7500    92.6950     7.5420     6.4270     6.9030    24.3040   -12.8080     2.2650   408.2660 
  167.8750    84.8570     7.8970     6.7340     7.2140    24.2730   -13.2020     2.2430   409.2780 
  168.0000    83.0620     8.1050     6.9410     7.3050    24.2690   -13.5010     2.2310   410.1110 
  168.1250    86.2100     8.0850     6.9630     7.2060    24.2710   -13.6870     2.2290   410.4190 
  168.2500    88.7430     7.8900     6.8210     7.0470    24.2750   -13.8180     2.2350   409.9960 
  168.3750    90.9670     7.5810     6.5570     6.8240    24.2840   -13.9400     2.2470   409.7010 
  168.5000    94.7190     7.2420     6.2430     6.6350    24.2990   -14.0320     2.2630   410.5970 
  168.6250    96.9980     6.9790     5.9750     6.4960    24.3220   -14.0500     2.2790   413.1430 
  168.7500    96.3390     6.8760     5.8330     6.4170    24.3320   -14.0590     2.2890   416.2540 
  168.8750    96.7480     6.9920     5.8740     6.5460    24.3320   -14.1230     2.2890   419.0550 
  169.0000    96.8500     7.3390     6.1230     6.9530    24.3190   -14.2880     2.2760   420.9570 
  169.1250    89.4660     7.8580     6.5660     7.6280    24.2890   -14.5190     2.2500   421.6890 
  169.2500    80.8880     8.3580     7.0590     8.4300    24.2270   -14.6850     2.2200   421.9180 
  169.3750    76.7160     8.6770     7.4590     9.2590    24.1390   -14.7050     2.1940   422.1420 
  169.5000    76.4760     8.7130     7.6420     9.5590    24.0920   -14.5570     2.1790   422.5510 
  169.6250    79.5750     8.4480     7.5200     8.9760    24.1370   -14.2640     2.1850   422.5440 
  169.7500    82.1640     8.0640     7.2120     7.9490    24.2410   -13.8640     2.2050   421.2410 
  169.8750    82.5790     7.6940     6.8360     6.9690    24.3450   -13.3770     2.2320   418.2570 
  170.0000    84.2040     7.4180     6.4970     6.3710    24.4140   -12.8230     2.2580   414.0230 
  170.1250    92.9070     7.2670     6.2670     6.2090    24.4200   -12.2180     2.2760   409.5050 
  170.2500   101.8390     7.2010     6.1410     6.1910    24.4040   -11.6730     2.2890   405.4240 
  170.3750   103.0490     7.2030     6.1050     6.1920    24.3860   -11.2840     2.2980   402.2660 
  170.5000    99.6600     7.2590     6.1400     6.1410    24.3680   -11.0840     2.3060   400.8910 
  170.6250   100.4420     7.3370     6.2160     5.9860    24.3470   -11.0410     2.3090   402.5350 
  170.7500   100.2640     7.3680     6.2720     5.8450    24.3390   -11.0560     2.3030   406.2360 
  170.8750    95.0160     7.2830     6.2560     5.8730    24.3400   -11.1180     2.2920   410.3870 
