~V
VERS. 2.00: Ver 2.00
~W
STRT.M 53.0000:
STOP.M 258.0000:
STEP.M 0.1250:
NULL. -999.2500:
UWI. DF32102:
~C
DEPT.M :
SP.MV :
GR.API :
RML.OHMM :
RI. :
RXO.OHMM :
CALI.CM :
DEN.GM/CC :
~A
# ...
   64.2500   -26.6620    70.0960     9.7300     9.9880    16.1030    23.5010     2.2580 
   64.3750   -27.1120    71.5050     9.5870     9.8530    14.0190    23.6250     2.2370 
   64.5000   -27.4980    71.8510     9.3480     9.5890    13.4510    23.7130     2.2100 
   64.6250   -27.8390    70.5740     9.1590     9.3240    13.4450    23.7460     2.1890 
   64.7500   -28.1490    67.3730     9.1000     9.1660    13.4430    23.7510     2.1780 
   64.8750   -28.4260    63.9940     9.1630     9.1370    13.4740    23.7530     2.1750 
   65.0000   -28.6770    62.6550     9.2870     9.2030    13.6110    23.7550     2.1770 
   65.1250   -28.8950    63.7740     9.3830     9.2870    13.7550    23.7560     2.1780 
   65.2500   -29.0950    64.7870     9.4130     9.3280    13.5860    23.7560     2.1780 
   65.3750   -29.2990    63.3850     9.3890     9.3180    12.9920    23.7560     2.1780 
   65.5000   -29.4950    61.0110     9.3510     9.2820    12.6090    23.7560     2.1790 
   65.6250   -29.7130    62.1480     9.3390     9.2590    12.6780    23.7560     2.1820 
   65.7500   -29.9400    66.0180     9.3500     9.2570    12.9970    23.7560     2.1870 
   65.8750   -30.1260    67.9770     9.3700     9.2660    13.1950    23.7560     2.1930 
   66.0000   -30.2640    67.6630     9.3850     9.2690    13.2980    23.7560     2.1990 
   66.1250   -30.4700    69.0590     9.3910     9.2500    13.0190    23.7550     2.2010 
   66.2500   -30.7400    69.9620     9.4080     9.2150    12.5460    23.7600     2.2000 
   66.3750   -31.0510    68.2350     9.4500     9.1760    12.3000    23.7910     2.1960 
   66.5000   -31.4540    66.4380     9.5190     9.1440    12.3140    23.8700     2.1930 
   66.6250   -31.9100    67.2530     9.5960     9.1220    12.2260    23.9430     2.1900 
   66.7500   -32.3880    68.2240     9.6550     9.1060    12.1350    23.9930     2.1880 
   66.8750   -32.8750    67.9620     9.6820     9.0900    12.1530    24.0140     2.1840 
   67.0000   -33.4010    68.2970     9.6760     9.0710    12.1360    24.0200     2.1780 
   67.1250   -34.0070    69.1190     9.6440     9.0440    12.6430    24.0180     2.1710 
   67.2500   -34.6530    67.6810     9.6040     9.0090    13.4680    24.0080     2.1630 
   67.3750   -35.2840    64.7860     9.5570     8.9660    13.2640    23.9830     2.1560 
   67.5000   -35.8610    63.3140     9.5000     8.9190    12.5010    23.9550     2.1540 
   67.6250   -36.3020    64.9670     9.4370     8.8850    12.3070    23.9450     2.1590 
   67.7500   -36.6300    66.8570     9.3930     8.8890    12.5970    23.9580     2.1680 
   67.8750   -36.9350    66.9830     9.4020     8.9540    12.6880    24.0200     2.1780 
   68.0000   -37.1190    66.5550     9.4960     9.0970    12.7470    24.1960     2.1810 
   68.1250   -36.9310    66.9910     9.6810     9.3160    12.9890    24.5590     2.1730 
   68.2500   -36.3190    65.5470     9.8670     9.5330    13.6610    25.0370     2.1580 
   68.3750   -35.2270    60.2140     9.9340     9.6480    13.5900    25.4800     2.1450 
   68.5000   -33.7070    55.3160     9.7620     9.5500    13.2320    25.9130     2.1430 
   68.6250   -31.9250    59.0920     9.2470     9.1240    13.0040    26.2880     2.1600 
   68.7500   -30.0080    67.6390     8.5150     8.4560    11.9210    26.4500     2.1920 
   68.8750   -28.0180    74.4330     7.7200     7.6700     9.4800    26.3070     2.2300 
   69.0000   -26.1020    79.5680     7.0160     6.9100     6.7710    25.9080     2.2630 
   69.1250   -24.3890    86.4780     6.5450     6.3230     5.9790    25.4160     2.2820 
   69.2500   -23.0290    93.2360     6.2920     5.9320     5.8350    25.0340     2.2930 
   69.3750   -22.2100    95.8320     6.2250     5.7310     5.7430    24.8880     2.3000 
   69.5000   -21.8420    95.5960     6.2950     5.6870     5.5940    24.8900     2.3060 
   69.6250   -21.7460    96.3760     6.4630     5.7730     5.6800    24.9950     2.3110 
   69.7500   -21.8660    94.4990     6.6600     5.9160     5.9950    25.1040     2.3160 
   69.8750   -22.0970    90.3550     6.8230     6.0580     6.6570    25.1470     2.3230 
   70.0000   -22.4710    87.1200     6.8750     6.1290     7.1720    25.1450     2.3380 
   70.1250   -23.1640    87.9740     6.7220     6.0480     8.1020    25.1570     2.3600 
   70.2500   -24.0520    91.1720     6.4580     5.8690     8.5790    25.2600     2.3840 
   70.3750   -25.1000    94.9200     6.3030     5.7540     7.5710    25.4610     2.4090 
   70.5000   -26.2790    97.6760     6.5820     5.9550     6.2590    25.5970     2.4330 
   70.6250   -27.7570    93.8100     7.6960     6.8360     6.4540    25.3900     2.4500 
   70.7500   -29.4050    84.4480     9.5150     8.3660     9.6440    25.1860     2.4480 
   70.8750   -31.2130    74.4790    11.6740    10.3100    18.9270    25.0490     2.4160 
   71.0000   -32.9930    66.3350    13.5360    12.1720    27.4750    24.7980     2.3530 
   71.1250   -34.5160    61.3900    14.1660    13.1340    23.1850    24.2610     2.2770 
   71.2500   -35.9080    57.8290    13.5100    12.9660    17.5140    23.7020     2.2140 
   71.3750   -36.9970    55.3230    12.1150    11.9510    15.0320    23.3350     2.1760 
   71.5000   -37.9130    54.9340    10.7700    10.6990    13.7600    23.1730     2.1630 
   71.6250   -38.5110    58.4910    10.0150     9.7660    13.2080    23.1270     2.1660 
   71.7500   -38.7920    61.5300     9.7510     9.2420    13.0340    23.1740     2.1710 
   71.8750   -38.8710    60.9110     9.7980     9.0440    12.9850    23.3310     2.1730 
   72.0000   -38.7310    58.9530     9.9740     9.0410    12.9850    23.5110     2.1720 
   72.1250   -38.5010    59.0480    10.1380     9.1200    12.9480    23.6210     2.1690 
   72.2500   -38.0690    58.9870    10.2470     9.2030    12.8560    23.6520     2.1650 
   72.3750   -37.5320    56.6740    10.3270     9.2790    12.9130    23.6550     2.1590 
   72.5000   -36.9000    53.8200    10.4170     9.3590    13.0000    23.6650     2.1540 
   72.6250   -36.1300    53.8210    10.5300     9.4350    13.0620    23.6930     2.1520 
   72.7500   -35.4260    56.4770    10.5990     9.4560    13.1550    23.7290     2.1570 
   72.8750   -34.6860    60.5270    10.5140     9.3400    13.0490    23.7410     2.1720 
   73.0000   -33.9460    62.7440    10.1730     9.0050    12.5920    23.7040     2.1960 
   73.1250   -33.3740    61.3600     9.5220     8.3990    12.0240    23.5710     2.2230 
   73.2500   -32.9910    63.5580     8.7540     7.6670    10.9220    23.4160     2.2450 
   73.3750   -32.8190    73.6870     8.0860     6.9790     8.9180    23.3830     2.2550 
   73.5000   -32.8970    84.6740     7.7180     6.5010     6.9940    23.5030     2.2540 
   73.6250   -33.2750    86.4940     7.8330     6.4030     6.6820    23.4990     2.2440 
   73.7500   -33.6930    81.8210     8.3330     6.6430     7.7400    23.2470     2.2320 
   73.8750   -34.2390    78.2850     9.0820     7.1440     9.4590    22.9390     2.2210 
   74.0000   -35.0020    76.8450     9.8810     7.7710    10.4900    22.7910     2.2130 
   74.1250   -35.6600    74.1980    10.4650     8.3290    10.7070    22.7040     2.2070 
   74.2500   -36.2840    70.3500    10.7320     8.6820    11.0800    22.6040     2.2030 
   74.3750   -36.7660    66.0930    10.7140     8.8000    11.6690    22.6870     2.1960 
   74.5000   -37.0170    64.9610    10.5440     8.7380    12.0510    22.9800     2.1850 
   74.6250   -37.1620    67.6550    10.3780     8.5920    11.8150    23.2370     2.1690 
   74.7500   -37.2300    68.7490    10.2920     8.4570    11.7370    23.3020     2.1560 
   74.8750   -37.2760    66.8510    10.2860     8.3610    11.8350    23.2300     2.1500 
   75.0000   -37.2550    67.2640    10.3320     8.3070    11.9480    23.1180     2.1540 
   75.1250   -37.3140    72.2650    10.4010     8.2940    11.8410    23.0350     2.1690 
   75.2500   -37.3950    74.6460    10.4670     8.3070    11.6770    23.0290     2.1880 
   75.3750   -37.4850    72.5980    10.5230     8.3420    11.6250    23.1140     2.2050 
