~V
VERS. 2.00: Ver 2.00
~W
STRT.M 53.0000:
STOP.M 258.0000:
STEP.M 0.1250:
NULL. -999.2500:
UWI. DF32102:
~C
DEPT.M :
SP.MV :
GR.API :
RML.OHMM :
RI. :
RXO.OHMM :
CALI.CM :
DEN.GM/CC :
~A
# ...
  221.7500   -26.4610    60.2200   103.5380    83.8560    99.3610    24.5140     2.2450 
  221.8750   -26.5740    58.4980   118.1170    95.0900   104.6880    24.3680     2.2330 
  222.0000   -26.7110    56.4550   127.3050   102.6610   100.6330    24.1010     2.2240 
  222.1250   -26.7610    55.4790   127.8470   104.2420    99.6720    23.7200     2.2180 
  222.2500   -26.7140    54.5930   122.7730   101.5250    93.1960    23.5940     2.2140 
  222.3750   -26.7130    54.0190   115.2810    96.4110    86.1100    23.7590     2.2120 
  222.5000   -26.6930    55.5920   107.9370    90.7340    77.9230    23.9820     2.2100 
  222.6250   -26.7400    59.9450   102.5450    86.0500    68.7590    24.1190     2.2050 
  222.7500   -26.7850    61.7010    99.1950    82.8480    65.0870    24.1360     2.1970 
  222.8750   -26.7100    60.3980    97.4510    81.0360    64.1220    24.0700     2.1900 
  223.0000   -26.7170    60.6220    96.4810    80.1010    64.9380    23.9740     2.1870 
  223.1250   -26.7400    62.5970    95.2460    79.2970    71.8410    23.9140     2.1930 
  223.2500   -26.7820    61.1180    93.1830    78.0360    70.7220    23.7790     2.2040 
  223.3750   -26.8730    57.6320    90.3950    76.2480    64.9230    23.5810     2.2160 
  223.5000   -26.9560    58.7210    87.5220    74.2970    58.9120    23.3980     2.2270 
  223.6250   -26.9660    65.9790    85.5830    72.9330    55.9210    23.3030     2.2360 
  223.7500   -27.0200    70.6170    84.9260    72.5470    54.3710    23.2900     2.2460 
  223.8750   -27.1790    69.0180    85.4950    73.1980    55.4290    23.3200     2.2600 
  224.0000   -27.2370    65.4290    87.0010    74.7230    64.0470    23.3470     2.2790 
  224.1250   -27.3020    65.4860    89.1560    76.9350    77.3030    23.3510     2.3010 
  224.2500   -27.3250    66.5140    91.5310    79.4390    78.8840    23.2940     2.3220 
  224.3750   -27.2290    66.0630    93.7920    81.9290    69.3740    23.1830     2.3390 
  224.5000   -27.1940    65.6920    95.3920    83.9300    68.0830    23.0640     2.3500 
  224.6250   -27.1330    68.8570    95.0440    84.3720    74.0230    23.2210     2.3490 
  224.7500   -26.9680    71.3040    92.0400    82.5810    70.0960    23.2350     2.3370 
  224.8750   -26.7160    68.0300    86.1900    78.2330    62.3750    23.3190     2.3180 
  225.0000   -26.4800    61.5950    78.2940    71.7890    61.2510    23.5870     2.2950 
  225.1250   -26.2680    60.4240    70.2340    64.6050    56.9280    23.9470     2.2770 
  225.2500   -26.0960    64.3360    64.0960    58.6380    49.7630    24.3300     2.2660 
  225.3750   -25.9920    67.5100    61.1460    55.2270    45.6820    24.5060     2.2620 
  225.5000   -25.8030    66.9860    62.0100    55.1680    46.0190    24.5150     2.2620 
  225.6250   -25.7630    65.8520    67.4910    59.3800    47.3980    24.4710     2.2620 
  225.7500   -25.8210    65.8410    76.6500    67.0970    55.0570    24.5210     2.2610 
  225.8750   -25.9020    66.2740    88.7370    77.6760    73.8430    24.5980     2.2570 
  226.0000   -26.0470    66.4440   102.3450    89.8620    91.1580    24.6490     2.2530 
  226.1250   -26.0670    65.2850   114.8080   101.3690   102.9690    24.6790     2.2500 
  226.2500   -26.1420    63.5580   123.3070   109.7250   110.2470    24.6880     2.2490 
  226.3750   -26.2620    62.6230   125.5600   112.9240   113.4040    24.6390     2.2480 
  226.5000   -26.3280    63.5890   120.4520   109.8130   118.7510    24.5840     2.2480 
  226.6250   -26.3190    62.9400   108.1250    99.9730   121.9030    24.5430     2.2510 
  226.7500   -26.2490    60.1300    93.1170    86.9120   108.5160    24.4860     2.2570 
  226.8750   -26.1830    59.3290    79.1960    73.8560    83.3190    24.4070     2.2630 
  227.0000   -26.1630    61.4920    69.3380    63.7980    59.5250    24.3450     2.2670 
  227.1250   -26.1430    61.2280    66.5220    59.9490    44.5520    24.3250     2.2630 
  227.2500   -26.0900    57.8440    70.8080    62.6950    43.7090    24.3020     2.2510 
  227.3750   -26.0460    56.8410    82.3510    72.2470    52.5770    24.2160     2.2340 
  227.5000   -26.0230    60.3530    99.9090    87.5050    77.4660    24.1310     2.2190 
  227.6250   -25.9310    62.1710   119.6380   105.1680   113.0270    24.1170     2.2120 
  227.7500   -25.8730    60.3130   134.7730   119.3230   153.6940    24.2040     2.2150 
  227.8750   -25.8110    58.0070   139.8960   125.3580   179.0100    24.3910     2.2260 
  228.0000   -25.6260    57.4470   133.1110   121.3800   156.5870    24.5900     2.2370 
  228.1250   -25.4560    57.6430   117.2600   108.7460   119.7840    24.7320     2.2430 
  228.2500   -25.2820    58.4640   100.2720    93.7850    96.6910    24.8160     2.2440 
  228.3750   -25.0390    61.2900    85.9400    80.1780    83.1000    24.8160     2.2420 
  228.5000   -24.7720    63.4510    75.6890    69.8260    68.1470    24.7580     2.2400 
  228.6250   -24.6150    63.0550    70.2940    63.8770    56.3160    24.7100     2.2400 
  228.7500   -24.4000    61.4810    68.5520    61.3900    53.0930    24.7060     2.2370 
  228.8750   -24.2260    60.8060    69.7660    61.7500    54.2620    24.6860     2.2290 
  229.0000   -24.0820    61.2440    73.0460    64.1560    60.0300    24.6710     2.2160 
  229.1250   -23.8690    62.6170    77.2390    67.6220    72.0400    24.6570     2.2010 
  229.2500   -23.7470    64.9920    80.8010    70.7280    78.5510    24.7270     2.1890 
  229.3750   -23.6020    67.2140    82.6820    72.4960    78.6200    24.8310     2.1820 
  229.5000   -23.5210    69.3700    82.3410    72.3690    77.4150    24.8320     2.1820 
  229.6250   -23.5360    70.3510    79.6880    70.1610    79.5430    24.6450     2.1880 
  229.7500   -23.5330    69.6050    75.9510    66.8830    79.0920    24.4590     2.1980 
  229.8750   -23.4980    67.5680    72.0900    63.3640    71.0880    24.5280     2.2140 
  230.0000   -23.5520    65.3430    68.8930    60.3170    62.2890    24.6210     2.2350 
  230.1250   -23.6220    65.4870    67.0570    58.3760    59.1390    24.6350     2.2550 
  230.2500   -23.6280    66.7850    66.4260    57.4550    58.9070    24.6930     2.2650 
  230.3750   -23.6160    68.6600    66.5480    57.2240    56.7950    24.7750     2.2570 
  230.5000   -23.4660    70.7800    66.5660    57.0140    50.0980    24.7650     2.2340 
  230.6250   -23.1520    71.9550    65.0900    55.7150    46.9480    24.4530     2.2200 
  230.7500   -22.7890    72.9140    61.5060    52.7680    51.8930    23.9060     2.2380 
  230.8750   -22.3020    74.4800    55.8490    48.1270    53.2860    23.3920     2.2940 
  231.0000   -21.7210    77.0520    48.9670    42.3960    40.5020    23.0030     2.3740 
  231.1250   -21.0830    78.5650    42.4790    36.8250    31.8020    22.7770     2.4340 
  231.2500   -20.4150    78.2610    37.7590    32.5760    27.4850    22.8060     2.4510 
  231.3750   -19.7240    77.6000    35.5510    30.3060    25.8030    23.1090     2.4310 
  231.5000   -19.0660    76.1650    36.1050    30.3020    21.8490    23.6110     2.4050 
  231.6250   -18.5180    71.9020    39.4420    32.7450    22.6550    24.1900     2.4040 
  231.7500   -18.0010    69.1890    44.0270    36.5110    29.7740    24.4800     2.4260 
  231.8750   -17.6210    70.5970    48.2720    40.3620    46.1710    24.4960     2.4530 
  232.0000   -17.3080    74.6410    50.4890    42.8450    65.4840    24.3610     2.4650 
  232.1250   -17.1500    75.7560    49.1050    42.4190    63.1270    24.1800     2.4490 
  232.2500   -17.0830    75.0930    45.2150    39.6380    47.6310    24.0700     2.4220 
  232.3750   -17.0060    76.2480    40.4150    35.6480    34.7200    24.1580     2.3990 
  232.5000   -17.0890    77.1170    36.2010    31.7400    28.3940    24.3080     2.3890 
  232.6250   -17.1480    74.2950    33.5660    28.9100    30.8730    24.0920     2.3900 
  232.7500   -17.2170    71.8480    32.2240    27.1260    32.1200    23.8250     2.3870 
  232.8750   -17.3220    74.5360    31.7460    26.1330    30.3140    23.8060     2.3750 
