~V
VERS. 2.00: Ver 2.00
~W
STRT.M 62.0000:
STOP.M 235.0000:
STEP.M 0.1250:
NULL. -999.2500:
UWI. DF32059:
~C
DEPT.M :
SP.MV :
GR.API :
CALI.CM :
RXO.OHMM :
RI. :
RML.OHMM :
DEN.GM/CC :
~A
# ...
  118.2500   -20.9110    87.4210    24.0530     5.6610     4.5760     5.7550     2.3380 
  118.3750   -21.3680    85.1880    24.1680     6.4180     5.6190     7.1080     2.3910 
  118.5000   -21.8870    81.9820    24.2630     8.1790     7.2670     9.2910     2.4740 
  118.6250   -22.4630    76.8280    24.1160    13.0440     9.4020    12.2450     2.5540 
  118.7500   -23.0550    71.3990    23.7120    18.9580    11.2790    14.8800     2.5760 
  118.8750   -23.6190    67.0840    23.3670    20.3940    12.0980    15.8490     2.5150 
  119.0000   -24.1560    64.8110    23.2390    15.9930    11.5990    14.7620     2.4000 
  119.1250   -24.5950    65.2260    23.4080    11.3090    10.3170    12.6900     2.2950 
  119.2500   -24.9580    67.1750    23.7780     9.5790     9.1460    11.0080     2.2340 
  119.3750   -25.2340    68.6900    24.0140     9.3260     8.4140    10.1030     2.2120 
  119.5000   -25.4430    69.5150    24.2500     9.3960     8.1730     9.9670     2.2200 
  119.6250   -25.5570    72.3670    24.0470     9.4580     8.3490    10.4470     2.2510 
  119.7500   -25.6080    76.3870    23.8490     9.4660     8.6730    11.1060     2.3000 
  119.8750   -25.6030    79.7620    23.7340     9.4480     8.9720    11.6390     2.3520 
  120.0000   -25.5410    80.7760    23.5040     9.3970     9.1350    11.8420     2.3760 
  120.1250   -25.4480    77.1320    23.5250     9.2780     9.0930    11.6210     2.3380 
  120.2500   -25.3150    71.9660    23.6240     9.1360     8.8950    11.1530     2.2680 
  120.3750   -25.1690    68.7660    23.6360     9.0300     8.5850    10.5840     2.2120 
  120.5000   -24.9920    68.7910    23.5880     8.9730     8.2110    10.0340     2.1940 
  120.6250   -24.7780    69.5210    23.5450     8.9130     7.8490     9.6140     2.2010 
  120.7500   -24.4850    69.2730    23.6700     8.7670     7.6160     9.4100     2.1980 
  120.8750   -24.1290    69.3060    23.8290     8.5380     7.6360     9.5450     2.1820 
  121.0000   -23.7110    68.9950    23.9200     8.3450     7.9600    10.0780     2.1750 
  121.1250   -23.1920    67.1500    24.0080     8.6660     8.4600    10.8500     2.2080 
  121.2500   -22.6250    66.2150    24.1360    10.5380     8.7470    11.3210     2.2710 
  121.3750   -22.0260    67.1080    24.1950    14.3170     8.5080    10.9910     2.3390 
  121.5000   -21.4230    68.5160    24.1400    16.4360     7.6980     9.7490     2.3840 
  121.6250   -20.8850    71.2000    24.0580    12.7810     6.6210     8.0950     2.3840 
  121.7500   -20.4620    77.9640    24.0270     7.7870     5.7250     6.7820     2.3570 
  121.8750   -20.1500    86.4430    24.0860     5.5860     5.1950     6.0950     2.3170 
  122.0000   -19.9350    90.6620    23.9260     5.5230     5.0640     6.0530     2.2730 
  122.1250   -19.8130    87.5730    23.7470     6.0610     5.3330     6.5910     2.2350 
  122.2500   -19.7330    82.8810    23.8820     6.5530     5.8080     7.3300     2.2200 
  122.3750   -19.6540    81.1420    24.1780     6.9070     6.2890     7.9060     2.2400 
  122.5000   -19.5870    83.5870    24.3870     6.9050     6.5680     8.0390     2.2880 
  122.6250   -19.4700    89.5210    24.4250     6.4290     6.4940     7.6920     2.3360 
  122.7500   -19.3250    93.1360    24.3200     5.8780     6.1800     7.1760     2.3570 
  122.8750   -19.1570    91.6850    24.0180     5.5220     5.7560     6.6760     2.3500 
  123.0000   -18.9950    87.6980    23.7160     5.3730     5.3530     6.2950     2.3270 
  123.1250   -18.8830    87.0790    23.6200     5.3100     5.0770     6.0900     2.3060 
  123.2500   -18.8460    89.3220    23.6340     5.2230     4.9180     6.0030     2.2990 
  123.3750   -18.8690    90.9860    23.6340     5.1060     4.8250     5.9690     2.3020 
  123.5000   -18.9340    92.7170    23.6490     5.0400     4.7240     5.9090     2.3060 
  123.6250   -19.0670    96.2740    23.7620     5.0550     4.5410     5.7280     2.3050 
  123.7500   -19.2300    99.5340    23.8300     4.9770     4.3150     5.4610     2.3010 
  123.8750   -19.4390   100.8130    23.7470     4.9040     4.1600     5.2500     2.2990 
  124.0000   -19.6850   101.9580    23.5110     5.0000     4.2160     5.2890     2.3120 
  124.1250   -19.9700   104.8470    23.3570     5.4330     4.6510     5.8260     2.3530 
  124.2500   -20.2920   104.4910    23.2810     6.6180     5.4400     6.8830     2.4100 
  124.3750   -20.6680    97.9500    23.2840     9.1960     6.5020     8.3940     2.4530 
  124.5000   -21.0630    87.1940    23.3110    11.8580     7.6280    10.0510     2.4490 
  124.6250   -21.4310    79.0540    23.4530    11.5240     8.4130    11.1560     2.3750 
  124.7500   -21.7340    75.1660    23.7740     9.3780     8.6550    11.3440     2.2700 
  124.8750   -21.9140    72.3610    24.0640     7.8570     8.3760    10.7250     2.1710 
  125.0000   -21.9230    69.0240    24.2200     7.4260     7.7590     9.7000     2.1130 
  125.1250   -21.7590    66.6060    24.2160     7.3530     7.0150     8.6700     2.1210 
  125.2500   -21.4380    68.7660    24.3160     7.0270     6.3100     7.8020     2.1690 
  125.3750   -20.9950    75.8210    24.1790     6.3070     5.7060     7.0980     2.2270 
  125.5000   -20.4900    84.7940    23.9820     5.5080     5.2400     6.5520     2.2750 
  125.6250   -19.9520    91.5000    23.9730     5.1220     4.9610     6.2140     2.3050 
  125.7500   -19.4440    95.1760    24.0370     5.1170     4.8180     6.0510     2.3200 
  125.8750   -19.0000    97.1340    24.0050     5.1600     4.7610     6.0290     2.3200 
  126.0000   -18.6720    98.8370    23.8950     5.1520     4.7410     6.0940     2.3140 
  126.1250   -18.4540   101.1000    23.9110     5.1510     4.7380     6.1790     2.3060 
  126.2500   -18.3270   101.4040    23.6910     5.1470     4.7470     6.2300     2.2970 
  126.3750   -18.2700    98.3190    23.5530     5.1760     4.7680     6.2280     2.2880 
  126.5000   -18.2150    94.9340    23.5010     5.2450     4.7790     6.1620     2.2860 
  126.6250   -18.1830    94.9340    23.5470     5.2670     4.7380     6.0230     2.2910 
  126.7500   -18.1480    95.6950    23.6970     5.2230     4.6550     5.8690     2.2880 
  126.8750   -18.1220    95.2810    23.8010     5.1280     4.5810     5.7850     2.2780 
  127.0000   -18.0930    94.9950    23.7600     5.1060     4.5920     5.8580     2.2770 
  127.1250   -18.0790    97.0840    23.4090     5.3570     4.7890     6.1950     2.2890 
  127.2500   -18.0530    98.2980    23.2310     5.8210     5.1430     6.7430     2.2900 
  127.3750   -18.0320    96.8320    23.1080     6.0790     5.5530     7.3720     2.2700 
  127.5000   -18.0130    94.5020    22.9530     5.9310     5.8650     7.8550     2.2460 
  127.6250   -17.9690    93.1550    22.9440     5.7060     5.8990     7.8990     2.2490 
  127.7500   -17.8940    92.8930    23.2120     5.5470     5.6860     7.5290     2.2760 
  127.8750   -17.7970    94.6730    23.6850     5.3380     5.3260     6.9180     2.3070 
  128.0000   -17.6780    99.7290    24.1070     5.0660     4.9380     6.2900     2.3250 
  128.1250   -17.5510   104.0380    24.3990     4.9340     4.6040     5.8310     2.3210 
  128.2500   -17.4460   104.2930    24.5580     4.9170     4.3340     5.5460     2.3100 
  128.3750   -17.3590   104.1920    24.4780     4.9470     4.1310     5.3930     2.3060 
  128.5000   -17.3000   106.0680    24.3760     4.9800     4.0040     5.3150     2.3150 
  128.6250   -17.2750   107.6430    24.5900     4.8370     3.9870     5.2880     2.3260 
  128.7500   -17.2900   108.3620    24.5250     4.7430     4.0740     5.3310     2.3300 
  128.8750   -17.3190   108.5870    24.1020     4.7420     4.2560     5.4910     2.3290 
  129.0000   -17.3730   108.6500    23.7560     4.8550     4.5050     5.7880     2.3180 
  129.1250   -17.4280   104.7970    23.6140     5.0660     4.7630     6.1780     2.2960 
  129.2500   -17.4640   100.5220    23.6350     5.3230     4.9540     6.4990     2.2730 
  129.3750   -17.4460    98.1430    23.7130     5.5180     5.0150     6.5930     2.2660 
