~V
VERS. 2.00: Ver 2.00
~W
STRT.M 62.0000:
STOP.M 260.0000:
STEP.M 0.1250:
NULL. -999.2500:
UWI. DF32117:
~C
DEPT.M :
GR.API :
CALI.CM :
RXO.OHMM :
RI. :
RML.OHMM :
DEN.GM/CC :
SP.MV :
~A
   62.0000    63.3260    24.9210     1.1370     0.4350    -0.5160     2.4990    22.8340 
   62.1250    67.1000    24.7950     2.4420     0.5040    -0.3900     2.4020    18.4760 
   62.2500    70.6210    24.6560     4.4770     0.7090    -0.0830     2.3010    13.5880 
   62.3750    72.4650    24.5370     6.3600     1.1380     0.5080     2.2030     8.4240 
   62.5000    72.9510    24.4830     7.2740     1.8660     1.5080     2.1220     3.2560 
   62.6250    71.1320    24.5230     7.3200     2.8190     2.9150     2.0780    -1.5560 
   62.7500    68.3460    24.6330     7.2830     3.6800     4.1390     2.0720    -5.6340 
   62.8750    68.1130    24.7830     7.2770     4.3160     4.7830     2.1020    -8.7220 
   63.0000    70.8810    24.9170     7.2660     4.7760     5.0590     2.1450   -10.8820 
   63.1250    72.7050    24.9850     7.2580     5.1360     5.3570     2.1710   -12.2160 
   63.2500    72.8010    25.0260     7.2100     5.4170     5.7220     2.1830   -13.0890 
   63.3750    73.1820    25.0900     7.0940     5.5760     6.0150     2.2060   -13.6770 
   63.5000    75.3630    25.1920     6.9010     5.5990     6.1190     2.2470   -14.1350 
   63.6250    78.1100    25.2990     6.5820     5.5320     6.0550     2.2720   -14.5540 
   63.7500    79.6930    25.3870     6.2550     5.5000     6.0490     2.2610   -14.9980 
   63.8750    78.4790    25.4300     6.2280     5.5890     6.2530     2.2260   -15.4840 
   64.0000    72.4110    25.3970     6.6780     5.8320     6.7180     2.1910   -15.9930 
   64.1250    65.6760    25.2900     7.3470     6.2100     7.4000     2.1650   -16.5330 
   64.2500    65.0610    25.1830     7.7640     6.5930     8.0760     2.1480   -17.0670 
   64.3750    68.6460    25.1140     7.8460     6.8640     8.5420     2.1370   -17.5560 
   64.5000    70.4400    25.0660     7.7490     6.9470     8.6890     2.1280   -17.9780 
   64.6250    69.3380    25.0150     7.6180     6.8300     8.5420     2.1240   -18.3280 
   64.7500    69.6940    24.9880     7.5240     6.6290     8.2920     2.1260   -18.6080 
   64.8750    72.1960    25.0000     7.4800     6.4340     8.0560     2.1270   -18.8590 
   65.0000    72.8910    25.0380     7.4790     6.3170     7.9280     2.1180   -19.1440 
   65.1250    69.9140    25.0640     7.5410     6.3430     7.9990     2.1030   -19.5320 
   65.2500    67.8730    25.0740     7.7070     6.4960     8.2490     2.1000   -20.0450 
   65.3750    66.8850    25.0770     8.0810     6.7430     8.6360     2.1250   -20.7060 
   65.5000    64.9130    25.0800     8.6870     7.0200     9.0530     2.1740   -21.4970 
   65.6250    63.8180    25.0960     9.1790     7.2150     9.3030     2.2140   -22.4010 
   65.7500    66.7310    25.1270     9.1970     7.2660     9.3070     2.2150   -23.3710 
   65.8750    70.8480    25.1650     8.8290     7.1760     9.1150     2.1790   -24.3580 
   66.0000    70.5550    25.1970     8.4030     6.9970     8.8490     2.1340   -25.2930 
   66.1250    68.7800    25.2220     8.0970     6.8080     8.6290     2.1150   -26.0950 
   66.2500    69.2640    25.2400     7.8590     6.6670     8.5010     2.1200   -26.7340 
   66.3750    71.0020    25.2420     7.7200     6.5860     8.4530     2.1310   -27.2000 
   66.5000    71.9910    25.2300     7.7270     6.5490     8.4470     2.1340   -27.5180 
   66.6250    72.3230    25.2150     7.8230     6.5350     8.4520     2.1240   -27.6790 
   66.7500    72.7100    25.2160     7.8930     6.5290     8.4610     2.1170   -27.7220 
   66.8750    71.4900    25.2290     7.9310     6.5310     8.4770     2.1200   -27.6800 
   67.0000    68.3890    25.2200     7.9770     6.5400     8.5060     2.1280   -27.6030 
   67.1250    65.5480    25.1670     8.0280     6.5610     8.5550     2.1260   -27.5250 
   67.2500    66.1680    25.1150     8.0540     6.5930     8.6200     2.1150   -27.4660 
   67.3750    69.3280    25.0980     8.0830     6.6310     8.6900     2.1070   -27.4400 
   67.5000    70.7870    25.1010     8.1630     6.6680     8.7520     2.1100   -27.4320 
   67.6250    69.0220    25.0720     8.2720     6.6920     8.7920     2.1210   -27.4400 
   67.7500    68.0450    25.0000     8.3090     6.6980     8.8110     2.1330   -27.4580 
   67.8750    69.3920    24.9050     8.2080     6.6920     8.8210     2.1440   -27.4790 
   68.0000    70.9300    24.7900     7.9730     6.6860     8.8410     2.1560   -27.4960 
   68.1250    71.7020    24.6400     7.7120     6.7020     8.8900     2.1640   -27.5000 
   68.2500    72.4250    24.4950     7.5830     6.7390     8.9650     2.1630   -27.4960 
   68.3750    72.4440    24.4050     7.6210     6.7870     9.0440     2.1560   -27.4760 
   68.5000    70.7140    24.3690     7.7150     6.8240     9.0900     2.1470   -27.4410 
   68.6250    67.6330    24.3590     7.6880     6.8120     9.0500     2.1370   -27.3970 
   68.7500    65.7340    24.3730     7.5130     6.7450     8.9310     2.1220   -27.3470 
   68.8750    66.4650    24.3490     7.2320     6.6330     8.7610     2.1110   -27.2900 
   69.0000    71.4750    24.2050     6.9140     6.4920     8.5700     2.1140   -27.2310 
   69.1250    77.6270    23.9740     6.7180     6.3430     8.3780     2.1320   -27.1920 
   69.2500    79.6670    23.8030     6.7210     6.2070     8.2020     2.1490   -27.1700 
   69.3750    76.9380    23.7330     6.8410     6.1100     8.0840     2.1520   -27.1540 
   69.5000    74.8500    23.7480     6.9220     6.0900     8.0950     2.1450   -27.1460 
   69.6250    79.3180    23.8820     6.9110     6.2030     8.3410     2.1400   -27.1620 
   69.7500    83.5540    24.0900     6.9490     6.4420     8.8060     2.1450   -27.2120 
   69.8750    84.2450    24.2630     7.1220     6.7790     9.4230     2.1490   -27.2880 
   70.0000    83.1770    24.2750     7.3590     7.1380    10.0310     2.1360   -27.3680 
   70.1250    81.2250    24.0430     7.4890     7.3840    10.3570     2.1060   -27.4400 
   70.2500    77.4240    23.7170     7.4840     7.4390    10.3110     2.0820   -27.4920 
   70.3750    73.0750    23.4460     7.4170     7.3020     9.9660     2.0840   -27.5380 
   70.5000    71.1370    23.3020     7.3450     7.0460     9.5030     2.1070   -27.5860 
   70.6250    73.2740    23.2540     7.2980     6.7900     9.1340     2.1320   -27.6380 
   70.7500    76.3130    23.2230     7.3000     6.6140     8.9400     2.1420   -27.6820 
   70.8750    76.9740    23.1890     7.3680     6.5350     8.9110     2.1360   -27.7290 
   71.0000    73.2980    23.1450     7.4970     6.5330     8.9860     2.1270   -27.7990 
   71.1250    69.7410    23.1140     7.6520     6.5760     9.0840     2.1250   -27.9010 
   71.2500    69.6350    23.1030     7.7740     6.6220     9.1390     2.1260   -28.0320 
   71.3750    71.3680    23.1010     7.8630     6.6520     9.1300     2.1270   -28.1760 
   71.5000    73.5990    23.0980     7.9380     6.6650     9.0870     2.1300   -28.3030 
   71.6250    78.5050    23.1170     7.9780     6.6990     9.1160     2.1390   -28.3630 
   71.7500    82.7540    23.2140     7.9810     6.8060     9.3180     2.1520   -28.3140 
   71.8750    81.8070    23.4100     7.9830     6.9990     9.6930     2.1680   -28.0980 
   72.0000    76.1790    23.6680     8.0330     7.2080    10.0870     2.1870   -27.7010 
   72.1250    74.9530    23.9930     8.0380     7.2520    10.1430     2.2180   -27.1080 
   72.2500    81.1140    24.4370     7.6410     7.0070     9.6570     2.2670   -26.3970 
   72.3750    89.1290    24.9720     6.6230     6.4610     8.6500     2.3300   -25.6220 
   72.5000    95.0820    25.4770     5.3200     5.7260     7.3880     2.3800   -24.8320 
   72.6250    99.2520    25.8280     4.4920     5.0010     6.2660     2.3820   -24.0920 
   72.7500   102.3780    26.0290     4.2710     4.4310     5.4770     2.3470   -23.4440 
   72.8750   102.1730    26.0900     4.3790     4.0640     5.0520     2.3050   -22.9340 
   73.0000   100.1550    26.0480     4.5480     3.9030     4.9510     2.2770   -22.5690 
   73.1250   100.4490    25.9890     4.6360     3.9430     5.1250     2.2690   -22.3570 
