~V
VERS. 2.00: Ver 2.00
~W
STRT.M 61.0000:
STOP.M 262.0000:
STEP.M 0.1250:
NULL. -999.2500:
UWI. DF32115:
~C
DEPT.M :
GR.API :
CALI.CM :
RXO.OHMM :
RI. :
RML.OHMM :
DEN.GM/CC :
SP.MV :
~A
# ...
   94.7500    76.9020    24.3500     8.5860     7.0490     9.5610     2.1300   -29.3800 
   94.8750    75.3800    24.5890     8.5050     7.0670     9.5510     2.1570   -29.3280 
   95.0000    69.0170    24.7250     8.3090     7.0440     9.4720     2.1810   -29.3090 
   95.1250    63.4260    24.7140     8.0990     6.9870     9.3420     2.1920   -29.2930 
   95.2500    61.8060    24.6620     7.9710     6.9190     9.2180     2.1970   -29.2580 
   95.3750    62.7030    24.6230     7.9130     6.8650     9.1450     2.1990   -29.2040 
   95.5000    62.4100    24.5990     7.8700     6.8340     9.1300     2.1990   -29.1140 
   95.6250    60.9220    24.5430     7.8390     6.7980     9.0940     2.1980   -28.9550 
   95.7500    64.5790    24.4700     7.8600     6.7040     8.9290     2.1960   -28.7210 
   95.8750    71.5250    24.4200     7.9060     6.5180     8.5860     2.1950   -28.4100 
   96.0000    75.4750    24.4030     7.7790     6.2550     8.1140     2.2010   -28.0450 
   96.1250    75.7620    24.4170     7.2730     5.9810     7.6640     2.2150   -27.6940 
   96.2500    78.3060    24.4510     6.7400     5.7820     7.3890     2.2250   -27.4010 
   96.3750    80.7230    24.4800     6.6100     5.7100     7.3620     2.2230   -27.2000 
   96.5000    78.7520    24.4630     6.9260     5.7820     7.5810     2.2080   -27.0990 
   96.6250    73.6470    24.3940     7.2780     5.9840     7.9720     2.1900   -27.0860 
   96.7500    69.2640    24.3360     7.4090     6.2260     8.3600     2.1790   -27.1470 
   96.8750    67.0660    24.3450     7.4370     6.4260     8.6100     2.1780   -27.2820 
   97.0000    67.2710    24.4220     7.4860     6.5230     8.6500     2.1850   -27.4550 
   97.1250    69.0790    24.5100     7.4250     6.4830     8.4830     2.1900   -27.6310 
   97.2500    71.6480    24.5650     7.1550     6.3620     8.2380     2.1900   -27.7990 
   97.3750    73.9380    24.5960     6.8130     6.2090     7.9950     2.1840   -27.9530 
   97.5000    73.2350    24.6000     6.6390     6.0600     7.8000     2.1770   -28.0840 
   97.6250    68.2540    24.5460     6.7160     5.9500     7.6890     2.1690   -28.2120 
   97.7500    63.9350    24.4810     6.8130     5.8880     7.6540     2.1640   -28.3410 
   97.8750    64.8480    24.4490     6.8420     5.8800     7.6960     2.1630   -28.4610 
   98.0000    69.5410    24.4270     6.8770     5.9270     7.8130     2.1710   -28.5770 
   98.1250    71.7810    24.3530     6.9910     6.0340     8.0130     2.1840   -28.7050 
   98.2500    70.4740    24.2600     7.1190     6.1820     8.2640     2.1940   -28.8260 
   98.3750    69.8420    24.2080     7.2150     6.3480     8.5250     2.1960   -28.9250 
   98.5000    71.7690    24.2110     7.2890     6.5010     8.7370     2.1880   -29.0120 
   98.6250    73.4940    24.2380     7.3630     6.5950     8.8300     2.1720   -29.0980 
   98.7500    73.4850    24.2570     7.4220     6.6240     8.8150     2.1580   -29.1950 
   98.8750    72.7080    24.2760     7.4520     6.5950     8.7310     2.1540   -29.3020 
   99.0000    71.8810    24.3070     7.4630     6.5280     8.6230     2.1570   -29.4220 
   99.1250    71.8300    24.3430     7.4740     6.4470     8.5240     2.1580   -29.5530 
   99.2500    72.2820    24.3770     7.4760     6.3630     8.4340     2.1520   -29.7090 
   99.3750    73.0680    24.4080     7.4110     6.2770     8.3340     2.1430   -29.8950 
   99.5000    72.8680    24.4350     7.2520     6.1880     8.2170     2.1370   -30.1340 
   99.6250    71.6540    24.4620     7.1060     6.1050     8.0990     2.1360   -30.4330 
   99.7500    71.2050    24.5180     7.1320     6.0370     8.0080     2.1410   -30.7710 
   99.8750    72.6610    24.6130     7.3450     5.9910     7.9550     2.1490   -31.1530 
  100.0000    76.3370    24.7150     7.6090     5.9660     7.9390     2.1590   -31.5740 
  100.1250    77.7320    24.7650     7.7060     5.9600     7.9460     2.1680   -32.0120 
  100.2500    74.4890    24.7810     7.6290     5.9660     7.9650     2.1760   -32.4370 
  100.3750    67.9280    24.8120     7.5440     5.9920     8.0070     2.1830   -32.8270 
  100.5000    62.5380    24.8680     7.6380     6.0430     8.0930     2.1870   -33.1400 
  100.6250    64.0460    24.9170     7.9200     6.1260     8.2320     2.1860   -33.3490 
  100.7500    67.8820    24.9390     8.1490     6.2160     8.3790     2.1800   -33.4500 
  100.8750    69.1530    24.9340     8.1920     6.2880     8.4830     2.1740   -33.4450 
  101.0000    68.7940    24.9120     8.0590     6.3130     8.4980     2.1730   -33.3450 
  101.1250    70.6930    24.8780     7.8200     6.2740     8.4060     2.1690   -33.1780 
  101.2500    73.1880    24.8310     7.5640     6.2010     8.2710     2.1570   -33.0030 
  101.3750    73.4350    24.7520     7.3670     6.1240     8.1460     2.1400   -32.8660 
  101.5000    73.8830    24.6410     7.3040     6.0670     8.0630     2.1270   -32.8030 
  101.6250    74.9690    24.5480     7.3970     6.0410     8.0240     2.1260   -32.8300 
  101.7500    74.3400    24.4790     7.5130     6.0350     8.0030     2.1320   -32.9350 
  101.8750    72.5230    24.4270     7.5590     6.0420     7.9910     2.1400   -33.0770 
  102.0000    71.0420    24.4250     7.5310     6.0660     8.0120     2.1440   -33.2230 
  102.1250    71.0260    24.5240     7.5020     6.1230     8.1180     2.1390   -33.3220 
  102.2500    70.4730    24.6330     7.5170     6.2110     8.3080     2.1310   -33.3060 
  102.3750    70.1790    24.6440     7.5410     6.3050     8.5110     2.1250   -33.1290 
  102.5000    69.7900    24.5390     7.4970     6.3380     8.5730     2.1210   -32.7550 
  102.6250    70.8050    24.4100     7.3160     6.1850     8.2430     2.1150   -32.1780 
  102.7500    73.9460    24.3190     6.9950     5.8400     7.5580     2.1140   -31.4960 
  102.8750    78.2170    24.2740     6.4670     5.3920     6.7420     2.1360   -30.8060 
  103.0000    83.5720    24.2930     5.7110     4.9870     6.0910     2.1930   -30.1970 
  103.1250    86.5120    24.3930     5.1230     4.7940     5.8870     2.2620   -29.7900 
  103.2500    84.1000    24.4970     5.3780     4.8470     6.1270     2.3010   -29.6090 
  103.3750    76.2280    24.5340     6.6840     5.1360     6.7410     2.2920   -29.6300 
  103.5000    68.0870    24.5090     8.2120     5.5870     7.5540     2.2530   -29.7780 
  103.6250    64.6620    24.4850     8.5100     6.0450     8.2520     2.2140   -29.9610 
  103.7500    64.4550    24.4720     7.8380     6.3320     8.5660     2.1860   -30.0780 
  103.8750    66.1940    24.4450     7.1510     6.3470     8.3890     2.1680   -30.0120 
  104.0000    69.7700    24.4170     6.8340     6.0840     7.7810     2.1660   -29.6660 
  104.1250    76.4020    24.4230     6.5660     5.6110     6.9190     2.1850   -28.9530 
  104.2500    85.1430    24.4500     6.0330     5.0870     6.0520     2.2170   -27.9770 
  104.3750    93.2170    24.4870     5.2780     4.6020     5.3140     2.2480   -26.8220 
  104.5000    98.7950    24.5900     4.5830     4.2320     4.8200     2.2620   -25.6200 
  104.6250   101.6290    24.8720     4.3360     4.0760     4.7260     2.2450   -24.5180 
  104.7500   103.5160    25.2470     4.4700     4.1360     4.9950     2.2170   -23.5560 
  104.8750   103.2680    25.5550     4.8000     4.3810     5.5390     2.2070   -22.7870 
  105.0000    99.7810    25.6960     5.3210     4.7250     6.1790     2.2370   -22.2380 
  105.1250    94.7610    25.6800     6.1210     5.0080     6.5950     2.2940   -21.9090 
  105.2500    91.4960    25.6080     6.6720     5.0990     6.5990     2.3270   -21.7140 
  105.3750    92.9640    25.5250     6.4140     4.9720     6.2230     2.3140   -21.6170 
  105.5000    98.9220    25.4730     5.5250     4.7040     5.6810     2.2700   -21.5940 
  105.6250   103.9970    25.4600     4.8850     4.4240     5.2330     2.2250   -21.6140 
  105.7500   104.3870    25.4300     4.8180     4.2340     4.9980     2.1890   -21.6430 
  105.8750   102.4170    25.3600     5.0540     4.1850     5.0200     2.1670   -21.7010 
