~V
VERS. 2.00: Ver 2.00
~W
STRT.M 63.0000:
STOP.M 291.0000:
STEP.M 0.1250:
NULL. -999.2500:
UWI. DF325:
~C
DEPT.M :
DEN.GM/CC :
SP.MV :
AC.US/MT :
GR.API :
RML.OHMM :
RI. :
RXO.OHMM :
CALI.CM :
~A
# ...
   93.0000     2.1260   -24.3740   462.9960    74.5470     8.5500     7.1720     8.3360    24.2010 
   93.1250     2.1250   -23.8180   464.1610    70.6230     8.8560     7.2550     8.5690    24.0190 
   93.2500     2.1520   -23.0550   453.7640    66.0670     9.8600     7.8110     9.3500    23.8420 
   93.3750     2.2160   -22.1280   425.4160    65.0140    11.4450     8.8620    11.6310    23.7650 
   93.5000     2.3090   -21.0470   379.5580    67.1410    13.1880    10.2090    15.2870    23.8260 
   93.6250     2.3960   -19.7700   329.7100    71.0760    14.3030    11.3690    19.2980    23.9980 
   93.7500     2.4440   -18.4630   299.5600    78.6540    14.3440    11.8930    22.3090    24.2110 
   93.8750     2.4430   -17.1820   302.0600    90.5970    13.3900    11.6290    20.2960    24.3830 
   94.0000     2.4100   -15.9450   331.7350   104.1770    12.0310    10.8030    12.7770    24.4800 
   94.1250     2.3750   -14.8640   366.6380   110.9350    10.9510     9.8540     9.6230    24.4940 
   94.2500     2.3540   -13.9860   388.6740   107.2050    10.2800     9.0920     8.2400    24.3800 
   94.3750     2.3500   -13.2850   398.0120   101.4210     9.8940     8.5630     8.0750    24.2470 
   94.5000     2.3530   -12.7470   403.6880   101.3650     9.6050     8.2000     8.1310    24.2120 
   94.6250     2.3520   -12.4150   413.3090   106.3170     9.2360     7.8910     7.7600    24.2790 
   94.7500     2.3420   -12.1820   425.0280   107.7130     8.7600     7.5580     7.2260    24.4140 
   94.8750     2.3250   -12.0220   434.9480   104.6730     8.2590     7.2150     6.7290    24.7360 
   95.0000     2.3080   -11.9710   440.3000   101.3350     7.8560     6.9300     6.4490    25.0670 
   95.1250     2.2990   -12.0400   440.3650    98.3180     7.6880     6.8140     6.5080    25.1350 
   95.2500     2.2980   -12.1450   438.0890    96.2290     7.7360     6.8780     6.8140    24.9820 
   95.3750     2.3030   -12.2960   435.8960    95.6000     7.9280     7.0870     7.2060    24.8260 
   95.5000     2.3100   -12.5390   436.0420    96.2010     8.1430     7.3520     7.4730    24.7380 
   95.6250     2.3140   -12.9070   439.1080    96.9210     8.2280     7.5400     7.6560    24.6670 
   95.7500     2.3140   -13.3600   442.8970    95.8700     8.1430     7.5790     7.9210    24.6240 
   95.8750     2.3130   -13.8310   445.5070    93.0620     7.9410     7.4730     8.0270    24.6310 
   96.0000     2.3120   -14.2790   444.8390    91.3830     7.7380     7.2960     7.9490    24.6890 
   96.1250     2.3120   -14.7450   437.8380    91.3400     7.6900     7.1740     7.7810    24.7070 
   96.2500     2.3100   -15.2670   425.5630    89.1200     7.8350     7.1870     7.9220    24.5970 
   96.3750     2.3010   -15.8400   413.6070    84.5950     8.1460     7.3580     8.4400    24.3880 
   96.5000     2.2800   -16.4640   410.4570    80.3080     8.5580     7.6640     9.2320    24.2310 
   96.6250     2.2460   -17.1290   420.9880    77.0550     9.0010     8.0670    10.1940    24.1950 
   96.7500     2.2110   -17.8030   434.6270    72.6260     9.4600     8.5190    11.1420    24.2890 
   96.8750     2.1860   -18.4820   440.6540    69.1630     9.9980     9.0300    11.8430    24.3730 
   97.0000     2.1830   -19.1250   433.0530    69.3960    10.7080     9.6480    12.3150    24.3390 
   97.1250     2.2090   -19.6630   408.3890    71.2440    11.6590    10.4380    13.2250    24.1970 
   97.2500     2.2500   -20.1470   374.1630    71.2490    12.7070    11.3280    14.7780    24.0400 
   97.3750     2.2870   -20.5710   340.9820    70.8840    13.6530    12.1920    16.7040    23.8570 
   97.5000     2.3020   -20.8890   322.9310    71.7350    14.2930    12.8650    18.4400    23.7900 
   97.6250     2.2840   -21.1040   335.2860    75.7250    14.4410    13.1570    18.1020    23.9300 
   97.7500     2.2450   -21.3010   368.2180    81.3140    14.2150    13.0980    15.8490    24.1310 
   97.8750     2.2010   -21.5480   401.8130    84.9420    13.7100    12.7520    13.3370    24.2050 
   98.0000     2.1660   -21.8770   417.0380    83.0500    12.9910    12.1970    11.8980    24.1840 
   98.1250     2.1480   -22.2240   410.2830    75.7290    12.1690    11.5340    11.2890    24.0980 
   98.2500     2.1460   -22.4940   401.0690    68.7950    11.5720    10.9970    11.1220    23.9350 
   98.3750     2.1610   -22.7270   398.5850    64.8060    11.5870    10.8760    11.3570    23.7830 
   98.5000     2.1970   -22.9820   399.3330    64.1760    12.4800    11.4330    12.1360    23.7580 
   98.6250     2.2570   -23.1900   386.8570    64.9750    14.2870    12.8320    14.3900    23.8480 
   98.7500     2.3280   -23.3180   351.2720    64.7100    16.3390    14.6270    18.3360    23.9550 
   98.8750     2.3870   -23.3870   299.7330    64.5660    17.9080    16.2600    22.8590    24.1030 
   99.0000     2.4090   -23.4640   257.4360    66.2220    18.3290    17.1160    26.8660    24.2230 
   99.1250     2.3780   -23.6140   262.0050    68.0340    17.2330    16.6490    25.6600    24.2330 
   99.2500     2.3190   -23.8430   311.7900    67.1320    15.4350    15.2990    18.9280    24.2120 
   99.3750     2.2590   -24.1400   385.9890    65.2270    13.6230    13.6190    13.6360    24.2240 
   99.5000     2.2150   -24.4710   457.5040    63.4180    12.1980    12.0870    11.8290    24.2440 
   99.6250     2.1960   -24.8420   501.7350    61.1820    11.3600    11.0440    11.5270    24.2060 
   99.7500     2.1900   -25.2250   519.6660    59.1300    10.9780    10.4770    11.5420    24.1660 
   99.8750     2.1870   -25.5490   522.3180    59.1860    10.9340    10.3100    11.7170    24.1930 
  100.0000     2.1800   -25.7410   522.7480    61.6610    11.0790    10.4060    12.0070    24.2920 
  100.1250     2.1680   -25.8050   524.3330    64.7330    11.2570    10.6050    12.2990    24.2740 
  100.2500     2.1600   -25.7740   520.5310    66.7520    11.3570    10.7570    12.5920    24.0330 
  100.3750     2.1600   -25.5840   507.0410    67.5090    11.3490    10.8060    12.8640    23.7210 
  100.5000     2.1690   -25.2220   486.5990    67.6520    11.2540    10.7430    12.9780    23.5560 
  100.6250     2.1850   -24.7480   467.8650    67.4500    11.1230    10.5870    12.8180    23.5250 
  100.7500     2.2020   -24.2790   456.5950    66.9010    11.0210    10.3920    12.5280    23.6080 
  100.8750     2.2130   -23.8610   452.2590    68.7760    10.9760    10.1950    12.2880    23.6690 
  101.0000     2.2140   -23.4830   451.3120    73.8300    10.9870    10.0250    12.2010    23.6580 
  101.1250     2.2040   -23.1420   452.1860    75.5770    11.0100     9.8950    12.2460    23.6200 
  101.2500     2.1900   -22.8750   453.7840    72.7360    10.9610     9.7700    12.3340    23.6110 
  101.3750     2.1780   -22.7000   454.4570    71.2320    10.7330     9.5900    12.4940    23.6710 
  101.5000     2.1710   -22.6100   453.7200    74.2930    10.2550     9.2870    12.6450    23.7590 
  101.6250     2.1730   -22.6080   452.6370    76.2500     9.5300     8.8190    12.7050    23.7910 
  101.7500     2.1810   -22.6310   452.4280    74.2220     8.8370     8.3300    12.7280    23.7570 
  101.8750     2.1950   -22.6450   451.9430    71.6700     8.5760     8.1200    12.8900    23.6860 
  102.0000     2.2230   -22.6530   446.2850    71.6510     9.2630     8.6300    13.6240    23.6410 
  102.1250     2.2740   -22.6560   423.0580    70.9190    11.4860    10.5070    17.6040    23.7040 
  102.2500     2.3430   -22.6310   378.1580    67.0150    14.9910    13.6360    27.2240    23.9270 
  102.3750     2.4130   -22.5980   318.3450    63.4820    19.1350    17.5090    40.4130    24.2480 
  102.5000     2.4550   -22.5850   264.1170    62.7390    22.9550    21.0800    54.6100    24.4440 
  102.6250     2.4380   -22.6190   248.6240    62.7710    24.6010    22.6180    60.5880    24.4170 
  102.7500     2.3800   -22.7200   275.7870    61.1970    23.6170    21.6980    47.9910    24.3090 
  102.8750     2.3110   -22.8980   330.8380    60.7320    20.7160    18.9870    26.6290    24.2060 
