~V
VERS. 2.00: Ver 2.00
~W
STRT.M 62.0000:
STOP.M 256.0000:
STEP.M 0.1250:
NULL. -999.2500:
UWI. DF32087:
~C
DEPT.M :
SP.MV :
GR.API :
RML.OHMM :
RI. :
RXO.OHMM :
CALI.CM :
DEN.GM/CC :
~A
# ...
  208.2500   -19.6580    60.6750   120.1110   104.4020    98.0910    24.6020     2.2420 
  208.3750   -19.4520    59.3060   128.2830   113.9180   143.5740    24.6470     2.2690 
  208.5000   -19.2640    58.5810   125.5410   115.6600   195.3570    24.7030     2.3140 
  208.6250   -19.0660    56.7490   105.0800   102.7140   185.6440    24.6160     2.3710 
  208.7500   -18.8860    55.1260    74.9450    78.7820   134.8130    24.4970     2.4290 
  208.8750   -18.7150    55.1500    46.7120    51.9860   121.6290    24.4130     2.4820 
  209.0000   -18.6170    56.2120    27.3680    30.6080    61.5820    24.3650     2.5250 
  209.1250   -18.4920    58.2280    16.8890    18.4330    23.1090    24.3300     2.5500 
  209.2500   -18.4160    59.6950    11.0560    11.8870    10.1860    24.3260     2.5500 
  209.3750   -18.3210    59.5970     8.3190     8.6310     7.1490    24.3210     2.5240 
  209.5000   -18.2390    58.5240     7.3580     7.1510     6.6680    24.3000     2.4820 
  209.6250   -18.2480    57.6970     7.2390     6.7030     6.6790    24.2890     2.4460 
  209.7500   -18.2390    56.5320     7.3930     6.6620     6.7460    24.2800     2.4260 
  209.8750   -18.3260    53.6300     7.5460     6.7520     6.7900    24.2570     2.4210 
  210.0000   -18.4040    50.4880     7.5380     6.7800     6.5770    24.1880     2.4190 
  210.1250   -18.5980    49.3850     7.2960     6.6260     5.9620    24.0980     2.4120 
  210.2500   -18.8460    49.4880     6.9240     6.3300     5.5000    24.0230     2.3980 
  210.3750   -19.1730    50.1980     6.5170     5.9610     5.3640    23.9720     2.3800 
  210.5000   -19.5270    51.6030     6.1720     5.6020     5.2610    23.8820     2.3610 
  210.6250   -19.8040    55.0060     6.0170     5.3610     4.9340    23.7610     2.3430 
  210.7500   -20.1100    60.7500     6.0990     5.2900     4.7890    23.7150     2.3250 
  210.8750   -20.2870    68.5140     6.4370     5.4140     4.8790    23.9020     2.3070 
  211.0000   -20.4180    76.3860     6.9970     5.7180     5.3410    24.3330     2.2890 
  211.1250   -20.3770    81.7650     7.6810     6.1490     6.6020    24.6590     2.2790 
  211.2500   -20.2040    86.3140     8.3100     6.5750     7.3280    24.8000     2.2800 
  211.3750   -19.8260    91.0620     8.7480     6.8940     7.7100    24.7860     2.2980 
  211.5000   -19.3310    95.8290     8.9240     7.0410     7.8870    24.7440     2.3280 
  211.6250   -18.6880    99.1520     8.8440     6.9950     7.7640    24.7090     2.3600 
  211.7500   -18.0070   103.0440     8.6800     6.8690     7.5600    24.6730     2.3830 
  211.8750   -17.3130   107.7310     8.5760     6.7620     7.5090    24.6580     2.3930 
  212.0000   -16.6280   111.0790     8.6460     6.7650     7.7410    24.6560     2.3960 
  212.1250   -16.0260   110.7050     9.0090     6.9770     8.0510    24.6560     2.3960 
  212.2500   -15.4920   106.1050     9.6420     7.3980     8.5740    24.6560     2.3990 
  212.3750   -15.0640    99.0540    10.5110     8.0200     9.4100    24.6560     2.4000 
  212.5000   -14.7290    92.2650    11.5270     8.7910    10.7990    24.6560     2.3990 
  212.6250   -14.5400    89.5690    12.5110     9.5990    12.3960    24.6560     2.3930 
  212.7500   -14.4360    89.9970    13.2430    10.2670    12.8540    24.6560     2.3860 
  212.8750   -14.3880    90.1440    13.5500    10.6440    12.6280    24.6560     2.3790 
  213.0000   -14.4180    90.5760    13.3530    10.6320    13.0800    24.6560     2.3760 
  213.1250   -14.4260    92.5080    12.6420    10.1780    12.8070    24.6560     2.3750 
  213.2500   -14.4700    93.6220    11.6950     9.4730    10.9470    24.6560     2.3750 
  213.3750   -14.5140    92.6130    10.7390     8.6900     9.4240    24.6470     2.3750 
  213.5000   -14.5590    90.6570     9.9720     7.9940     9.1750    24.6170     2.3750 
  213.6250   -14.6200    91.5620     9.5580     7.5460     8.4760    24.5780     2.3770 
  213.7500   -14.6290    95.7610     9.4420     7.3430     8.1330    24.5620     2.3810 
  213.8750   -14.6700    99.1720     9.5260     7.3420     8.3240    24.5580     2.3860 
  214.0000   -14.6500    98.1480     9.6780     7.4590     9.4550    24.5580     2.3930 
  214.1250   -14.7800    92.3780     9.8000     7.6230     9.8840    24.5580     2.3990 
  214.2500   -14.9310    88.0820     9.9190     7.8220    10.0510    24.5580     2.4030 
  214.3750   -15.1780    87.2310    10.1300     8.1090     8.6790    24.5580     2.4050 
  214.5000   -15.5050    88.4830    10.5070     8.5360     7.6660    24.5580     2.4060 
  214.6250   -15.9320    88.7060    11.0130     9.0850     8.5370    24.5580     2.4140 
  214.7500   -16.4350    85.7070    11.4190     9.5830    11.2420    24.5580     2.4320 
  214.8750   -16.9800    83.2750    11.4960     9.8350    13.3360    24.5580     2.4570 
  215.0000   -17.5740    86.8870    11.1190     9.6990    12.9750    24.5580     2.4770 
  215.1250   -18.0910    95.8590    10.3290     9.1350     9.7870    24.5580     2.4770 
  215.2500   -18.5590   101.3600     9.4760     8.4120     7.8940    24.5580     2.4590 
  215.3750   -18.9640   101.1860     8.8020     7.7460     7.1810    24.5580     2.4340 
  215.5000   -19.3130    98.7870     8.4120     7.2690     7.0070    24.5580     2.4140 
  215.6250   -19.6210    98.1780     8.3010     7.0320     7.1150    24.5580     2.4090 
  215.7500   -19.9080    98.9730     8.3200     6.9400     7.2180    24.5580     2.4140 
  215.8750   -20.1860    98.5940     8.4110     6.9430     7.1980    24.5580     2.4240 
  216.0000   -20.4180    95.3900     8.5940     7.0400     7.2640    24.5580     2.4320 
  216.1250   -20.7460    91.8170     8.9870     7.3120     7.4270    24.5590     2.4340 
  216.2500   -21.1110    90.8350     9.6320     7.7960     7.5240    24.5570     2.4320 
  216.3750   -21.5670    91.9410    10.5210     8.5010     8.3120    24.5450     2.4270 
  216.5000   -22.0290    92.2360    11.5060     9.3920    10.8350    24.5240     2.4190 
  216.6250   -22.5420    91.7580    12.5890    10.4320    15.3480    24.5430     2.4100 
  216.7500   -23.0700    91.4530    13.8490    11.6170    15.5450    24.5510     2.3990 
  216.8750   -23.6390    89.3240    15.8310    13.1510    12.8130    24.5500     2.3870 
  217.0000   -24.2570    84.8070    19.1000    15.5250    12.6790    24.5390     2.3780 
  217.1250   -24.8580    78.8080    25.7430    19.9460    18.7410    24.5500     2.3760 
  217.2500   -25.4690    73.9820    36.1540    27.0570    33.4780    24.5560     2.3790 
  217.3750   -25.9960    71.3590    49.9330    37.1360    58.0060    24.5580     2.3810 
  217.5000   -26.5270    70.4220    66.1070    49.4720    70.0860    24.5580     2.3750 
  217.6250   -26.9410    68.0320    82.2190    61.8680    73.4450    24.5580     2.3550 
  217.7500   -27.3670    63.7830    94.5080    71.6330    80.0280    24.5610     2.3280 
  217.8750   -27.6960    61.9170   101.2610    77.5500    95.3460    24.5730     2.3010 
  218.0000   -27.9920    63.3380   103.8390    80.3640   100.0220    24.5930     2.2810 
  218.1250   -28.1880    64.2530   106.0040    82.3760    86.1320    24.5940     2.2720 
  218.2500   -28.3310    63.3590   110.6370    85.8140    72.9720    24.5770     2.2690 
  218.3750   -28.4240    62.0620   118.1440    91.3000    79.7860    24.5820     2.2680 
  218.5000   -28.4500    59.8480   127.2900    98.2510   108.4530    24.6200     2.2640 
  218.6250   -28.4300    57.1130   135.2190   104.9130   133.7090    24.6260     2.2540 
  218.7500   -28.3160    56.1250   139.5350   109.5160   130.3380    24.6020     2.2410 
  218.8750   -28.2060    57.2560   139.4990   111.3350   113.1460    24.5710     2.2280 
  219.0000   -28.0900    59.0990   136.3050   110.8540   102.5590    24.5580     2.2190 
  219.1250   -27.9360    59.6500   132.4990   109.5790   102.0810    24.5580     2.2170 
  219.2500   -27.8150    58.1870   130.0520   109.1110   100.4940    24.5580     2.2180 
  219.3750   -27.6860    55.7770   128.9780   109.7670   104.3490    24.5580     2.2170 
