~V
VERS. 2.00: Ver 2.00
~W
STRT.M 55.0000:
STOP.M 256.0000:
STEP.M 0.1250:
NULL. -999.2500:
UWI. DF327:
~C
DEPT.M :
SP.MV :
DEN.GM/CC :
AC.US/MT :
GR.API :
RML.OHMM :
RI. :
RXO.OHMM :
CALI.CM :
~A
# ...
  195.0000   -24.7800     2.2940   367.2580    70.4710    76.6270    73.8080    87.9980    24.2990 
  195.1250   -24.5470     2.2940   373.3880    71.0210    76.9200    74.4360    91.7980    24.2980 
  195.2500   -24.2460     2.2890   379.4570    71.9670    78.0830    76.2390    99.2970    24.2870 
  195.3750   -23.8910     2.2790   384.0700    71.8780    80.4120    79.2180   105.7280    24.2530 
  195.5000   -23.4860     2.2650   386.8620    70.5770    84.6150    83.8390   109.1000    24.2190 
  195.6250   -23.0610     2.2490   387.8440    69.9990    92.3470    91.4430   117.0470    24.2360 
  195.7500   -22.6410     2.2380   387.9340    68.4540   104.0710   102.3780   133.1700    24.2660 
  195.8750   -22.2080     2.2330   387.6510    63.8160   119.6600   116.6030   160.6880    24.2890 
  196.0000   -21.7410     2.2360   386.8150    58.0280   137.4290   132.9530   188.2900    24.2970 
  196.1250   -21.2630     2.2430   383.4010    54.4640   153.1760   148.3260   206.0150    24.2940 
  196.2500   -20.8010     2.2520   375.3250    52.7260   162.5540   158.8840   218.7380    24.2940 
  196.3750   -20.3480     2.2630   360.7720    53.6530   162.8520   161.6620   222.4490    24.2910 
  196.5000   -19.8970     2.2740   338.8050    57.9570   154.4970   155.7220   208.5920    24.2930 
  196.6250   -19.3910     2.2890   308.9070    63.0530   141.2210   142.4330   186.3700    24.2990 
  196.7500   -18.8260     2.3160   275.7480    66.0210   125.5040   127.4640   158.1910    24.2930 
  196.8750   -18.2250     2.3560   244.5510    67.4020   110.2530   114.3400   131.3470    24.2700 
  197.0000   -17.6030     2.4110   220.0830    68.3820   100.6060   104.2110   113.7040    24.2150 
  197.1250   -16.9360     2.4770   205.6090    68.9800   112.1710   101.7950   111.2640    24.1200 
  197.2500   -16.2110     2.5410   197.6140    68.6220   164.1290   123.5270   121.7970    24.0460 
  197.3750   -15.4540     2.5930   193.3610    66.1460   267.8190   187.3310   151.6710    24.0450 
  197.5000   -14.6910     2.6310   192.2420    61.6070   422.6600   301.9810   200.5200    24.0440 
  197.6250   -13.9740     2.6550   198.2610    58.9040   579.7230   445.3110   265.6480    24.0170 
  197.7500   -13.3030     2.6650   214.4790    58.1720   659.6900   554.1310   320.0710    23.9890 
  197.8750   -12.6770     2.6590   242.9390    57.0640   669.2400   557.2130   344.0390    24.0130 
  198.0000   -12.1090     2.6340   281.9930    55.7160   587.0060   410.1620   298.8850    24.0520 
  198.1250   -11.6440     2.5890   323.8650    55.5910   430.6790   206.6990   152.6540    24.0650 
  198.2500   -11.2700     2.5380   357.0990    57.3440   261.0930    89.3240    62.0420    24.0210 
  198.3750   -10.9970     2.4920   375.7260    63.2620   115.4000    39.1190    26.7950    23.8690 
  198.5000   -10.8220     2.4620   381.2530    75.6060    45.7000    19.6490    14.5750    23.7300 
  198.6250   -10.7560     2.4500   380.9410    92.1870    12.3550    13.2440    11.2990    23.7910 
  198.7500   -10.7970     2.4470   383.1580   105.6660    10.6470    10.6450    10.9880    23.8790 
  198.8750   -10.9440     2.4450   389.8030   111.8790     9.8770     9.6460    11.4030    23.8030 
  199.0000   -11.1760     2.4400   397.8380   110.3870     9.6270     9.3670    11.8710    23.6400 
  199.1250   -11.4610     2.4340   402.1420   104.1030     9.4750     9.4020    12.0870    23.5800 
  199.2500   -11.8040     2.4290   402.1440    98.8230     9.3760     9.4620    11.6780    23.5700 
  199.3750   -12.1750     2.4270   400.8140    95.2880     9.3380     9.4600    11.0880    23.5690 
  199.5000   -12.5550     2.4280   401.3230    93.2650     9.3510     9.3730    11.0070    23.5520 
  199.6250   -12.9150     2.4330   403.9880    94.5700     9.3260     9.1890    11.1710    23.5110 
  199.7500   -13.2380     2.4400   406.2880    97.7430     9.2220     8.9200    11.1740    23.4790 
  199.8750   -13.5160     2.4470   407.3410    98.5380     9.0070     8.5630    11.0010    23.4910 
  200.0000   -13.7510     2.4530   408.4190    96.2690     8.6980     8.1200    10.5860    23.5440 
  200.1250   -13.9720     2.4500   411.1220    95.0410     8.3000     7.6170     9.9830    23.5900 
  200.2500   -14.1330     2.4390   413.2490    96.6540     7.8500     7.1240     9.4510    23.6400 
  200.3750   -14.2150     2.4270   410.5790   100.2310     7.4200     6.7050     9.0060    23.7050 
  200.5000   -14.2460     2.4210   400.4110   104.6360     7.1280     6.4140     8.7240    23.7970 
  200.6250   -14.2440     2.4250   382.4800   106.7090     7.0840     6.3310     8.8740    23.8880 
  200.7500   -14.2270     2.4380   360.6880   106.2180     7.2750     6.4780     9.5560    23.9770 
  200.8750   -14.1780     2.4530   338.3100   105.3980     7.8840     6.9170    10.4310    24.0110 
  201.0000   -14.0930     2.4670   319.6130   104.3040     9.0340     7.7110    11.3990    24.0040 
  201.1250   -13.9560     2.4720   311.9090   101.6830    10.8300     8.9280    12.4210    24.0080 
  201.2500   -13.7820     2.4650   317.4870    98.4270    13.0280    10.3580    13.9660    23.9960 
  201.3750   -13.5670     2.4460   336.0390    94.4380    14.9970    11.6920    16.2890    23.9670 
  201.5000   -13.2690     2.4170   363.3130    87.7080    15.8860    12.5220    18.4420    23.9240 
  201.6250   -12.8270     2.3900   389.6520    81.8980    14.9590    12.3500    19.1970    23.9420 
  201.7500   -12.1980     2.3720   405.6600    81.4700    12.8690    11.3440    17.7320    24.0050 
  201.8750   -11.3950     2.3680   408.2510    83.6500    10.5360     9.8940    14.6300    24.0410 
  202.0000   -10.4740     2.3740   401.2330    85.3790     8.6530     8.4740    10.6480    23.9800 
  202.1250    -9.5000     2.3830   393.0310    85.7540     7.5560     7.4620     8.2180    23.8590 
  202.2500    -8.5390     2.3910   389.0270    83.7660     6.9930     6.8510     7.1960    23.7850 
  202.3750    -7.5910     2.3970   388.6740    77.2130     6.7810     6.5670     7.1860    23.7480 
  202.5000    -6.7020     2.4020   389.3150    69.1590     6.7500     6.5110     7.3790    23.7200 
  202.6250    -5.9360     2.4010   388.4780    66.9820     6.7170     6.5910     7.3450    23.7250 
  202.7500    -5.3470     2.3950   386.2850    69.1770     6.8090     6.6890     7.1680    23.7330 
  202.8750    -4.9450     2.3840   384.2000    72.2110     6.8920     6.7420     7.0730    23.7320 
  203.0000    -4.6810     2.3740   383.9160    76.3580     6.9080     6.7190     7.1890    23.8000 
  203.1250    -4.5170     2.3680   386.0760    84.4060     6.8270     6.6140     7.3580    23.9120 
  203.2500    -4.4250     2.3660   388.7370    94.4130     6.6780     6.4670     7.5050    24.0260 
  203.3750    -4.4160     2.3660   390.8500   101.9320     6.5350     6.3080     7.5830    24.1000 
  203.5000    -4.4560     2.3640   392.5570   105.6460     6.4100     6.1630     7.5950    24.1290 
  203.6250    -4.5200     2.3580   394.2400   103.4820     6.3220     6.0670     7.8060    24.1250 
  203.7500    -4.6080     2.3480   395.5920    97.2320     6.2870     6.0320     8.1580    24.1170 
  203.8750    -4.7290     2.3380   396.1760    91.8650     6.3080     6.0680     8.4720    24.1210 
  204.0000    -4.8770     2.3290   396.3860    91.7540     6.4210     6.1760     8.7230    24.1240 
  204.1250    -5.0520     2.3240   397.1490    95.2260     6.6370     6.3680     9.4130    24.1300 
  204.2500    -5.2310     2.3190   398.4110    95.3850     6.9850     6.6320    10.4540    24.1390 
  204.3750    -5.4320     2.3130   399.5790    90.9280     7.5610     6.9670    11.4990    24.1430 
  204.5000    -5.6700     2.3070   400.2100    84.9500     8.4210     7.3680    12.3040    24.1360 
  204.6250    -5.9390     2.3010   400.4620    82.9380     9.7360     7.8250    13.2540    24.1220 
  204.7500    -6.2070     2.2960   400.9380    84.6310    11.3430     8.3000    13.9810    24.1210 
  204.8750    -6.4620     2.2930   401.6100    87.4470    12.8570     8.7770    14.6690    24.1160 
