~V
VERS. 2.00: Ver 2.00
~W
STRT.M 55.0000:
STOP.M 285.0000:
STEP.M 0.1250:
NULL. -999.2500:
UWI. DF32159:
~C
DEPT.M :
GR.API :
CALI.CM :
RXO.OHMM :
RI. :
RML.OHMM :
DEN.GM/CC :
SP.MV :
~A
# ...
  235.0000    72.3500    25.8660    29.2880    27.2790    35.2010     2.2550   -13.6890 
  235.1250    72.6300    25.8310    28.1710    27.3260    35.0940     2.2560   -14.2490 
  235.2500    70.5490    25.8430    26.1990    27.3120    34.9650     2.2700   -14.7120 
  235.3750    68.3350    25.8870    25.3870    27.7540    35.5890     2.2940   -15.0310 
  235.5000    66.8760    25.9420    27.9420    29.1750    37.6640     2.3170   -15.1580 
  235.6250    64.4720    25.9800    36.1070    32.3750    42.1430     2.3220   -14.9780 
  235.7500    61.1690    25.9850    47.2670    37.5250    49.0880     2.3050   -14.5240 
  235.8750    59.4680    25.9540    57.0650    44.7230    58.5850     2.2810   -13.8170 
  236.0000    60.2020    25.8940    63.7740    53.5710    70.1360     2.2790   -12.9040 
  236.1250    62.0510    25.8320    72.7680    62.3910    81.0860     2.3290   -11.8480 
  236.2500    63.4860    25.7950    83.1060    67.5830    85.4640     2.4210   -10.7490 
  236.3750    65.1170    25.7880    84.4900    64.9560    77.4700     2.5340    -9.7010 
  236.5000    67.8930    25.7920    71.8070    53.2460    58.5870     2.6420    -8.7800 
  236.6250    70.6450    25.7700    50.9860    37.3830    38.6550     2.7070    -8.0920 
  236.7500    72.0590    25.7160    31.2300    24.3230    24.1300     2.7130    -7.7000 
  236.8750    70.7110    25.6500    16.6860    15.6700    15.0930     2.6700    -7.5260 
  237.0000    68.1720    25.6020     8.9080    10.6540    10.0350     2.6040    -7.3450 
  237.1250    66.9240    25.5830     6.6730     8.2290     7.7580     2.5440    -7.3230 
  237.2500    65.8260    25.5830     6.2670     7.0000     6.7890     2.4990    -7.4140 
  237.3750    63.4250    25.6670     6.1720     6.4490     6.5020     2.4650    -7.5660 
  237.5000    60.3910    26.0450     6.0050     6.2310     6.4300     2.4390    -7.7060 
  237.6250    60.0240    26.9320     5.8020     6.0740     6.2150     2.4220    -7.7600 
  237.7500    62.6180    27.9640     5.4830     5.8500     5.8190     2.4120    -7.6970 
  237.8750    68.0080    28.5030     5.0580     5.6120     5.4080     2.4050    -7.5380 
  238.0000    77.8010    28.1120     4.7370     5.4770     5.1830     2.3940    -7.3400 
  238.1250    88.1460    27.0240     4.9660     5.5910     5.3460     2.3860    -7.1700 
  238.2500    96.1900    26.1240     5.8450     5.9720     5.8740     2.3920    -7.0870 
  238.3750   104.9240    25.7460     7.1000     6.5970     6.6790     2.4190    -7.1240 
  238.5000   115.6690    25.7320     8.1440     7.3530     7.5640     2.4570    -7.2960 
  238.6250   121.7220    25.7870     8.4720     7.9950     8.2050     2.4800    -7.6500 
  238.7500   120.7320    25.8150     8.3830     8.3270     8.4500     2.4810    -8.1770 
  238.8750   119.7440    25.8210     8.1820     8.3240     8.3400     2.4700    -8.8290 
  239.0000   121.9060    25.8070     7.9590     8.1170     8.0720     2.4630    -9.5410 
  239.1250   123.2690    25.7820     7.6910     7.8980     7.9020     2.4560   -10.2050 
  239.2500   123.1040    25.7670     7.4860     7.7960     7.9480     2.4340   -10.7340 
  239.3750   125.6460    25.7730     7.5110     7.8460     8.2120     2.4060   -11.0920 
  239.5000   129.7490    25.7900     7.8290     8.0320     8.6400     2.3930   -11.2780 
  239.6250   128.9370    25.8030     8.2910     8.2910     9.1330     2.3980   -11.2540 
  239.7500   123.3790    25.8070     8.6410     8.5170     9.5690     2.4030   -11.0640 
  239.8750   117.5710    25.8070     8.7830     8.6600     9.8970     2.4060   -10.7670 
  240.0000   115.2270    25.8070     8.7570     8.7360    10.1470     2.4090   -10.4240 
  240.1250   115.6000    25.8070     8.7950     8.8180    10.4070     2.4080   -10.1660 
  240.2500   114.6750    25.8040     9.2840     8.9860    10.7740     2.3970   -10.0880 
  240.3750   110.3810    25.7930    10.4920     9.3160    11.3630     2.3840   -10.2150 
  240.5000   102.9290    25.7730    12.2350     9.9070    12.3450     2.3880   -10.5420 
  240.6250    95.8580    25.7510    13.6710    10.9770    14.0450     2.4100   -11.1350 
  240.7500    89.9930    25.7350    15.0180    12.6140    16.5470     2.4250   -11.9320 
  240.8750    84.5550    25.7300    18.1310    14.9420    19.9640     2.4210   -12.8690 
  241.0000    81.1580    25.7290    24.8480    18.0580    24.3470     2.4040   -13.8840 
  241.1250    80.4110    25.7290    32.5850    22.1400    29.8210     2.3820   -14.8750 
  241.2500    78.7200    25.7310    36.6190    27.0620    36.2200     2.3570   -15.7580 
  241.3750    74.1070    25.7400    39.1440    32.9340    43.6980     2.3290   -16.4990 
  241.5000    69.2230    25.7580    48.0950    39.9690    52.5370     2.3070   -17.0860 
  241.6250    66.4540    25.7770    69.8840    48.4420    63.1320     2.2990   -17.4700 
  241.7500    62.8550    25.7770    94.3390    57.6930    74.7590     2.2980   -17.6760 
  241.8750    58.6850    25.7580   108.3160    66.6290    85.9830     2.3000   -17.7320 
  242.0000    58.4090    25.7330   106.9420    73.6870    94.4980     2.3040   -17.6960 
  242.1250    62.2430    25.7200    96.8940    77.1430    97.8350     2.3190   -17.6470 
  242.2500    64.6490    25.7180    88.5720    78.0640    97.8610     2.3430   -17.6420 
  242.3750    65.6820    25.7230    85.2150    77.9840    96.8810     2.3620   -17.7140 
  242.5000    67.8490    25.7270    85.8320    78.2640    96.5990     2.3560   -17.8760 
  242.6250    70.8460    25.7290    87.9870    79.9500    98.0850     2.3190   -18.1420 
  242.7500    71.9670    25.7290    91.1960    83.2220   101.3040     2.2810   -18.5060 
  242.8750    71.2220    25.7260    95.4170    88.0880   106.1910     2.2640   -18.9570 
  243.0000    70.1640    25.7160    99.5680    94.1680   112.4020     2.2630   -19.4330 
  243.1250    67.9160    25.6940   103.6840   100.5360   119.0420     2.2570   -19.8490 
  243.2500    64.9350    25.6770   108.6440   105.7930   124.4050     2.2420   -20.1530 
  243.3750    62.5990    25.6830   111.3650   108.6930   126.7890     2.2290   -20.3140 
  243.5000    62.8720    25.7170   107.4780   108.4120   125.0980     2.2280   -20.3110 
  243.6250    65.6530    25.7620    98.7650   104.4210   118.9530     2.2410   -20.1140 
  243.7500    66.0340    25.7920    93.4740    98.1240   110.5330     2.2570   -19.7550 
  243.8750    64.5960    25.8040    92.7570    90.8560   101.7240     2.2650   -19.2570 
  244.0000    65.0570    25.8060    90.9940    84.2190    94.3650     2.2620   -18.6960 
  244.1250    66.7230    25.8050    82.1720    80.2920    90.5980     2.2560   -18.1510 
  244.2500    67.6450    25.8020    72.1940    79.8880    90.9400     2.2600   -17.6760 
  244.3750    68.4970    25.8000    70.6000    83.6300    95.9230     2.2650   -17.3080 
  244.5000    69.0620    25.7980    83.8130    91.6580   105.6930     2.2610   -17.0710 
  244.6250    66.6650    25.7980   108.9710   103.5110   119.8600     2.2500   -17.0000 
  244.7500    63.5980    25.7980   128.0580   116.0570   134.7130     2.2440   -17.0590 
  244.8750    63.4320    25.7970   133.9320   126.2060   146.1740     2.2430   -17.2270 
  245.0000    64.3880    25.7980   132.7900   131.6560   151.2650     2.2430   -17.4370 
  245.1250    63.8600    25.8090   131.4640   131.5990   149.5060     2.2420   -17.6240 
  245.2500    63.0310    25.8380   129.6220   128.6220   144.5570     2.2360   -17.7570 
  245.3750    63.0260    25.8790   128.2990   123.9960   137.8590     2.2280   -17.8240 
  245.5000    63.7160    25.9100   128.7300   117.9660   129.5520     2.2190   -17.8420 
  245.6250    65.0870    25.9020   127.0090   110.1800   119.3750     2.2140   -17.8290 
  245.7500    66.7820    25.8730   116.4560   101.2570   108.2550     2.2170   -17.8180 
  245.8750    69.1390    25.8600    98.3870    91.9130    97.0800     2.2250   -17.8470 
  246.0000    70.7600    25.8800    82.1380    82.8170    86.5350     2.2380   -17.9540 
  246.1250    69.2020    25.9180    75.9560    74.4770    77.0670     2.2570   -18.1800 
