~V
VERS. 2.00: Ver 2.00
~W
STRT.M 60.0000:
STOP.M 264.0000:
STEP.M 0.1250:
NULL. -999.2500:
UWI. DF32130:
~C
DEPT.M :
SP.MV :
GR.API :
CALI.CM :
RXO.OHMM :
RI. :
RML.OHMM :
DEN.GM/CC :
~A
# ...
  127.5000   -22.8510    65.5270    22.3930    13.0960     9.7730    12.0900     2.2690 
  127.6250   -23.0810    66.2690    22.8440    16.2400    10.6810    13.2420     2.3240 
  127.7500   -23.2780    68.1900    22.9790    20.6090    11.7500    14.6740     2.3980 
  127.8750   -23.4740    69.7250    22.9180    24.2220    12.7930    16.1180     2.4360 
  128.0000   -23.6980    69.9990    22.9280    24.6230    13.4600    17.0150     2.4120 
  128.1250   -23.8980    69.6060    23.1180    20.3000    13.2970    16.5720     2.3420 
  128.2500   -24.0610    67.8910    23.2390    15.2000    12.4780    15.1600     2.2660 
  128.3750   -24.2020    65.4820    23.2720    12.0960    11.3570    13.4770     2.2150 
  128.5000   -24.2470    64.5520    23.2680    10.9540    10.2790    12.0640     2.1850 
  128.6250   -24.2110    67.1200    23.2650    10.5770     9.5150    11.2140     2.1720 
  128.7500   -24.0980    69.1420    23.2530    10.3890     9.0840    10.7980     2.1730 
  128.8750   -23.8980    67.7170    23.2010    10.2770     8.9240    10.6590     2.1830 
  129.0000   -23.5830    64.2830    23.1110    10.1010     8.9190    10.6180     2.1900 
  129.1250   -23.1390    63.2740    23.1310     9.7060     8.9710    10.5650     2.1900 
  129.2500   -22.6070    64.4740    23.2380     9.2070     9.0030    10.4910     2.1910 
  129.3750   -22.0010    64.2500    23.3100     8.8700     8.9440    10.3800     2.2030 
  129.5000   -21.3620    62.3610    23.3360     8.7350     8.7190    10.1590     2.2270 
  129.6250   -20.7000    63.3780    23.3570     8.3450     8.2310     9.6670     2.2590 
  129.7500   -20.0510    69.8630    23.3660     7.4770     7.5240     8.8920     2.2910 
  129.8750   -19.4420    81.4470    23.3670     6.4080     6.6830     7.9150     2.3150 
  130.0000   -18.9280    93.8250    23.3660     5.5790     5.8310     6.9100     2.3320 
  130.1250   -18.5990    99.8840    23.3620     5.2040     5.1180     6.1170     2.3420 
  130.2500   -18.4190   101.3570    23.3520     4.9550     4.6120     5.6270     2.3420 
  130.3750   -18.4130   102.4200    23.3270     4.8200     4.3620     5.4810     2.3290 
  130.5000   -18.5680   103.5030    23.2950     4.9060     4.4010     5.6880     2.3080 
  130.6250   -18.9010    98.7380    23.2020     5.4340     4.7800     6.2990     2.2800 
  130.7500   -19.3460    89.7580    23.0250     6.5050     5.4150     7.2190     2.2490 
  130.8750   -19.8330    81.5840    22.8470     7.7180     6.2250     8.3390     2.2230 
  131.0000   -20.3010    76.7070    22.7650     8.5470     7.0800     9.4460     2.2040 
  131.1250   -20.6740    74.0020    22.7600     8.8130     7.7700    10.2120     2.1900 
  131.2500   -20.9690    72.2430    22.7590     8.8480     8.2070    10.5870     2.1780 
  131.3750   -21.1350    70.3720    22.7590     8.8660     8.4030    10.6810     2.1730 
  131.5000   -21.2040    68.4210    22.7590     8.8650     8.4270    10.6420     2.1770 
  131.6250   -21.1650    67.6350    22.7590     8.7660     8.3340    10.5430     2.1870 
  131.7500   -21.0210    68.3180    22.7590     8.6270     8.1870    10.3960     2.1940 
  131.8750   -20.7890    70.4020    22.7590     8.5190     8.0200    10.1850     2.1910 
  132.0000   -20.4900    73.8990    22.7590     8.3790     7.8600     9.9460     2.1850 
  132.1250   -20.1700    75.7510    22.7590     8.1220     7.7340     9.7760     2.1830 
  132.2500   -19.8160    73.6340    22.7600     7.9720     7.6390     9.7060     2.1850 
  132.3750   -19.4570    69.9590    22.7630     7.9510     7.5570     9.7070     2.1810 
  132.5000   -19.0870    69.7040    22.7610     7.8730     7.4620     9.7140     2.1770 
  132.6250   -18.6540    73.0340    22.7600     7.7190     7.3280     9.6400     2.1830 
  132.7500   -18.2050    76.1550    22.7590     7.4510     7.1390     9.4270     2.2010 
  132.8750   -17.7710    79.4020    22.7590     7.0420     6.8770     9.0520     2.2270 
  133.0000   -17.3670    85.4400    22.7590     6.5260     6.5410     8.5310     2.2560 
  133.1250   -16.9820    91.0420    22.7590     6.0780     6.1420     7.9070     2.2840 
  133.2500   -16.6260    93.0600    22.7590     5.6930     5.7210     7.2740     2.3040 
  133.3750   -16.3140    93.9850    22.7590     5.3910     5.3260     6.7020     2.3120 
  133.5000   -16.0250    96.6550    22.7590     5.2050     5.0140     6.2610     2.3190 
  133.6250   -15.7970    99.0900    22.7590     5.0280     4.8480     6.0200     2.3410 
  133.7500   -15.6280    98.1540    22.7590     4.9040     4.8060     5.9500     2.3760 
  133.8750   -15.5000    96.2230    22.7590     5.0050     4.8500     6.0110     2.4010 
  134.0000   -15.3780    97.8380    22.7590     5.4000     4.9230     6.1300     2.3950 
  134.1250   -15.2620   101.1150    22.7590     5.5660     4.9360     6.2140     2.3640 
  134.2500   -15.1490   101.6040    22.7590     5.3830     4.8630     6.2240     2.3310 
  134.3750   -15.0270    99.9630    22.7590     5.0300     4.7270     6.1630     2.3190 
  134.5000   -14.9270    99.5250    22.7590     4.7770     4.5520     6.0410     2.3260 
  134.6250   -14.8470   102.2930    22.7450     4.7470     4.3510     5.8340     2.3460 
  134.7500   -14.7800   103.5730    22.7100     4.7310     4.1550     5.5760     2.3700 
  134.8750   -14.7090   102.7150    22.6740     4.6190     4.0040     5.3490     2.3890 
  135.0000   -14.6640   102.1410    22.6560     4.4160     3.9340     5.2420     2.3990 
  135.1250   -14.6350   104.0670    22.6550     4.3110     4.0000     5.3420     2.3930 
  135.2500   -14.6490   105.2020    22.6550     4.4510     4.2110     5.6170     2.3670 
  135.3750   -14.7040   102.2100    22.6410     4.8630     4.5460     6.0120     2.3170 
  135.5000   -14.7860    96.4490    22.6000     5.4130     4.9320     6.4470     2.2610 
  135.6250   -14.9220    93.5430    22.5170     5.8770     5.2710     6.8210     2.2200 
  135.7500   -15.0880    93.6260    22.4800     6.1250     5.5040     7.0750     2.2040 
  135.8750   -15.2910    93.1330    22.4400     6.2200     5.6190     7.1900     2.2070 
  136.0000   -15.5310    90.8010    22.3210     6.2570     5.6510     7.1930     2.2160 
  136.1250   -15.7750    89.3620    22.0310     6.2840     5.6490     7.1580     2.2240 
  136.2500   -16.0120    90.0660    21.7760     6.3200     5.6410     7.1560     2.2260 
  136.3750   -16.2410    91.7760    21.6240     6.3590     5.6370     7.2120     2.2180 
  136.5000   -16.4880    92.7550    21.5710     6.3860     5.6600     7.3340     2.2050 
  136.6250   -16.7080    91.4280    21.5630     6.4180     5.7430     7.5180     2.1960 
  136.7500   -16.9120    87.7000    21.5630     6.5180     5.8810     7.7180     2.1960 
  136.8750   -17.0940    85.3560    21.5630     6.7400     6.0600     7.9060     2.2000 
  137.0000   -17.2260    87.8740    21.5630     7.0000     6.2440     8.0710     2.2000 
  137.1250   -17.3530    92.3770    21.5700     7.0710     6.3810     8.2030     2.1930 
  137.2500   -17.4640    94.8180    21.6180     6.9970     6.4660     8.3010     2.1830 
  137.3750   -17.5570    96.0040    21.7460     6.9890     6.5100     8.3670     2.1760 
  137.5000   -17.6050    97.3410    21.9140     7.1430     6.5130     8.4010     2.1750 
  137.6250   -17.6120    96.8590    22.0400     7.2570     6.4670     8.3800     2.1820 
  137.7500   -17.6020    92.6460    22.1020     7.1330     6.3850     8.2910     2.1990 
  137.8750   -17.5910    88.3510    22.1460     6.8430     6.2810     8.1280     2.2230 
  138.0000   -17.6110    88.3510    22.2260     6.5760     6.1770     7.9190     2.2360 
  138.1250   -17.6470    91.0490    22.3600     6.4870     6.1150     7.7470     2.2290 
  138.2500   -17.7200    91.7520    22.4030     6.4920     6.1230     7.6930     2.2100 
  138.3750   -17.8030    91.6020    22.3090     6.5610     6.2090     7.7920     2.1970 
  138.5000   -17.8910    93.1800    22.1010     6.6600     6.3600     8.0120     2.1930 
  138.6250   -17.9980    94.1660    21.9970     6.7710     6.5450     8.2660     2.1920 
