~V
VERS. 2.00: Ver 2.00
~W
STRT.M 59.0000:
STOP.M 261.0000:
STEP.M 0.1250:
NULL. -999.2500:
UWI. DF32116:
~C
DEPT.M :
SP.MV :
GR.API :
CALI.CM :
RXO.OHMM :
RI. :
RML.OHMM :
DEN.GM/CC :
~A
   59.0000    47.1560    36.6850    24.8930     0.5520     2.8700    16.1650     2.2690 
   59.1250    44.1380    40.5980    24.8490     0.6200     1.6640     7.6830     2.2800 
   59.2500    39.7630    44.1010    24.8560     0.6640     1.0240     3.5280     2.2690 
   59.3750    33.9280    46.3470    24.8530     0.8470     0.7890     1.6440     2.2640 
   59.5000    26.9920    48.9050    24.7950     1.4720     0.7640     0.9210     2.2780 
   59.6250    19.5310    53.7070    24.6800     2.8400     0.8880     0.9560     2.2580 
   59.7500    12.1180    57.6720    24.6840     4.3170     1.1620     1.5620     2.1570 
   59.8750     5.0780    57.3350    25.0990     5.0830     1.6590     2.9120     1.9950 
   60.0000    -1.2780    55.4210    26.0420     5.0170     2.4580     5.1330     1.8420 
   60.1250    -6.5070    57.3150    27.1340     4.9440     3.5340     7.2690     1.7800 
   60.2500   -10.4550    60.6090    27.6110     5.4880     4.5860     8.0520     1.8240 
   60.3750   -13.0190    62.0270    27.1710     6.5430     5.4350     7.9710     1.9460 
   60.5000   -14.5320    62.5600    26.1220     7.7270     6.0750     7.8830     2.0860 
   60.6250   -15.4650    65.3810    25.1360     8.6100     6.5450     8.1180     2.1700 
   60.7500   -16.2540    68.1530    24.5760     9.1950     6.8970     8.5390     2.1960 
   60.8750   -17.0040    68.6650    24.5010     9.6330     7.1410     9.0090     2.1910 
   61.0000   -17.7380    68.2430    24.6220     9.9710     7.2970     9.4180     2.1780 
   61.1250   -18.4310    66.7750    24.4940    10.0970     7.3780     9.6890     2.1660 
   61.2500   -19.0730    64.8610    24.1270    10.0610     7.4080     9.8400     2.1610 
   61.3750   -19.6630    65.0300    23.8230     9.9900     7.3910     9.8900     2.1650 
   61.5000   -20.1880    67.5760    23.7200     9.9700     7.3310     9.8620     2.1740 
   61.6250   -20.6310    70.6020    23.7400     9.9530     7.2450     9.7810     2.1730 
   61.7500   -21.0250    70.2090    23.8520     9.8210     7.1900     9.7370     2.1620 
   61.8750   -21.3860    67.2290    24.0410     9.5210     7.2360     9.8440     2.1510 
   62.0000   -21.7540    64.1760    24.1700     9.2000     7.4540    10.2310     2.1630 
   62.1250   -22.1870    61.9000    24.1940     9.7300     7.9220    11.0590     2.2170 
   62.2500   -22.6990    60.4850    24.2100    11.7540     8.5740    12.2280     2.2930 
   62.3750   -23.2870    61.0900    24.2580    14.3410     9.2890    13.4780     2.3510 
   62.5000   -23.9310    64.5780    24.3050    15.3750     9.8600    14.3270     2.3540 
   62.6250   -24.6310    66.8780    24.3080    13.9720    10.0090    14.2150     2.2900 
   62.7500   -25.3560    67.8310    24.2850    12.3300     9.7580    13.4140     2.2150 
   62.8750   -26.0730    70.0000    24.2680    11.4150     9.2560    12.3730     2.1690 
   63.0000   -26.7270    71.9010    24.2680    10.8690     8.7040    11.4740     2.1600 
   63.1250   -27.2720    69.8870    24.2680    10.3290     8.2840    10.9560     2.1730 
   63.2500   -27.7100    66.3250    24.2690     9.9800     8.0270    10.7530     2.1820 
   63.3750   -28.0200    63.2140    24.2820     9.9130     7.9020    10.7570     2.1810 
   63.5000   -28.2200    61.6250    24.2980     9.9950     7.8430    10.8160     2.1740 
   63.6250   -28.3140    63.3770    24.2980    10.0230     7.7820    10.7630     2.1640 
   63.7500   -28.3540    68.2200    24.2840     9.9410     7.6820    10.5630     2.1570 
   63.8750   -28.3730    72.5910    24.2760     9.7600     7.5510    10.2710     2.1510 
   64.0000   -28.4250    74.0150    24.2800     9.4940     7.4210     9.9900     2.1440 
   64.1250   -28.5450    72.8450    24.2800     9.3090     7.3500     9.8540     2.1410 
   64.2500   -28.7230    71.2720    24.2740     9.3850     7.3580     9.8930     2.1480 
   64.3750   -28.9600    70.9060    24.2690     9.6740     7.4380    10.0770     2.1580 
   64.5000   -29.2500    71.3630    24.2680    10.0010     7.5550    10.3230     2.1640 
   64.6250   -29.5820    71.1130    24.2700    10.2170     7.6530    10.4960     2.1640 
   64.7500   -29.9230    71.2950    24.2730    10.2290     7.6910    10.5130     2.1670 
   64.8750   -30.2470    72.7960    24.2760     9.9970     7.6520    10.3690     2.1710 
   65.0000   -30.5190    72.5790    24.2790     9.6510     7.5570    10.1350     2.1720 
   65.1250   -30.7180    67.7930    24.2930     9.3490     7.4560     9.9310     2.1680 
   65.2500   -30.8290    63.0290    24.3180     9.1020     7.4040     9.8480     2.1620 
   65.3750   -30.8480    61.6410    24.3500     9.0670     7.4350     9.9330     2.1560 
   65.5000   -30.7680    63.0930    24.3820     9.4630     7.5650    10.2010     2.1520 
   65.6250   -30.5890    64.6750    24.4110    10.1450     7.7800    10.6130     2.1510 
   65.7500   -30.3380    64.5920    24.4340    10.5320     7.9920    10.9800     2.1490 
   65.8750   -30.0430    63.3510    24.4490    10.4720     8.0940    11.0800     2.1440 
   66.0000   -29.7180    62.3790    24.4570    10.1710     7.9950    10.7480     2.1400 
   66.1250   -29.3880    63.7540    24.4640     9.6220     7.6510    10.0050     2.1490 
   66.2500   -29.0910    67.7540    24.4700     8.6630     7.2130     9.2120     2.1680 
   66.3750   -28.8500    72.1790    24.4800     7.6280     6.8260     8.6410     2.1860 
   66.5000   -28.6840    74.2860    24.4930     7.2940     6.6070     8.4490     2.1860 
   66.6250   -28.6130    71.9400    24.5010     8.2070     6.6410     8.7080     2.1670 
   66.7500   -28.6280    67.8280    24.5050     9.4420     6.8540     9.2020     2.1500 
   66.8750   -28.7230    65.3810    24.5000    10.1640     7.1450     9.6940     2.1480 
   67.0000   -28.9080    65.5690    24.4760    10.2050     7.3840     9.9360     2.1550 
   67.1250   -29.1770    66.2450    24.4310     9.9080     7.4380     9.7590     2.1540 
   67.2500   -29.4740    65.4100    24.3950     9.5370     7.3350     9.3720     2.1420 
   67.3750   -29.7720    64.5510    24.4080     9.1510     7.1720     9.0150     2.1280 
   67.5000   -30.0210    67.7330    24.5320     8.8700     7.0510     8.8660     2.1220 
   67.6250   -30.1410    72.7530    24.8680     8.7940     7.0400     8.9900     2.1200 
   67.7500   -30.1230    74.0500    25.3250     8.8280     7.0770     9.1890     2.1130 
   67.8750   -29.9120    73.0340    25.7290     8.8590     7.0520     9.2190     2.1030 
   68.0000   -29.4790    73.7290    25.9780     8.7040     6.8460     8.8670     2.1040 
   68.1250   -28.8390    77.6010    26.2470     7.9660     6.3900     8.0660     2.1380 
   68.2500   -28.0690    81.6380    26.7030     6.7140     5.8160     7.1170     2.1940 
   68.3750   -27.2330    85.4160    27.0680     5.4390     5.2580     6.2730     2.2460 
   68.5000   -26.4050    89.9310    26.8510     4.7300     4.8150     5.6880     2.2710 
   68.6250   -25.6730    92.9600    25.9240     4.7850     4.5610     5.4340     2.2660 
   68.7500   -25.0630    92.4080    24.9790     5.0120     4.4530     5.3860     2.2580 
   68.8750   -24.6430    90.9030    24.4370     5.0290     4.4440     5.4380     2.2620 
   69.0000   -24.4770    92.3750    24.2760     4.8600     4.4820     5.5020     2.2800 
   69.1250   -24.5710    95.4300    24.2540     4.7920     4.5430     5.5630     2.2970 
   69.2500   -24.8530    94.4470    24.2250     4.8720     4.6430     5.6970     2.2990 
   69.3750   -25.2780    88.9530    24.1890     5.0780     4.8290     6.0000     2.2830 
   69.5000   -25.7900    81.9940    24.1620     5.5740     5.1420     6.5560     2.2540 
   69.6250   -26.3120    74.8520    24.1260     6.6030     5.6320     7.4460     2.2150 
   69.7500   -26.7680    70.1540    24.0840     7.7990     6.2450     8.5400     2.1770 
   69.8750   -27.0930    69.7850    24.0630     8.6980     6.8680     9.5890     2.1470 
   70.0000   -27.2200    71.5330    24.0820     9.1320     7.2940    10.1770     2.1330 
   70.1250   -27.1190    71.2880    24.1460     9.1650     7.2260     9.7920     2.1400 
