~V
VERS. 2.00: Ver 2.00
~W
STRT.M 61.0000:
STOP.M 325.0000:
STEP.M 0.1250:
NULL. -999.2500:
UWI. DF320:
~C
DEPT.M :
GR.API :
RML.OHMM :
RI. :
RXO.OHMM :
CALI.CM :
SP.MV :
DEN.GM/CC :
AC.US/MT :
~A
# ...
  131.0000    62.9570     9.5630     8.7570    10.7810    24.2380   -24.8170     2.2990   313.8790 
  131.1250    61.5890     9.6290     8.7750    10.7020    24.1350   -24.9940     2.2880   333.7380 
  131.2500    61.6010     9.5950     8.6650    10.7770    24.1130   -25.1830     2.2690   362.3540 
  131.3750    64.7690     9.4800     8.4340    11.0050    24.1370   -25.3810     2.2460   386.4630 
  131.5000    69.4410     9.3180     8.1440    11.2450    24.1600   -25.5860     2.2230   403.0010 
  131.6250    70.3410     9.1590     8.0130    11.2810    24.1260   -25.7380     2.2040   414.9250 
  131.7500    68.9140     9.0500     7.9960    11.1540    24.0700   -25.8060     2.1920   425.1590 
  131.8750    68.1640     9.0130     8.1000    10.9760    24.0210   -25.8040     2.1880   433.1500 
  132.0000    68.8090     9.0440     8.2330    10.7810    23.9860   -25.7690     2.1870   438.7330 
  132.1250    69.3770     9.0960     8.3100    10.7300    23.9760   -25.7710     2.1870   442.1140 
  132.2500    69.2190     9.0840     8.2920    10.7820    23.9780   -25.8150     2.1850   444.2920 
  132.3750    70.3240     8.9540     8.1610    10.8580    23.9910   -25.8450     2.1850   445.9650 
  132.5000    73.8260     8.6990     7.9240    10.7960    24.0110   -25.8240     2.1870   446.2160 
  132.6250    79.4110     8.3930     7.6350    10.5160    24.0270   -25.7840     2.1910   441.0790 
  132.7500    83.3460     8.1610     7.4160    10.1490    24.0290   -25.8030     2.1930   426.6550 
  132.8750    84.1310     8.0830     7.3420     9.9070    24.0200   -25.9400     2.1920   403.5540 
  133.0000    82.4920     8.1820     7.4350    10.1630    23.9990   -26.1900     2.1920   380.8790 
  133.1250    79.6200     8.4300     7.6700    10.9070    23.9640   -26.4710     2.2020   372.0340 
  133.2500    76.7660     8.7170     7.9400    11.6670    23.9220   -26.7060     2.2220   376.9920 
  133.3750    74.2410     8.9590     8.1690    12.1640    23.8840   -26.9590     2.2430   390.3270 
  133.5000    71.5390     9.1030     8.3040    12.5000    23.9120   -27.2700     2.2530   405.6080 
  133.6250    67.5780     9.1260     8.3270    12.8830    23.9040   -27.6090     2.2350   419.1830 
  133.7500    65.2680     9.1040     8.3060    13.1600    23.8980   -27.8930     2.2020   429.8280 
  133.8750    66.2200     9.1010     8.3030    13.3020    23.8830   -28.0440     2.1730   434.5300 
  134.0000    68.2330     9.1560     8.3550    13.0300    23.8620   -28.0700     2.1690   426.3270 
  134.1250    70.8310     9.2590     8.4500    11.5260    23.8420   -28.0290     2.2030   396.3490 
  134.2500    72.5640     9.3470     8.5350    11.0350    23.8040   -27.9690     2.2520   356.5580 
  134.3750    73.2110     9.3740     8.5670    11.1070    23.7110   -27.8730     2.2910   326.4440 
  134.5000    73.9600     9.3310     8.5310    11.3250    23.6010   -27.7220     2.3000   323.5380 
  134.6250    76.5220     9.2460     8.4470    11.4120    23.5510   -27.5010     2.2730   353.5590 
  134.7500    78.4360     9.1640     8.3330    11.4050    23.5240   -27.2400     2.2360   391.4280 
  134.8750    77.2770     9.0910     8.1890    11.3870    23.5070   -26.9700     2.2050   418.5670 
  135.0000    75.8210     9.0020     7.9980    11.3260    23.4870   -26.7210     2.1830   430.1040 
  135.1250    75.7370     8.8600     7.7590    11.1310    23.4710   -26.4590     2.1700   431.8250 
  135.2500    73.1760     8.6710     7.5840    10.7450    23.4890   -26.1840     2.1610   432.5930 
  135.3750    71.1990     8.4670     7.4430    10.1550    23.5580   -25.9190     2.1560   433.4270 
  135.5000    73.7050     8.3000     7.3800     9.5540    23.6640   -25.6900     2.1540   434.2660 
  135.6250    78.1500     8.2300     7.3960     9.3530    23.6800   -25.5720     2.1550   435.6790 
  135.7500    78.5430     8.2490     7.4590     9.7050    23.6310   -25.5580     2.1570   437.8750 
  135.8750    74.1480     8.3280     7.5630    10.2150    23.5670   -25.5810     2.1570   440.9400 
  136.0000    69.0140     8.4210     7.6640    10.5780    23.5230   -25.5610     2.1550   444.7120 
  136.1250    69.1190     8.4710     7.7300    10.6360    23.5010   -25.4940     2.1530   448.3900 
  136.2500    75.3450     8.4460     7.7410    10.5780    23.4940   -25.4330     2.1540   450.7450 
  136.3750    84.7840     8.3430     7.6890    10.4640    23.5060   -25.3540     2.1610   450.8930 
  136.5000    92.3780     8.2080     7.5870    10.3140    23.5180   -25.2260     2.1720   449.0270 
  136.6250    94.9700     8.0640     7.4630    10.1500    23.5200   -24.9830     2.1850   446.7430 
  136.7500    93.2490     7.9250     7.3560     9.9850    23.5190   -24.6310     2.1940   445.8640 
  136.8750    89.6950     7.8230     7.2890     9.8080    23.5170   -24.2460     2.1980   446.5740 
  137.0000    88.1440     7.7920     7.2640     9.7560    23.5130   -23.9010     2.1960   447.5780 
  137.1250    87.9210     7.8060     7.2770     9.8500    23.4980   -23.6040     2.1870   447.1490 
  137.2500    84.7870     7.8540     7.2690    10.0480    23.4660   -23.3030     2.1760   445.4320 
  137.3750    77.5570     7.8550     7.2010    10.3200    23.4100   -22.9840     2.1660   443.4300 
  137.5000    69.1200     7.7700     7.0840    10.5810    23.3360   -22.6260     2.1600   441.9610 
  137.6250    65.8660     7.6410     6.9380    10.5970    23.3300   -22.2350     2.1670   441.3060 
  137.7500    69.5890     7.5920     6.8320    10.4700    23.4360   -21.8350     2.1860   441.0570 
  137.8750    77.0080     7.7080     6.8350    10.6430    23.5950   -21.4310     2.2150   440.4610 
  138.0000    82.9420     7.9930     7.0350    12.1520    23.7130   -21.0330     2.2450   438.2600 
  138.1250    83.7290     8.3610     7.3960    14.9770    23.7910   -20.6360     2.2610   432.0980 
  138.2500    80.2380     8.6810     7.7820    18.3330    23.8900   -20.2420     2.2540   423.6060 
  138.3750    75.5250     8.8950     8.0300    21.1180    24.0120   -19.8620     2.2280   417.4980 
  138.5000    73.7930     9.0250     8.1850    19.5660    24.1020   -19.5010     2.1930   418.4570 
  138.6250    73.6900     9.1070     8.2520    13.9050    24.1220   -19.1220     2.1630   426.3420 
  138.7500    72.8570     9.1100     8.2670    10.9890    24.1300   -18.6490     2.1440   433.2270 
  138.8750    72.4030     9.0130     8.2180    10.0240    24.1520   -18.0160     2.1360   435.0820 
  139.0000    74.1530     8.8020     8.0770     9.5270    24.1830   -17.1870     2.1400   433.0020 
  139.1250    77.3690     8.4900     7.8240     8.9250    24.2340   -16.1910     2.1550   430.1630 
  139.2500    81.3710     8.1130     7.5110     7.9970    24.3260   -15.1310     2.1800   427.6760 
  139.3750    87.8100     7.7890     7.1930     6.9180    24.4580   -14.0430     2.2090   424.9470 
  139.5000    95.2940     7.5320     6.9090     6.1930    24.5810   -12.9700     2.2380   422.4570 
  139.6250   100.5110     7.3190     6.6710     5.9430    24.6540   -11.9870     2.2580   421.4850 
  139.7500   102.5800     7.0800     6.4430     5.8560    24.6870   -11.1690     2.2730   421.8200 
  139.8750   102.8200     6.7900     6.2000     5.7000    24.7170   -10.5580     2.2840   422.7090 
  140.0000   104.1500     6.4840     5.9510     5.5450    24.7480   -10.1440     2.2930   423.5370 
  140.1250   107.3520     6.2550     5.7490     5.3640    24.7890    -9.9090     2.2990   424.1670 
  140.2500   111.4630     6.1750     5.6380     5.1790    24.8590    -9.7720     2.3050   424.3790 
  140.3750   114.7450     6.2390     5.6310     5.0400    24.9450    -9.7490     2.3120   422.1250 
  140.5000   115.8540     6.3950     5.7040     5.1780    24.9510    -9.8630     2.3220   414.5490 
  140.6250   114.9380     6.5260     5.8070     5.5030    24.8160   -10.0890     2.3300   401.8330 
  140.7500   112.0740     6.5350     5.8840     5.7630    24.6730   -10.3850     2.3320   391.8030 
  140.8750   107.9910     6.4600     5.9120     5.8300    24.5600   -10.7360     2.3240   390.7990 
