~V
VERS. 2.00: Ver 2.00
~W
STRT.M 60.0000:
STOP.M 229.0000:
STEP.M 0.1250:
NULL. -999.2500:
UWI. DF32026:
~C
DEPT.M :
SP.MV :
GR.API :
CALI.CM :
RXO.OHMM :
RI. :
RML.OHMM :
DEN.GM/CC :
~A
# ...
   71.2500    72.5500    74.5560    24.2520     9.2740     6.8290     8.7730     2.1730 
   71.3750    72.8000    77.6000    24.3400     9.0930     6.6500     8.5400     2.1920 
   71.5000    73.1020    82.1620    24.4600     8.6080     6.3570     8.1750     2.2030 
   71.6250    73.4580    88.8090    24.5460     7.9400     5.9840     7.7110     2.2120 
   71.7500    73.7610    95.9500    24.6480     7.1670     5.6220     7.2600     2.2240 
   71.8750    74.0100   100.9680    24.8250     6.5780     5.3380     6.9320     2.2440 
   72.0000    74.2060   104.4700    24.7280     6.3640     5.1710     6.8050     2.2710 
   72.1250    74.2900   110.0830    24.6540     6.3220     5.1350     6.9300     2.3020 
   72.2500    74.2920   114.5920    24.5790     6.4120     5.1740     7.1980     2.3310 
   72.3750    74.1930   113.3700    24.5740     6.5470     5.2280     7.4630     2.3470 
   72.5000    74.0360   107.1460    24.5630     6.5920     5.2220     7.5180     2.3490 
   72.6250    73.7340   104.0060    24.5510     6.5120     5.0910     7.1870     2.3380 
   72.7500    73.4380   104.9030    24.4970     6.6290     4.9330     6.7120     2.3150 
   72.8750    73.0920   104.4390    24.3880     6.9000     4.9230     6.4670     2.2910 
   73.0000    72.7120   100.7560    24.3420     7.2980     5.2870     6.8570     2.2860 
   73.1250    72.2740    97.5930    24.4760     8.6350     6.4360     8.4990     2.3190 
   73.2500    71.8430    98.4470    24.4550    14.1960     8.5420    11.6140     2.3970 
   73.3750    71.4070    97.5490    24.4720    26.1160    11.6360    16.2350     2.5120 
   73.5000    70.9430    89.9400    24.4520    37.7310    15.0540    21.2580     2.6120 
   73.6250    70.4990    80.0360    24.3530    37.8350    16.7050    23.1230     2.6440 
   73.7500    70.0280    75.5990    24.1940    30.5210    15.8140    20.8680     2.5880 
   73.8750    69.5840    76.9940    24.0550    22.1170    13.4860    16.8160     2.4780 
   74.0000    69.1560    80.1760    23.9990    15.4230    11.1670    13.3800     2.3810 
   74.1250    68.7740    82.4900    24.2090    12.1130     9.6290    11.5280     2.3210 
   74.2500    68.4210    81.6820    24.2060    11.8900     8.7440    10.7520     2.2930 
   74.3750    68.1130    78.0720    23.9310    14.3560     8.3180    10.6200     2.2780 
   74.5000    67.8690    75.5150    23.6190    17.1760     8.1270    10.7000     2.2590 
   74.6250    67.6930    75.7180    23.6000    16.3310     7.9570    10.5950     2.2300 
   74.7500    67.5880    75.7450    23.5750    13.2560     7.7120    10.2520     2.1960 
   74.8750    67.5470    75.7490    23.3890    10.8440     7.4280     9.8170     2.1730 
   75.0000    67.5700    78.2490    23.3690     9.6130     7.1790     9.4560     2.1660 
   75.1250    67.6060    80.6000    23.6880     9.2380     7.0510     9.3040     2.1690 
   75.2500    67.6890    78.5610    23.9370     9.0810     7.0460     9.3430     2.1770 
   75.3750    67.7760    75.6260    24.0000     9.0590     7.1410     9.5260     2.1850 
   75.5000    67.8630    77.2790    23.9600     9.1230     7.2940     9.7820     2.1990 
   75.6250    67.9310    81.7890    23.9570     9.2830     7.4460    10.0200     2.2250 
   75.7500    67.9910    82.3100    23.9880     9.4150     7.5260    10.1330     2.2560 
   75.8750    68.0270    77.7220    23.9640     9.5740     7.4860    10.0560     2.2700 
   76.0000    68.0030    73.6920    23.8600     9.7550     7.3260     9.8050     2.2590 
   76.1250    68.0350    75.8470    23.8130     9.7720     7.0920     9.4730     2.2340 
   76.2500    68.0490    78.9560    23.8020     9.7140     6.8640     9.1880     2.2090 
   76.3750    68.0900    78.4770    23.7820     9.6810     6.6890     9.0240     2.1900 
   76.5000    68.1370    75.0460    23.7450     9.6830     6.5880     9.0050     2.1760 
   76.6250    68.2410    75.2440    23.7350     9.6300     6.5700     9.1140     2.1680 
   76.7500    68.3470    78.5460    23.7480     9.6840     6.5980     9.2720     2.1660 
   76.8750    68.4720    79.9640    23.7670     9.8600     6.6470     9.4340     2.1660 
   77.0000    68.6490    80.2100    23.7750    10.0160     6.7000     9.5750     2.1710 
   77.1250    68.7940    81.7010    23.7790     9.9260     6.7330     9.6690     2.1830 
   77.2500    68.9540    82.8870    23.7810     9.7940     6.7290     9.6990     2.2000 
   77.3750    69.0830    81.3550    23.7950     9.7830     6.6800     9.6440     2.2110 
   77.5000    69.2290    77.6340    23.8330     9.8840     6.5840     9.5000     2.2070 
   77.6250    69.3360    74.5530    23.8910     9.9030     6.4680     9.3070     2.1910 
   77.7500    69.4420    74.6070    23.9110     9.7380     6.3770     9.1600     2.1720 
   77.8750    69.5350    77.3400    23.8950     9.4590     6.3440     9.1130     2.1680 
   78.0000    69.6130    79.4580    23.8790     9.3140     6.3690     9.1700     2.1780 
   78.1250    69.6850    80.2760    23.8790     9.5180     6.4240     9.2750     2.1910 
   78.2500    69.7690    83.6410    23.9100     9.9150     6.4560     9.3340     2.1950 
   78.3750    69.8480    87.4550    23.9740    10.0880     6.4370     9.2930     2.1910 
   78.5000    69.9240    87.1000    24.0350     9.8100     6.3640     9.1540     2.1850 
   78.6250    69.9940    84.2730    24.0640     9.3480     6.2730     8.9890     2.1780 
   78.7500    70.0430    82.9390    24.0730     9.0540     6.2200     8.8910     2.1710 
   78.8750    70.1010    82.9080    24.0850     9.0000     6.2370     8.9100     2.1690 
   79.0000    70.1440    83.7050    24.1070     9.1250     6.3270     9.0540     2.1730 
   79.1250    70.1970    84.2500    24.1510     9.4130     6.4680     9.2900     2.1830 
   79.2500    70.2260    82.8830    24.1780     9.6420     6.5950     9.5230     2.1900 
   79.3750    70.2740    80.1420    24.1940     9.6320     6.6450     9.6640     2.1880 
   79.5000    70.3090    79.3540    24.2010     9.3650     6.5690     9.6260     2.1800 
   79.6250    70.3560    81.2890    24.1980     9.0540     6.3080     9.2980     2.1750 
   79.7500    70.4210    84.7970    24.1960     8.7420     5.9030     8.7300     2.1810 
   79.8750    70.4690    88.8490    24.2020     8.2410     5.4210     8.0150     2.2000 
   80.0000    70.4730    90.7760    24.2210     7.4990     4.9470     7.2930     2.2250 
   80.1250    70.4240    91.0540    24.2320     6.8610     4.5970     6.7510     2.2490 
   80.2500    70.3150    93.2580    24.1990     6.6950     4.4360     6.5080     2.2620 
   80.3750    70.1590    93.4550    24.1460     7.1390     4.5210     6.6560     2.2530 
   80.5000    69.9610    86.9810    24.0990     8.1080     4.8850     7.2360     2.2290 
   80.6250    69.7470    79.1420    24.0860     9.9830     5.5570     8.2740     2.2080 
   80.7500    69.5250    79.7060    24.0130    14.6560     6.4040     9.5390     2.2060 
   80.8750    69.2610    85.0390    23.8210    20.2970     7.2520    10.7470     2.2180 
   81.0000    69.0640    85.5320    23.8180    21.6070     7.8860    11.5620     2.2220 
   81.1250    68.8710    80.8340    23.9940    17.1780     8.0820    11.6730     2.2090 
   81.2500    68.7470    77.9290    24.0550    13.2560     7.9190    11.2720     2.1870 
   81.3750    68.6780    78.4380    24.0500    11.5440     7.5160    10.5920     2.1740 
   81.5000    68.6560    79.6990    24.0500    10.9100     7.0180     9.8620     2.1760 
   81.6250    68.6720    78.4740    24.0550    10.3640     6.5560     9.2650     2.1880 
   81.7500    68.7040    77.5930    24.0650     9.5510     6.2000     8.8470     2.1990 
   81.8750    68.7770    79.6560    24.0710     8.6790     5.9790     8.6290     2.1980 
   82.0000    68.8510    84.7040    24.0140     8.0650     5.8990     8.6190     2.1890 
   82.1250    68.9680    86.4820    23.9450     8.2960     5.9640     8.8150     2.1800 
   82.2500    69.1010    83.5490    23.8880     8.8630     6.1010     9.0890     2.1780 
   82.3750    69.2290    79.2710    23.8360     9.3410     6.2490     9.3140     2.1790 
