~V
VERS. 2.00: Ver 2.00
~W
STRT.M 60.0000:
STOP.M 229.0000:
STEP.M 0.1250:
NULL. -999.2500:
UWI. DF32026:
~C
DEPT.M :
SP.MV :
GR.API :
CALI.CM :
RXO.OHMM :
RI. :
RML.OHMM :
DEN.GM/CC :
~A
# ...
  217.5000    91.9640    77.8090    24.3320    21.1260    14.5880    16.4620     2.5820 
  217.6250    91.9990    77.8090    24.3770    19.1160    14.2140    16.2410     2.5780 
  217.7500    92.0520    77.8090    24.4060    18.0830    13.9090    16.1630     2.5660 
  217.8750    92.0960    77.8090    24.4300    16.0330    13.7090    16.1900     2.5550 
  218.0000    92.1340    77.8090    24.4890    12.8990    13.6690    16.3090     2.5510 
  218.1250    92.1770    77.8090    24.4900    10.8180    13.8680    16.5640     2.5470 
  218.2500    92.2350    77.8090    24.4520    10.7270    14.2760    16.9650     2.5360 
  218.3750    92.2790    77.8090    24.3760    11.5380    14.8650    17.5040     2.5240 
  218.5000    92.3110    77.8090    24.2970    13.0840    15.5820    18.1430     2.5260 
  218.6250    92.3200    77.8090    24.3160    16.4110    16.3390    18.7700     2.5430 
  218.7500    92.2930    77.8090    24.3180    22.0650    16.9990    19.2470     2.5550 
  218.8750    92.2610    77.8090    24.3180    30.1840    17.4580    19.4870     2.5520 
  219.0000    92.2500    77.8090    24.3450    36.3530    17.6820    19.5080     2.5420 
  219.1250    92.2050    77.8090    24.4000    34.8030    17.7290    19.4400     2.5390 
  219.2500    92.1250    77.8090    24.4930    29.4340    17.7600    19.4620     2.5410 
  219.3750    92.0510    77.8090    24.5440    24.3330    17.8420    19.6410     2.5450 
  219.5000    91.9940    77.8090    24.5080    21.4230    17.9470    19.9290     2.5510 
  219.6250    91.9640    77.8090    24.3510    20.2320    17.9370    20.1220     2.5620 
  219.7500    91.9270    77.8090    24.3320    19.2850    17.7000    20.0200     2.5710 
  219.8750    91.8900    77.8090    24.3540    18.1700    17.2140    19.5410     2.5760 
  220.0000    91.8660    77.8090    24.3680    17.9540    16.5700    18.7750     2.5840 
  220.1250    91.8600    77.8090    24.3700    19.4280    15.9580    17.9940     2.5970 
  220.2500    91.9030    77.8090    24.3710    20.8620    15.5320    17.4720     2.6060 
  220.3750    91.9730    77.8090    24.3790    20.1820    15.3450    17.3060     2.5980 
  220.5000    92.0370    77.8090    24.4090    17.3230    15.3620    17.4560     2.5630 
  220.6250    92.0340    77.8090    24.4100    14.8740    15.4860    17.7870     2.5150 
  220.7500    92.0250    77.8090    24.3210    15.1130    15.5900    18.1230     2.4840 
  220.8750    92.0380    77.8090    24.2650    17.3560    15.6320    18.4160     2.4850 
  221.0000    92.0490    77.8090    24.3430    20.0520    15.6110    18.6930     2.5140 
  221.1250    92.0540    77.8090    24.5160    22.6260    15.5380    19.0200     2.5530 
  221.2500    92.0580    77.8090    24.6930    25.5270    15.4380    19.4060     2.5800 
  221.3750    92.0260    77.8090    24.7090    27.6500    15.3310    19.7690     2.5880 
  221.5000    91.9820    77.8090    24.5500    27.4310    15.2450    19.9730     2.5810 
  221.6250    91.9510    77.8090    24.4320    25.9010    15.2280    19.9190     2.5730 
  221.7500    91.9910    77.8090    24.3910    26.1450    15.2800    19.6360     2.5710 
  221.8750    92.0120    77.8090    24.3520    28.5820    15.3650    19.1340     2.5740 
  222.0000    92.0060    77.8090    24.3030    29.1340    15.3830    19.0210     2.5780 
  222.1250    92.0350    77.8090    24.3030    25.8820    15.3830    19.0210     2.5750 
  222.2500    92.0730    77.8090    24.3410    22.7170    15.3830    19.0210     2.5600 
  222.3750    92.1390    77.8090    24.3620    18.8110    15.3830    19.0210     2.5390 
  222.5000    92.2080    77.8090    24.3630    15.1900    15.3830    19.0210     2.5250 
  222.6250    92.3050    77.8090    24.3650    13.7580    15.3830    19.0210     2.5300 
  222.7500    92.3630    77.8090    24.3670    13.4560    15.3830    19.0210     2.5460 
  222.8750    92.4120    77.8090    24.3670    12.7380    15.3830    19.0210     2.5610 
  223.0000    92.4580    77.8090    24.3670    12.4040    15.3830    19.0210     2.5680 
  223.1250    92.4990    77.8090    24.3550    14.7090    15.3830    19.0210     2.5660 
  223.2500    92.4670    77.8090    24.3170    18.2620    15.3830    19.0210     2.5580 
  223.3750    92.3980    77.8090    24.2570    19.4900    15.3830    19.0210     2.5450 
  223.5000    92.3360    77.8090    24.1890    17.3480    15.3830    19.0210     2.5310 
  223.6250    92.2980    77.8090    24.1630    15.3100    15.3830    19.0210     2.5260 
  223.7500    92.2960    77.8090    24.1470    14.9850    15.3830    19.0210     2.5320 
  223.8750    92.3130    77.8090    24.1410    16.1070    15.3830    19.0210     2.5420 
  224.0000    92.3300    77.8090    24.1600    17.4470    15.3830    19.0210     2.5470 
  224.1250    92.3100    77.8090    24.1890    18.6610    15.3830    19.0210     2.5510 
  224.2500    92.3330    77.8090    24.1890    19.6690    15.3830    19.0210     2.5560 
  224.3750    92.4060    77.8090    24.1890    20.5160    15.3830    19.0210     2.5530 
  224.5000    92.4640    77.8090    24.1860    20.7810    15.3830    19.0210     2.5400 
  224.6250    92.4900    77.8090    24.1580    20.0890    15.3830    19.0210     2.5290 
  224.7500    92.4550    77.8090    24.1250    19.7530    15.3830    19.0210     2.5330 
  224.8750    92.4100    77.8090    24.1240    19.8770    15.3830    19.0210     2.5600 
  225.0000    92.3720    77.8090    24.1370    20.3130    15.3830    19.0210     2.5780 
  225.1250    92.3050    77.8090    24.1380    20.6090    15.3830    19.0210     2.4580 
  225.2500    92.2010    77.8090    24.1040    20.6150    15.3830    19.0210     2.1650 
  225.3750    92.0930    77.8090    24.0270    20.2900    15.3830    19.0210     1.8200 
  225.5000    92.0310    77.8090    23.9510    20.0000    15.3830    19.0210     1.5980 
  225.6250    91.9560    77.8090    23.8100    20.3490    15.3830    19.0210     1.5710 
  225.7500    91.8510    77.8090    23.5850    21.0390    15.3830    19.0210     1.6050 
  225.8750    91.7460    77.8090    23.3920    21.5430    15.3830    19.0210     1.6310 
  226.0000    91.7260    77.8090    23.3130    21.7140    15.3830    19.0210     1.6390 
  226.1250    91.7260    77.8090    23.3100    21.7170    15.3830    19.0210     1.6460 
  226.2500  -999.2500    77.8090    23.3090    21.7190    15.3830    19.0210     1.6530 
  226.3750  -999.2500    77.8090    23.3060    21.7200    15.3830    19.0210     1.6570 
  226.5000  -999.2500    77.8090    23.3010    21.7170    15.3830    19.0210     1.6560 
  226.6250  -999.2500    77.8090    23.2970    21.7120    15.3830    19.0210     1.6520 
  226.7500  -999.2500    77.8090    23.2940    21.7120    15.3830    19.0210     1.6490 
  226.8750  -999.2500    77.8090    23.2950    21.7130    15.3830    19.0210     1.6480 
  227.0000  -999.2500  -999.2500  -999.2500  -999.2500  -999.2500  -999.2500     1.6470 
  227.1250  -999.2500  -999.2500  -999.2500  -999.2500  -999.2500  -999.2500     1.6430 
  227.2500  -999.2500  -999.2500  -999.2500  -999.2500  -999.2500  -999.2500     1.6420 
  227.3750  -999.2500  -999.2500  -999.2500  -999.2500  -999.2500  -999.2500     1.6410 
  227.5000  -999.2500  -999.2500  -999.2500  -999.2500  -999.2500  -999.2500     1.6400 
  227.6250  -999.2500  -999.2500  -999.2500  -999.2500  -999.2500  -999.2500     1.6360 
  227.7500  -999.2500  -999.2500  -999.2500  -999.2500  -999.2500  -999.2500     1.6340 
  227.8750  -999.2500  -999.2500  -999.2500  -999.2500  -999.2500  -999.2500     1.6330 
  228.0000  -999.2500  -999.2500  -999.2500  -999.2500  -999.2500  -999.2500     1.6330 
  228.1250  -999.2500  -999.2500  -999.2500  -999.2500  -999.2500  -999.2500     1.6340 
  228.2500  -999.2500  -999.2500  -999.2500  -999.2500  -999.2500  -999.2500     1.6360 
  228.3750  -999.2500  -999.2500  -999.2500  -999.2500  -999.2500  -999.2500     1.6360 
  228.5000  -999.2500  -999.2500  -999.2500  -999.2500  -999.2500  -999.2500     1.6340 
  228.6250  -999.2500  -999.2500  -999.2500  -999.2500  -999.2500  -999.2500     1.6380 
