~V
VERS. 2.00: Ver 2.00
~W
STRT.M 60.0000:
STOP.M 264.0000:
STEP.M 0.1250:
NULL. -999.2500:
UWI. DF32130:
~C
DEPT.M :
SP.MV :
GR.API :
CALI.CM :
RXO.OHMM :
RI. :
RML.OHMM :
DEN.GM/CC :
~A
# ...
  138.7500   -18.1200    90.0640    21.9660     6.9210     6.7200     8.4660     2.1910 
  138.8750   -18.2280    85.5970    21.9650     7.0610     6.8600     8.5860     2.1920 
  139.0000   -18.3370    84.7190    21.9570     7.1260     6.9540     8.6630     2.1930 
  139.1250   -18.4560    86.6130    21.8910     7.1140     7.0220     8.7750     2.1900 
  139.2500   -18.5560    88.5630    21.7200     7.0690     7.1090     8.9640     2.1810 
  139.3750   -18.6750    88.9330    21.4820     7.0420     7.2370     9.2330     2.1720 
  139.5000   -18.8250    87.0300    21.2990     7.0700     7.4140     9.5540     2.1700 
  139.6250   -18.9950    85.5060    21.2680     7.1780     7.6270     9.8880     2.1700 
  139.7500   -19.1880    86.1900    21.2710     7.3390     7.8290    10.1780     2.1690 
  139.8750   -19.3930    85.3820    21.2760     7.4990     7.9690    10.3690     2.1700 
  140.0000   -19.5870    79.9010    21.3020     7.6350     8.0340    10.4360     2.1770 
  140.1250   -19.7290    75.5200    21.4350     7.8230     8.0640    10.4310     2.1840 
  140.2500   -19.8400    76.5700    21.6650     8.1060     8.1470    10.5010     2.1810 
  140.3750   -19.9100    79.5250    21.8320     8.5360     8.3610    10.7840     2.1720 
  140.5000   -19.9410    79.6870    21.8880     9.2040     8.7800    11.3780     2.1660 
  140.6250   -19.9320    76.9500    21.8890    10.3130     9.4890    12.3110     2.1660 
  140.7500   -19.8770    74.7060    21.8990    11.6120    10.4050    13.3900     2.1710 
  140.8750   -19.8170    73.6180    21.9110    12.8930    11.4190    14.4660     2.1750 
  141.0000   -19.7270    72.7290    21.8880    13.9540    12.4040    15.4330     2.1720 
  141.1250   -19.6570    72.0850    21.7750    14.4500    13.2340    16.2220     2.1630 
  141.2500   -19.5930    73.3910    21.5990    14.4400    13.8880    16.8860     2.1560 
  141.3750   -19.5340    77.4110    21.4340    14.0640    14.3590    17.4190     2.1590 
  141.5000   -19.4770    81.0280    21.3030    13.5760    14.6190    17.7260     2.1670 
  141.6250   -19.4220    80.2940    21.1610    13.1320    14.5290    17.5830     2.1720 
  141.7500   -19.3830    77.2310    21.0880    12.7140    14.0550    16.9220     2.1680 
  141.8750   -19.3570    74.9620    21.0550    11.9670    13.2160    15.7550     2.1620 
  142.0000   -19.3430    73.7580    21.1280    10.8760    12.1590    14.2850     2.1620 
  142.1250   -19.3140    74.2420    21.4760     9.8440    11.1490    12.9430     2.1700 
  142.2500   -19.2850    77.3300    21.9770     9.1160    10.4080    12.0600     2.1790 
  142.3750   -19.2420    80.6210    22.2710     8.6820    10.0540    11.7660     2.1800 
  142.5000   -19.1850    81.0140    22.3630     8.7140    10.1310    12.0670     2.1750 
  142.6250   -19.1400    77.7950    22.4550     9.4330    10.6690    12.9220     2.1700 
  142.7500   -19.0930    75.1390    22.6640    10.4970    11.4710    14.0270     2.1710 
  142.8750   -19.0370    73.4990    22.9230    11.4680    12.3410    15.1040     2.1710 
  143.0000   -18.9770    72.6930    23.1410    12.4160    13.0630    15.8580     2.1670 
  143.1250   -18.9250    73.4140    23.2100    13.3980    13.4090    15.9830     2.1620 
  143.2500   -18.8460    74.8930    23.2250    13.5370    13.3890    15.5840     2.1610 
  143.3750   -18.7480    76.2320    23.2200    12.6460    13.0880    14.8530     2.1660 
  143.5000   -18.6170    75.4790    23.2310    11.8240    12.6600    14.0500     2.1690 
  143.6250   -18.4140    71.4160    23.2700    11.6820    12.3100    13.4640     2.1690 
  143.7500   -18.1570    68.1780    23.3230    11.4480    12.1570    13.2150     2.1710 
  143.8750   -17.8170    68.5820    23.3670    10.9640    12.1880    13.2790     2.1940 
  144.0000   -17.4220    72.7240    23.4430    11.0920    12.2490    13.4590     2.2450 
  144.1250   -16.9470    76.0160    23.6300    12.5860    12.0170    13.2990     2.3160 
  144.2500   -16.4520    75.4660    23.8670    13.5360    11.3280    12.4980     2.3850 
  144.3750   -15.9520    74.2130    24.1050    12.1100    10.2120    11.0890     2.4180 
  144.5000   -15.4880    77.2310    24.2880     9.2040     8.8760     9.4370     2.4140 
  144.6250   -15.1110    84.6960    24.3510     7.3190     7.6270     8.0160     2.3900 
  144.7500   -14.7800    88.4960    24.3670     6.9840     6.6550     7.0100     2.3640 
  144.8750   -14.5230    87.8860    24.3680     6.6630     6.0380     6.4420     2.3410 
  145.0000   -14.3230    87.3280    24.3660     5.9470     5.7780     6.2680     2.3140 
  145.1250   -14.2220    88.4010    24.3630     5.6640     5.8860     6.4630     2.2810 
  145.2500   -14.1760    87.1850    24.3630     5.9800     6.2610     6.8960     2.2470 
  145.3750   -14.1900    83.5260    24.3640     6.8300     6.8580     7.5170     2.2220 
  145.5000   -14.2430    81.3880    24.3620     7.8890     7.5980     8.2480     2.2110 
  145.6250   -14.2970    80.6880    24.3620     8.8160     8.3320     8.9270     2.2110 
  145.7500   -14.3560    79.7100    24.3590     9.4200     8.9380     9.4340     2.2180 
  145.8750   -14.4390    79.3970    24.3580     9.6650     9.4490     9.8240     2.2300 
  146.0000   -14.5240    79.9310    24.3570     9.6610    10.0280    10.3030     2.2450 
  146.1250   -14.6030    78.8860    24.3570    10.2400    10.8750    11.1220     2.2540 
  146.2500   -14.6770    74.4620    24.3580    12.2810    11.8860    12.2160     2.2520 
  146.3750   -14.7410    70.4600    24.3590    15.5210    12.7320    13.2370     2.2440 
  146.5000   -14.7860    70.0540    24.3620    18.4670    12.9670    13.5950     2.2470 
  146.6250   -14.8050    72.8450    24.3550    17.6490    12.2560    12.7900     2.2620 
  146.7500   -14.8570    76.2250    24.3200    14.0920    11.0670    11.4300     2.2750 
  146.8750   -14.8670    78.5760    24.2340    10.1010     9.8910    10.1770     2.2670 
  147.0000   -14.8960    79.6070    24.1380     7.9410     9.0580     9.4160     2.2470 
  147.1250   -14.9300    79.4150    24.0390     7.9760     8.7370     9.2790     2.2300 
  147.2500   -14.9880    79.9500    23.9580     8.5550     8.7530     9.4990     2.2290 
  147.3750   -15.0140    81.3660    23.8820     8.7340     8.9140     9.7970     2.2430 
  147.5000   -15.0300    82.2260    23.8200     8.4530     8.9970     9.8950     2.2570 
  147.6250   -15.0610    81.9200    23.7760     8.2370     8.8310     9.6660     2.2620 
  147.7500   -15.0850    81.8190    23.7620     8.2090     8.5330     9.3620     2.2610 
  147.8750   -15.1420    83.1610    23.7560     7.9380     8.3000     9.2050     2.2570 
  148.0000   -15.1830    85.6360    23.7500     7.4390     8.3450     9.3520     2.2510 
  148.1250   -15.2740    85.9930    23.7460     7.8050     8.9670    10.0740     2.2380 
  148.2500   -15.3450    82.7520    23.7440     9.9750    10.2950    11.5220     2.2170 
  148.3750   -15.4650    78.9390    23.7480    13.3930    12.5250    13.9310     2.1940 
  148.5000   -15.5670    77.4770    23.7900    17.3730    15.8230    17.5050     2.1760 
  148.6250   -15.6950    78.2970    23.9310    22.2910    20.2890    22.3870     2.1680 
  148.7500   -15.7990    76.3390    24.1360    27.5500    25.1590    27.6680     2.1720 
  148.8750   -15.9120    71.2700    24.2730    31.5480    29.5000    32.1450     2.1850 
  149.0000   -16.0250    67.1710    24.3640    33.2110    32.5450    34.9610     2.1910 
  149.1250   -16.1070    65.5290    24.4210    32.9340    33.9080    35.9760     2.1850 
  149.2500   -16.2200    65.0770    24.4450    31.8730    34.2090    36.0490     2.1700 
  149.3750   -16.3560    65.1950    24.4730    31.0840    33.8860    35.6560     2.1560 
  149.5000   -16.5430    67.1530    24.5420    30.8200    33.2140    35.0700     2.1440 
  149.6250   -16.7540    70.2060    24.6820    30.4770    32.0840    34.1360     2.1340 
  149.7500   -16.9580    71.9640    24.7440    29.4830    30.4120    32.6050     2.1310 
  149.8750   -17.1580    72.2370    24.7730    28.4720    28.3460    30.5420     2.1500 
