~V
VERS. 2.00: Ver 2.00
~W
STRT.M 60.0000:
STOP.M 227.0000:
STEP.M 0.1250:
NULL. -999.2500:
UWI. DF32025:
~C
DEPT.M :
DEN.GM/CC :
GR.API :
RML.OHMM :
RI. :
RXO.OHMM :
CALI.CM :
SP.MV :
~A
# ...
  195.0000     2.1450    58.7470    99.7570    98.3660    80.0200    24.2660   -19.4400 
  195.1250     2.1600    58.8490    98.1290    96.5540    72.3050    23.9710   -19.2600 
  195.2500     2.1740    57.8550    97.2900    95.3800    68.1110    23.9090   -19.0730 
  195.3750     2.1840    58.1850    97.7740    95.3250    66.7710    23.9970   -18.8780 
  195.5000     2.1900    61.6730   100.1430    96.9190    68.8990    24.1170   -18.7500 
  195.6250     2.1950    66.6350   105.2790   100.9300    76.6700    24.1890   -18.5240 
  195.7500     2.2020    67.9170   112.9820   107.0850    84.5240    24.2220   -18.4300 
  195.8750     2.2110    64.2620   123.0950   115.0950    90.8330    24.2430   -18.2620 
  196.0000     2.2200    60.1310   135.1260   124.3950    90.0340    24.2720   -18.1880 
  196.1250     2.2260    59.5800   148.2850   134.1910   112.0990    24.2840   -18.1010 
  196.2500     2.2280    60.4380   161.3260   143.5760   133.6270    24.2740   -18.0240 
  196.3750     2.2280    61.9940   173.6390   152.1810   150.8610    24.2470   -18.0190 
  196.5000     2.2250    64.3450   185.3300   160.2030   158.2140    24.2280   -18.0180 
  196.6250     2.2220    65.5960   197.3560   168.4780   164.1660    24.2250   -18.0690 
  196.7500     2.2240    62.7300   210.4840   177.6970   159.9520    24.2230   -18.1180 
  196.8750     2.2310    57.6120   224.3280   187.7330   165.3280    24.2040   -18.1440 
  197.0000     2.2390    55.4910   236.9840   197.3960   170.5090    24.1590   -18.1760 
  197.1250     2.2390    57.3680   244.1120   203.8440   199.5480    24.1100   -18.2650 
  197.2500     2.2310    57.8130   243.4770   205.3560   212.6120    24.0620   -18.2710 
  197.3750     2.2170    54.8080   234.7370   201.4120   221.3460    24.0420   -18.3460 
  197.5000     2.2080    51.4020   220.1200   193.1540   202.0560    24.0650   -18.3110 
  197.6250     2.2150    52.3550   204.1560   183.3130   169.7740    24.0870   -18.3550 
  197.7500     2.2380    56.1790   191.8450   175.6550   150.3660    24.0780   -18.3500 
  197.8750     2.2730    59.0680   185.0740   172.1550   171.5700    24.0200   -18.3820 
  198.0000     2.3220    59.1250   182.2230   172.1840   191.7490    23.9480   -18.4080 
  198.1250     2.3870    58.3450   177.1930   171.0890   139.7180    23.9300   -18.3060 
  198.2500     2.4640    58.5300   163.3780   162.6290   127.3050    23.8840   -18.3100 
  198.3750     2.5450    59.3330   137.3720   142.6590   177.3690    23.7870   -18.1820 
  198.5000     2.6090    60.1230   101.6060   111.4450   257.3080    23.6820   -18.1460 
  198.6250     2.6230    62.9030    66.2570    75.8310   187.4320    23.6200   -18.0140 
  198.7500     2.5860    68.6500    39.9500    46.2340    86.3210    23.6130   -17.8710 
  198.8750     2.5120    74.9670    23.3770    26.4470    37.0100    23.6060   -17.7230 
  199.0000     2.4270    78.0750    13.7770    15.1440    17.4260    23.5960   -17.5290 
  199.1250     2.3590    76.3780     9.0630     9.8560     8.2390    23.5780   -17.4790 
  199.2500     2.3210    73.9310     6.8760     7.2940     5.5170    23.5780   -17.4190 
  199.3750     2.3150    73.8680     6.4640     6.3320     5.2690    23.6220   -17.4830 
  199.5000     2.3330    75.5230     6.8870     6.3660     6.1080    23.7350   -17.5900 
  199.6250     2.3630    77.1470     7.7870     7.0580     7.6290    23.8400   -17.8020 
  199.7500     2.3900    78.1480     8.7200     7.9480     8.1240    23.8950   -18.0240 
  199.8750     2.4080    79.9700     9.4340     8.7600     8.1840    23.9040   -18.3040 
  200.0000     2.4180    81.6680     9.8050     9.3140     8.2310    23.8870   -18.5550 
  200.1250     2.4200    82.5810     9.8300     9.5240     8.3060    23.8740   -18.7870 
  200.2500     2.4160    84.0390     9.7080     9.5250     8.3160    23.8710   -18.9300 
  200.3750     2.4080    88.1270     9.5580     9.4140     8.2550    23.8710   -19.0320 
  200.5000     2.3960    92.9020     9.4510     9.2500     8.1530    23.8700   -19.0430 
  200.6250     2.3830    93.3360     9.4350     9.0610     8.1620    23.8660   -18.9710 
  200.7500     2.3730    91.0610     9.5030     8.8620     8.1170    23.8530   -18.8960 
  200.8750     2.3650    90.1270     9.6370     8.6590     8.0910    23.8320   -18.7580 
  201.0000     2.3600    92.2450     9.7920     8.4510     7.9820    23.8190   -18.6830 
  201.1250     2.3600    93.4890     9.8810     8.2220     7.9680    23.8190   -18.5260 
  201.2500     2.3610    92.9530     9.8370     7.9550     7.9500    23.8270   -18.3960 
  201.3750     2.3640    92.5060     9.6410     7.6480     7.9790    23.8390   -18.2430 
  201.5000     2.3680    92.5100     9.3540     7.3380     8.1570    23.8580   -18.1090 
  201.6250     2.3690    94.9240     9.2130     7.1750     8.4170    23.8670   -18.0250 
  201.7500     2.3660    99.9340     9.5850     7.3890     8.4900    23.8590   -17.9140 
  201.8750     2.3590   103.2660    10.9230     8.3130     8.4540    23.8360   -17.8620 
  202.0000     2.3470    99.5890    13.6010    10.2730     9.9670    23.8180   -17.7060 
  202.1250     2.3330    90.0360    17.7780    13.5370    15.3600    23.8130   -17.6040 
  202.2500     2.3210    82.4940    22.4350    17.4090    24.2640    23.8180   -17.4380 
  202.3750     2.3170    77.3900    26.1940    20.8700    32.0260    23.8340   -17.2210 
  202.5000     2.3260    74.0370    27.4970    22.6790    39.5280    23.8570   -16.9310 
  202.6250     2.3510    72.3050    25.1420    21.6360    41.8640    23.8670   -16.5340 
  202.7500     2.3840    69.9080    20.7310    18.7480    32.2030    23.8590   -16.1410 
  202.8750     2.4180    66.2640    16.0840    15.3390    19.4070    23.8360   -15.6970 
  203.0000     2.4400    64.1250    12.3390    12.4010    11.9560    23.8100   -15.2590 
  203.1250     2.4410    65.3290     9.9060    10.3780    10.0990    23.7760   -14.8250 
  203.2500     2.4230    67.0390     8.9340     9.0250     9.2600    23.7290   -14.4560 
  203.3750     2.3930    69.6790     8.3930     8.1680     7.2800    23.6990   -14.0910 
  203.5000     2.3610    73.5620     8.1230     7.6680     6.0550    23.6990   -13.8310 
  203.6250     2.3370    74.1540     8.0580     7.4610     5.6760    23.7170   -13.5680 
  203.7500     2.3260    69.9060     8.1280     7.4360     5.7210    23.7100   -13.4190 
  203.8750     2.3280    64.7020     8.3050     7.5510     5.9760    23.7010   -13.2550 
  204.0000     2.3400    62.8040     8.5490     7.7550     6.7700    23.6990   -13.1470 
  204.1250     2.3570    64.8120     8.8030     7.9830     7.7300    23.6540   -13.0780 
  204.2500     2.3740    65.6690     9.0210     8.1710     8.0230    23.5910   -12.9670 
  204.3750     2.3840    64.8980     9.1950     8.2910     8.3840    23.5580   -12.9290 
  204.5000     2.3880    64.9830     9.3180     8.3270     8.7120    23.5390   -12.8050 
  204.6250     2.3820    66.2990     9.3720     8.2620     8.1110    23.5110   -12.7810 
  204.7500     2.3710    68.2160     9.3580     8.1180     6.8290    23.4570   -12.6920 
  204.8750     2.3580    70.1680     9.2860     7.9170     6.1840    23.3290   -12.6630 
  205.0000     2.3510    70.9600     9.1850     7.6990     6.0530    23.2060   -12.6460 
  205.1250     2.3550    69.1250     9.1190     7.5250     6.2920    23.2560   -12.5120 
  205.2500     2.3680    66.9270     9.1520     7.4520     6.6180    23.4590   -12.4630 
  205.3750     2.3840    65.2870     9.3490     7.5350     7.3990    23.6530   -12.3640 
  205.5000     2.3930    61.4470     9.7620     7.8170     8.5860    23.7370   -12.3350 
  205.6250     2.3920    56.7440    10.4480     8.3550     9.9310    23.7440   -12.2330 
  205.7500     2.3900    56.0310    11.3170     9.0710    12.2080    23.7440   -12.1460 
  205.8750     2.3960    59.6800    12.2470     9.8670    16.5090    23.7650   -11.9900 
  206.0000     2.4170    65.4590    13.0630    10.5970    18.9370    23.8340   -11.8100 
  206.1250     2.4480    69.2250    13.5210    11.0550    18.1770    24.0020   -11.6130 
