~V
VERS. 2.00: Ver 2.00
~W
STRT.M 60.0000:
STOP.M 232.0000:
STEP.M 0.1250:
NULL. -999.2500:
UWI. DF323:
~C
DEPT.M :
GR.API :
RML.OHMM :
RI. :
RXO.OHMM :
CALI.CM :
SP.MV :
DEN.GM/CC :
AC.US/MT :
~A
# ...
  210.0000    97.5100    68.9950    58.0690    78.2380    26.5370    -9.7420     2.5220   236.2600 
  210.1250    97.3600    71.3290    59.2020    66.2500    26.5630    -9.7050     2.5280   233.1400 
  210.2500    98.3450    73.3800    60.3870    58.6740    26.6590    -9.6550     2.5340   229.8990 
  210.3750    99.3060    75.1810    61.5880    57.9930    26.8000    -9.6040     2.5360   227.1650 
  210.5000    99.6550    76.9450    62.8700    57.6330    26.9090    -9.5470     2.5370   224.1970 
  210.6250   102.3030    78.5500    64.2070    50.0150    26.9110    -9.4930     2.5390   220.9070 
  210.7500   104.9190    79.3940    65.2010    40.9870    26.8230    -9.4630     2.5440   219.2070 
  210.8750   105.2440    78.7580    65.2400    36.0510    26.6970    -9.4380     2.5480   220.8290 
  211.0000   103.1360    76.4340    63.8630    36.2140    26.6020    -9.4060     2.5440   225.7710 
  211.1250    99.5020    72.8020    61.0330    39.5940    26.6110    -9.3220     2.5280   232.0870 
  211.2500    96.3400    68.8530    57.7350    42.2210    26.6860    -9.1980     2.5040   237.4240 
  211.3750    95.5510    65.2040    54.7140    42.0610    26.7750    -9.0740     2.4790   240.8410 
  211.5000    97.1370    62.2380    52.4150    38.8550    26.8530    -8.9760     2.4560   241.8250 
  211.6250   100.2780    60.3570    51.0640    36.0570    26.8920    -8.8870     2.4420   239.7330 
  211.7500   103.4860    59.5470    50.3390    36.0790    26.8920    -8.7580     2.4330   235.6740 
  211.8750   105.7090    59.7980    50.0330    37.8260    26.8450    -8.5890     2.4270   231.1510 
  212.0000   104.1750    60.8720    49.9980    38.8170    26.7370    -8.4390     2.4170   227.7000 
  212.1250    98.0440    62.2160    50.1380    38.3360    26.5400    -8.3970     2.3960   226.5050 
  212.2500    94.7620    63.2000    50.3310    39.1160    26.2870    -8.4190     2.3670   226.9810 
  212.3750    98.3170    63.5500    50.5210    42.5560    26.0060    -8.3860     2.3390   228.1820 
  212.5000   105.9560    63.2510    50.6800    46.9950    25.7310    -8.2650     2.3240   229.0870 
  212.6250   108.2560    62.7470    50.8320    49.4980    25.5410    -8.1690     2.3280   228.9250 
  212.7500   104.7170    62.5410    50.9550    50.0300    25.5130    -8.1940     2.3410   228.1860 
  212.8750   100.6820    62.4180    50.8260    48.3680    25.6610    -8.2300     2.3530   228.0500 
  213.0000    99.6000    61.6190    50.0560    45.7900    25.8890    -8.1710     2.3550   230.3610 
  213.1250    99.5580    59.1490    48.1680    47.1340    26.0620    -8.1050     2.3360   237.7960 
  213.2500    99.1060    55.2460    45.4630    54.3890    26.1030    -8.0470     2.3020   249.0210 
  213.3750    97.9320    50.7140    42.4590    64.3120    25.9990    -8.0280     2.2610   259.7750 
  213.5000    97.8650    46.7070    39.7960    67.8860    25.8330    -8.1370     2.2300   264.5470 
  213.6250   100.0930    44.3830    38.1290    55.2060    25.7480    -8.3390     2.2320   259.6010 
  213.7500    99.4910    43.5760    37.3880    35.8860    25.7150    -8.4860     2.2660   250.4770 
  213.8750    95.8700    43.7320    37.2630    21.7460    25.5610    -8.6540     2.3180   243.5060 
  214.0000    94.7820    43.9610    37.2200    15.0880    25.3480    -8.9230     2.3700   242.8380 
  214.1250    97.2290    43.0510    36.5190    14.4860    25.3290    -9.1680     2.4030   249.7310 
  214.2500    96.8470    40.7080    34.9780    16.0890    25.3020    -9.3860     2.4200   260.1310 
  214.3750    92.2850    37.4790    32.8910    16.5770    25.0150    -9.5690     2.4290   269.6770 
  214.5000    89.0320    34.3590    30.8360    14.6290    24.5640    -9.6410     2.4340   273.3080 
  214.6250    89.8970    32.3460    29.4360    12.1100    24.3440    -9.6260     2.4390   266.4920 
  214.7500    90.8150    31.5060    28.8200    10.9030    24.3310    -9.6210     2.4420   254.0920 
  214.8750    91.4130    31.6010    28.9450    11.1890    24.3380    -9.5710     2.4410   242.7330 
  215.0000    90.8250    32.2350    29.5920    12.7590    24.3380    -9.4330     2.4340   237.4040 
  215.1250    86.6190    32.9580    30.3930    14.8330    24.3920    -9.3260     2.4180   239.4330 
  215.2500    83.1360    33.3920    30.9440    16.2610    24.5020    -9.2620     2.4020   244.5040 
  215.3750    84.9940    33.3580    31.0400    18.2380    24.6320    -9.2080     2.3930   249.7850 
  215.5000    92.8920    32.7710    30.6160    23.3840    24.7590    -9.1780     2.3990   254.1150 
  215.6250    99.5060    31.6420    29.7040    33.0270    24.9040    -9.1680     2.4170   258.0560 
  215.7500    98.2930    30.4040    28.6210    41.7530    25.0230    -9.1340     2.4290   262.0900 
  215.8750    91.3050    29.4500    27.6340    42.2260    25.0180    -9.0800     2.4210   264.9250 
  216.0000    86.3670    29.0510    26.9750    33.2830    24.8850    -9.0700     2.3930   264.2340 
  216.1250    90.9970    29.3220    26.8560    23.9550    24.7930    -9.0220     2.3620   258.5370 
  216.2500    97.5440    30.0210    27.1610    19.8700    24.8570    -8.9030     2.3510   251.5960 
  216.3750    98.5480    30.8720    27.6910    21.2590    25.0900    -8.7880     2.3650   247.7430 
  216.5000    95.5740    31.4840    28.1520    26.1240    25.4690    -8.7150     2.3900   249.3300 
  216.6250    93.7610    31.4380    28.2130    29.1160    25.8570    -8.5970     2.4080   254.7960 
  216.7500    93.8270    30.8640    27.9210    28.0130    26.0620    -8.4730     2.4140   259.3370 
  216.8750    94.6380    30.1300    27.5010    25.0800    26.0620    -8.4340     2.4190   260.9180 
  217.0000    96.0180    29.7160    27.2290    22.2810    26.0290    -8.4190     2.4340   259.4870 
  217.1250    95.8850    30.1470    27.3880    20.2480    26.1610    -8.4360     2.4630   255.1890 
  217.2500    93.3950    31.3450    27.9740    19.3000    26.3580    -8.4800     2.4920   249.0270 
  217.3750    90.8460    32.9820    28.8760    20.5100    26.4530    -8.4730     2.5120   242.2580 
  217.5000    89.7420    34.5770    29.8960    23.7420    26.4200    -8.3920     2.5170   236.7340 
  217.6250    88.9630    35.6380    30.8530    25.8980    26.4080    -8.3390     2.5070   234.0570 
  217.7500    88.4580    36.3620    31.8040    26.2700    26.4660    -8.2780     2.4910   233.1950 
  217.8750    89.7080    37.2770    32.9850    27.5230    26.5400    -8.1470     2.4730   232.7510 
  218.0000    91.6950    38.9100    34.6600    32.0970    26.6280    -8.0230     2.4510   231.7030 
  218.1250    91.2840    41.5390    37.0340    40.4950    26.8180    -7.9070     2.4230   230.1840 
  218.2500    90.4950    44.4450    39.6590    48.3230    27.0530    -7.7810     2.3930   229.5800 
  218.3750    93.6520    46.5790    41.7570    54.7590    27.2350    -7.7510     2.3700   231.4980 
  218.5000    97.8070    46.8560    42.3930    59.9580    27.2060    -7.8350     2.3630   237.6580 
  218.6250    96.0160    44.5160    40.7620    59.4710    26.7150    -7.9440     2.3740   249.9140 
  218.7500    92.1290    40.6050    37.6760    52.3750    25.9520    -8.1170     2.3940   265.3170 
  218.8750    90.9940    36.1070    34.0070    39.7470    25.2340    -8.3760     2.4130   278.7340 
  219.0000    92.5970    31.8640    30.4930    26.0050    24.7980    -8.6610     2.4240   284.8510 
  219.1250    93.0600    28.5170    27.6230    17.0150    24.6410    -8.9500     2.4230   281.7690 
  219.2500    92.0590    26.0440    25.3800    12.7060    24.5470    -9.2850     2.4140   276.2180 
  219.3750    92.3970    24.3760    23.7560    11.7410    24.4580    -9.5710     2.4050   273.4780 
  219.5000    96.5970    23.4680    22.7930    12.0890    24.3940    -9.7020     2.4030   275.1320 
  219.6250   102.3620    23.5650    22.7480    11.9170    24.4130    -9.6610     2.4170   278.3270 
  219.7500   102.4600    24.8610    23.6740    11.5050    24.5660    -9.5610     2.4400   278.0980 
  219.8750    96.9660    27.7600    25.7610    11.9000    25.0270    -9.4250     2.4620   271.9220 
