~V
VERS. 2.00: Ver 2.00
~W
STRT.M 55.0000:
STOP.M 285.0000:
STEP.M 0.1250:
NULL. -999.2500:
UWI. DF32159:
~C
DEPT.M :
GR.API :
CALI.CM :
RXO.OHMM :
RI. :
RML.OHMM :
DEN.GM/CC :
SP.MV :
~A
# ...
   66.2500    72.3590    25.2350     8.7520     8.5780    11.0090     2.1710   -20.5140 
   66.3750    72.8520    25.1710     8.7920     8.2090    10.4130     2.1620   -20.5610 
   66.5000    73.6250    25.1080     8.8790     7.7800     9.8560     2.1500   -20.6630 
   66.6250    70.7370    25.0830     8.9430     7.4620     9.5470     2.1410   -20.8410 
   66.7500    69.7060    25.0870     8.9830     7.3020     9.4690     2.1360   -21.0870 
   66.8750    71.2860    25.0930     9.0400     7.2830     9.5570     2.1330   -21.3740 
   67.0000    71.7100    25.0890     9.1440     7.3540     9.7150     2.1330   -21.6920 
   67.1250    69.6160    25.0890     9.3140     7.4580     9.8580     2.1370   -21.9970 
   67.2500    69.5470    25.1020     9.5130     7.5410     9.9790     2.1410   -22.2580 
   67.3750    72.3360    25.1200     9.6750     7.5830    10.1090     2.1450   -22.4500 
   67.5000    73.8250    25.1310     9.7260     7.5800    10.2180     2.1490   -22.5660 
   67.6250    72.5860    25.1340     9.6380     7.5350    10.1850     2.1520   -22.5980 
   67.7500    71.3790    25.1340     9.5180     7.4730     9.9740     2.1500   -22.5710 
   67.8750    71.6830    25.1340     9.4710     7.4130     9.6490     2.1470   -22.5110 
   68.0000    74.0210    25.1340     9.5310     7.3670     9.3590     2.1520   -22.4440 
   68.1250    74.7300    25.1340     9.6200     7.3330     9.2330     2.1670   -22.4240 
   68.2500    72.8020    25.1340     9.6540     7.2930     9.2170     2.1860   -22.4760 
   68.3750    72.3870    25.1340     9.6260     7.2320     9.2060     2.2010   -22.6150 
   68.5000    76.2470    25.1340     9.5350     7.1530     9.1400     2.2040   -22.8540 
   68.6250    79.9930    25.1340     9.3580     7.0980     9.0980     2.1880   -23.1970 
   68.7500    79.7730    25.1340     9.1660     7.1340     9.2330     2.1620   -23.6250 
   68.8750    77.7240    25.1320     9.0750     7.3250     9.6550     2.1440   -24.1410 
   69.0000    76.6900    25.1200     9.1920     7.6980    10.3940     2.1520   -24.7080 
   69.1250    77.3070    25.0850     9.8060     8.2100    11.3350     2.2080   -25.2550 
   69.2500    78.5460    25.0260    11.2290     8.6660    12.0990     2.2990   -25.7400 
   69.3750    79.0050    24.9440    13.1340     8.8630    12.2950     2.3900   -26.1270 
   69.5000    76.5600    24.8480    14.0310     8.6730    11.7500     2.4300   -26.3970 
   69.6250    73.4300    24.7630    12.6480     8.1230    10.6760     2.3830   -26.5260 
   69.7500    74.2410    24.7060    10.6140     7.4960     9.6440     2.2930   -26.5160 
   69.8750    77.1790    24.6800     9.3690     6.9690     8.9420     2.2070   -26.3780 
   70.0000    78.4570    24.6750     9.0590     6.6330     8.6490     2.1550   -26.1480 
   70.1250    77.4790    24.6730     9.1920     6.5290     8.7270     2.1420   -25.8820 
   70.2500    76.2720    24.6600     9.3910     6.5710     8.9630     2.1490   -25.6450 
   70.3750    75.0600    24.6270     9.5740     6.6930     9.2240     2.1580   -25.4850 
   70.5000    72.2320    24.5760     9.6850     6.8360     9.4310     2.1600   -25.4160 
   70.6250    69.1040    24.5240     9.7230     6.9570     9.5430     2.1530   -25.4600 
   70.7500    68.5770    24.4830     9.7660     7.0430     9.5870     2.1500   -25.6160 
   70.8750    70.1500    24.4560     9.8850     7.0970     9.5780     2.1570   -25.8600 
   71.0000    71.8940    24.4420    10.0740     7.1260     9.5220     2.1710   -26.1620 
   71.1250    72.2800    24.4510    10.1670     7.1370     9.4400     2.1800   -26.4740 
   71.2500    73.6940    24.4980    10.1140     7.1370     9.3760     2.1840   -26.7410 
   71.3750    77.6300    24.6030    10.0150     7.1280     9.3600     2.1850   -26.9460 
   71.5000    79.5510    24.7550     9.9450     7.1110     9.4130     2.1850   -27.0750 
   71.6250    78.2530    24.9010     9.8300     7.0840     9.5290     2.1770   -27.1020 
   71.7500    78.0210    25.0010     9.6620     7.0420     9.6350     2.1650   -27.0290 
   71.8750    78.1210    25.0540     9.5270     6.9640     9.6180     2.1570   -26.8490 
   72.0000    76.8850    25.0860     9.4650     6.8160     9.3630     2.1650   -26.5770 
   72.1250    77.6020    25.1100     9.4740     6.5950     8.8630     2.1810   -26.2540 
   72.2500    80.3730    25.1270     9.5320     6.4270     8.4660     2.1870   -25.9480 
   72.3750    78.6550    25.1420     9.5400     6.4980     8.5950     2.1870   -25.7070 
   72.5000    72.1310    25.1710     9.5070     7.0100     9.6190     2.2040   -25.5620 
   72.6250    68.4980    25.2610    11.0130     8.2340    11.9270     2.2640   -25.5340 
   72.7500    68.2280    25.4960    17.6990    10.0650    15.1210     2.3620   -25.5990 
   72.8750    68.9100    25.9760    32.4950    12.0810    18.2110     2.4760   -25.7700 
   73.0000    71.2350    26.5120    44.1790    13.3320    19.4360     2.5610   -26.0360 
   73.1250    72.8110    26.5350    36.9740    12.6970    17.3730     2.5540   -26.3770 
   73.2500    72.3770    26.0030    21.2880    10.9440    14.0590     2.4660   -26.7360 
   73.3750    73.5190    25.3590    11.9760     9.0610    11.1900     2.3510   -27.0580 
   73.5000    78.0820    25.0130     9.3360     7.6170     9.3860     2.2640   -27.3190 
   73.6250    81.1910    24.9730     9.2160     6.8220     8.6870     2.2290   -27.4950 
   73.7500    80.2500    24.9860     9.1110     6.4760     8.6030     2.2250   -27.5900 
   73.8750    78.3940    25.0030     8.7400     6.4290     8.8540     2.2310   -27.6080 
   74.0000    77.2350    25.0290     8.4470     6.5340     9.2080     2.2330   -27.5780 
   74.1250    76.6810    25.0660     8.4800     6.6810     9.4870     2.2200   -27.5310 
   74.2500    77.0080    25.0990     8.6410     6.8120     9.6650     2.2010   -27.5120 
   74.3750    77.0210    25.1180     8.7390     6.9100     9.7620     2.1850   -27.5440 
   74.5000    76.9480    25.1240     8.7480     6.9720     9.8000     2.1760   -27.6220 
   74.6250    76.5250    25.1240     8.7390     6.9980     9.8090     2.1710   -27.7690 
   74.7500    76.1220    25.1240     8.7110     7.0160     9.8290     2.1660   -27.9900 
   74.8750    76.4770    25.1230     8.6530     7.0490     9.8840     2.1650   -28.2470 
   75.0000    77.1840    25.1210     8.6280     7.1120     9.9830     2.1710   -28.4950 
   75.1250    79.6900    25.1230     8.7480     7.2030    10.1040     2.1870   -28.6720 
   75.2500    82.6570    25.1330     8.9680     7.2910    10.1760     2.2070   -28.7270 
   75.3750    82.6490    25.1540     9.1530     7.3440    10.1340     2.2220   -28.6280 
   75.5000    76.1830    25.1810     9.2000     7.3370     9.9690     2.2240   -28.3830 
   75.6250    68.7070    25.2020     9.1270     7.2640     9.7480     2.2070   -27.9840 
   75.7500    70.9650    25.2180     9.0300     7.1660     9.5970     2.1840   -27.4730 
   75.8750    78.7010    25.2340     8.9100     7.0830     9.5770     2.1650   -26.8990 
   76.0000    81.1820    25.2550     8.7520     7.0460     9.6750     2.1640   -26.3040 
   76.1250    76.5480    25.2710     8.6010     7.0680     9.8130     2.1840   -25.7530 
   76.2500    74.3760    25.2640     8.5370     7.1220     9.8950     2.2150   -25.3110 
   76.3750    75.2630    25.2160     8.6080     7.1740     9.9040     2.2440   -25.0380 
   76.5000    76.4150    25.1310     8.7960     7.1940     9.8660     2.2630   -24.9570 
   76.6250    78.4320    25.0460     8.9470     7.1530     9.8230     2.2650   -25.1000 
   76.7500    81.3610    24.9950     8.9090     7.0670     9.8190     2.2530   -25.4330 
   76.8750    84.5900    24.9780     8.7030     6.9610     9.8640     2.2360   -25.9230 
   77.0000    87.4030    24.9730     8.4730     6.8660     9.9320     2.2230   -26.5190 
   77.1250    86.5380    24.9520     8.3600     6.8110     9.9800     2.2190   -27.1380 
   77.2500    83.2810    24.9130     8.3570     6.7860     9.9990     2.2110   -27.6830 
   77.3750    80.4660    24.8710     8.4050     6.7790    10.0300     2.1930   -28.0690 
