~V
VERS. 2.00: Ver 2.00
~W
STRT.M 60.0000:
STOP.M 232.0000:
STEP.M 0.1250:
NULL. -999.2500:
UWI. DF323:
~C
DEPT.M :
GR.API :
RML.OHMM :
RI. :
RXO.OHMM :
CALI.CM :
SP.MV :
DEN.GM/CC :
AC.US/MT :
~A
# ...
  180.0000    83.0700    18.0730    17.4730    21.8110    29.2760   -15.9190     2.4090   266.6530 
  180.1250    80.7690    17.7060    17.1420    18.8740    29.2160   -15.8360     2.3980   267.4250 
  180.2500    79.8470    17.2420    16.7330    16.4680    28.9120   -15.7980     2.3860   267.6490 
  180.3750    82.3590    16.7400    16.3320    15.2530    28.4660   -15.7390     2.3760   267.8680 
  180.5000    86.4240    16.2740    15.9960    15.2020    28.1150   -15.6430     2.3710   268.6870 
  180.6250    87.9520    15.9750    15.7560    15.4590    28.0230   -15.5790     2.3720   269.6850 
  180.7500    87.4160    15.8730    15.5750    16.4190    28.0390   -15.5790     2.3770   270.8210 
  180.8750    86.9300    15.9120    15.4180    17.5480    28.0410   -15.5950     2.3840   273.2730 
  181.0000    86.7830    15.9590    15.2510    16.7390    28.0370   -15.5490     2.3910   277.1990 
  181.1250    85.3730    15.8390    15.0440    13.4480    28.0620   -15.4200     2.3990   279.7560 
  181.2500    83.8830    15.5530    14.8070    10.7300    28.0980   -15.2810     2.4070   278.2590 
  181.3750    84.4300    15.2200    14.5900     9.4350    28.1130   -15.1510     2.4120   273.3170 
  181.5000    86.5710    14.9940    14.4690     8.7590    28.1040   -15.0260     2.4090   268.4970 
  181.6250    86.3680    15.0200    14.5470     7.9750    28.1610   -14.8710     2.3930   267.7610 
  181.7500    83.8120    15.2730    14.8170     7.7290    28.3580   -14.7170     2.3660   270.4200 
  181.8750    82.1930    15.6660    15.2300     9.3120    28.6560   -14.6330     2.3350   274.3290 
  182.0000    84.2550    16.0430    15.6680    13.6400    28.9060   -14.6430     2.3090   278.2940 
  182.1250    87.8080    16.2130    15.9450    18.9040    28.9770   -14.7020     2.2990   284.0490 
  182.2500    90.3140    16.1160    15.9600    21.2750    28.8830   -14.7670     2.3040   293.0060 
  182.3750    90.3850    15.7460    15.6840    22.6630    28.6540   -14.8730     2.3180   304.0480 
  182.5000    88.2830    15.1970    15.1960    27.5990    28.3500   -15.0460     2.3370   313.7320 
  182.6250    86.3250    14.6610    14.6720    31.4940    28.1130   -15.2770     2.3540   318.1260 
  182.7500    85.3000    14.2990    14.2850    29.7060    28.0250   -15.5290     2.3670   317.9860 
  182.8750    83.6860    14.2210    14.1330    26.1780    28.0200   -15.7360     2.3780   314.7370 
  183.0000    82.2210    14.5180    14.2800    23.6110    28.0180   -15.8510     2.3890   309.4410 
  183.1250    83.6780    15.2550    14.7870    21.6150    28.0100   -15.9490     2.4000   302.7980 
  183.2500    87.4650    16.2250    15.5240    20.2250    28.0210   -16.0060     2.4100   296.2870 
  183.3750    89.5170    17.2170    16.3550    21.7080    28.0490   -15.9920     2.4180   291.0210 
  183.5000    88.2930    18.0120    17.1070    26.1320    28.0620   -15.9190     2.4220   287.2690 
  183.6250    86.9730    18.3660    17.5580    28.6410    28.0540   -15.7930     2.4190   285.1110 
  183.7500    87.7420    18.3490    17.6920    26.8400    28.0460   -15.6160     2.4090   284.4160 
  183.8750    88.3190    18.1330    17.5900    23.7510    28.0360   -15.4300     2.3950   284.8780 
  184.0000    86.1580    17.9010    17.3750    22.1530    28.0270   -15.2670     2.3830   285.4290 
  184.1250    82.6690    17.7280    17.1500    22.6790    28.0290   -15.0440     2.3780   284.5740 
  184.2500    81.1380    17.5780    16.9730    23.1470    28.0360   -14.8210     2.3840   282.4530 
  184.3750    81.2230    17.4440    16.8640    22.4230    28.0300   -14.6380     2.3960   279.9420 
  184.5000    80.1590    17.3560    16.8230    20.5280    28.0160   -14.4750     2.4100   277.6890 
  184.6250    77.8180    17.4100    16.8690    18.2160    28.0150   -14.3110     2.4200   275.2490 
  184.7500    77.5610    17.6280    17.0150    15.9680    28.0180   -14.1330     2.4290   271.7200 
  184.8750    79.7990    17.9800    17.2780    13.9960    28.0170   -14.0000     2.4390   267.1780 
  185.0000    80.4110    18.3970    17.6560    13.2690    28.0280   -13.9450     2.4530   263.0920 
  185.1250    79.3220    18.8250    18.1120    14.4090    28.0470   -13.9410     2.4660   262.0090 
  185.2500    80.1140    19.2210    18.5570    15.8870    28.0450   -13.9110     2.4750   264.1960 
  185.3750    83.0290    19.5190    18.9280    17.0400    28.0370   -13.8660     2.4770   268.5420 
  185.5000    85.1260    19.6530    19.1920    18.8230    28.0450   -13.8310     2.4730   272.9630 
  185.6250    84.8220    19.6070    19.3300    21.9870    28.0450   -13.8420     2.4620   274.4970 
  185.7500    83.8210    19.4860    19.3820    23.8440    28.0230   -13.8940     2.4480   272.3630 
  185.8750    83.2030    19.3600    19.3670    23.1130    27.9970   -13.9160     2.4330   267.9290 
  186.0000    82.8630    19.2620    19.3020    22.1950    27.9840   -13.9450     2.4210   264.1210 
  186.1250    82.0370    19.1940    19.2130    23.7580    27.9930   -13.9950     2.4160   263.5850 
  186.2500    82.7550    19.2020    19.1660    26.1800    28.0070   -14.0450     2.4150   265.0800 
  186.3750    84.7650    19.3890    19.2280    26.8210    28.0160   -14.1160     2.4120   266.4810 
  186.5000    84.5460    19.8370    19.4560    25.2880    28.0140   -14.2200     2.4050   266.3630 
  186.6250    82.0580    20.5640    19.9030    22.8210    28.0130   -14.2950     2.3970   264.5580 
  186.7500    83.0270    21.4210    20.5130    20.7660    28.0190   -14.3910     2.3930   262.7400 
  186.8750    86.2020    22.2900    21.2220    19.8900    28.0230   -14.4870     2.3950   262.3470 
  187.0000    87.9510    23.0820    21.9540    20.4050    28.0170   -14.4750     2.3990   263.9010 
  187.1250    91.3450    23.7650    22.6290    22.3330    28.0060   -14.4160     2.4050   265.8040 
  187.2500    94.7980    24.3950    23.2160    24.7780    27.9990   -14.3510     2.4100   265.1760 
  187.3750    93.4540    24.9970    23.7070    26.5320    28.0030   -14.2700     2.4140   261.1720 
  187.5000    88.5420    25.5490    24.0980    26.3010    28.0090   -14.1930     2.4170   255.4300 
  187.6250    87.4000    25.9190    24.3220    24.8850    28.0030   -14.1190     2.4170   251.2140 
  187.7500    89.5290    25.9900    24.3510    24.7120    28.0000   -14.0190     2.4160   250.0490 
  187.8750    90.7130    25.7220    24.1800    25.8500    27.9930   -13.9830     2.4170   252.0800 
  188.0000    91.2000    25.2440    23.8740    26.8200    27.9410   -14.0660     2.4210   256.9940 
  188.1250    90.6610    24.8730    23.5890    26.6050    27.8210   -14.1900     2.4280   263.6280 
  188.2500    89.6220    24.8820    23.4980    25.6740    27.7060   -14.3470     2.4320   268.8290 
  188.3750    91.5000    25.3610    23.7090    24.4190    27.6550   -14.4600     2.4300   270.0590 
  188.5000    97.3190    26.2230    24.2490    23.5360    27.6520   -14.4550     2.4220   266.6300 
  188.6250   103.2770    27.2200    25.0480    22.7420    27.6500   -14.4500     2.4090   260.4710 
  188.7500   103.8120    27.9690    25.8330    21.2030    27.6450   -14.4720     2.3960   255.8100 
  188.8750    99.1840    28.2310    26.3510    20.0230    27.6370   -14.4030     2.3870   255.4880 
  189.0000    93.7280    27.9780    26.4500    20.6610    27.6130   -14.2800     2.3840   260.6740 
  189.1250    91.8550    27.3570    26.1130    22.7830    27.5740   -14.1130     2.3880   269.8870 
  189.2500    91.8550    26.6570    25.5820    23.8640    27.5420   -13.9310     2.3970   277.6390 
  189.3750    91.2980    25.9680    24.9910    23.2820    27.5320   -13.8200     2.4030   280.1260 
  189.5000    90.5130    25.2960    24.4130    21.5120    27.5360   -13.7570     2.4030   277.1880 
  189.6250    91.5030    24.6030    23.8680    19.0650    27.5420   -13.7050     2.3940   273.3370 
  189.7500    93.5650    23.9160    23.3490    17.3240    27.5460   -13.6530     2.3850   272.9350 
  189.8750    93.4910    23.3470    22.8860    16.8920    27.5460   -13.6260     2.3810   275.8650 
