~V
VERS. 2.00: Ver 2.00
~W
STRT.M 60.0000:
STOP.M 229.0000:
STEP.M 0.1250:
NULL. -999.2500:
UWI. DF32026:
~C
DEPT.M :
SP.MV :
GR.API :
CALI.CM :
RXO.OHMM :
RI. :
RML.OHMM :
DEN.GM/CC :
~A
# ...
  116.2500    65.9230    76.6360    24.0580     9.1010     7.0360     9.1190     2.1940 
  116.3750    65.7870    73.2590    24.0210     9.7520     7.8410    10.1350     2.2170 
  116.5000    65.7210    72.1860    24.0280    10.4190     8.3840    10.7610     2.2380 
  116.6250    65.7870    72.9100    24.0510    11.2880     8.4200    10.6470     2.2510 
  116.7500    65.9350    75.1060    24.0820    11.4890     8.0060     9.9230     2.2570 
  116.8750    66.1470    78.8560    24.1170    10.2100     7.2800     8.8390     2.2580 
  117.0000    66.4410    83.7710    24.0720     7.9750     6.4450     7.7070     2.2590 
  117.1250    66.7660    87.5070    24.0040     6.6310     5.6990     6.8120     2.2660 
  117.2500    67.0540    89.2800    23.9530     6.0950     5.1230     6.2140     2.2760 
  117.3750    67.3700    91.1960    23.9830     5.9810     4.7310     5.8930     2.2880 
  117.5000    67.6670    93.7640    24.0740     5.9370     4.4950     5.7750     2.3000 
  117.6250    67.9560    95.2960    24.1250     5.8210     4.3680     5.7610     2.3110 
  117.7500    68.2220    95.3990    24.2460     5.6270     4.2720     5.7400     2.3150 
  117.8750    68.4620    95.8070    24.4090     5.4630     4.1740     5.6680     2.3130 
  118.0000    68.6920    97.7650    24.3450     5.3700     4.0530     5.5270     2.3060 
  118.1250    68.9390   101.0890    24.1900     5.2450     3.9060     5.3150     2.2930 
  118.2500    69.2780   103.4390    24.1260     5.1200     3.7790     5.1070     2.2750 
  118.3750    69.6570   103.3610    24.0860     5.0480     3.7370     5.0090     2.2630 
  118.5000    70.1130   101.6070    23.9510     5.0660     3.8430     5.1320     2.2550 
  118.6250    70.6150    98.1220    23.3170     5.4210     4.1820     5.6270     2.2380 
  118.7500    71.1720    93.0150    22.3740     6.4390     4.7330     6.4730     2.2020 
  118.8750    71.7970    86.4020    21.4550     7.8410     5.4470     7.5910     2.1600 
  119.0000    72.4860    81.4290    20.5250     8.8990     6.2130     8.7820     2.1310 
  119.1250    73.2090    81.5430    20.1440     8.8870     6.8270     9.6730     2.1210 
  119.2500    73.9140    81.4380    19.8100     8.5170     7.1510    10.0360     2.1200 
  119.3750    74.6050    79.0560    19.6320     8.3210     7.1500     9.8440     2.1170 
  119.5000    75.2500    75.8100    19.8180     8.5290     6.9170     9.2950     2.1080 
  119.6250    75.8470    77.0130    20.5720     8.7970     6.6460     8.7530     2.1030 
  119.7500    76.4090    80.4980    21.5080     9.1200     6.5530     8.5480     2.1200 
  119.8750    76.9060    83.2610    22.4440     9.9190     6.8090     8.9140     2.1740 
  120.0000    77.3300    85.3150    23.3180    11.4190     7.5490    10.0220     2.2680 
  120.1250    77.6870    85.2150    23.9130    13.8290     8.8440    11.9680     2.3840 
  120.2500    78.0280    81.9250    24.2790    16.9530    10.2620    14.0930     2.4760 
  120.3750    78.3060    76.9530    24.5190    19.7760    11.1300    15.3090     2.5030 
  120.5000    78.5800    73.1620    24.6420    20.1300    10.8340    14.6040     2.4650 
  120.6250    78.8030    74.3410    24.6690    15.6020     9.3240    12.0730     2.4020 
  120.7500    78.9980    79.0410    24.6400    10.2480     7.5580     9.3960     2.3550 
  120.8750    79.1800    85.1470    24.6520     7.1050     6.0840     7.3940     2.3320 
  121.0000    79.3370    90.1300    24.7080     6.2210     5.0910     6.2420     2.3220 
  121.1250    79.4720    93.5600    24.7390     6.1210     4.6160     5.8960     2.3190 
  121.2500    79.5680    98.6790    24.7480     5.9600     4.4610     5.9890     2.3160 
  121.3750    79.6690   104.0740    24.7510     5.8380     4.4970     6.2670     2.3140 
  121.5000    79.7270   105.8060    24.7490     5.8880     4.5990     6.5070     2.3130 
  121.6250    79.7960    99.9270    24.7470     6.1060     4.6750     6.5630     2.3140 
  121.7500    79.8520    94.1810    24.7440     6.2690     4.7000     6.4800     2.3150 
  121.8750    79.8860    94.2850    24.7410     6.1740     4.6800     6.3090     2.3130 
  122.0000    79.9220    98.3860    24.7400     5.8710     4.6260     6.0970     2.3100 
  122.1250    79.9390   100.0620    24.7410     5.7240     4.5670     5.9140     2.3090 
  122.2500    79.9650    98.9500    24.7320     5.7240     4.5330     5.8160     2.3130 
  122.3750    79.9860    99.7080    24.7100     5.8080     4.5320     5.8230     2.3190 
  122.5000    80.0080   103.0370    24.6670     5.9720     4.5610     5.9170     2.3260 
  122.6250    80.0180   105.6280    24.6460     6.4250     4.5910     6.0370     2.3310 
  122.7500    80.0140   105.6750    24.6420     6.7020     4.5870     6.0960     2.3320 
  122.8750    80.0230   103.3130    24.6530     6.5400     4.5340     6.0570     2.3300 
  123.0000    80.0380   101.1770    24.6790     6.1530     4.4400     5.9300     2.3290 
  123.1250    80.0760   101.1240    24.7230     5.8530     4.3250     5.7460     2.3290 
  123.2500    80.1050   102.6430    24.7420     5.7260     4.2110     5.5550     2.3280 
  123.3750    80.1390   106.0020    24.7470     5.6790     4.1240     5.3920     2.3240 
  123.5000    80.1780   112.0850    24.7470     5.6560     4.0870     5.2890     2.3170 
  123.6250    80.2290   116.2110    24.7470     5.5760     4.1330     5.2900     2.3030 
  123.7500    80.3030   113.8410    24.7470     5.5520     4.2620     5.4020     2.2830 
  123.8750    80.3690   106.8120    24.7470     5.7690     4.4570     5.6290     2.2650 
  124.0000    80.4280   101.6370    24.7470     6.2010     4.6900     5.9390     2.2560 
  124.1250    80.4880   100.8000    24.7470     6.5340     4.9050     6.2610     2.2580 
  124.2500    80.5630   100.4750    24.7470     6.6360     5.0570     6.5040     2.2640 
  124.3750    80.6470   100.3330    24.7470     6.5460     5.1070     6.5940     2.2690 
  124.5000    80.7270   101.6710    24.7360     6.3120     5.0250     6.4830     2.2730 
  124.6250    80.8020   105.0590    24.7050     6.0850     4.7860     6.1380     2.2790 
  124.7500    80.8740   107.3370    24.6640     5.8660     4.4360     5.6410     2.2820 
  124.8750    80.9680   107.5810    24.6530     5.4930     4.0290     5.0680     2.2850 
  125.0000    81.0630   108.7640    24.6720     5.0000     3.6620     4.5580     2.2890 
  125.1250    81.1380   111.2900    24.7230     4.7190     3.5140     4.3710     2.2950 
  125.2500    81.1820   111.9520    24.7570     4.8010     3.6840     4.6490     2.3130 
  125.3750    81.2030   109.9560    24.7570     5.7150     4.2320     5.4910     2.3530 
  125.5000    81.2090   106.6630    24.6940     8.5000     5.1540     6.8970     2.4080 
  125.6250    81.2020   102.8550    24.6570    13.5520     6.2790     8.5880     2.4520 
  125.7500    81.1850    98.2890    24.6430    15.6470     7.1370     9.7690     2.4570 
  125.8750    81.1410    94.2430    24.6540    13.1480     7.3580     9.8300     2.4190 
  126.0000    81.0870    92.2470    24.6920     9.3320     6.9310     8.8770     2.3670 
  126.1250    81.0370    94.4440    24.7740     7.6960     6.2360     7.6570     2.3300 
  126.2500    81.0080    97.3070    24.8290     7.3490     5.7310     6.8370     2.3220 
  126.3750    80.9880    95.7970    24.8390     7.6810     5.6270     6.6430     2.3390 
  126.5000    81.0020    90.7670    24.8150     8.3560     6.0250     7.1450     2.3720 
  126.6250    81.0140    88.4900    24.7690    10.0460     7.0660     8.4860     2.4240 
  126.7500    81.0230    88.0210    24.7480    13.3330     8.6800    10.5450     2.4880 
  126.8750    81.0420    84.8150    24.7460    17.8990    10.8310    13.2580     2.5430 
  127.0000    81.0510    79.8440    24.7500    22.2790    13.3610    16.3940     2.5710 
  127.1250    81.0740    76.7080    24.7480    25.3330    15.8520    19.3680     2.5750 
  127.2500    81.0900    72.5880    24.7400    26.4530    17.7950    21.5130     2.5710 
  127.3750    81.1120    68.0830    24.7170    27.0850    18.9390    22.5340     2.5710 
