~V
VERS. 2.00: Ver 2.00
~W
STRT.M 53.0000:
STOP.M 258.0000:
STEP.M 0.1250:
NULL. -999.2500:
UWI. DF32102:
~C
DEPT.M :
SP.MV :
GR.API :
RML.OHMM :
RI. :
RXO.OHMM :
CALI.CM :
DEN.GM/CC :
~A
# ...
  154.2500   -27.0290    67.4360    18.5240    17.6440    14.6870    24.9190     2.4290 
  154.3750   -27.7700    68.0140    22.3890    20.5410    17.6540    24.9320     2.3970 
  154.5000   -28.5610    67.5660    28.0700    24.6350    23.9670    24.9420     2.3630 
  154.6250   -29.3170    64.7670    34.7680    29.5740    36.5520    24.9750     2.3340 
  154.7500   -29.9710    62.5110    40.8510    34.4020    45.6460    24.9940     2.3150 
  154.8750   -30.6280    62.6320    44.8410    38.3920    47.6010    24.9910     2.3080 
  155.0000   -31.2040    64.4400    47.4600    41.2580    44.7760    24.9860     2.3080 
  155.1250   -31.7130    67.1230    49.4900    43.4420    42.1970    24.9860     2.3100 
  155.2500   -32.1950    69.8320    52.4360    46.1690    43.0010    24.9860     2.3110 
  155.3750   -32.5040    71.8150    57.3650    50.4050    48.1190    24.9860     2.3070 
  155.5000   -32.8460    71.0130    64.7840    56.6980    55.0950    24.9850     2.2970 
  155.6250   -33.1650    68.5710    74.7250    65.1980    65.4550    24.9830     2.2810 
  155.7500   -33.4530    65.9480    85.6190    74.6420    75.5170    24.9850     2.2600 
  155.8750   -33.7410    63.2180    95.9090    83.7630    87.9750    24.9860     2.2360 
  156.0000   -33.9570    61.6180   104.1380    91.3580    98.5700    24.9860     2.2160 
  156.1250   -34.1780    61.3020   109.1440    96.4240   102.0380    24.9860     2.2040 
  156.2500   -34.3930    62.5420   111.9820    99.6680    98.9110    24.9800     2.2020 
  156.3750   -34.6040    65.1700   113.8570   101.9780    95.7500    24.9580     2.2070 
  156.5000   -34.7440    66.1110   115.8630   104.2590    96.5920    24.9140     2.2130 
  156.6250   -34.7790    64.4390   118.6170   107.1380   101.6110    24.8910     2.2170 
  156.7500   -34.8080    64.2380   121.7060   110.4130   108.5990    24.8740     2.2190 
  156.8750   -34.8510    65.9170   124.4190   113.5340   113.3750    24.8440     2.2190 
  157.0000   -34.8480    65.1260   125.9090   115.8130   112.9020    24.8090     2.2190 
  157.1250   -34.7050    60.8150   124.9120   116.3890   108.6830    24.7940     2.2210 
  157.2500   -34.5580    59.0890   122.0300   115.2730   104.5590    24.7880     2.2250 
  157.3750   -34.4350    60.5510   117.5130   112.4920   102.4770    24.7820     2.2320 
  157.5000   -34.2620    62.0500   113.0800   108.3720    99.5000    24.7720     2.2390 
  157.6250   -34.1610    62.7980   108.5660   103.2100    93.4420    24.7910     2.2460 
  157.7500   -34.0330    65.0350   105.5800    97.6300    86.3050    24.7860     2.2500 
  157.8750   -33.8410    68.4880   103.2800    91.9840    80.2250    24.7840     2.2530 
  158.0000   -33.7500    69.0970    98.3470    86.9910    77.7960    24.8320     2.2550 
  158.1250   -33.7440    68.4750    93.8660    82.9610    77.1650    24.8450     2.2570 
  158.2500   -33.7040    64.8470    90.8020    79.9480    71.7510    24.9100     2.2570 
  158.3750   -33.6280    61.6280    89.2420    78.0610    62.4070    24.9600     2.2530 
  158.5000   -33.6520    61.8430    91.1530    79.1060    56.2590    24.9810     2.2420 
  158.6250   -33.6310    63.0730    96.7860    83.4270    62.7110    24.9850     2.2260 
  158.7500   -33.6800    61.6570   104.3700    89.5830    85.5960    25.0020     2.2070 
  158.8750   -33.7970    58.3060   112.1880    96.1770   115.3090    25.0370     2.1890 
  159.0000   -33.8110    56.2800   118.5150   101.7820   123.2590    25.0620     2.1700 
  159.1250   -33.9040    57.1230   122.0230   105.2440   106.8330    25.0610     2.1530 
  159.2500   -33.9450    57.5140   123.8550   107.2870    92.2050    25.0330     2.1400 
  159.3750   -34.0000    55.3020   125.6210   109.1060    87.7940    25.0070     2.1350 
  159.5000   -34.0860    52.4680   128.6510   111.8390    87.4980    24.9950     2.1420 
  159.6250   -34.1350    52.8230   133.2360   116.0100    94.3190    24.9690     2.1600 
  159.7500   -34.1380    55.9440   137.6390   120.4570   110.9430    24.8770     2.1810 
  159.8750   -34.1500    59.5220   139.6940   123.5060   126.8510    24.7680     2.1980 
  160.0000   -34.2080    61.6510   137.3410   123.3340   124.3820    24.6910     2.2100 
  160.1250   -34.1550    61.9170   128.6780   117.8820   120.4880    24.6710     2.2210 
  160.2500   -34.2140    62.7090   115.7000   108.1600   116.9170    24.7210     2.2340 
  160.3750   -34.3190    63.6440   100.9180    95.8700   107.4700    24.7930     2.2500 
  160.5000   -34.3480    63.5560    87.1500    83.4210    87.8950    24.8550     2.2650 
  160.6250   -34.4870    62.5540    77.1120    73.5630    67.0580    24.9010     2.2720 
  160.7500   -34.6290    63.3870    70.9640    67.0920    52.3680    24.9760     2.2710 
  160.8750   -34.7390    66.1400    68.3010    63.9310    46.5720    25.0770     2.2640 
  161.0000   -34.8860    67.1690    68.1830    63.3510    47.3170    25.1410     2.2540 
  161.1250   -35.1380    65.8230    69.4300    64.3320    55.1400    25.1580     2.2460 
  161.2500   -35.3740    65.1590    70.5730    65.4070    61.9600    25.1770     2.2400 
  161.3750   -35.5740    65.3730    70.9590    65.8420    60.8880    25.2260     2.2350 
  161.5000   -35.8690    64.9790    70.5970    65.4740    53.6530    25.2680     2.2330 
  161.6250   -36.1220    63.6250    70.2360    64.8070    48.5120    25.2630     2.2330 
  161.7500   -36.4300    63.7700    70.8790    64.8010    49.1950    25.2030     2.2350 
  161.8750   -36.7930    65.3130    73.5310    66.1750    52.7430    25.1630     2.2370 
  162.0000   -37.0890    66.0100    78.5930    69.3840    55.5680    25.1530     2.2380 
  162.1250   -37.4070    64.9590    86.2930    74.8940    63.0680    25.1530     2.2380 
  162.2500   -37.6690    63.9980    95.4010    82.1550    74.2620    25.1530     2.2390 
  162.3750   -37.9730    63.6140   105.0070    90.7550    85.5930    25.1550     2.2430 
  162.5000   -38.2740    63.2880   113.5480   100.2430    96.5810    25.1690     2.2500 
  162.6250   -38.4190    62.5830   121.5840   110.2550    91.5460    25.2050     2.2550 
  162.7500   -38.5120    62.2810   130.4640   120.3240    77.3040    25.2390     2.2520 
  162.8750   -38.5410    62.6830   141.9360   129.9780    78.9520    25.2490     2.2400 
  163.0000   -38.4810    63.0080   151.9970   138.4540   110.5840    25.2490     2.2220 
  163.1250   -38.3070    61.1570   158.7370   144.1210   149.0670    25.2500     2.2060 
  163.2500   -38.1210    59.3850   161.3130   146.2280   166.1290    25.2520     2.1990 
  163.3750   -37.7930    60.4260   159.3360   144.3820   157.9960    25.2500     2.2020 
  163.5000   -37.3100    63.1900   153.3900   138.9920   141.1030    25.2440     2.2130 
  163.6250   -36.9450    62.3770   144.6670   130.9550   126.4780    25.2220     2.2240 
  163.7500   -36.4980    59.3310   135.5060   122.2850   116.9210    25.1850     2.2320 
  163.8750   -35.9410    57.9040   127.5150   114.3980   112.0900    25.1610     2.2350 
  164.0000   -35.4910    58.8870   121.9710   108.4740   107.0170    25.1530     2.2350 
  164.1250   -34.9450    60.0000   120.2880   105.8230    96.0700    25.1530     2.2340 
  164.2500   -34.3620    60.2870   122.1280   106.2180    91.4750    25.1530     2.2330 
  164.3750   -33.8200    59.3230   127.0740   109.3100   102.6380    25.1530     2.2310 
  164.5000   -33.3060    57.7680   134.1720   114.2800   130.2220    25.1530     2.2310 
  164.6250   -32.7690    56.5680   142.0150   119.9360   138.2640    25.1530     2.2320 
  164.7500   -32.2710    57.3920   149.0850   125.0150   133.4150    25.1530     2.2340 
  164.8750   -31.8980    60.1750   154.6950   128.9870   132.8530    25.1530     2.2360 
  165.0000   -31.4690    62.5110   158.7500   131.8160   135.5310    25.1530     2.2370 
  165.1250   -31.1100    62.3370   161.2320   133.5940   136.5600    25.1530     2.2370 
  165.2500   -30.8010    61.6770   162.1800   134.4380   145.4940    25.1530     2.2370 
  165.3750   -30.5180    60.7600   160.8160   133.8200   151.4210    25.1530     2.2370 
