~V
VERS. 2.00: Ver 2.00
~W
STRT.M 60.0000:
STOP.M 264.0000:
STEP.M 0.1250:
NULL. -999.2500:
UWI. DF32130:
~C
DEPT.M :
SP.MV :
GR.API :
CALI.CM :
RXO.OHMM :
RI. :
RML.OHMM :
DEN.GM/CC :
~A
# ...
  161.2500   -19.9930    78.4560    23.3220    15.6490    17.0630    18.5320     2.3890 
  161.3750   -20.5950    75.2110    23.3240    20.0970    19.6500    21.5730     2.3630 
  161.5000   -21.2280    71.8110    23.3290    24.8480    23.4010    25.8290     2.3430 
  161.6250   -21.7970    71.1550    23.3350    27.1320    28.4870    31.3490     2.3230 
  161.7500   -22.3410    73.5590    23.3280    28.9300    34.3120    37.5260     2.2980 
  161.8750   -22.8490    75.9430    23.3120    32.5390    40.3330    43.8280     2.2720 
  162.0000   -23.3260    74.9050    23.3020    38.2040    46.2440    49.9390     2.2570 
  162.1250   -23.7140    71.0720    23.2990    42.6730    52.4200    56.1600     2.2560 
  162.2500   -24.0130    71.1440    23.2990    44.2230    59.6270    63.3040     2.2620 
  162.3750   -24.2660    75.4060    23.2960    44.4360    68.5400    72.1490     2.2640 
  162.5000   -24.5340    76.2580    23.2830    46.6090    79.4800    83.2420     2.2570 
  162.6250   -24.8300    70.4860    23.2560    51.4410    92.1120    96.7120     2.2430 
  162.7500   -25.0950    65.9530    23.2420    56.3410   104.1920   110.0670     2.2260 
  162.8750   -25.3060    65.3350    23.2450    59.9100   112.9530   119.3510     2.2130 
  163.0000   -25.5100    66.7950    23.2510    60.8270   116.0580   121.0320     2.2090 
  163.1250   -25.6990    68.6670    23.2530    57.0300   112.7410   114.4590     2.2130 
  163.2500   -25.9040    71.7780    23.2530    50.1890   106.0770   105.9000     2.2220 
  163.3750   -26.0620    73.8870    23.2520    43.5680    98.2880    99.5760     2.2300 
  163.5000   -26.1690    72.9890    23.2490    39.1620    93.1870    95.2430     2.2320 
  163.6250   -26.1800    71.1420    23.2600    38.7710    91.5260    94.0050     2.2320 
  163.7500   -26.2300    70.8250    23.3250    42.9170    92.2100    95.0270     2.2320 
  163.8750   -26.2760    71.6850    23.4700    51.3210    94.1810    97.3240     2.2290 
  164.0000   -26.2910    71.6270    23.6930    62.5610    95.9270    99.5180     2.2240 
  164.1250   -26.3030    70.4160    23.8740    72.9570    95.1890    99.6510     2.2170 
  164.2500   -26.3000    70.3800    23.9430    77.5620    91.3280    97.0060     2.2080 
  164.3750   -26.3250    70.8820    23.9550    72.9200    85.0040    91.7920     2.1950 
  164.5000   -26.3220    71.5030    23.9550    60.1960    77.8870    85.2080     2.1850 
  164.6250   -26.3720    73.1770    23.9160    47.1610    72.1040    79.2230     2.1880 
  164.7500   -26.3820    73.5730    23.7470    38.1930    68.6490    75.3530     2.2040 
  164.8750   -26.4440    71.2340    23.4140    33.7540    68.0070    74.4900     2.2260 
  165.0000   -26.4920    68.3210    23.1220    33.4060    70.4790    77.1950     2.2420 
  165.1250   -26.5320    67.6210    23.0870    36.8860    77.0220    84.6530     2.2480 
  165.2500   -26.5690    67.1210    23.0900    40.7430    87.5620    96.7050     2.2460 
  165.3750   -26.6190    66.5040    22.9250    45.6290   102.5680   113.6930     2.2400 
  165.5000   -26.7240    66.9680    22.7370    52.7290   122.3070   135.4040     2.2350 
  165.6250   -26.8430    66.8580    22.6880    61.1730   146.5620   160.4820     2.2300 
  165.7500   -26.9410    66.3900    22.7510    71.3910   171.3190   184.5830     2.2230 
  165.8750   -26.9880    66.0790    22.8780    84.2870   191.5510   203.5240     2.2130 
  166.0000   -26.9930    65.7410    23.0810    98.0640   203.0770   214.4510     2.2020 
  166.1250   -27.0310    63.4720    23.4920   108.3870   204.2800   216.2320     2.1950 
  166.2500   -27.0440    60.0750    24.0160   114.9120   199.7680   212.5530     2.1920 
  166.3750   -27.0260    57.8010    24.4690   120.2150   191.8060   205.1840     2.1980 
  166.5000   -26.9620    57.3640    24.6720   126.8330   180.8660   194.6720     2.2160 
  166.6250   -26.8520    57.8410    24.6450   132.7410   165.9280   180.2850     2.2430 
  166.7500   -26.7580    59.9930    24.5130   128.6500   148.3710   163.0240     2.2670 
  166.8750   -26.5990    63.8010    24.4080   114.6310   130.3980   144.5230     2.2760 
  167.0000   -26.4500    66.1590    24.3640    97.0760   114.5090   127.1740     2.2770 
  167.1250   -26.2040    64.4970    24.3570    81.9800   103.1140   113.9640     2.2750 
  167.2500   -25.9950    63.2230    24.3570    72.6800    95.9090   105.3650     2.2690 
  167.3750   -25.7590    65.3570    24.3570    65.2860    92.2240   100.9030     2.2550 
  167.5000   -25.5350    68.3250    24.3570    57.1980    90.9410    99.2410     2.2370 
  167.6250   -25.2850    67.7270    24.3540    52.2450    90.9680    98.9460     2.2240 
  167.7500   -25.0470    66.5120    24.3500    48.4140    91.2940    98.9500     2.2250 
  167.8750   -24.8680    66.8050    24.3520    42.3860    91.9070    99.4090     2.2370 
  168.0000   -24.7230    66.8730    24.3550    37.3880    93.4390   101.0650     2.2440 
  168.1250   -24.6230    65.6550    24.3570    45.4510    97.1790   105.1760     2.2400 
  168.2500   -24.5040    64.9840    24.3570    67.3190   103.0570   111.4110     2.2330 
  168.3750   -24.4400    65.7680    24.3560    91.0880   109.8650   118.3510     2.2360 
  168.5000   -24.3940    67.3650    24.3530   104.7490   114.9950   123.4640     2.2460 
  168.6250   -24.3560    68.5620    24.3470   107.5560   114.6020   123.2480     2.2550 
  168.7500   -24.2870    70.5670    24.3470   103.5420   109.1960   117.9710     2.2600 
  168.8750   -24.2320    71.3400    24.3460    92.7340   101.4170   109.7720     2.2640 
  169.0000   -24.2110    69.1770    24.3420    80.3090    94.2340   101.6570     2.2660 
  169.1250   -24.2250    66.6110    24.3460    73.2710    89.8160    96.3570     2.2650 
  169.2500   -24.2110    67.0180    24.3460    71.7670    88.0310    94.0500     2.2610 
  169.3750   -24.1420    68.7330    24.3450    73.0980    88.4710    94.3270     2.2590 
  169.5000   -24.0770    67.4130    24.3470    76.3540    90.4870    96.5030     2.2640 
  169.6250   -24.0710    63.7630    24.3410    81.2880    93.2640    99.7950     2.2740 
  169.7500   -24.0650    64.6210    24.3390    85.3410    95.8110   103.0820     2.2810 
  169.8750   -24.0310    69.1520    24.3380    88.4410    97.6080   105.6790     2.2800 
  170.0000   -23.9180    71.5080    24.3390    89.7460    98.4020   107.1510     2.2750 
  170.1250   -23.8040    68.3010    24.3360    88.1910    97.8170   106.9970     2.2730 
  170.2500   -23.6860    65.1260    24.3350    86.3750    95.5310   104.9940     2.2740 
  170.3750   -23.6100    66.4510    24.3350    85.4210    90.7450   100.4000     2.2770 
  170.5000   -23.4970    70.1920    24.3370    84.5630    83.0240    92.6310     2.2820 
  170.6250   -23.3260    71.1110    24.3400    81.6460    72.8500    81.7880     2.2930 
  170.7500   -23.1830    71.2250    24.3390    73.8210    62.5280    70.3120     2.3100 
  170.8750   -23.0350    73.4410    24.3370    60.1940    53.8030    60.3560     2.3210 
  171.0000   -22.9420    75.9060    24.3240    46.7590    47.8110    53.4260     2.3200 
  171.1250   -22.8310    75.9490    24.2930    41.6030    45.5820    50.7080     2.3120 
  171.2500   -22.8020    75.8140    24.2590    43.9610    46.6750    51.6420     2.3010 
  171.3750   -22.7770    76.2990    24.2440    51.1850    51.1070    56.2700     2.2880 
  171.5000   -22.8020    74.4350    24.2420    62.8370    58.7530    64.4610     2.2740 
  171.6250   -22.8480    68.6500    24.2420    75.1860    69.0440    75.4070     2.2620 
  171.7500   -22.9050    64.7730    24.2420    83.6760    79.3630    86.1750     2.2580 
  171.8750   -23.0090    66.0710    24.2350    87.5240    87.2350    94.3000     2.2660 
  172.0000   -23.1560    70.3790    24.2110    87.8170    91.3510    98.6160     2.2800 
  172.1250   -23.3320    72.1770    24.1650    86.8150    92.3090    99.6060     2.2920 
  172.2500   -23.5090    71.2640    24.1440    84.6430    92.9830    99.9910     2.2930 
  172.3750   -23.6680    70.9550    24.1390    83.5520    95.0250   101.4580     2.2780 
