~V
VERS. 2.00: Ver 2.00
~W
STRT.M 55.0000:
STOP.M 256.0000:
STEP.M 0.1250:
NULL. -999.2500:
UWI. DF327:
~C
DEPT.M :
SP.MV :
DEN.GM/CC :
AC.US/MT :
GR.API :
RML.OHMM :
RI. :
RXO.OHMM :
CALI.CM :
~A
# ...
   65.0000   -21.5090     2.1860   419.2470    73.5880   375.8730     8.5680    12.3720    22.3750 
   65.1250   -21.2840     2.1790   434.4040    76.1950   128.3820     8.5870    12.4620    22.3740 
   65.2500   -20.9500     2.1720   448.8610    79.8470    68.4150     8.6920    12.5150    22.4540 
   65.3750   -20.5110     2.1670   456.2070    82.0280    55.6860     8.8750    12.6100    22.5960 
   65.5000   -19.9770     2.1650   456.8630    79.8280    64.6840     9.0930    12.7040    22.7230 
   65.6250   -19.3010     2.1670   454.0020    75.1270    84.7010     9.2640    12.5350    22.7870 
   65.7500   -18.5030     2.1740   450.6120    73.9220   101.3380     9.3260    12.0720    22.8520 
   65.8750   -17.6090     2.1900   448.1310    77.2550   100.7930     9.2440    11.3580    22.9940 
   66.0000   -16.6810     2.2180   446.6110    81.2040    76.0950     9.0160    10.3800    23.2290 
   66.1250   -15.7100     2.2590   445.6610    85.8040    42.3120     8.6720     9.1740    23.3700 
   66.2500   -14.7370     2.3040   445.0420    94.0880    22.0970     8.3080     8.4810    23.3690 
   66.3750   -13.7860     2.3460   444.8050   105.1520    15.0500     7.9850     8.0370    23.4230 
   66.5000   -12.9030     2.3770   445.3900   114.9880    14.4540     7.7300     7.4910    23.4410 
   66.6250   -12.1800     2.3920   447.0050   119.2080    14.9960     7.5340     7.3180    23.4350 
   66.7500   -11.6610     2.3930   448.8390   120.9800    14.3430     7.3440     7.3330    23.4320 
   66.8750   -11.3530     2.3860   450.1520   120.7180    12.7250     7.1260     7.3020    23.4940 
   67.0000   -11.2240     2.3760   450.2220   118.0540    10.9970     6.8630     6.9390    23.5710 
   67.1250   -11.2960     2.3700   448.5880   115.5990     9.5600     6.5490     6.5630    23.6370 
   67.2500   -11.5390     2.3680   445.3170   115.5350     8.1800     6.2130     6.3010    23.6410 
   67.3750   -11.9740     2.3610   439.5520   117.1710     6.7650     5.9100     6.2830    23.5590 
   67.5000   -12.5610     2.3410   429.3920   117.3520     5.4550     5.7380     6.4140    23.4280 
   67.6250   -13.3120     2.3020   413.2480   115.4330     4.6320     5.8640     6.7160    23.3580 
   67.7500   -14.1780     2.2550   397.7520   114.2050     4.4350     6.3220     7.5960    23.3260 
   67.8750   -15.1780     2.2110   391.8720   111.0720     4.7960     7.0870     9.5380    23.2980 
   68.0000   -16.2900     2.1800   401.2100   102.0890     5.4390     8.0440    12.1980    23.2920 
   68.1250   -17.4990     2.1720   421.5990    89.2260     5.9390     8.9810    15.0520    23.3350 
   68.2500   -18.6980     2.1800   438.5850    79.4630     6.1110     9.6890    16.7260    23.3730 
   68.3750   -19.8330     2.1940   446.2670    76.0020     6.0380    10.0610    15.9500    23.3590 
   68.5000   -20.9170     2.2050   447.2130    77.8650     5.9510    10.1030    13.5520    23.2930 
   68.6250   -21.9280     2.2060   447.7420    80.2510     6.0510     9.8900    12.5940    23.2400 
   68.7500   -22.8610     2.1960   450.1930    80.6100     6.1560     9.6050    12.4120    23.2140 
   68.8750   -23.6880     2.1820   453.7210    78.6960     6.1370     9.3510    12.2110    23.2100 
   69.0000   -24.4510     2.1680   457.7370    78.1430     6.1330     9.1860    11.8770    23.2210 
   69.1250   -25.1630     2.1570   461.3720    79.5660     6.5250     9.1190    11.6750    23.2400 
   69.2500   -25.8510     2.1520   464.0620    80.0940     7.2980     9.0870    11.8100    23.2350 
   69.3750   -26.5210     2.1500   466.0850    80.2010     8.1330     9.0390    12.2340    23.2210 
   69.5000   -27.1540     2.1500   467.8420    80.1490     8.6470     8.9330    12.6650    23.2020 
   69.6250   -27.6890     2.1510   468.9130    79.5250     8.7340     8.7360    12.7330    23.1710 
   69.7500   -28.1400     2.1520   469.0630    79.3050     8.6520     8.4610    12.4650    23.1030 
   69.8750   -28.5230     2.1520   468.9570    79.6900     8.5490     8.1270    11.9490    22.9920 
   70.0000   -28.8210     2.1480   469.5610    78.8720     8.4170     7.7660    11.3220    22.9150 
   70.1250   -29.0020     2.1410   471.2590    73.1530     8.2040     7.4290    10.9630    22.9460 
   70.2500   -29.0860     2.1340   473.4960    67.4730     7.9710     7.1600    10.9820    23.0250 
   70.3750   -29.0790     2.1280   475.7550    66.2930     7.7410     6.9840    11.3810    23.0080 
   70.5000   -28.9980     2.1270   477.5080    68.9440     7.5360     6.9100    12.0840    22.9330 
   70.6250   -28.8940     2.1290   478.1930    71.8480     7.3960     6.9320    12.8520    22.8940 
   70.7500   -28.7600     2.1310   477.8430    73.4130     7.2740     7.0030    13.4610    22.9250 
   70.8750   -28.6160     2.1310   476.8260    74.2590     7.2140     7.0870    13.8400    23.0380 
   71.0000   -28.4850     2.1290   475.7980    75.2730     7.1930     7.1510    13.9170    23.1990 
   71.1250   -28.3690     2.1240   475.7540    77.6950     7.2120     7.1530    13.8460    23.2920 
   71.2500   -28.2870     2.1190   477.9300    79.7540     7.2080     7.0960    13.7320    23.3360 
   71.3750   -28.2270     2.1140   482.3100    79.1380     7.1530     6.9960    13.5430    23.3610 
   71.5000   -28.1740     2.1120   487.0890    76.0140     7.0480     6.8920    13.3080    23.3230 
   71.6250   -28.1020     2.1160   488.6920    73.6990     6.9500     6.8280    13.2650    23.2320 
   71.7500   -27.9970     2.1260   483.4660    73.1370     6.9290     6.8150    13.5210    23.0830 
   71.8750   -27.8090     2.1380   470.4730    73.6540     6.9240     6.8360    13.9160    22.9170 
   72.0000   -27.5270     2.1520   454.8980    73.7240     6.9470     6.8560    14.3430    22.7070 
   72.1250   -27.1540     2.1620   449.8330    73.4680     7.0040     6.8310    14.5720    22.5700 
   72.2500   -26.7610     2.1660   461.2920    73.6500     7.0980     6.7560    14.5970    22.5600 
   72.3750   -26.3760     2.1650   485.3400    73.8920     7.1970     6.6440    14.5960    22.5290 
   72.5000   -26.0010     2.1590   513.5440    73.6960     7.2140     6.5310    14.6400    22.2760 
   72.6250   -25.6590     2.1470   536.7910    74.2290     7.1330     6.4620    14.7340    22.0380 
   72.7500   -25.3780     2.1320   548.8300    74.3160     7.0190     6.4550    14.7770    22.1440 
   72.8750   -25.1620     2.1160   546.2440    72.4400     6.9220     6.5050    14.9040    22.6310 
   73.0000   -24.9940     2.1030   531.1480    70.0310     6.9130     6.5910    15.1120    23.1700 
   73.1250   -24.8410     2.0990   511.4840    70.7330     6.9880     6.6860    15.3270    23.3930 
   73.2500   -24.6310     2.1040   495.2600    72.2050     7.0780     6.7710    15.2610    23.3870 
   73.3750   -24.3380     2.1150   484.4780    73.0510     7.1440     6.8430    14.6860    23.3110 
   73.5000   -23.9620     2.1310   479.5170    73.6640     7.1650     6.9030    13.8090    23.2560 
   73.6250   -23.4390     2.1510   479.2450    74.0020     7.1480     6.9270    13.2670    23.2260 
   73.7500   -22.7510     2.1730   479.5130    74.3670     7.0550     6.8790    12.9380    23.2240 
   73.8750   -21.8800     2.1980   478.5910    76.1090     6.8620     6.7180    12.4910    23.2200 
   74.0000   -20.7950     2.2200   476.9870    79.2170     6.5820     6.4360    11.7580    23.2190 
   74.1250   -19.5110     2.2340   475.7680    81.9880     6.2620     6.0810    10.7710    23.2540 
   74.2500   -18.1610     2.2370   474.4410    88.0120     6.1250     5.7640     9.4770    23.3340 
   74.3750   -16.8560     2.2310   472.5790    98.4500     6.2390     5.5750     8.2910    23.4390 
   74.5000   -15.6680     2.2180   470.9700   105.6220     6.5940     5.5750     8.0930    23.4600 
   74.6250   -14.6440     2.2060   470.7890   102.5430     7.1110     5.7970     8.7020    23.3450 
   74.7500   -13.7420     2.2030   471.1170    96.0720     7.5970     6.1270     9.3590    23.2160 
   74.8750   -12.9680     2.2130   471.1590    92.7870     7.8830     6.4350     9.6620    23.1340 
