~V
VERS. 2.00: Ver 2.00
~W
STRT.M 61.0000:
STOP.M 262.0000:
STEP.M 0.1250:
NULL. -999.2500:
UWI. DF32115:
~C
DEPT.M :
GR.API :
CALI.CM :
RXO.OHMM :
RI. :
RML.OHMM :
DEN.GM/CC :
SP.MV :
~A
# ...
  117.2500    63.2450    24.4050     7.7370     8.2920    10.2490     2.2140   -25.4150 
  117.3750    62.7750    24.3660     7.8060     8.8250    10.8390     2.2340   -25.8580 
  117.5000    62.9010    24.3590     7.9830     9.2400    11.3340     2.2350   -26.1620 
  117.6250    66.5010    24.3730     9.2680     9.4820    11.6300     2.2090   -26.3460 
  117.7500    69.1650    24.4330    11.6940     9.5090    11.6420     2.1800   -26.4740 
  117.8750    68.5540    24.5630    13.2380     9.3060    11.3460     2.1650   -26.5620 
  118.0000    67.5020    24.7590    12.0600     8.9320    10.8410     2.1650   -26.5910 
  118.1250    69.6000    24.9750     9.2840     8.4800    10.2560     2.1740   -26.5460 
  118.2500    72.1040    25.1380     7.6910     8.0140     9.6540     2.1880   -26.4500 
  118.3750    71.4150    25.2300     7.4900     7.5340     9.0070     2.2090   -26.2910 
  118.5000    69.0710    25.2850     7.7200     7.0340     8.2980     2.2320   -26.0590 
  118.6250    69.5620    25.3250     7.4330     6.5370     7.5680     2.2550   -25.7630 
  118.7500    73.9240    25.3500     6.6970     6.0930     6.9410     2.2750   -25.4540 
  118.8750    79.3920    25.3650     5.9870     5.7680     6.5400     2.2850   -25.1670 
  119.0000    81.4340    25.3690     5.6600     5.6110     6.4400     2.2760   -24.9370 
  119.1250    78.8660    25.3330     5.7600     5.6450     6.6370     2.2530   -24.7500 
  119.2500    75.0100    25.2870     6.0160     5.7560     6.9070     2.2330   -24.5660 
  119.3750    74.1610    25.3100     6.2790     5.8220     7.0290     2.2280   -24.3630 
  119.5000    77.6910    25.4390     6.3650     5.7410     6.8560     2.2440   -24.1460 
  119.6250    80.8190    25.6100     6.0060     5.4890     6.4160     2.2770   -23.9060 
  119.7500    78.9850    25.7240     5.3960     5.1970     5.9690     2.3060   -23.6850 
  119.8750    74.0570    25.7300     4.9630     4.9640     5.6710     2.3100   -23.4720 
  120.0000    70.6870    25.6140     5.0530     4.8460     5.5770     2.2880   -23.2680 
  120.1250    72.2710    25.4120     5.6640     4.8900     5.7130     2.2560   -23.0750 
  120.2500    75.8090    25.2470     6.2620     5.0840     6.0470     2.2390   -22.9070 
  120.3750    77.9180    25.1860     6.6750     5.4540     6.6290     2.2550   -22.7900 
  120.5000    76.9450    25.1930     7.4570     6.0550     7.5700     2.3120   -22.7460 
  120.6250    75.8300    25.1910    10.0600     7.0300     9.0980     2.4020   -22.8100 
  120.7500    75.5980    25.1730    14.5030     8.3520    11.1320     2.4880   -22.9310 
  120.8750    74.1430    25.1360    19.4250     9.8740    13.3740     2.5390   -23.1140 
  121.0000    71.4100    25.0510    22.7440    11.2180    15.1610     2.5360   -23.3650 
  121.1250    72.1940    24.9160    21.8270    11.7070    15.4190     2.4760   -23.7360 
  121.2500    75.9370    24.7810    17.5720    11.2710    14.2690     2.3950   -24.2000 
  121.3750    77.5830    24.6480    12.5930    10.2510    12.4540     2.3250   -24.7260 
  121.5000    76.8020    24.5040     9.3220     9.1300    10.7590     2.2760   -25.2780 
  121.6250    75.2480    24.3910     8.1910     8.2800     9.6600     2.2460   -25.7920 
  121.7500    73.3660    24.3450     7.8360     7.7560     9.0890     2.2310   -26.2300 
  121.8750    71.5500    24.3580     7.6860     7.5330     8.9320     2.2320   -26.5550 
  122.0000    70.4020    24.4060     7.6260     7.5310     9.0230     2.2460   -26.7520 
  122.1250    70.5430    24.4100     7.6390     7.6190     9.1400     2.2590   -26.7850 
  122.2500    71.2510    24.3740     7.6150     7.6250     9.0570     2.2660   -26.6940 
  122.3750    72.5010    24.4480     7.4650     7.4350     8.6460     2.2710   -26.4890 
  122.5000    74.1820    24.7780     7.1210     7.0070     7.8980     2.2790   -26.1670 
  122.6250    75.9850    25.2660     6.5610     6.3790     6.9450     2.2940   -25.7250 
  122.7500    78.3730    25.6140     5.9050     5.7220     6.0550     2.3090   -25.2100 
  122.8750    81.5620    25.7480     5.2650     5.1520     5.3800     2.3170   -24.6700 
  123.0000    85.6780    25.7500     4.8010     4.7290     4.9630     2.3190   -24.1270 
  123.1250    88.0740    25.7260     4.7520     4.4680     4.7680     2.3210   -23.6000 
  123.2500    87.8910    25.7080     4.9490     4.2800     4.6120     2.3240   -23.1020 
  123.3750    88.4210    25.6730     5.0300     4.0900     4.3540     2.3230   -22.6660 
  123.5000    93.0460    25.6140     4.7920     3.8540     3.9490     2.3220   -22.3260 
  123.6250    96.6600    25.5630     4.4100     3.6300     3.5610     2.3340   -22.1330 
  123.7500    94.5510    25.5500     4.1440     3.5560     3.4650     2.3530   -22.0990 
  123.8750    91.1360    25.5490     4.2760     3.7710     3.8810     2.3760   -22.2150 
  124.0000    88.0080    25.5090     5.6340     4.3930     4.9530     2.4070   -22.4820 
  124.1250    81.3020    25.4190    10.0320     5.5570     6.8080     2.4630   -22.9450 
  124.2500    73.9240    25.3370    15.8220     7.0280     8.9820     2.5150   -23.5680 
  124.3750    71.0140    25.2960    18.2310     8.3330    10.6510     2.5200   -24.3120 
  124.5000    72.3590    25.2770    15.0730     8.8750    10.9460     2.4620   -25.1520 
  124.6250    74.9950    25.2390    10.1690     8.3810     9.7760     2.3690   -26.0190 
  124.7500    77.6550    25.1990     7.5570     7.5140     8.3530     2.2890   -26.8500 
  124.8750    77.7110    25.1680     6.7370     6.7300     7.3100     2.2380   -27.6220 
  125.0000    73.1710    25.1340     6.6620     6.2300     6.8090     2.2160   -28.3140 
  125.1250    69.0080    25.0980     6.7470     6.0680     6.8030     2.2130   -28.8920 
  125.2500    68.3960    25.0810     6.8060     6.1210     7.0550     2.2100   -29.4020 
  125.3750    70.2730    25.0550     6.8650     6.3280     7.4730     2.2010   -29.8680 
  125.5000    73.1400    24.9820     7.0080     6.6600     8.0310     2.1880   -30.2900 
  125.6250    73.8890    24.8940     7.3540     7.1300     8.7610     2.1820   -30.7110 
  125.7500    71.7910    24.8490     7.8090     7.7030     9.6140     2.1910   -31.1220 
  125.8750    69.2510    24.8520     8.1880     8.3280    10.5020     2.2050   -31.4970 
  126.0000    68.6560    24.9010     8.3720     8.9180    11.2830     2.2080   -31.8130 
  126.1250    67.9430    24.9980     8.4360     9.3280    11.7390     2.1900   -32.0360 
  126.2500    66.1930    25.0960     8.5500     9.4940    11.8200     2.1620   -32.1250 
  126.3750    64.8410    25.1520     8.7020     9.4000    11.5430     2.1340   -32.0570 
  126.5000    63.7030    25.1750     8.7710     9.0760    10.9820     2.1150   -31.8320 
  126.6250    64.9490    25.1810     8.6370     8.5510    10.1890     2.1170   -31.4410 
  126.7500    68.5800    25.1280     8.3030     7.9240     9.2960     2.1390   -30.9510 
  126.8750    73.2590    25.0360     7.7470     7.2810     8.4240     2.1710   -30.4290 
  127.0000    77.1450    25.0250     7.0300     6.7250     7.7210     2.1990   -29.9530 
  127.1250    78.3400    25.1850     6.4910     6.4030     7.4010     2.2140   -29.6330 
  127.2500    76.6860    25.3510     6.4670     6.3530     7.5010     2.2180   -29.4800 
  127.3750    73.0330    25.3320     7.0260     6.5880     8.0140     2.2140   -29.5250 
  127.5000    71.1020    25.1140     7.9110     7.0620     8.8390     2.2060   -29.7630 
  127.6250    70.9480    24.8670     8.6870     7.6620     9.7500     2.1960   -30.1580 
  127.7500    68.8970    24.7140     9.1160     8.1830    10.4340     2.1850   -30.6390 
  127.8750    64.7630    24.6480     9.2260     8.4850    10.7140     2.1710   -31.1560 
  128.0000    60.5560    24.6230     9.1350     8.5320    10.6070     2.1580   -31.6760 
  128.1250    60.7740    24.6160     8.9300     8.3760    10.2820     2.1530   -32.1300 
  128.2500    64.4910    24.6130     8.7350     8.1700     9.9780     2.1570   -32.5250 
  128.3750    67.9040    24.6080     8.6790     7.9870     9.7820     2.1620   -32.8550 
