~V
VERS. 2.00: Ver 2.00
~W
STRT.M 62.0000:
STOP.M 318.0000:
STEP.M 0.1250:
NULL. -999.2500:
UWI. DF321:
~C
DEPT.M :
DEN.GM/CC :
SP.MV :
AC.US/MT :
GR.API :
CALI.CM :
RXO.OHMM :
RI. :
RML.OHMM :
~A
# ...
   92.0000     2.2480   -23.1860   433.4600    96.0020    24.1050     8.4050     7.1880     9.8140 
   92.1250     2.2310   -23.1880   437.8730    87.6780    24.1490     9.2340     7.6750    10.3720 
   92.2500     2.2120   -23.0850   443.8160    85.3640    24.2390    10.0520     7.7500    10.2500 
   92.3750     2.2080   -22.8730   449.4190    87.4160    24.0670    10.1210     7.3700     9.4550 
   92.5000     2.2240   -22.5880   453.4190    91.8160    23.6810     9.0000     6.7180     8.3430 
   92.6250     2.2490   -22.1460   454.9430    98.2330    23.5170     7.3200     6.1170     7.4540 
   92.7500     2.2650   -21.6640   453.9170   103.6970    23.4730     6.3230     5.7660     7.0390 
   92.8750     2.2680   -21.2280   449.7040   105.2970    23.3960     6.2450     5.7040     7.1090 
   93.0000     2.2610   -20.7280   442.1950   104.2820    23.2710     7.0560     5.8660     7.5240 
   93.1250     2.2530   -20.2380   433.0960   104.0310    23.2750     7.9790     6.0630     7.9360 
   93.2500     2.2640   -19.8740   426.5080   102.5330    23.4920     8.1950     6.0470     7.9300 
   93.3750     2.3030   -19.5230   425.6950   100.2640    23.7950     7.1320     5.7110     7.3610 
   93.5000     2.3550   -19.2520   431.7830   101.3350    24.0180     5.5910     5.1250     6.4230 
   93.6250     2.3760   -19.0590   443.3540   107.4340    24.1220     4.6850     4.4810     5.4910 
   93.7500     2.3640   -18.9100   455.6070   115.2550    24.1490     4.1900     3.9470     4.7870 
   93.8750     2.3450   -18.8200   465.6710   123.1120    24.1430     3.9620     3.5780     4.3430 
   94.0000     2.3400   -18.8180   472.1860   130.8210    24.1350     3.9490     3.3770     4.1160 
   94.1250     2.3480   -18.9630   473.9120   133.2830    24.1300     4.0190     3.3540     4.0850 
   94.2500     2.3510   -19.1600   470.8180   127.8720    24.1300     4.0670     3.4850     4.2430 
   94.3750     2.3410   -19.4440   462.5100   117.2700    24.1320     4.1650     3.7950     4.6560 
   94.5000     2.3220   -19.8190   450.0730   106.7560    24.0960     4.5180     4.3000     5.3770 
   94.6250     2.3050   -20.2180   437.1090    99.9280    23.8990     5.5780     4.9830     6.4010 
   94.7500     2.2910   -20.5540   428.0680    94.1540    23.5340     6.8440     5.6590     7.4480 
   94.8750     2.2720   -20.8440   424.9870    90.5950    23.2080     7.7510     6.1010     8.1340 
   95.0000     2.2500   -21.0630   427.2670    91.9590    23.0880     7.8610     6.1000     8.0880 
   95.1250     2.2420   -21.1980   432.2980    96.7600    23.1430     7.0460     5.5890     7.2010 
   95.2500     2.2570   -21.3740   435.9810   100.8020    23.3310     6.1770     4.9290     6.1100 
   95.3750     2.2900   -21.5560   434.8320   105.0260    23.6110     5.6460     4.4390     5.3470 
   95.5000     2.3290   -21.6920   424.9590   111.1450    23.8190     5.4880     4.3800     5.2890 
   95.6250     2.3660   -21.9920   400.6800   113.1890    23.8390     6.6560     5.1360     6.4530 
   95.7500     2.4070   -22.4110   364.2350   104.6780    23.7320    11.4390     6.9290     9.1060 
   95.8750     2.4590   -22.9450   320.9490    89.5950    23.6010    22.4260    10.0970    13.7240 
   96.0000     2.5230   -23.7230   279.9100    78.4420    23.5240    38.0900    14.6710    20.3790 
   96.1250     2.5870   -24.6520   254.6310    76.5880    23.4570    45.1470    19.1190    26.6000 
   96.2500     2.6290   -25.6020   250.7390    76.8820    23.4220    40.9660    20.5880    27.7800 
   96.3750     2.6240   -26.6620   269.5960    73.0620    23.3920    30.5450    18.5210    23.5920 
   96.5000     2.5600   -27.7670   306.9390    67.6910    23.3220    20.3030    14.9120    17.8730 
   96.6250     2.4500   -28.7430   353.8200    67.1970    23.1850    14.0610    11.7910    13.6980 
   96.7500     2.3420   -29.6890   397.1500    71.9740    23.1160    11.3000     9.6260    11.1880 
   96.8750     2.2600   -30.5380   429.6320    77.3230    23.1260    10.4740     8.3200     9.9600 
   97.0000     2.2060   -31.1590   449.0160    78.3740    23.1750    10.5620     7.6910     9.6210 
   97.1250     2.1690   -31.6240   456.7380    75.7840    23.2110    10.9360     7.6010     9.8670 
   97.2500     2.1420   -31.9400   459.6390    72.3430    23.2180    11.1290     7.7570    10.2690 
   97.3750     2.1250   -32.0170   461.0050    70.7370    23.1960    11.1030     7.9980    10.6200 
   97.5000     2.1200   -31.9820   462.1650    72.1790    23.1420    10.9650     8.2290    10.8540 
   97.6250     2.1200   -31.8370   463.2350    75.0570    23.1570    10.8030     8.3970    10.9870 
   97.7500     2.1220   -31.5220   464.1980    76.3110    23.3300    10.9540     8.4710    11.0370 
   97.8750     2.1260   -31.1370   465.1630    75.6710    23.6430    11.7390     8.3960    10.9260 
   98.0000     2.1320   -30.7260   466.0570    75.6770    23.5700    13.1530     8.1190    10.5630 
   98.1250     2.1460   -30.2360   466.0970    78.0690    23.4410    13.0500     7.6160     9.9040 
   98.2500     2.1790   -29.8170   464.4740    80.7640    23.2850    11.6310     7.0220     9.1280 
   98.3750     2.2270   -29.4940   460.8890    82.4150    23.1750     9.8460     6.4730     8.4320 
   98.5000     2.2690   -29.1950   456.0140    84.3760    23.1100     8.4620     6.0980     8.0000 
   98.6250     2.2740   -28.9840   451.4940    87.4260    23.1250     8.0880     6.0230     8.0110 
   98.7500     2.2490   -28.9230   448.6590    89.3220    23.2300     8.4020     6.2100     8.3860 
   98.8750     2.2210   -28.9260   447.8870    87.8910    23.3700     9.0560     6.6000     9.0200 
   99.0000     2.2100   -28.9320   448.7950    83.3730    23.3630     9.8210     7.0830     9.7320 
   99.1250     2.2140   -28.9690   450.5480    78.6950    23.2310    10.4670     7.4890    10.2530 
   99.2500     2.2090   -28.9170   452.0710    76.1390    23.2720    10.8020     7.7080    10.4490 
   99.3750     2.1840   -28.6960   452.8260    75.2570    23.4920    10.7470     7.7150    10.3320 
   99.5000     2.1500   -28.3470   452.6290    75.5280    23.4970    10.3290     7.5530    10.0040 
   99.6250     2.1320   -27.8710   451.5650    76.8380    23.4530     9.6260     7.2870     9.5960 
   99.7500     2.1440   -27.2640   450.2740    78.6990    23.4050     8.9120     7.0130     9.2390 
   99.8750     2.1790   -26.6430   449.2280    80.2210    23.4040     8.2040     6.7770     8.9870 
  100.0000     2.2180   -26.0840   448.7030    81.6670    23.4060     7.6510     6.5790     8.8110 
  100.1250     2.2410   -25.6020   448.8140    84.8370    23.4110     7.2550     6.3740     8.6100 
  100.2500     2.2410   -25.2540   449.2870    87.0240    23.4140     7.3420     6.1280     8.3100 
  100.3750     2.2260   -25.0710   449.8470    87.7600    23.4180     7.6790     5.8490     7.9210 
  100.5000     2.2130   -25.0650   450.2190    88.5290    23.4360     7.6230     5.5970     7.5400 
  100.6250     2.2190   -25.3230   450.2640    89.7450    23.4830     6.9070     5.4830     7.3500 
  100.7500     2.2330   -25.8060   450.2290    90.5840    23.5030     6.4530     5.5450     7.4280 
  100.8750     2.2360   -26.3860   450.4130    88.5700    23.4390     7.0120     5.7840     7.7800 
  101.0000     2.2220   -26.9860   451.0520    83.4110    23.3220     8.4780     6.1650     8.3550 
  101.1250     2.2010   -27.5410   452.2830    80.9380    23.2570     9.6540     6.6210     9.0400 
  101.2500     2.1890   -28.0720   453.8400    83.7860    23.2800     9.8810     7.0120     9.6000 
  101.3750     2.1840   -28.6030   455.4230    87.1720    23.4100     9.2920     7.2020     9.8200 
  101.5000     2.1770   -29.0300   456.6680    85.3770    23.3960     9.0840     7.1160     9.6040 
  101.6250     2.1640   -29.3390   456.9200    81.2800    23.3010     9.5190     6.7730     9.0250 
  101.7500     2.1530   -29.5270   455.7820    80.1870    23.2480     9.4380     6.3680     8.3960 
  101.8750     2.1520   -29.6510   452.9980    82.5480    23.4010     8.3640     6.0540     7.9390 
