~V
VERS. 2.00: Ver 2.00
~W
STRT.M 62.0000:
STOP.M 272.0000:
STEP.M 0.1250:
NULL. -999.2500:
UWI. DF32143:
~C
DEPT.M :
SP.MV :
GR.API :
CALI.CM :
RXO.OHMM :
RI. :
RML.OHMM :
DEN.GM/CC :
~A
# ...
  253.2500   -25.1810    89.2930    25.2930    15.3430    10.8830    13.1370     2.3260 
  253.3750   -24.4710    90.0450    25.3440    14.3790    10.2720    12.1490     2.3370 
  253.5000   -23.6830    87.3800    25.3590    12.8460     9.4200    10.9020     2.3490 
  253.6250   -22.8530    85.9780    25.3420    11.0270     8.5330     9.7120     2.3560 
  253.7500   -22.0410    86.6720    25.3340     9.5140     7.7660     8.7560     2.3610 
  253.8750   -21.3010    84.4760    25.3410     8.5540     7.1730     8.0810     2.3640 
  254.0000   -20.6770    79.3550    25.3560     8.0850     6.7560     7.6620     2.3600 
  254.1250   -20.2170    75.0960    25.3660     7.7710     6.5040     7.4430     2.3500 
  254.2500   -19.8760    73.4650    25.3690     7.2790     6.3440     7.2960     2.3460 
  254.3750   -19.6160    73.8690    25.3560     6.7170     6.2350     7.1630     2.3520 
  254.5000   -19.3930    73.6230    25.3270     6.3730     6.1520     7.0230     2.3630 
  254.6250   -19.1880    71.0970    25.2980     6.2940     6.0870     6.8890     2.3650 
  254.7500   -18.9950    67.0660    25.2840     6.2080     6.0350     6.7780     2.3580 
  254.8750   -18.8250    63.3820    25.2890     6.0730     5.9970     6.6950     2.3510 
  255.0000   -18.7050    61.9200    25.3040     5.9990     5.9660     6.6340     2.3520 
  255.1250   -18.6320    61.4940    25.3080     6.0650     5.9370     6.5900     2.3550 
  255.2500   -18.6100    59.4870    25.2980     6.1490     5.9160     6.5660     2.3520 
  255.3750   -18.6680    56.6450    25.2870     6.1480     5.9130     6.5690     2.3460 
  255.5000   -18.7880    56.3720    25.2850     6.0840     5.9360     6.5980     2.3460 
  255.6250   -18.9380    60.1840    25.2860     6.0650     5.9740     6.6350     2.3470 
  255.7500   -19.0490    63.8620    25.2850     6.1780     5.9960     6.6470     2.3360 
  255.8750   -19.0470    66.5770    25.2770     6.4990     5.9790     6.6070     2.3110 
  256.0000   -18.9050    69.2680    25.2540     6.9060     5.9160     6.5140     2.2850 
  256.1250   -18.6280    70.6140    25.2210     6.8930     5.8360     6.4150     2.2860 
  256.2500   -18.2660    69.5130    25.2120     6.4250     5.8060     6.4000     2.3180 
  256.3750   -17.8300    67.7310    25.2290     5.9970     5.8790     6.5330     2.3580 
  256.5000   -17.3580    66.3090    25.2310     6.0700     6.0850     6.8390     2.3840 
  256.6250   -16.9210    64.9010    25.1890     6.6530     6.4360     7.3150     2.4010 
  256.7500   -16.5850    63.5870    25.1480     7.3500     6.8620     7.8520     2.4230 
  256.8750   -16.3720    64.2620    25.1500     7.8610     7.2790     8.3330     2.4420 
  257.0000   -16.2600    68.3980    25.2000     7.9410     7.5890     8.6340     2.4340 
  257.1250   -16.1930    74.2860    25.2710     7.7900     7.6770     8.6180     2.3970 
  257.2500   -16.1190    77.1300    25.3490     7.9500     7.5590     8.3320     2.3630 
  257.3750   -16.0190    74.9630    25.4070     8.2390     7.2890     7.8780     2.3500 
  257.5000   -15.8890    70.8430    25.3930     7.9820     6.9650     7.4110     2.3550 
  257.6250   -15.7000    69.4610    25.2980     7.0170     6.7210     7.1320     2.3620 
  257.7500   -15.4500    70.4560    25.2250     6.2570     6.6340     7.1150     2.3640 
  257.8750   -15.1780    72.1970    25.2250     6.2440     6.7240     7.3550     2.3580 
  258.0000   -14.9040    73.9060    25.2700     6.9670     6.9450     7.7420     2.3400 
  258.1250   -14.6790    74.5630    25.3080     8.2020     7.1790     8.0590     2.3170 
  258.2500   -14.5350    73.9040    25.3230     9.3540     7.3070     8.1450     2.3020 
  258.3750   -14.4900    73.0300    25.3100     9.6810     7.3020     8.0080     2.3020 
  258.5000   -14.5860    74.4300    25.2790     8.8990     7.2370     7.8200     2.3160 
  258.6250   -14.8340    77.9590    25.2610     8.1500     7.2980     7.9070     2.3320 
  258.7500   -15.1650    78.5670    25.2800     8.8310     7.6390     8.4590     2.3420 
  258.8750   -15.5500    76.4500    25.3440    10.7080     8.3690     9.5730     2.3470 
  259.0000   -15.9820    75.3750    25.4180    12.7570     9.5400    11.2480     2.3570 
  259.1250   -16.4140    76.9820    25.4250    15.0430    11.1710    13.4100     2.3810 
  259.2500   -16.7990    77.8070    25.4000    18.4970    12.9950    15.6670     2.4150 
  259.3750   -17.1080    78.1870    25.4020    22.6560    14.7250    17.6350     2.4450 
  259.5000   -17.2800    80.3750    25.4340    26.0560    16.1060    19.0200     2.4560 
  259.6250   -17.3070    80.9060    25.4570    27.9980    16.9600    19.6720     2.4430 
  259.7500   -17.2430    78.0860    25.4690    29.3250    17.4660    19.9310     2.4300 
  259.8750   -17.1070    75.2890    25.4720    29.9430    17.8320    20.1290     2.4350 
  260.0000   -16.9090    75.3880    25.4410    29.1940    18.2880    20.5750     2.4560 
  260.1250   -16.6800    77.5530    25.3950    27.1490    18.9950    21.4400     2.4790 
  260.2500   -16.4630    79.3290    25.3500    25.6760    19.7460    22.3540     2.4890 
  260.3750   -16.2460    80.7700    25.2980    26.1880    20.1210    22.7040     2.4850 
  260.5000   -16.0210    81.2050    25.2540    27.9050    19.6090    21.8320     2.4730 
  260.6250   -15.7770    79.1640    25.2600    26.2440    17.8030    19.3380     2.4620 
  260.7500   -15.5400    76.4230    25.2960    20.3610    15.2860    16.1130     2.4570 
  260.8750   -15.3150    75.5890    25.3190    13.7690    12.6920    12.9850     2.4470 
  261.0000   -15.1040    75.8620    25.3190     9.6900    10.4960    10.4900     2.4180 
  261.1250   -14.9190    73.5430    25.3090     8.0570     8.9950     8.9150     2.3640 
  261.2500   -14.7280    70.1380    25.3170     7.1470     8.0780     8.0470     2.3100 
  261.3750   -14.5440    70.3500    25.3550     6.7290     7.6770     7.7710     2.2810 
  261.5000   -14.3860    75.3400    25.4060     7.0370     7.7200     7.9860     2.2870 
  261.6250   -14.2540    75.3400    25.4350     8.0370     8.1840     8.6430     2.3160 
  261.7500   -14.1280    75.3400    25.4320     9.3410     8.8690     9.5070     2.3440 
  261.8750   -13.9860    75.3400    25.4160    11.1990     9.5710    10.3170     2.3630 
  262.0000   -13.8150    75.3400    25.4000    13.4560    10.0270    10.7470     2.3780 
  262.1250   -13.6100    75.3400    25.3810    14.0190     9.9630    10.4880     2.3960 
  262.2500   -13.4300    75.3400    25.3610    12.0780     9.5190     9.8000     2.4060 
  262.3750   -13.2930    75.3400    25.3400     9.2660     8.9470     9.0540     2.3990 
  262.5000   -13.2150    75.3400    25.3280     7.7950     8.5050     8.5760     2.3780 
  262.6250   -13.2220    75.3400    25.3440     8.6750     8.4250     8.6290     2.3560 
  262.7500   -13.2780    75.3400    25.3620    10.6610     8.7130     9.1610     2.3420 
  262.8750   -13.3930    75.3400    25.3540    12.4340     9.3320    10.0900     2.3370 
  263.0000   -13.5520    75.3400    25.3190    13.1760    10.1690    11.2460     2.3410 
  263.1250   -13.7460    75.3400    25.3010    13.3240    11.0240    12.3540     2.3450 
  263.2500   -13.9130    75.3400    25.3010    13.9190    11.6590    13.1200     2.3430 
  263.3750   -14.0030    75.3400    25.2980    14.7710    11.8740    13.3060     2.3380 
  263.5000   -13.9860    75.3400    25.2940    14.9890    11.5440    12.7780     2.3450 
  263.6250   -13.8300    75.3400    25.2930    13.8870    10.6440    11.5490     2.3660 
  263.7500   -13.5910    75.3400    25.2850    11.7500     9.5160    10.0970     2.3820 
  263.8750   -13.3190    75.3400    25.2650     9.0820     8.4490     8.8040     2.3790 
  264.0000   -13.0540    75.3400    25.2500     6.7930     7.6530     7.9190     2.3590 
  264.1250   -12.7940    75.3400    25.2550     6.1500     7.2580     7.5760     2.3360 
  264.2500   -12.5560    75.3400    25.2620     7.2440     7.1470     7.5830     2.3270 
  264.3750   -12.3480    75.3400    25.2650     9.5010     7.2020     7.7680     2.3320 
