~V
VERS. 2.00: Ver 2.00
~W
STRT.M 50.0000:
STOP.M 264.0000:
STEP.M 0.1250:
NULL. -999.2500:
UWI. DF32158:
~C
DEPT.M :
GR.API :
RML.OHMM :
RI. :
RXO.OHMM :
CALI.CM :
DEN.GM/CC :
SP.MV :
~A
# ...
  173.7500    81.8200    18.4790    18.9730    15.2420    23.1330     2.4400   -21.2620 
  173.8750    87.6860    18.0940    18.6770    15.0440    23.1340     2.4390   -21.4590 
  174.0000    92.5720    17.8070    18.4040    14.7700    23.1380     2.4300   -21.6670 
  174.1250    93.2030    17.7140    18.2630    14.2600    23.1650     2.4100   -21.8410 
  174.2500    89.5710    17.7890    18.2450    14.2370    23.2570     2.3870   -22.0230 
  174.3750    85.5190    19.7050    18.2920    15.0630    23.4100     2.3690   -22.2230 
  174.5000    85.4490    20.4730    18.3210    15.5390    23.5110     2.3600   -22.4470 
  174.6250    87.2100    20.5640    18.2780    16.0940    23.4730     2.3560   -22.7420 
  174.7500    85.7590    20.7210    18.2970    16.0120    23.3040     2.3470   -23.0480 
  174.8750    82.1180    21.4110    18.7140    15.6580    23.1230     2.3300   -23.4260 
  175.0000    79.9520    23.4170    20.0830    16.2590    23.1060     2.3030   -23.8960 
  175.1250    78.2360    28.5540    23.7480    18.6260    23.3070     2.2750   -24.4480 
  175.2500    73.4940    36.8370    30.3060    23.2240    23.5390     2.2530   -25.0580 
  175.3750    68.0080    49.5780    40.9750    32.7220    23.6440     2.2380   -25.7030 
  175.5000    66.9880    68.5150    57.0670    53.2750    23.6570     2.2280   -26.3390 
  175.6250    70.6420    91.8210    77.6240    79.0060    23.6530     2.2200   -26.9380 
  175.7500    73.4760   113.4120    97.1480    95.2750    23.6520     2.2140   -27.5490 
  175.8750    73.9910   126.7020   109.9500   103.7100    23.6520     2.2120   -28.1130 
  176.0000    73.9400   128.5190   113.0820   110.5590    23.6510     2.2170   -28.5570 
  176.1250    75.2750   120.8680   107.3800   115.9620    23.6500     2.2280   -28.9170 
  176.2500    75.9320   110.9250    98.7270   104.0680    23.6490     2.2400   -29.2250 
  176.3750    74.5420   102.4030    90.5880    84.2300    23.6510     2.2480   -29.4270 
  176.5000    72.3480    97.5390    85.2770    73.4050    23.6520     2.2440   -29.6120 
  176.6250    71.5850    98.4650    84.9840    77.1010    23.6730     2.2300   -29.8100 
  176.7500    71.5220   104.7280    89.6450    88.7390    23.7720     2.2110   -29.9440 
  176.8750    69.7610   115.4610    98.7950   104.8490    24.0390     2.1900   -30.0640 
  177.0000    67.5160   127.7330   110.0860   124.4820    24.5310     2.1720   -30.1740 
  177.1250    66.2230   134.7210   117.8870   144.0230    25.1920     2.1600   -30.2650 
  177.2500    65.7990   132.0030   117.8530   147.4620    25.7180     2.1580   -30.3200 
  177.3750    67.7630   120.2390   109.5560   133.3670    25.9620     2.1720   -30.3870 
  177.5000    73.0380   104.4490    96.5540   107.8530    26.0140     2.2030   -30.4320 
  177.6250    79.0490    90.6620    84.0580    82.0960    25.9150     2.2470   -30.4330 
  177.7500    79.2210    81.1960    74.9510    67.7960    25.6350     2.2860   -30.4540 
  177.8750    75.3630    76.0100    69.6640    64.2160    25.0950     2.3030   -30.4170 
  178.0000    73.2970    74.2080    67.5860    64.0340    24.2910     2.2910   -30.3760 
  178.1250    75.2290    74.8770    67.9830    57.4930    23.4220     2.2500   -30.3660 
  178.2500    77.1220    76.4700    69.4730    48.0200    23.0050     2.2010   -30.3730 
  178.3750    78.0210    78.2160    71.3530    47.6990    22.9220     2.1600   -30.3460 
  178.5000    78.4090    79.7190    73.1870    60.7360    23.0590     2.1370   -30.3090 
  178.6250    76.5730    80.8720    74.8770    76.7830    23.6040     2.1390   -30.2820 
  178.7500    75.7340    81.8280    76.6330    81.8460    24.6920     2.1560   -30.2270 
  178.8750    77.3980    82.6420    78.5250    80.8950    25.8500     2.1750   -30.1770 
  179.0000    79.6820    83.2660    80.3340    78.5980    26.4830     2.1860   -30.1570 
  179.1250    81.5810    83.4310    81.4970    76.3230    26.6760     2.1800   -30.0850 
  179.2500    82.4800    83.0030    81.6640    76.1650    26.7830     2.1660   -29.9970 
  179.3750    82.7070    81.9830    80.7440    81.0750    26.8780     2.1560   -29.9380 
  179.5000    83.1320    80.6090    79.0970    84.0190    27.0270     2.1570   -29.8540 
  179.6250    84.7710    79.3750    77.3810    81.7180    27.1250     2.1720   -29.7850 
  179.7500    85.4510    78.7310    76.1470    76.9480    26.8400     2.1920   -29.7190 
  179.8750    84.0770    78.8800    75.6620    72.9460    26.1070     2.2120   -29.6450 
  180.0000    82.3120    79.6880    75.9330    76.6500    25.4960     2.2270   -29.5560 
  180.1250    80.5560    80.7240    76.7010    79.8520    25.3040     2.2370   -29.4770 
  180.2500    79.4930    81.5010    77.4140    80.0310    25.2890     2.2430   -29.3480 
  180.3750    79.9470    81.9210    77.8230    81.6880    25.2940     2.2430   -29.2190 
  180.5000    80.0640    82.2680    78.0140    83.2000    25.3110     2.2380   -29.1120 
  180.6250    76.2640    83.1720    78.4500    77.7180    25.3510     2.2300   -28.9380 
  180.7500    72.0300    84.7790    79.5080    72.8410    25.4020     2.2240   -28.7640 
  180.8750    71.4300    86.6420    81.0150    77.8300    25.4240     2.2250   -28.6490 
  181.0000    75.5110    87.9230    82.2540    85.3500    25.4270     2.2330   -28.5120 
  181.1250    79.5460    87.6520    82.2690    93.2880    25.4260     2.2430   -28.3360 
  181.2500    79.2640    86.0400    81.0620    92.9570    25.4150     2.2480   -28.2390 
  181.3750    76.2090    83.7030    79.0200    80.4040    25.3850     2.2480   -28.1800 
  181.5000    73.5940    81.3520    76.7450    68.1400    25.3520     2.2450   -28.1410 
  181.6250    73.2540    79.5550    74.8110    61.9720    25.3690     2.2460   -28.0960 
  181.7500    74.3070    78.4820    73.4160    66.3600    25.3860     2.2470   -28.0430 
  181.8750    77.1550    78.3870    72.8610    79.4450    25.3590     2.2440   -27.9890 
  182.0000    80.8900    79.5770    73.5570    87.3380    25.3250     2.2360   -27.9730 
  182.1250    80.4180    82.3390    75.7670    77.3920    25.3130     2.2280   -28.0170 
  182.2500    75.4100    85.9850    78.7790    67.6710    25.3140     2.2260   -27.9810 
  182.3750    71.0970    89.5600    81.7850    72.8000    25.3090     2.2310   -27.8730 
  182.5000    72.3860    91.6960    83.7300    92.5950    25.2770     2.2360   -27.7870 
  182.6250    77.8810    90.5470    83.1910    88.7640    25.1820     2.2390   -27.7630 
  182.7500    80.1470    86.4590    80.2810    67.5470    24.9880     2.2390   -27.7420 
  182.8750    78.0130    80.7240    75.7910    59.0850    24.6780     2.2440   -27.6880 
  183.0000    74.7920    75.0110    70.9460    65.7920    24.2490     2.2560   -27.6410 
  183.1250    74.9200    70.6880    66.9500    66.8480    23.8610     2.2730   -27.5920 
  183.2500    76.3980    67.7810    64.1100    59.2480    23.5020     2.2860   -27.6050 
  183.3750    78.0560    66.0170    62.3390    52.6410    23.2290     2.2890   -27.6600 
  183.5000    80.1310    65.1380    61.4350    53.1320    23.0860     2.2800   -27.6580 
  183.6250    82.0500    65.2510    61.3060    54.5180    23.1070     2.2630   -27.6720 
  183.7500    82.7670    66.2560    61.7100    53.3950    23.2430     2.2480   -27.7140 
  183.8750    82.2160    67.9260    62.5850    55.5530    23.4330     2.2380   -27.7650 
  184.0000    82.0990    69.7250    63.6820    68.7350    23.5720     2.2340   -27.7870 
  184.1250    81.6530    70.8900    64.5420    75.1970    23.6170     2.2360   -27.7870 
  184.2500    79.7260    71.1020    64.9590    69.2940    23.6300     2.2380   -27.8130 
  184.3750    76.4550    70.3840    64.8450    61.0540    23.7160     2.2350   -27.8550 
  184.5000    73.1500    69.1360    64.3230    55.4300    23.9700     2.2240   -27.9440 
  184.6250    72.5250    68.1020    63.9400    51.8200    24.4080     2.2040   -27.9780 
  184.7500    73.6680    67.7780    64.1380    51.4630    24.7120     2.1870   -27.9870 
  184.8750    75.5580    68.2160    64.9660    56.4880    24.9500     2.1770   -28.0030 
