~V
VERS. 2.00: Ver 2.00
~W
STRT.M 62.0000:
STOP.M 243.0000:
STEP.M 0.1250:
NULL. -999.2500:
UWI. DF32072:
~C
DEPT.M :
SP.MV :
GR.API :
CALI.CM :
RXO.OHMM :
RI. :
RML.OHMM :
DEN.GM/CC :
~A
# ...
  107.0000   -30.2560    87.8720    23.7640     6.2980     5.4330     6.8700     2.2220 
  107.1250   -29.9800    94.9010    24.2000     5.6220     5.0250     6.3370     2.2590 
  107.2500   -29.7530    99.3900    24.5380     5.1200     4.7890     6.0430     2.2700 
  107.3750   -29.5210    99.1900    24.6450     5.0710     4.7640     6.0470     2.2480 
  107.5000   -29.3410    94.9370    24.4910     5.3030     4.9330     6.3240     2.2110 
  107.6250   -29.1400    91.0880    24.3540     5.6580     5.2290     6.7580     2.1870 
  107.7500   -28.9020    91.1160    24.5240     5.9100     5.4900     7.1000     2.1840 
  107.8750   -28.7050    93.1080    24.6780     5.9980     5.5870     7.1630     2.1960 
  108.0000   -28.4930    95.8730    24.4920     5.7670     5.4630     6.9000     2.2160 
  108.1250   -28.1990   100.1860    24.3900     5.3970     5.1520     6.4170     2.2440 
  108.2500   -27.9650   105.3190    24.5030     5.0230     4.7950     5.9340     2.2820 
  108.3750   -27.7600   109.3400    24.6640     4.7940     4.4700     5.5480     2.3220 
  108.5000   -27.6030   111.8380    24.7570     4.7170     4.2110     5.2810     2.3530 
  108.6250   -27.5660   111.7890    24.7840     4.6390     4.0230     5.1130     2.3610 
  108.7500   -27.6670   109.3860    24.8020     4.5490     3.8780     4.9790     2.3570 
  108.8750   -27.8270   106.2400    24.8450     4.4360     3.7660     4.8620     2.3520 
  109.0000   -28.0420   103.9060    24.9750     4.3400     3.6980     4.7780     2.3500 
  109.1250   -28.4090   103.5100    25.1360     4.3430     3.7300     4.8140     2.3490 
  109.2500   -28.7920   102.1120    25.1750     4.4880     3.9060     5.0420     2.3500 
  109.3750   -29.2390    98.7060    24.9780     4.7430     4.2790     5.5330     2.3650 
  109.5000   -29.7620    93.3610    24.7590     5.0370     4.8800     6.3280     2.4000 
  109.6250   -30.3050    88.7570    24.6090     5.4840     5.7040     7.4200     2.4360 
  109.7500   -30.7710    84.6650    24.4720     5.9290     6.5750     8.5630     2.4380 
  109.8750   -31.2380    78.9560    24.4230     6.2670     7.2830     9.4570     2.3880 
  110.0000   -31.6960    73.8630    24.6070     6.4650     7.6540     9.8540     2.3020 
  110.1250   -32.0050    74.1040    24.4810     6.5120     7.6300     9.6960     2.2230 
  110.2500   -32.2930    76.7650    24.1400     6.5330     7.4430     9.3450     2.1760 
  110.3750   -32.4810    77.7240    23.9640     6.7090     7.2660     9.0460     2.1630 
  110.5000   -32.5500    76.4830    23.9320     7.5910     7.2020     8.9140     2.1710 
  110.6250   -32.5910    76.4830    23.8960    10.4740     7.2840     8.9620     2.1850 
  110.7500   -32.5470    77.2200    23.8210    13.9550     7.4380     9.0900     2.1900 
  110.8750   -32.4200    76.6250    23.7080    14.1950     7.6160     9.2480     2.1830 
  111.0000   -32.2630    75.0280    23.5580    10.8070     7.7980     9.4320     2.1710 
  111.1250   -32.0490    73.5100    23.5770     8.0380     7.9850     9.6790     2.1640 
  111.2500   -31.8180    71.6450    23.8400     7.2420     8.1430     9.9430     2.1640 
  111.3750   -31.5950    70.4280    24.0690     7.1600     8.1570    10.0510     2.1640 
  111.5000   -31.3110    70.7000    24.1550     7.1230     7.8730     9.7450     2.1620 
  111.6250   -31.0730    71.8440    24.1610     6.8740     7.1460     8.8100     2.1700 
  111.7500   -30.9390    74.4320    24.1400     6.2940     6.1850     7.5860     2.1990 
  111.8750   -30.8640    81.4790    24.0690     5.4290     5.2500     6.4530     2.2420 
  112.0000   -30.8900    90.7210    23.8790     4.6000     4.5720     5.6940     2.2750 
  112.1250   -31.0020    93.3070    23.9120     4.3410     4.3520     5.5440     2.2740 
  112.2500   -31.1280    89.3070    23.7340     4.7890     4.5610     5.9480     2.2510 
  112.3750   -31.2640    84.7070    23.4120     6.0380     5.1610     6.8670     2.2310 
  112.5000   -31.4580    82.1580    23.0750     8.0490     6.0540     8.1500     2.2220 
  112.6250   -31.6180    80.0650    22.8330     9.7380     7.0200     9.4170     2.2170 
  112.7500   -31.7110    78.8420    22.7620     9.8190     7.7770    10.2450     2.2070 
  112.8750   -31.7720    79.0640    22.8560     8.9650     8.2080    10.5240     2.2020 
  113.0000   -31.7380    78.2760    22.7730     8.6190     8.3710    10.4550     2.2070 
  113.1250   -31.6390    75.1100    23.0220     8.6730     8.4220    10.3480     2.2130 
  113.2500   -31.5400    71.9530    23.1310     8.6120     8.5200    10.3880     2.2060 
  113.3750   -31.4230    69.4610    23.2270     8.4440     8.7020    10.6060     2.1890 
  113.5000   -31.2260    67.8450    23.3460     8.3930     8.9230    10.9250     2.1740 
  113.6250   -31.0060    69.1510    23.5380     8.4970     9.0240    11.1290     2.1750 
  113.7500   -30.8170    71.6510    23.7750     8.6230     8.8580    10.9940     2.1990 
  113.8750   -30.5820    72.9330    24.0730     8.5630     8.3530    10.3910     2.2450 
  114.0000   -30.3660    73.9870    24.3800     7.9680     7.5670     9.3850     2.2970 
  114.1250   -30.2350    77.8930    24.5430     6.9690     6.6930     8.2600     2.3240 
  114.2500   -30.0670    85.3600    24.6160     6.1450     5.9680     7.3590     2.3170 
  114.3750   -29.9680    93.0930    24.6280     5.7690     5.5070     6.8330     2.2880 
  114.5000   -29.9450    97.7230    24.5280     5.8690     5.3480     6.7160     2.2560 
  114.6250   -29.8690    95.5770    24.4160     6.2690     5.5080     7.0060     2.2320 
  114.7500   -29.7990    88.1100    24.5080     6.6830     5.8530     7.4990     2.2130 
  114.8750   -29.7100    80.8940    24.7190     6.8390     6.2580     8.0070     2.2020 
  115.0000   -29.5730    77.6440    24.8740     6.7450     6.5680     8.3200     2.1990 
  115.1250   -29.4000    78.6300    24.9300     6.6730     6.6060     8.2200     2.2090 
  115.2500   -29.2100    80.1490    24.8820     6.6680     6.3760     7.7800     2.2270 
  115.3750   -29.0240    81.1150    24.6820     6.5010     5.9620     7.1550     2.2540 
  115.5000   -28.8590    83.5510    24.4990     5.9660     5.4990     6.5400     2.2820 
  115.6250   -28.7630    86.0340    24.5740     5.3380     5.1410     6.1270     2.2950 
  115.7500   -28.7340    86.9030    24.5630     5.0870     4.9480     5.9600     2.2940 
  115.8750   -28.7650    85.4200    24.4170     5.3090     4.9300     6.0340     2.2860 
  116.0000   -28.7920    83.3220    24.2530     5.6860     5.0530     6.2800     2.2790 
  116.1250   -28.8530    82.8190    24.1990     5.8250     5.2280     6.5480     2.2750 
  116.2500   -28.9170    82.9460    24.1920     5.7980     5.3250     6.6480     2.2740 
  116.3750   -28.9310    84.3130    24.1710     5.8340     5.2710     6.4970     2.2790 
  116.5000   -28.9630    86.3640    24.1500     5.8630     5.0690     6.1410     2.2880 
  116.6250   -28.9380    87.7980    24.1290     5.6510     4.7990     5.7360     2.2950 
  116.7500   -28.8800    89.2310    24.1120     5.1890     4.5700     5.4270     2.2970 
  116.8750   -28.8450    91.2250    24.1280     4.8460     4.4450     5.2740     2.2910 
  117.0000   -28.8350    92.5100    24.1500     4.8310     4.4450     5.2860     2.2750 
  117.1250   -28.8150    90.4100    24.1710     5.0860     4.5630     5.4420     2.2550 
  117.2500   -28.8130    87.3410    24.2960     5.3140     4.7250     5.6360     2.2470 
  117.3750   -28.7940    85.6720    24.5750     5.2760     4.8700     5.7800     2.2560 
  117.5000   -28.7800    86.4340    24.7540     5.1480     4.9510     5.8190     2.2740 
  117.6250   -28.8580    87.9080    24.6730     5.1250     4.9440     5.7390     2.2820 
  117.7500   -28.8840    86.7580    24.5730     5.1810     4.8780     5.6150     2.2800 
  117.8750   -28.8960    84.2430    24.4690     5.1690     4.7890     5.4990     2.2770 
  118.0000   -28.9690    84.8430    24.4320     5.1250     4.6970     5.4120     2.2830 
  118.1250   -29.0220    87.3330    24.4840     5.0030     4.6100     5.3490     2.2950 
