~V
VERS. 2.00: Ver 2.00
~W
STRT.M 61.0000:
STOP.M 257.0000:
STEP.M 0.1250:
NULL. -999.2500:
UWI. DF32086:
~C
DEPT.M :
SP.MV :
GR.API :
CALI.CM :
RXO.OHMM :
RI. :
RML.OHMM :
DEN.GM/CC :
~A
# ...
  196.0000   -36.1120    65.0120    24.2490   113.3980   122.1690   130.5340     2.1990 
  196.1250   -35.9870    63.8740    24.2400   104.2720   115.7780   122.9290     2.1920 
  196.2500   -35.8950    65.4360    24.2490   101.0130   109.8130   116.0990     2.1940 
  196.3750   -35.8310    68.4100    24.2630    99.9410   106.7260   107.8390     2.2040 
  196.5000   -35.7400    70.8110    24.2580    97.2960   102.4860   102.4420     2.2130 
  196.6250   -35.6510    73.1310    24.2260    91.9580    98.4970    99.3280     2.2100 
  196.7500   -35.6120    74.4310    24.1970    86.1820    96.0300    97.9520     2.1990 
  196.8750   -35.5450    72.7260    24.2010    80.9900    95.6690    98.7750     2.1910 
  197.0000   -35.4840    70.4640    24.2570    79.1710    97.7410   102.0330     2.1990 
  197.1250   -35.4260    71.8550    24.3320    81.1810   102.3780   107.7880     2.2310 
  197.2500   -35.3430    72.9060    24.1870    84.5710   108.0770   114.4370     2.2820 
  197.3750   -35.2610    69.6660    23.7320    89.6080   112.8740   119.9790     2.3310 
  197.5000   -35.1670    66.4010    23.2640    99.6220   114.3470   122.1970     2.3540 
  197.6250   -35.1340    68.7770    23.1320   107.7460   110.1910   118.9910     2.3260 
  197.7500   -35.0480    71.6560    23.1970   103.5530   102.3100   111.8930     2.2720 
  197.8750   -35.0020    71.4940    23.4210    86.9930    93.0430   102.8610     2.2210 
  198.0000   -34.9350    69.3640    23.7080    70.4840    84.3410    93.8420     2.1970 
  198.1250   -34.9300    68.5950    23.8890    60.9310    77.5150    86.3160     2.2010 
  198.2500   -34.8920    69.3390    23.9480    55.3990    72.5620    80.5100     2.2110 
  198.3750   -34.8810    69.9580    23.9480    51.7280    69.4590    76.5590     2.2180 
  198.5000   -34.8860    69.8260    23.9430    50.3350    68.1150    74.5680     2.2230 
  198.6250   -34.9120    69.2490    23.9340    49.7900    68.5490    74.7660     2.2270 
  198.7500   -34.9470    68.4560    23.9310    51.4780    70.2400    76.5590     2.2310 
  198.8750   -34.9590    68.4780    23.9300    56.9170    73.0620    79.6840     2.2340 
  199.0000   -35.0140    70.7980    23.9300    66.4130    76.9840    83.9390     2.2360 
  199.1250   -35.0370    74.4550    23.9340    71.4360    82.2620    89.4210     2.2350 
  199.2500   -35.1020    75.9770    23.9500    75.0540    88.9610    96.1930     2.2320 
  199.3750   -35.1410    75.7480    23.9850    85.3960    97.4190   104.6520     2.2310 
  199.5000   -35.2090    74.6220    24.0440   102.3670   107.8300   114.9900     2.2280 
  199.6250   -35.2520    72.0270    24.0710   115.2900   120.0690   126.9070     2.2180 
  199.7500   -35.3190    68.9580    24.0800   122.0590   132.6340   138.8110     2.2030 
  199.8750   -35.3860    67.2760    24.0800   129.1150   143.8150   149.0630     2.1860 
  200.0000   -35.4350    65.8570    24.0800   137.9930   152.0700   156.3090     2.1740 
  200.1250   -35.4140    64.9500    24.0780   144.9270   156.3920   159.5950     2.1740 
  200.2500   -35.4140    66.2570    24.0740   146.0500   158.0360   160.1070     2.1840 
  200.3750   -35.4040    68.2600    24.0710   141.8970   157.8040   158.6940     2.2010 
  200.5000   -35.3800    68.3180    24.0710   137.4740   156.5480   156.3070     2.2120 
  200.6250   -35.3050    66.7230    24.0590   136.7360   155.1700   154.0510     2.2090 
  200.7500   -35.2430    66.3160    24.0250   136.5180   154.1730   152.5770     2.1980 
  200.8750   -35.1990    66.1330    23.9910   136.6810   153.5860   151.9630     2.1850 
  201.0000   -35.1240    64.4460    23.9380   137.4190   153.3130   152.0060     2.1750 
  201.1250   -35.1180    62.6610    23.8460   136.6530   153.5020   152.6050     2.1730 
  201.2500   -35.0380    62.1100    23.7070   134.5330   154.4950   153.9000     2.1760 
  201.3750   -35.0140    62.5240    23.6130   135.1730   156.7410   156.3370     2.1800 
  201.5000   -34.9350    62.5370    23.5550   139.1650   160.3960   160.1770     2.1780 
  201.6250   -34.8690    63.1040    23.6860   151.0120   165.1250   165.2580     2.1690 
  201.7500   -34.7460    66.1580    23.9120   165.8860   169.8840   170.6180     2.1580 
  201.8750   -34.6180    68.9230    24.0440   179.3160   174.1370   175.7250     2.1470 
  202.0000   -34.4960    67.8900    24.0800   180.5120   177.7090   180.2690     2.1370 
  202.1250   -34.3000    64.2220    24.0730   166.6030   179.3700   182.7660     2.1300 
  202.2500   -34.1300    62.4120    24.0410   158.5300   176.5740   180.8160     2.1460 
  202.3750   -33.8950    62.0090    23.9640   170.1710   166.5240   171.9890     2.2030 
  202.5000   -33.6660    60.6740    23.8490   190.0970   149.2060   156.1090     2.2900 
  202.6250   -33.5000    60.0400    23.6890   171.2030   128.9250   136.5110     2.3340 
  202.7500   -33.3370    61.8180    23.6820   124.3070   111.8230   119.2440     2.3000 
  202.8750   -33.1690    64.1840    23.9400    85.3860   100.4880   107.5050     2.2330 
  203.0000   -33.0380    65.7840    24.1790    69.8710    94.9640   101.7810     2.2140 
  203.1250   -33.0010    65.7090    24.0420    73.5970    93.7790   100.4700     2.2920 
  203.2500   -33.0220    63.3630    23.6880    86.6040    92.9460    99.3600     2.4140 
  203.3750   -33.0440    58.5090    23.5420    92.3660    89.5160    95.6030     2.5240 
  203.5000   -33.1170    54.4390    23.4960    77.0020    82.3900    88.2050     2.5720 
  203.6250   -33.0990    55.7790    23.5810    54.8370    73.3410    78.8040     2.5210 
  203.7500   -33.1080    61.3410    23.7130    44.1780    65.7070    70.7500     2.4180 
  203.8750   -33.0710    67.6060    23.8570    43.3700    60.9840    65.6920     2.3120 
  204.0000   -32.9950    70.6360    24.0110    45.0770    59.4780    63.9680     2.2360 
  204.1250   -32.8290    70.3230    24.2070    47.8710    61.1080    65.3670     2.2070 
  204.2500   -32.6320    69.6920    24.3870    53.1820    64.3750    68.2840     2.2100 
  204.3750   -32.4170    70.8450    24.4220    62.0230    68.2440    71.6940     2.2250 
  204.5000   -32.1230    73.4520    24.3100    72.1210    72.0660    75.0180     2.2260 
  204.6250   -31.8510    74.6240    24.1080    76.9580    75.9750    78.4360     2.2120 
  204.7500   -31.5030    73.7660    23.9520    76.8750    80.6030    82.5920     2.2090 
  204.8750   -31.1880    70.7270    23.8660    75.8710    86.2170    87.7380     2.2320 
  205.0000   -30.8290    67.2150    23.8040    78.0040    92.0310    93.0920     2.2730 
  205.1250   -30.5140    65.1780    23.7090    77.9910    95.1840    96.0610     2.3110 
  205.2500   -30.1430    64.4420    23.6460    74.2220    93.9070    95.0230     2.3410 
  205.3750   -29.7450    63.2510    23.6260    75.2580    88.5760    90.0350     2.3600 
  205.5000   -29.3530    61.6690    23.6510    82.5880    81.0180    83.0830     2.3560 
  205.6250   -28.9280    63.9930    23.7810    88.4510    74.0870    76.3960     2.3230 
  205.7500   -28.5270    69.0100    23.8310    87.1560    68.7810    71.6560     2.2810 
  205.8750   -28.1120    72.8550    23.7530    82.3420    65.3930    68.8880     2.2570 
  206.0000   -27.7370    73.4690    23.5390    73.9130    63.7770    67.7470     2.2580 
  206.1250   -27.3650    71.7260    23.4050    66.0000    64.0850    68.2270     2.2810 
  206.2500   -26.9770    70.3400    23.4240    60.9740    65.9600    70.0110     2.3010 
  206.3750   -26.6310    69.2920    23.6380    61.3500    69.1560    72.9390     2.3050 
  206.5000   -26.3280    69.2720    23.9340    65.7960    73.2390    76.7360     2.2900 
  206.6250   -26.0470    69.8190    24.0690    69.7810    77.8010    81.1760     2.2640 
  206.7500   -25.7940    70.2550    24.1010    71.0100    82.8870    86.3320     2.2410 
  206.8750   -25.4900    70.9800    24.0840    72.3340    89.6290    93.2610     2.2220 
  207.0000   -25.1750    71.9530    24.0360    74.9750    99.4560   103.4430     2.2150 
  207.1250   -24.7780    74.1620    23.9670    87.4330   110.9170   115.6940     2.2420 
