~V
VERS. 2.00: Ver 2.00
~W
STRT.M 53.0000:
STOP.M 258.0000:
STEP.M 0.1250:
NULL. -999.2500:
UWI. DF32102:
~C
DEPT.M :
SP.MV :
GR.API :
RML.OHMM :
RI. :
RXO.OHMM :
CALI.CM :
DEN.GM/CC :
~A
# ...
  210.5000   -22.3740    59.5110   135.5980   107.4100   130.7920    24.8760     2.2570 
  210.6250   -22.1260    57.9290   143.6110   113.7260   134.7750    24.9900     2.2920 
  210.7500   -21.8620    58.4530   151.9290   120.4880   114.8350    24.9900     2.3180 
  210.8750   -21.6440    58.8660   160.9070   128.2310    96.3420    24.9380     2.3230 
  211.0000   -21.4410    58.8050   169.2820   136.5300   101.6280    24.8080     2.3050 
  211.1250   -21.1230    61.3980   171.0960   141.6050   113.5250    24.5730     2.2750 
  211.2500   -20.9100    61.6790   160.4810   138.2790   117.4390    24.4790     2.2600 
  211.3750   -20.7650    57.9240   134.0630   122.5000   129.6980    24.4200     2.2810 
  211.5000   -20.5010    54.4700    96.3260    94.8460   142.9490    24.3680     2.3460 
  211.6250   -20.3480    56.7590    60.9250    63.2330   126.1970    24.4260     2.4410 
  211.7500   -20.3600    60.5700    36.2400    38.1150    60.4400    24.6010     2.5270 
  211.8750   -20.3220    62.2950    21.1040    22.1690    24.4830    24.8100     2.5720 
  212.0000   -20.4340    61.8240    12.3300    13.4370    10.2230    24.9270     2.5690 
  212.1250   -20.6630    59.6350     8.7950     9.4370     7.2130    25.0030     2.5320 
  212.2500   -20.8430    57.9160     7.4920     7.4110     6.6860    25.0130     2.4860 
  212.3750   -21.1190    58.0950     6.9650     6.4300     6.4580    24.9570     2.4390 
  212.5000   -21.4530    58.7330     6.7640     5.9840     5.8820    24.8630     2.3910 
  212.6250   -21.7490    57.7490     6.5990     5.7780     5.5230    24.7800     2.3470 
  212.7500   -21.9140    56.9240     6.3800     5.6180     5.2690    24.7060     2.3140 
  212.8750   -22.0700    58.6490     6.1780     5.4920     5.0140    24.5950     2.2950 
  213.0000   -22.1490    64.2510     6.1080     5.4540     5.1140    24.4320     2.2910 
  213.1250   -22.1350    74.2540     6.2910     5.5950     5.3040    24.3470     2.2990 
  213.2500   -22.1030    83.4110     6.6840     5.9020     5.8860    24.3900     2.3120 
  213.3750   -21.9300    88.2550     7.2100     6.3280     6.7250    24.5260     2.3290 
  213.5000   -21.7590    89.7700     7.7490     6.7800     7.3970    24.5900     2.3480 
  213.6250   -21.6340    92.8120     8.1420     7.1250     7.0530    24.5410     2.3680 
  213.7500   -21.5570    96.9360     8.3390     7.3050     6.8390    24.4810     2.3860 
  213.8750   -21.4860    97.7100     8.3650     7.3260     6.8140    24.4460     2.3940 
  214.0000   -21.4840    94.8990     8.3030     7.2500     7.0110    24.4700     2.3920 
  214.1250   -21.5470    94.6640     8.2510     7.1530     7.2720    24.5190     2.3800 
  214.2500   -21.6980    99.7370     8.2530     7.0840     7.3580    24.5540     2.3670 
  214.3750   -21.9860   105.1690     8.3040     7.0450     7.3670    24.5670     2.3570 
  214.5000   -22.2350   107.8390     8.3940     7.0360     7.6150    24.5710     2.3510 
  214.6250   -22.4300   109.7720     8.5510     7.0820     7.9180    24.5710     2.3500 
  214.7500   -22.6650   110.3740     8.8100     7.2160     7.8160    24.5700     2.3520 
  214.8750   -22.8180   107.6480     9.1900     7.4620     7.6880    24.5630     2.3580 
  215.0000   -22.8520   102.0250     9.6600     7.8100     7.9260    24.5340     2.3730 
  215.1250   -22.7300    98.6040    10.1050     8.1900     8.7260    24.4640     2.3940 
  215.2500   -22.3090    98.5680    10.3810     8.4840    10.0860    24.4150     2.4150 
  215.3750   -21.7320    98.4160    10.4010     8.6090    10.8540    24.4180     2.4300 
  215.5000   -21.0390    95.6680    10.1660     8.5350    10.0180    24.4470     2.4350 
  215.6250   -20.1950    90.9570     9.7850     8.3040     9.0010    24.4360     2.4310 
  215.7500   -19.3390    89.9750     9.4550     8.0660     8.4450    24.3770     2.4200 
  215.8750   -18.5250    94.7650     9.2870     7.9210     8.1390    24.3070     2.4070 
  216.0000   -17.7680   101.0290     9.3130     7.9190     7.9740    24.2930     2.3920 
  216.1250   -17.1250   102.7070     9.5120     8.0720     8.2240    24.3810     2.3810 
  216.2500   -16.6910   101.7430     9.7850     8.3070     8.7870    24.4680     2.3760 
  216.3750   -16.4020    99.8960    10.0750     8.5720     9.3240    24.5360     2.3760 
  216.5000   -16.2360    97.8180    10.3470     8.8260     8.9110    24.5880     2.3790 
  216.6250   -16.2480    95.7830    10.5750     9.0310     8.5400    24.6460     2.3770 
  216.7500   -16.2630    96.6650    10.7450     9.1710     9.1660    24.6830     2.3710 
  216.8750   -16.3060   100.8290    10.8290     9.2290     9.9620    24.7210     2.3590 
  217.0000   -16.4310   104.1240    10.8120     9.1950     9.8580    24.7440     2.3450 
  217.1250   -16.6540   101.3860    10.7110     9.0850     9.7930    24.7520     2.3320 
  217.2500   -16.8830    95.4550    10.6510     8.9790    10.0760    24.7510     2.3240 
  217.3750   -17.1940    92.7220    10.7020     8.9880    10.5080    24.7390     2.3210 
  217.5000   -17.5910    95.0170    11.0760     9.2760    10.6280    24.7080     2.3240 
  217.6250   -17.9240    97.3350    12.3400    10.2730    12.2630    24.6660     2.3300 
  217.7500   -18.3820    94.5810    15.2090    12.4770    14.7600    24.6370     2.3360 
  217.8750   -18.9450    87.6700    20.7530    16.6770    21.8250    24.6120     2.3360 
  218.0000   -19.3860    78.1550    30.2330    23.6640    36.6690    24.6130     2.3310 
  218.1250   -19.9090    67.3900    44.2550    34.1980    56.0760    24.6380     2.3180 
  218.2500   -20.4510    61.2640    60.3340    46.7710    74.9450    24.6510     2.3010 
  218.3750   -20.8780    61.5710    75.0110    59.3800   107.4700    24.6520     2.2820 
  218.5000   -21.3510    63.5810    86.1540    69.7420   134.9080    24.6490     2.2600 
  218.6250   -21.8200    61.5680    91.5000    75.9890   111.0310    24.6500     2.2380 
  218.7500   -22.2300    59.4030    93.6670    79.5590    74.8340    24.6460     2.2160 
  218.8750   -22.5490    61.8800    95.0310    81.9640    70.6160    24.6180     2.2000 
  219.0000   -22.8890    66.0990    96.4170    83.9130    99.5040    24.5710     2.1910 
  219.1250   -23.1460    66.1440    96.7600    84.8530   120.0630    24.5990     2.1930 
  219.2500   -23.3050    63.6200    94.9650    84.1820   115.2910    24.6340     2.2030 
  219.3750   -23.4680    61.7340    90.8150    81.5560    99.7720    24.5980     2.2120 
  219.5000   -23.5300    62.6640    84.3590    76.9560    74.1000    24.4300     2.2140 
  219.6250   -23.5960    66.1620    76.5730    70.2600    55.5280    24.1490     2.2040 
  219.7500   -23.6500    68.3490    67.7590    62.0700    65.4060    23.9860     2.1900 
  219.8750   -23.6620    67.8200    58.9220    52.9330    76.5420    23.9450     2.1830 
  220.0000   -23.7010    67.4950    51.0480    43.8910    56.0080    23.9700     2.1900 
  220.1250   -23.7700    71.9390    42.9260    36.8130    31.7600    24.0880     2.2130 
  220.2500   -23.8820    77.7950    38.7400    32.7130    23.3080    24.2360     2.2390 
  220.3750   -24.0710    78.3650    38.9360    32.1530    20.8600    24.2880     2.2570 
  220.5000   -24.3300    72.0980    43.3720    35.1810    22.0280    24.2850     2.2600 
  220.6250   -24.5550    63.6300    51.3100    41.4210    30.9310    24.2700     2.2450 
  220.7500   -24.8130    57.1170    59.7400    48.4840    54.8060    24.2390     2.2270 
  220.8750   -25.1120    53.4300    65.8690    54.0870    90.1550    24.2080     2.2160 
  221.0000   -25.3190    52.4870    67.7090    56.4700    99.6140    24.1930     2.2190 
  221.1250   -25.5800    57.0920    65.6260    55.4740    66.1710    24.1830     2.2370 
  221.2500   -25.8900    63.1380    64.0500    54.3300    40.3530    24.1990     2.2570 
  221.3750   -26.0810    66.0560    66.2950    55.8080    35.5630    24.2900     2.2690 
  221.5000   -26.2590    64.6670    73.9860    61.4630    52.1740    24.4450     2.2680 
  221.6250   -26.3940    61.8580    87.5490    71.7100    80.9040    24.5350     2.2570 
