~V
VERS. 2.00: Ver 2.00
~W
STRT.M 60.0000:
STOP.M 270.0000:
STEP.M 0.1250:
NULL. -999.2500:
UWI. DF32131:
~C
DEPT.M :
DEN.GM/CC :
GR.API :
CALI.CM :
RXO.OHMM :
RI. :
RML.OHMM :
SP.MV :
~A
# ...
  127.5000     2.2500    76.2460    23.6680     5.5430     5.3610     6.1100   -17.7530 
  127.6250     2.2760    79.2630    23.7610     5.2420     4.8120     5.3600   -17.2730 
  127.7500     2.2910    84.9300    23.9030     5.0320     4.4550     4.9170   -16.9080 
  127.8750     2.3000    90.1300    24.0720     4.8490     4.3160     4.8060   -16.7360 
  128.0000     2.3050    91.5660    24.1680     4.8930     4.3980     5.0150   -16.7710 
  128.1250     2.2940    90.9020    24.1890     5.3380     4.6930     5.4940   -17.0090 
  128.2500     2.2670    89.1720    24.1900     6.0560     5.0690     6.0270   -17.2890 
  128.3750     2.2410    85.5160    24.1900     6.6370     5.3960     6.4030   -17.5110 
  128.5000     2.2360    80.4760    24.1900     6.6700     5.5630     6.4560   -17.7160 
  128.6250     2.2580    76.8100    24.1900     6.0330     5.5010     6.1550   -17.8580 
  128.7500     2.2900    77.5750    24.1900     5.3230     5.3260     5.7610   -18.0030 
  128.8750     2.3140    81.8440    24.1900     5.0480     5.1500     5.4680   -18.0200 
  129.0000     2.3260    85.3030    24.1900     5.2070     5.0470     5.3750   -17.9300 
  129.1250     2.3240    83.8550    24.1900     5.4900     5.0600     5.5220   -17.8370 
  129.2500     2.3170    80.8760    24.1900     5.7160     5.1410     5.7880   -17.8380 
  129.3750     2.3120    81.1790    24.1830     5.7640     5.2440     6.0580   -18.0460 
  129.5000     2.3120    85.6030    24.1390     5.6180     5.3460     6.2580   -18.4240 
  129.6250     2.3130    91.1500    23.9960     5.6270     5.4550     6.4010   -18.9440 
  129.7500     2.3010    93.8290    23.7540     5.8590     5.6160     6.5960   -19.4950 
  129.8750     2.2740    90.9540    23.4230     6.2560     5.8690     6.9210   -20.1600 
  130.0000     2.2440    83.9980    23.0760     6.6920     6.2420     7.4300   -20.8640 
  130.1250     2.2330    79.2290    22.8660     7.1820     6.8060     8.1960   -21.5180 
  130.2500     2.2450    79.1610    22.7980     7.8820     7.5750     9.2230   -22.1180 
  130.3750     2.2680    80.6370    22.7870     8.9240     8.5840    10.5590   -22.6670 
  130.5000     2.2750    79.8310    22.7870    10.3550     9.8450    12.2430   -23.0780 
  130.6250     2.2480    76.8370    22.7870    12.1370    11.3540    14.3100   -23.3360 
  130.7500     2.2090    73.8960    22.7870    13.7340    12.9560    16.5450   -23.5510 
  130.8750     2.1780    72.3850    22.7870    14.7300    14.4370    18.6200   -23.6430 
  131.0000     2.1630    72.5880    22.7870    15.0740    15.5360    20.1060   -23.7070 
  131.1250     2.1650    72.8310    22.7870    15.1960    15.9360    20.5000   -23.7860 
  131.2500     2.1750    72.0120    22.7870    15.1530    15.7460    20.0230   -23.8350 
  131.3750     2.1900    71.2240    22.7820    14.9550    15.1800    19.0510   -23.8380 
  131.5000     2.1980    72.3190    22.7320    14.3890    14.4990    18.0200   -23.8650 
  131.6250     2.1960    72.6780    22.4660    13.9980    13.9190    17.2550   -23.9370 
  131.7500     2.1920    70.2960    21.9940    14.0830    13.4960    16.7650   -23.9840 
  131.8750     2.1920    67.9480    21.5870    14.0720    13.2100    16.4820   -24.1090 
  132.0000     2.1940    67.7640    21.4280    13.2750    13.0430    16.3230   -24.1950 
  132.1250     2.1990    65.6880    21.5080    12.0520    13.0160    16.2750   -24.3080 
  132.2500     2.2050    62.1420    21.7220    11.8390    13.1480    16.3930   -24.4200 
  132.3750     2.2030    62.0180    21.9860    13.1950    13.4720    16.7740   -24.5240 
  132.5000     2.1870    64.5040    22.2040    15.6070    13.9450    17.4210   -24.6340 
  132.6250     2.1600    63.4560    22.4120    17.4380    14.3790    18.0540   -24.7100 
  132.7500     2.1330    60.1730    22.6930    17.7690    14.4720    18.1550   -24.8410 
  132.8750     2.1140    60.3480    22.9280    16.9660    14.0190    17.3830   -24.9500 
  133.0000     2.1090    65.7710    23.0690    15.5410    13.0470    15.8470   -25.0970 
  133.1250     2.1180    70.8930    23.2080    13.8470    11.8060    14.0770   -25.1780 
  133.2500     2.1320    70.6820    23.4220    12.2990    10.6700    12.6080   -25.2680 
  133.3750     2.1460    67.4980    23.5950    11.1650     9.8120    11.6120   -25.3670 
  133.5000     2.1610    66.7020    23.6610    10.5250     9.2810    11.0770   -25.4270 
  133.6250     2.1720    68.7300    23.6610    10.3440     9.0810    10.9250   -25.4760 
  133.7500     2.1720    69.6070    23.6610    10.3500     9.0480    10.9290   -25.4880 
  133.8750     2.1590    71.0680    23.6610    10.4130     9.0830    10.9670   -25.4450 
  134.0000     2.1480    74.5020    23.6610    10.4360     9.1310    10.9820   -25.3780 
  134.1250     2.1520    76.9200    23.6610    10.4690     9.1930    10.9960   -25.3030 
  134.2500     2.1590    75.5540    23.6610    10.5480     9.3080    11.0840   -25.1920 
  134.3750     2.1560    71.8570    23.6610    10.5900     9.4850    11.2820   -25.0030 
  134.5000     2.1480    68.5760    23.6610    10.4770     9.6870    11.5350   -24.7250 
  134.6250     2.1530    66.5020    23.6630    10.2280     9.7530    11.5910   -24.3300 
  134.7500     2.1740    65.4710    23.6650    10.0060     9.5220    11.2100   -23.8100 
  134.8750     2.2000    66.3090    23.6640     9.6750     8.9510    10.3470   -23.2580 
  135.0000     2.2250    70.3820    23.6610     8.9020     8.1590     9.2300   -22.6330 
  135.1250     2.2470    78.1110    23.6590     7.6020     7.4020     8.2660   -22.0830 
  135.2500     2.2640    85.3120    23.6600     6.5170     6.8780     7.6770   -21.6020 
  135.3750     2.2690    88.5620    23.6640     6.3100     6.6380     7.5010   -21.2320 
  135.5000     2.2530    87.9570    23.6640     7.1000     6.6460     7.6560   -20.9430 
  135.6250     2.2240    85.3650    23.6640     7.9870     6.8020     7.9860   -20.7270 
  135.7500     2.2080    82.0430    23.6650     8.0420     6.9590     8.2690   -20.6810 
  135.8750     2.2150    79.0930    23.6280     7.3750     7.0640     8.4090   -20.7270 
  136.0000     2.2330    77.6700    23.4820     6.7380     7.1140     8.4290   -20.8880 
  136.1250     2.2370    77.6980    23.1810     6.8360     7.1530     8.4170   -20.9780 
  136.2500     2.2240    76.3690    22.9710     7.2770     7.2020     8.4220   -20.9830 
  136.3750     2.2080    76.1930    22.8980     7.5760     7.2540     8.4390   -20.8780 
  136.5000     2.2010    79.0470    22.9090     7.4790     7.3200     8.4880   -20.6930 
  136.6250     2.2060    81.3600    22.9660     7.2260     7.4530     8.6690   -20.4780 
  136.7500     2.2200    79.8730    23.0440     7.3390     7.6630     9.0120   -20.0890 
  136.8750     2.2530    76.5970    23.0800     8.0600     7.8910     9.4300   -19.6000 
  137.0000     2.3100    75.0370    23.0990     9.4670     8.0000     9.6840   -18.9910 
  137.1250     2.3790    77.4550    23.1490    10.6560     7.7770     9.3400   -18.3100 
  137.2500     2.4240    80.5780    23.2280     9.7670     7.2290     8.4190   -17.6710 
  137.3750     2.4230    83.6110    23.2780     7.7640     6.5120     7.2620   -17.1280 
  137.5000     2.3830    87.4710    23.2820     6.3520     5.8420     6.2760   -16.6610 
  137.6250     2.3390    91.5010    23.2330     5.7430     5.4050     5.7420   -16.2850 
  137.7500     2.3240    93.7670    23.1550     5.5750     5.2050     5.5820   -16.0180 
  137.8750     2.3360    94.8670    23.1030     5.8820     5.1850     5.6680   -15.8560 
  138.0000     2.3530    95.9240    23.0860     6.0900     5.2320     5.8050   -15.7830 
  138.1250     2.3460    96.2460    23.0860     5.7880     5.2200     5.7970   -15.8240 
  138.2500     2.3180    94.5920    23.0860     5.2190     5.1220     5.6550   -15.8770 
  138.3750     2.2880    94.3520    23.0860     4.8780     4.9910     5.4700   -15.8940 
  138.5000     2.2720    98.0980    23.0860     4.7570     4.8770     5.3170   -15.9290 
  138.6250     2.2760   101.4480    23.0880     4.8120     4.8000     5.2310   -15.9370 
