~V
VERS. 2.00: Ver 2.00
~W
STRT.M 53.0000:
STOP.M 258.0000:
STEP.M 0.1250:
NULL. -999.2500:
UWI. DF32102:
~C
DEPT.M :
SP.MV :
GR.API :
RML.OHMM :
RI. :
RXO.OHMM :
CALI.CM :
DEN.GM/CC :
~A
# ...
  233.0000   -17.3090    80.9900    31.6030    25.5680    26.1450    24.0320     2.3540 
  233.1250   -17.2900    83.0660    31.2470    25.0530    25.5970    24.1920     2.3290 
  233.2500   -17.2420    81.4600    30.5340    24.3990    28.8580    24.2960     2.3070 
  233.3750   -17.1610    80.2240    29.8320    23.8160    30.6950    24.4260     2.2930 
  233.5000   -17.0650    79.5020    30.1680    24.0370    27.0550    24.5090     2.2890 
  233.6250   -16.9230    77.6110    33.6810    26.8220    23.5410    24.5740     2.3100 
  233.7500   -16.7570    75.3570    40.9800    32.9430    27.3310    24.5960     2.3630 
  233.8750   -16.6270    72.0050    51.3580    42.1410    39.9500    24.4700     2.4520 
  234.0000   -16.5580    66.4980    62.0380    52.2530    73.9660    24.3400     2.5660 
  234.1250   -16.4610    60.8120    67.0330    58.1600   135.2610    24.2540     2.6710 
  234.2500   -16.2810    56.6520    62.4650    56.0820   148.9550    24.1130     2.7290 
  234.3750   -16.1600    54.4490    48.9340    45.7770   117.0230    23.8900     2.7240 
  234.5000   -15.9360    54.0970    32.8200    31.8430    63.9990    23.7420     2.6630 
  234.6250   -15.6870    56.6760    20.9410    20.7430    30.8340    23.6910     2.5670 
  234.7500   -15.4390    59.7990    13.4930    13.8250    14.6150    23.7440     2.4700 
  234.8750   -15.1120    60.8730     9.6570    10.0930     9.1320    23.9110     2.3930 
  235.0000   -14.7520    59.3890     8.5190     8.3630     8.1370    24.1150     2.3450 
  235.1250   -14.4120    56.6090     8.5670     7.9410     8.2540    24.2380     2.3300 
  235.2500   -14.1020    55.8530     9.0110     8.1200     7.7400    24.2700     2.3370 
  235.3750   -13.8110    58.6180     9.5410     8.5810     6.9300    24.2660     2.3580 
  235.5000   -13.5920    61.6410     9.9590     9.0770     6.5460    24.2310     2.3820 
  235.6250   -13.3830    61.8860    10.1580     9.4320     6.7300    24.1660     2.3940 
  235.7500   -13.2870    61.0010    10.2060     9.6270     6.8910    24.1530     2.3860 
  235.8750   -13.1590    62.0330    10.1640     9.6920     6.9450    24.2130     2.3580 
  236.0000   -13.1100    64.1560    10.0800     9.6650     7.0140    24.2400     2.3200 
  236.1250   -13.0540    62.9320     9.9890     9.5690     7.0760    24.3320     2.2870 
  236.2500   -13.0620    60.4690     9.9070     9.4320     7.0490    24.3900     2.2730 
  236.3750   -13.0880    60.0990     9.8360     9.2610     7.0870    24.4760     2.2830 
  236.5000   -13.1230    61.5000     9.7730     9.0670     7.3470    24.5990     2.3150 
  236.6250   -13.2750    60.3960     9.7210     8.8690     7.9860    24.6860     2.3580 
  236.7500   -13.3490    57.0320     9.6910     8.6940     8.3750    24.7120     2.3950 
  236.8750   -13.5130    54.5430     9.7020     8.5640     8.1520    24.7100     2.4140 
  237.0000   -13.6290    54.4610     9.7660     8.4930     7.8550    24.7240     2.4140 
  237.1250   -13.8110    56.6830     9.8880     8.4910     7.8360    24.7240     2.3980 
  237.2500   -14.0020    60.8720    10.0330     8.5250     7.9640    24.6950     2.3770 
  237.3750   -14.1970    63.5160    10.1600     8.5610     7.8380    24.6110     2.3550 
  237.5000   -14.4290    61.6960    10.2290     8.5650     7.4840    24.5190     2.3360 
  237.6250   -14.5680    59.1520    10.2020     8.5060     7.0210    24.4240     2.3240 
  237.7500   -14.8350    60.5680    10.1150     8.4030     6.6850    24.3810     2.3220 
  237.8750   -15.0560    61.7170    10.0230     8.2950     6.8490    24.3640     2.3310 
  238.0000   -15.3140    57.6260     9.9970     8.2360     7.5260    24.3840     2.3530 
  238.1250   -15.5160    52.2890    10.1240     8.2960     8.7600    24.4800     2.3810 
  238.2500   -15.6650    51.3930    10.3980     8.4800     9.4980    24.6030     2.4080 
  238.3750   -15.7420    53.2090    10.7790     8.7640     9.4590    24.5550     2.4290 
  238.5000   -15.7780    54.6400    11.1910     9.0970     9.0530    24.4550     2.4430 
  238.6250   -15.7780    55.2280    11.5280     9.3970     9.0230    24.4240     2.4520 
  238.7500   -15.6350    55.8500    11.7440     9.6110     8.9840    24.5250     2.4580 
  238.8750   -15.4500    55.1970    11.8420     9.7240     8.6260    24.6280     2.4610 
  239.0000   -15.2470    52.4750    11.8710     9.7630     8.3190    24.7010     2.4610 
  239.1250   -15.0710    50.9390    11.9090     9.7780     8.1130    24.7080     2.4600 
  239.2500   -14.8260    52.6740    12.0130     9.8280     8.2170    24.6880     2.4590 
  239.3750   -14.6690    56.4770    12.1980     9.9400     8.7170    24.6550     2.4560 
  239.5000   -14.5030    60.1550    12.4510    10.1190     9.2420    24.6390     2.4530 
  239.6250   -14.4420    62.3690    12.7430    10.3570     9.5420    24.6500     2.4490 
  239.7500   -14.4730    62.8070    13.0360    10.6220     9.7650    24.6740     2.4440 
  239.8750   -14.5030    62.7490    13.3100    10.8900    10.0540    24.6850     2.4400 
  240.0000   -14.6070    63.1980    13.5500    11.1410    10.3670    24.6780     2.4380 
  240.1250   -14.6660    63.0320    13.7300    11.3520    10.4310    24.6520     2.4390 
  240.2500   -14.8210    61.0170    13.8470    11.5150    10.7930    24.6010     2.4430 
  240.3750   -14.9150    56.5370    13.9080    11.6310    12.2150    24.4860     2.4500 
  240.5000   -15.0220    51.4960    13.9380    11.7110    14.5030    24.3140     2.4540 
  240.6250   -15.0910    50.8550    13.9800    11.7800    15.8860    24.1050     2.4490 
  240.7500   -15.0560    54.3870    14.0680    11.8640    14.3390    23.9270     2.4330 
  240.8750   -15.0340    58.9140    14.2080    11.9750    13.5500    23.9070     2.4090 
  241.0000   -14.9180    61.9740    14.3800    12.1090    13.9130    24.1150     2.3860 
  241.1250   -14.7960    63.9580    14.5360    12.2440    14.5310    24.4230     2.3720 
  241.2500   -14.6260    63.7550    14.6300    12.3500    15.3610    24.6370     2.3660 
  241.3750   -14.5420    59.3550    14.6400    12.4060    16.3380    24.7480     2.3670 
  241.5000   -14.4300    54.5990    14.5710    12.4070    16.1800    24.7580     2.3710 
  241.6250   -14.3540    55.3140    14.4580    12.3590    16.0440    24.7480     2.3790 
  241.7500   -14.2840    59.3690    14.3630    12.2990    16.2790    24.7290     2.3900 
  241.8750   -14.2550    61.6320    14.3140    12.2530    16.6710    24.6590     2.4020 
  242.0000   -14.2410    60.5720    14.3170    12.2300    15.6380    24.5970     2.4150 
  242.1250   -14.2250    60.5940    14.3400    12.2180    14.2360    24.6450     2.4270 
  242.2500   -14.2260    62.8690    14.3250    12.1830    13.4780    24.6960     2.4390 
  242.3750   -14.1410    64.1520    14.2290    12.0940    13.2120    24.7040     2.4520 
  242.5000   -14.1380    61.9780    14.0420    11.9380    13.2150    24.6720     2.4680 
  242.6250   -14.0200    58.7870    13.8060    11.7370    12.8810    24.6830     2.4850 
  242.7500   -13.9700    58.8540    13.6140    11.5610    12.0180    24.7100     2.4990 
  242.8750   -13.8920    62.4370    13.5380    11.4680    11.1130    24.7340     2.5060 
  243.0000   -13.8690    65.3850    13.6090    11.4950    10.5880    24.7260     2.5080 
  243.1250   -13.8540    66.0190    13.8180    11.6540    10.6260    24.6890     2.5040 
  243.2500   -13.8630    66.0530    14.0710    11.8780    10.3480    24.6330     2.4970 
  243.3750   -13.9460    64.2340    14.2950    12.1120    10.2090    24.5730     2.4860 
  243.5000   -13.9730    60.7590    14.4440    12.3110    10.2900    24.5310     2.4730 
  243.6250   -14.0420    59.6320    14.5010    12.4470    10.5660    24.5290     2.4600 
  243.7500   -14.1010    63.2450    14.5160    12.5400    10.6330    24.5540     2.4490 
  243.8750   -14.1560    66.8370    14.5320    12.6160    10.5210    24.5980     2.4440 
  244.0000   -14.2050    65.8040    14.5760    12.6960    10.4970    24.6270     2.4440 
  244.1250   -14.2500    63.1560    14.6590    12.7900    10.3880    24.6350     2.4500 
