~V
VERS. 2.00: Ver 2.00
~W
STRT.M 61.0000:
STOP.M 238.0000:
STEP.M 0.1250:
NULL. -999.2500:
UWI. DF32044:
~C
DEPT.M :
DEN.GM/CC :
SP.MV :
GR.API :
RML.OHMM :
RI. :
RXO.OHMM :
CALI.CM :
~A
# ...
  106.0000     2.3350   -26.6910    88.5580     5.2680     4.9390     4.9750    24.0950 
  106.1250     2.3260   -27.2000    86.0720     5.7180     5.2690     4.9270    23.9670 
  106.2500     2.3240   -27.8780    80.8060     6.4630     5.7980     5.2230    23.7320 
  106.3750     2.3290   -28.5320    72.6900     7.3360     6.4380     5.9690    23.4830 
  106.5000     2.3310   -29.1690    64.7370     8.0890     7.0370     7.0050    23.3310 
  106.6250     2.3230   -29.9250    60.5610     8.4180     7.3840     7.8460    23.4110 
  106.7500     2.3070   -30.6270    61.4890     8.3500     7.4520     8.1100    23.4840 
  106.8750     2.2930   -31.1370    63.7630     8.0910     7.3330     7.8110    23.4470 
  107.0000     2.2880   -31.6280    64.4210     7.9260     7.1960     7.3990    23.3560 
  107.1250     2.2860   -32.1500    65.3990     8.0890     7.2170     7.5510    23.2750 
  107.2500     2.2760   -32.5500    66.6720     8.4980     7.4040     8.7270    23.3430 
  107.3750     2.2520   -32.9590    66.7230     8.9910     7.6830    10.9190    23.5010 
  107.5000     2.2200   -33.3560    65.3330     9.3840     7.9410    12.6030    23.5740 
  107.6250     2.1880   -33.7000    63.7340     9.5110     8.0620    11.7120    23.5150 
  107.7500     2.1660   -33.9600    62.2290     9.4250     8.0490    10.0560    23.5800 
  107.8750     2.1540   -34.1960    59.5830     9.2290     7.9560     9.1820    23.6890 
  108.0000     2.1530   -34.3990    56.4880     9.0380     7.8560     9.1400    23.7510 
  108.1250     2.1560   -34.3600    56.1470     8.9520     7.8250     9.2960    23.7620 
  108.2500     2.1620   -34.2220    58.6470     8.9890     7.8770     9.3990    23.7620 
  108.3750     2.1690   -34.0900    59.8540     9.1410     8.0000     9.4560    23.7620 
  108.5000     2.1790   -33.8680    56.8740     9.3650     8.1650     9.5450    23.7620 
  108.6250     2.1950   -33.4060    53.9080     9.5700     8.3110     9.6650    23.7620 
  108.7500     2.2140   -32.9280    56.8140     9.6390     8.3660     9.6290    23.7580 
  108.8750     2.2370   -32.4920    61.3150     9.4770     8.2640     9.4230    23.7150 
  109.0000     2.2570   -31.9210    61.8240     9.0550     7.9730     9.2510    23.5580 
  109.1250     2.2710   -31.3410    58.7920     8.4220     7.5020     8.9770    23.2170 
  109.2500     2.2760   -30.9390    58.7480     7.7680     6.9660     8.1230    22.8220 
  109.3750     2.2750   -30.5220    63.3510     7.2320     6.4600     6.9810    22.4730 
  109.5000     2.2710   -30.1450    68.1160     6.8960     6.0580     6.2870    22.2420 
  109.6250     2.2650   -30.0730    68.9550     6.7700     5.8130     6.3100    22.1780 
  109.7500     2.2560   -30.0960    68.0560     6.7350     5.6890     6.4590    22.2930 
  109.8750     2.2400   -30.1150    67.5340     6.7230     5.6720     6.5640    22.6120 
  110.0000     2.2200   -30.3160    68.1610     6.7650     5.7840     6.9050    23.1690 
  110.1250     2.2080   -30.6210    69.7810     7.1240     6.1910     7.6490    23.9340 
  110.2500     2.2200   -30.7650    70.6460     8.1040     7.0640     8.5280    24.5870 
  110.3750     2.2640   -30.8990    68.6890     9.9260     8.5590    10.0830    24.8940 
  110.5000     2.3320   -31.1160    63.6690    12.5230    10.6530    13.8160    24.9720 
  110.6250     2.3990   -31.3080    60.9950    15.3260    12.9760    21.8100    24.9830 
  110.7500     2.4320   -31.5180    60.8700    17.3060    14.7650    31.9620    24.9700 
  110.8750     2.4160   -31.7520    60.2560    17.6460    15.3750    38.8290    24.8970 
  111.0000     2.3540   -32.0130    59.6640    16.1580    14.5550    36.6430    24.7320 
  111.1250     2.2720   -32.2830    61.0680    13.5890    12.6440    25.4120    24.3930 
  111.2500     2.2010   -32.5960    62.0660    11.3180    10.6740    15.7610    24.0500 
  111.3750     2.1560   -32.9860    61.4060     9.8790     9.1680    10.6630    23.9200 
  111.5000     2.1390   -33.3920    60.8970     9.3140     8.2830     8.7100    23.9640 
  111.6250     2.1440   -33.6850    61.3520     9.4960     8.0140     8.5140    24.0790 
  111.7500     2.1550   -33.9690    61.0830     9.9930     8.0770     8.8590    24.1940 
  111.8750     2.1640   -34.3120    60.0120    10.5160     8.2870     9.3220    24.2370 
  112.0000     2.1700   -34.4910    58.9230    10.8520     8.4900     9.5930    24.2210 
  112.1250     2.1730   -34.6010    56.0300    10.8780     8.5800     9.6280    24.3470 
  112.2500     2.1720   -34.8080    53.6580    10.7120     8.5650     9.6890    24.6060 
  112.3750     2.1690   -34.8920    55.1090    10.4610     8.4800     9.8810    24.8500 
  112.5000     2.1660   -34.8270    59.0300    10.2020     8.3620    10.1060    24.9790 
  112.6250     2.1640   -34.8510    59.8550     9.9770     8.2410    10.0550    24.9550 
  112.7500     2.1630   -34.8080    57.9350     9.7870     8.1320     9.7190    24.8700 
  112.8750     2.1640   -34.6420    56.1750     9.6460     8.0480     9.4000    24.8040 
  113.0000     2.1660   -34.5580    55.7720     9.5800     8.0100     9.2960    24.7850 
  113.1250     2.1700   -34.3840    55.2060     9.6270     8.0500     9.3150    24.7900 
  113.2500     2.1750   -34.0700    54.9760     9.7530     8.1520     9.3380    24.7980 
  113.3750     2.1820   -33.8330    56.0440     9.8860     8.2750     9.3870    24.8180 
  113.5000     2.1890   -33.5450    57.8630     9.9200     8.3490     9.4940    24.8480 
  113.6250     2.1970   -32.9680    59.3120     9.7090     8.2630     9.6510    24.8870 
  113.7500     2.2060   -32.3760    60.3840     9.2550     7.9930     9.7820    24.8780 
  113.8750     2.2190   -31.7660    62.0140     8.6250     7.5630     9.6070    24.8680 
  114.0000     2.2360   -30.9570    66.0250     7.9420     7.0450     8.6360    24.8700 
  114.1250     2.2490   -30.2370    70.2870     7.3580     6.5490     7.2270    24.8980 
  114.2500     2.2580   -29.6360    71.0050     6.9390     6.1480     6.3800    24.9600 
  114.3750     2.2620   -28.9200    69.9660     6.6850     5.8630     6.2690    25.0120 
  114.5000     2.2640   -28.1860    71.5620     6.5410     5.6750     6.3510    24.9700 
  114.6250     2.2660   -27.7080    78.0060     6.4230     5.5410     6.0930    24.8940 
  114.7500     2.2700   -27.3530    81.7800     6.2660     5.4120     5.8790    24.8110 
  114.8750     2.2750   -26.9700    79.6740     6.0670     5.2730     5.8800    24.6970 
  115.0000     2.2810   -26.7390    76.4040     5.8600     5.1340     5.7510    24.5870 
  115.1250     2.2880   -26.5820    77.9590     5.7040     5.0250     5.3890    24.5990 
  115.2500     2.2960   -26.3340    81.3650     5.6240     4.9660     5.2340    24.6700 
  115.3750     2.3040   -26.2400    82.1350     5.6280     4.9680     5.3770    24.7440 
  115.5000     2.3090   -26.3000    80.3270     5.7140     5.0330     5.5360    24.7670 
  115.6250     2.3080   -26.2560    76.4400     5.8790     5.1620     5.5600    24.7160 
  115.7500     2.3020   -26.2270    73.3850     6.0740     5.3200     5.6360    24.6020 
  115.8750     2.2920   -26.2620    73.4120     6.2400     5.4680     5.7650    24.4780 
  116.0000     2.2830   -26.2510    74.5310     6.3150     5.5690     5.9040    24.4140 
  116.1250     2.2830   -26.2360    76.1770     6.2370     5.5790     6.0880    24.4180 
  116.2500     2.2920   -26.1720    79.3210     6.0460     5.5090     6.1490    24.4540 
  116.3750     2.3030   -25.9660    82.2120     5.8090     5.3850     5.9020    24.4950 
  116.5000     2.3080   -25.7690    81.5160     5.6140     5.2510     5.4620    24.5360 
  116.6250     2.3000   -25.6970    80.6490     5.5600     5.1610     5.1440    24.6050 
  116.7500     2.2880   -25.4940    83.2270     5.6470     5.1330     5.0670    24.7240 
  116.8750     2.2780   -25.2680    85.2980     5.8330     5.1550     5.2150    24.8670 
  117.0000     2.2780   -25.1710    85.6910     6.0340     5.1930     5.4900    24.9480 
  117.1250     2.2890   -25.0580    84.5870     6.1140     5.1830     5.6870    24.9640 
