~V
VERS. 2.00: Ver 2.00
~W
STRT.M 62.0000:
STOP.M 235.0000:
STEP.M 0.1250:
NULL. -999.2500:
UWI. DF32059:
~C
DEPT.M :
SP.MV :
GR.API :
CALI.CM :
RXO.OHMM :
RI. :
RML.OHMM :
DEN.GM/CC :
~A
# ...
  197.0000   -18.5810    63.3650    23.1000    89.5130   100.5690   105.8980     2.2000 
  197.1250   -18.5330    64.5020    23.1030    89.8490   100.4900   106.0500     2.2040 
  197.2500   -18.5100    66.1680    23.1060    94.8920   102.1300   108.0680     2.2100 
  197.3750   -18.4740    67.3100    23.1120   101.6680   104.9400   111.3000     2.2160 
  197.5000   -18.4590    69.6250    23.0980   104.9050   107.9200   114.6370     2.2200 
  197.6250   -18.4100    72.4620    23.0440   103.6400   108.6080   115.6670     2.2170 
  197.7500   -18.3730    72.6380    22.9660    99.9290   104.6840   112.2390     2.2110 
  197.8750   -18.3460    70.8430    22.9300    94.9920    95.2760   103.3370     2.2090 
  198.0000   -18.3180    70.5630    23.0110    85.9900    82.3140    90.3750     2.2140 
  198.1250   -18.2760    70.7310    23.2920    70.2260    69.7500    77.0050     2.2260 
  198.2500   -18.2300    70.3670    23.6390    53.1590    60.1930    66.4470     2.2370 
  198.3750   -18.2300    71.0700    23.6660    42.3000    54.4520    59.9680     2.2430 
  198.5000   -18.2080    73.2560    23.4280    41.9060    52.5880    57.7930     2.2380 
  198.6250   -18.2080    73.8070    23.3040    49.1700    54.7810    60.0790     2.2220 
  198.7500   -18.2090    72.5920    23.2690    57.7140    59.7370    65.2830     2.2050 
  198.8750   -18.2080    71.4560    23.3250    65.0810    66.3380    72.1040     2.2000 
  199.0000   -18.2630    70.7380    23.4520    72.3740    72.7590    78.6310     2.2150 
  199.1250   -18.2760    68.8460    23.6020    78.0250    76.1280    82.0820     2.2490 
  199.2500   -18.3270    66.8790    23.3920    77.6890    75.7940    81.8670     2.2840 
  199.3750   -18.3200    66.0430    23.3440    72.5860    72.6880    78.7920     2.3080 
  199.5000   -18.3300    66.6800    23.4780    64.5640    68.4330    74.4000     2.3060 
  199.6250   -18.3260    67.3940    23.6540    56.0500    64.6480    70.3780     2.2790 
  199.7500   -18.3030    66.1040    23.6440    52.0640    62.2280    67.7680     2.2460 
  199.8750   -18.3350    62.5240    23.5960    54.1690    61.4990    66.9510     2.2200 
  200.0000   -18.3180    60.2280    23.5590    58.9300    62.4500    67.9290     2.2050 
  200.1250   -18.3470    63.7910    23.5410    62.7360    65.1720    70.8250     2.1990 
  200.2500   -18.3820    69.0970    23.5410    65.3010    69.1390    75.0900     2.2030 
  200.3750   -18.4220    70.6700    23.5410    69.2560    73.6260    79.9190     2.2120 
  200.5000   -18.5260    68.3940    23.5410    74.8090    77.1580    83.7210     2.2220 
  200.6250   -18.6110    67.2080    23.5410    79.1270    77.0730    83.7580     2.2320 
  200.7500   -18.7420    69.9610    23.5480    80.2100    72.8750    79.4840     2.2470 
  200.8750   -18.8410    73.7540    23.6080    76.4570    65.6580    71.8650     2.2650 
  201.0000   -18.9650    75.5960    23.7510    66.0760    57.6890    63.1580     2.2810 
  201.1250   -19.1170    75.0930    23.9310    51.8160    51.5840    56.1800     2.2840 
  201.2500   -19.2450    74.6920    23.9690    42.1150    48.2930    52.1050     2.2760 
  201.3750   -19.4650    75.3040    23.9800    39.4190    48.0860    51.2620     2.2620 
  201.5000   -19.6480    75.5380    24.0280    41.2840    50.9110    53.6020     2.2530 
  201.6250   -19.9180    74.9080    24.0210    48.2910    56.8110    59.1440     2.2570 
  201.7500   -20.2400    73.8860    23.8520    60.5510    64.3390    66.3190     2.2620 
  201.8750   -20.5520    73.1580    23.6620    72.6730    70.7890    74.7140     2.2600 
  202.0000   -20.9230    71.8700    23.6600    75.5570    75.9120    81.2530     2.2540 
  202.1250   -21.2810    69.9400    23.8470    69.1240    78.6490    84.5330     2.2540 
  202.2500   -21.6400    69.2930    23.6930    64.3240    79.5480    85.7920     2.2560 
  202.3750   -21.9980    69.4720    23.4690    63.7890    79.5180    86.2330     2.2420 
  202.5000   -22.3200    69.6680    23.4370    64.4880    79.3780    86.8900     2.2090 
  202.6250   -22.4880    68.5110    23.6760    63.2560    79.6080    88.2670     2.1830 
  202.7500   -22.5880    65.2760    23.8860    60.4830    80.1440    90.0280     2.1920 
  202.8750   -22.6110    61.6260    23.9920    59.9860    80.8960    91.8820     2.2290 
  203.0000   -22.4910    59.7390    23.8740    65.4340    81.8190    93.7040     2.2630 
  203.1250   -22.2910    60.6540    23.7400    75.1160    82.8590    95.3960     2.2570 
  203.2500   -21.9750    62.5610    23.7540    80.6420    83.9990    96.9700     2.2220 
  203.3750   -21.5450    66.2570    23.9200    81.5800    85.4770    98.6420     2.1860 
  203.5000   -21.0690    70.7930    24.2510    82.5460    87.7060   100.8440     2.1650 
  203.6250   -20.6060    72.4710    24.1230    85.6310    91.1060   104.0970     2.1550 
  203.7500   -20.1300    71.5240    24.0190    89.5210    95.0770   107.9260     2.1470 
  203.8750   -19.6590    71.8530    23.9150    95.2930    98.5880   111.2230     2.1430 
  204.0000   -19.2700    74.4670    23.8560   101.9260   100.3410   112.4050     2.1500 
  204.1250   -18.8810    75.5630    23.7700   100.7340    98.8090   109.5840     2.1660 
  204.2500   -18.5960    74.4750    23.6560    90.2620    94.4370   103.4950     2.1800 
  204.3750   -18.3610    73.6230    23.4910    77.9360    88.0830    95.4830     2.1860 
  204.5000   -18.1290    74.1670    23.3820    70.2330    80.8540    87.0380     2.1900 
  204.6250   -17.9770    74.2460    23.4850    65.4570    73.7200    79.2340     2.2090 
  204.7500   -17.8240    73.3300    23.7670    62.5430    67.1730    72.2360     2.2540 
  204.8750   -17.6900    71.5630    23.9320    59.3080    61.3910    65.9870     2.3200 
  205.0000   -17.5800    69.4670    23.7770    53.5950    56.5250    60.5360     2.3830 
  205.1250   -17.4900    68.8080    23.7370    44.9960    53.1580    56.5200     2.4110 
  205.2500   -17.3700    70.1710    23.8010    39.8700    51.7000    54.4310     2.4120 
  205.3750   -17.2580    73.4730    23.7400    40.4940    52.8510    54.9290     2.4110 
  205.5000   -17.1470    77.3620    23.6790    46.0540    57.3880    58.6760     2.4270 
  205.6250   -17.0020    77.4440    23.6450    56.7570    67.0040    68.1290     2.4550 
  205.7500   -16.8480    73.0190    23.6110    72.6720    82.0020    85.5390     2.4610 
  205.8750   -16.6350    69.2140    23.6050    88.3020   103.1670   107.7720     2.4340 
  206.0000   -16.3420    69.7080    23.6590    96.5290   129.5550   135.4930     2.4000 
  206.1250   -16.0600    72.5060    23.7280   103.7430   150.7750   157.7850     2.3980 
  206.2500   -15.7380    76.2560    23.7900   120.9640   147.3400   154.1760     2.4310 
  206.3750   -15.3570    79.4110    23.9250   143.8770   112.9500   118.0490     2.4840 
  206.5000   -15.0670    79.0260    24.0470   130.5870    68.2520    71.0940     2.5390 
  206.6250   -14.7880    73.5280    24.1930    79.1300    37.4970    38.7860     2.5640 
  206.7500   -14.5090    67.9590    24.1280    29.0950    20.5680    21.0020     2.5380 
  206.8750   -14.4040    66.3630    24.3410    10.2640    12.3670    12.3860     2.4750 
  207.0000   -14.3780    69.0950    24.6420     6.2460     8.7260     8.5620     2.4150 
  207.1250   -14.3930    77.0730    24.8800     6.3330     7.4850     7.2580     2.3920 
  207.2500   -14.5270    88.7510    24.9990     7.0040     7.3370     7.1020     2.3960 
  207.3750   -14.6930    98.6860    24.9880     7.7920     7.9310     7.7270     2.4090 
  207.5000   -14.8660   101.8590    24.7750     8.6150     8.9380     8.7840     2.4240 
  207.6250   -15.0730   101.1980    24.2780     9.0160     9.9140     9.8100     2.4330 
  207.7500   -15.2770   102.3850    24.0510     9.1550    10.5110    10.4370     2.4340 
  207.8750   -15.4680   105.2480    23.9800     9.1150    10.6510    10.5840     2.4290 
  208.0000   -15.6830   106.9150    23.9670     8.9990    10.4390    10.3610     2.4220 
  208.1250   -15.8450   108.0890    23.9560     8.8740    10.0250     9.9260     2.4240 
