~V
VERS. 2.00: Ver 2.00
~W
STRT.M 62.0000:
STOP.M 256.0000:
STEP.M 0.1250:
NULL. -999.2500:
UWI. DF32087:
~C
DEPT.M :
SP.MV :
GR.API :
RML.OHMM :
RI. :
RXO.OHMM :
CALI.CM :
DEN.GM/CC :
~A
# ...
   95.7500   -32.7040    55.9060     9.8460     7.9960     9.0930    23.4920     2.1890 
   95.8750   -32.6450    57.3400     9.7760     7.9330     8.9480    23.5480     2.1850 
   96.0000   -32.6250    58.9590     9.7030     7.8770     8.9680    23.6280     2.1830 
   96.1250   -32.5360    59.5010     9.6300     7.8300     9.1220    23.7130     2.1850 
   96.2500   -32.5300    60.1260     9.5570     7.7900     9.2310    23.7630     2.1890 
   96.3750   -32.4780    60.2050     9.4840     7.7550     9.2840    23.7750     2.1940 
   96.5000   -32.4910    59.2220     9.4140     7.7230     9.3220    23.8030     2.1970 
   96.6250   -32.4390    57.6370     9.3590     7.6960     9.2020    23.8140     2.1980 
   96.7500   -32.3440    56.5570     9.3290     7.6800     9.0940    23.7840     2.1940 
   96.8750   -32.2680    57.2220     9.3340     7.6830     9.1460    23.7870     2.1860 
   97.0000   -32.1240    58.8470     9.3690     7.7020     9.2070    23.8670     2.1770 
   97.1250   -31.9950    59.8110     9.3970     7.7140     9.0610    23.9380     2.1690 
   97.2500   -31.7920    60.2150     9.3520     7.6730     8.9020    23.9480     2.1650 
   97.3750   -31.5020    61.8450     9.1680     7.5320     8.8460    23.9030     2.1670 
   97.5000   -31.1840    64.4700     8.8180     7.2630     8.8640    23.8520     2.1730 
   97.6250   -30.8230    65.9300     8.3360     6.8780     8.6550    23.8680     2.1820 
   97.7500   -30.5620    67.0420     7.8690     6.4790     7.8410    23.9840     2.1930 
   97.8750   -30.3510    69.2190     7.5410     6.1570     6.7030    24.1640     2.2020 
   98.0000   -30.2140    70.7020     7.4250     5.9790     6.2430    24.3450     2.2070 
   98.1250   -30.0870    67.0340     7.5360     5.9820     6.7650    24.3120     2.2050 
   98.2500   -29.9030    62.4870     7.7420     6.0890     7.4770    24.2290     2.2010 
   98.3750   -29.7820    61.4100     7.9320     6.2340     8.5580    24.1790     2.2000 
   98.5000   -29.5670    63.1420     8.0320     6.3580     9.0940    24.1840     2.2090 
   98.6250   -29.4450    63.6630     8.0250     6.4370     8.4720    24.2390     2.2290 
   98.7500   -29.2190    60.4630     7.9950     6.5000     7.7750    24.2910     2.2530 
   98.8750   -28.9610    55.7930     8.0090     6.5820     7.5230    24.2980     2.2750 
   99.0000   -28.6030    53.8640     8.0960     6.7040     8.0580    24.1780     2.2870 
   99.1250   -28.2260    56.2300     8.2530     6.8750     8.7480    23.8250     2.2860 
   99.2500   -27.8950    60.7070     8.4450     7.0790     8.9860    23.4490     2.2760 
   99.3750   -27.5320    64.9720     8.6540     7.3050     8.8190    23.2030     2.2600 
   99.5000   -27.1440    67.6840     8.8550     7.5250     8.6650    23.1050     2.2440 
   99.6250   -26.5610    65.6490     8.9540     7.6600     9.0810    23.1600     2.2380 
   99.7500   -25.8870    61.7900     8.8480     7.6220     9.2330    23.3800     2.2510 
   99.8750   -25.0980    61.0790     8.4520     7.3340     9.2540    23.8060     2.2830 
  100.0000   -24.3060    64.1740     7.7700     6.7890     8.8860    24.3520     2.3260 
  100.1250   -23.5230    72.3250     6.9300     6.0590     7.4260    24.7080     2.3600 
  100.2500   -22.8040    85.2580     6.1820     5.3420     5.6170    25.0030     2.3720 
  100.3750   -22.1500    97.6490     5.6750     4.7720     4.7800    25.2210     2.3590 
  100.5000   -21.6390   103.2760     5.4490     4.4150     4.6480    25.3580     2.3320 
  100.6250   -21.3240    99.8950     5.4570     4.2810     4.7450    25.4070     2.3060 
  100.7500   -21.1810    93.6630     5.5350     4.2660     4.9530    25.4000     2.2910 
  100.8750   -21.1380    87.3660     5.6060     4.3120     5.3410    25.3060     2.2870 
  101.0000   -21.2360    84.0950     5.6860     4.4170     5.8020    25.1950     2.2920 
  101.1250   -21.3550    86.9360     5.9480     4.6880     5.2980    25.1620     2.3050 
  101.2500   -21.5170    89.6320     6.5490     5.2280     5.1190    25.1720     2.3310 
  101.3750   -21.7100    88.1860     7.5440     6.0880     6.1230    25.1180     2.3760 
  101.5000   -21.8950    83.1190     8.8050     7.1900     8.7910    25.0070     2.4390 
  101.6250   -22.2110    76.8080     9.9490     8.2560    12.3890    24.8830     2.5030 
  101.7500   -22.4990    73.1010    10.5530     8.9290    13.9600    24.8470     2.5370 
  101.8750   -22.8970    73.7160    10.3970     8.9900    13.0560    24.8610     2.5250 
  102.0000   -23.2620    78.1550     9.5930     8.4630    10.3550    24.8660     2.4700 
  102.1250   -23.6620    80.9170     8.5740     7.6100     8.1870    24.8360     2.3940 
  102.2500   -24.0490    79.5630     7.7830     6.8310     7.5590    24.8270     2.3240 
  102.3750   -24.3910    77.9850     7.3300     6.2810     7.2020    24.8370     2.2700 
  102.5000   -24.7030    80.5090     7.1520     5.9730     6.6720    24.8310     2.2350 
  102.6250   -24.8000    85.9700     7.1350     5.8560     6.5670    24.7060     2.2190 
  102.7500   -24.8950    89.5610     7.1440     5.8180     6.6670    24.5220     2.2130 
  102.8750   -24.9120    90.6320     7.1420     5.8140     6.6490    24.3790     2.2120 
  103.0000   -24.9410    89.0170     7.1480     5.8360     6.2080    24.3160     2.2110 
  103.1250   -24.9600    85.6900     7.2260     5.9130     6.0320    24.2920     2.2050 
  103.2500   -24.9220    83.8100     7.3890     6.0470     6.1390    24.2790     2.1940 
  103.3750   -24.8570    84.0130     7.6080     6.2200     6.5680    24.1180     2.1810 
  103.5000   -24.7450    82.7960     7.8150     6.3820     7.0620    23.8060     2.1710 
  103.6250   -24.5960    78.5810     7.8940     6.4500     7.2450    23.5940     2.1720 
  103.7500   -24.3940    74.5140     7.7970     6.3800     7.0850    23.5050     2.1840 
  103.8750   -24.0690    73.7060     7.5250     6.1670     6.8760    23.4720     2.2040 
  104.0000   -23.6770    76.8550     7.1350     5.8440     6.4740    23.5290     2.2260 
  104.1250   -23.1690    81.9700     6.7230     5.4790     5.8020    23.8310     2.2400 
  104.2500   -22.7040    85.4750     6.3910     5.1580     5.4200    24.2840     2.2410 
  104.3750   -22.2250    85.3580     6.2130     4.9450     5.3690    24.5760     2.2310 
  104.5000   -21.8280    84.1300     6.2510     4.8980     5.6600    24.6160     2.2200 
  104.6250   -21.5440    84.3710     6.5790     5.0860     5.9540    24.5870     2.2230 
  104.7500   -21.2570    85.4160     7.1010     5.4510     6.1050    24.6370     2.2460 
  104.8750   -21.0980    84.5270     7.6780     5.8990     6.8280    24.7320     2.2870 
  105.0000   -20.9430    81.3360     8.1150     6.2890     8.5370    24.7570     2.3310 
  105.1250   -20.9120    80.2640     8.1660     6.4320    10.8310    24.5440     2.3540 
  105.2500   -20.8390    83.0500     7.8520     6.3030     9.1680    24.2200     2.3490 
  105.3750   -20.8890    88.9580     7.3250     5.9700     6.9150    23.9660     2.3250 
  105.5000   -20.9060    94.7810     6.8210     5.5790     5.7290    23.8260     2.2960 
  105.6250   -20.9400    95.8440     6.5620     5.3010     5.4570    23.7720     2.2740 
  105.7500   -20.9890    93.8010     6.5390     5.1860     5.5670    23.7690     2.2580 
  105.8750   -20.9780    91.1260     6.6630     5.2060     5.6840    23.7390     2.2460 
  106.0000   -20.9610    89.5870     6.8090     5.2860     5.6540    23.7220     2.2380 
  106.1250   -20.8540    90.3320     6.8470     5.3310     5.6290    23.7630     2.2400 
  106.2500   -20.7170    92.5200     6.7690     5.3070     5.7480    23.8980     2.2540 
  106.3750   -20.4840    94.4770     6.6260     5.2300     6.0430    24.1560     2.2780 
  106.5000   -20.3080    95.1530     6.4850     5.1390     5.9790    24.5450     2.3050 
  106.6250   -20.1450    94.8810     6.4070     5.0760     5.6060    24.8550     2.3230 
  106.7500   -20.0330    93.3240     6.3890     5.0510     5.6170    24.9790     2.3280 
  106.8750   -20.0090    92.1840     6.4150     5.0600     5.7810    24.9330     2.3230 
