~V
VERS. 2.00: Ver 2.00
~W
STRT.M 62.0000:
STOP.M 272.0000:
STEP.M 0.1250:
NULL. -999.2500:
UWI. DF32143:
~C
DEPT.M :
SP.MV :
GR.API :
CALI.CM :
RXO.OHMM :
RI. :
RML.OHMM :
DEN.GM/CC :
~A
# ...
   84.5000   -18.6900    90.1820    25.5050     4.2570     4.1920     5.8910     2.3360 
   84.6250   -19.2050    84.0320    25.6580     6.2940     4.8950     7.3460     2.4130 
   84.7500   -20.0470    76.3380    25.5960    10.8550     6.0030     9.4610     2.4870 
   84.8750   -21.1670    69.8730    25.3740    15.5470     7.3980    11.8860     2.5210 
   85.0000   -22.5070    65.8410    25.1380    16.4750     8.7250    13.8180     2.4940 
   85.1250   -23.9550    62.6220    25.1020    13.2680     9.3530    14.1090     2.4110 
   85.2500   -25.3610    59.0390    25.0920    10.6750     9.2280    13.1030     2.3150 
   85.3750   -26.6440    57.1980    24.9500    10.0170     8.6610    11.6680     2.2310 
   85.5000   -27.7040    59.5260    24.7370    10.1410     8.0380    10.5110     2.1740 
   85.6250   -28.4530    65.2320    24.6600     9.9550     7.5970     9.9310     2.1480 
   85.7500   -28.9530    68.0000    24.6970     9.4800     7.3190     9.7020     2.1370 
   85.8750   -29.2520    66.7690    24.6460     9.0330     7.1440     9.6460     2.1310 
   86.0000   -29.4070    67.4480    24.6200     8.7710     7.0260     9.6490     2.1310 
   86.1250   -29.4900    71.6240    24.9260     8.5460     6.9490     9.6660     2.1380 
   86.2500   -29.5700    72.4410    25.1420     8.2850     6.9040     9.6970     2.1430 
   86.3750   -29.6910    68.7060    24.8820     8.1870     6.8910     9.7560     2.1400 
   86.5000   -29.8850    65.7240    24.2770     8.3920     6.9040     9.8400     2.1330 
   86.6250   -30.1390    65.9300    24.0780     8.7720     6.9330     9.9320     2.1330 
   86.7500   -30.4120    65.8390    24.4460     9.1250     6.9660    10.0220     2.1390 
   86.8750   -30.6930    64.7220    24.7840     9.4490     6.9980    10.1060     2.1450 
   87.0000   -30.9540    62.9550    24.8000     9.7490     7.0270    10.1840     2.1510 
   87.1250   -31.1440    61.1810    24.6810    10.0060     7.0540    10.2540     2.1570 
   87.2500   -31.2660    60.5950    24.6920    10.2440     7.0810    10.3120     2.1560 
   87.3750   -31.3150    61.9370    24.7560    10.3850     7.1000    10.3450     2.1450 
   87.5000   -31.2910    64.2390    24.6400    10.2570     7.1070    10.3460     2.1340 
   87.6250   -31.2150    65.7230    24.3840     9.8390     7.1030    10.3310     2.1400 
   87.7500   -31.1200    65.8860    24.1190     9.4440     7.1030    10.3360     2.1610 
   87.8750   -31.0060    64.9310    23.8870     9.2170     7.1150    10.3790     2.1790 
   88.0000   -30.8900    63.3850    23.6940     9.0910     7.1400    10.4590     2.1760 
   88.1250   -30.7730    63.2350    23.4630     8.9640     7.1640    10.5320     2.1550 
   88.2500   -30.6370    65.0140    23.2130     8.7860     7.1530    10.5240     2.1390 
   88.3750   -30.4410    67.4750    22.9760     8.5100     7.0790    10.3670     2.1360 
   88.5000   -30.1580    69.4010    22.7260     8.1160     6.9340    10.0410     2.1400 
   88.6250   -29.7130    70.2360    22.4650     7.6650     6.7410     9.5980     2.1480 
   88.7500   -29.0870    69.4260    22.2300     7.2900     6.5540     9.1790     2.1540 
   88.8750   -28.2670    69.0790    22.0550     7.1010     6.4070     8.8850     2.1500 
   89.0000   -27.2260    72.3670    21.9700     7.1420     6.3260     8.7780     2.1290 
   89.1250   -25.9990    75.9460    21.9940     7.3260     6.3260     8.8740     2.1130 
   89.2500   -24.7420    74.8830    22.0490     7.4950     6.3630     9.0300     2.1360 
   89.3750   -23.5790    73.5760    22.0900     7.6690     6.3830     9.1120     2.2050 
   89.5000   -22.6040    78.4320    22.1510     7.8380     6.3290     9.0080     2.2920 
   89.6250   -21.9280    85.5950    22.2770     7.7250     6.1460     8.6330     2.3370 
   89.7500   -21.5060    86.4980    22.4110     7.2570     5.8730     8.0900     2.3220 
   89.8750   -21.3220    82.7340    22.5040     6.6700     5.5670     7.5090     2.2680 
   90.0000   -21.3840    78.4930    22.5700     6.2200     5.3020     7.0300     2.2180 
   90.1250   -21.6400    75.7770    22.6640     5.9450     5.1730     6.8220     2.1990 
   90.2500   -21.9280    76.4600    22.7950     5.7350     5.2090     6.9070     2.1950 
   90.3750   -22.1100    78.9810    22.9420     5.6530     5.4050     7.2320     2.1920 
   90.5000   -22.0820    79.2370    23.0890     5.8690     5.6970     7.6420     2.1850 
   90.6250   -21.7450    76.7360    23.2510     6.3880     5.9450     7.8690     2.1840 
   90.7500   -21.2180    77.4890    23.4180     6.6780     6.0170     7.7650     2.1960 
   90.8750   -20.6140    82.7070    23.5460     6.3520     5.8620     7.3230     2.2190 
   91.0000   -20.0230    87.4620    23.5960     5.5750     5.5220     6.6760     2.2490 
   91.1250   -19.5770    87.3740    23.7040     4.9460     5.1040     6.0280     2.2720 
   91.2500   -19.3250    84.6390    24.0630     4.7250     4.7310     5.5280     2.2860 
   91.3750   -19.3170    81.9570    24.5870     4.7680     4.4590     5.2340     2.2930 
   91.5000   -19.6220    83.0070    24.9920     4.8100     4.3090     5.1500     2.2930 
   91.6250   -20.2860    86.1260    25.0710     4.6950     4.2840     5.2520     2.2800 
   91.7500   -21.1080    87.2270    24.9920     4.6490     4.3390     5.4510     2.2640 
   91.8750   -21.9270    85.3230    24.8740     4.9010     4.4540     5.6980     2.2590 
   92.0000   -22.6190    83.5180    24.7260     5.3510     4.6000     5.9460     2.2670 
   92.1250   -23.0760    84.7600    24.6020     5.5750     4.7280     6.1290     2.2750 
   92.2500   -23.3140    86.7750    24.5440     5.4880     4.7960     6.2030     2.2740 
   92.3750   -23.3400    87.8270    24.5490     5.3010     4.7770     6.1390     2.2700 
   92.5000   -23.1360    87.7750    24.5920     5.1710     4.6720     5.9300     2.2760 
   92.6250   -22.6970    87.8900    24.6630     5.1380     4.4970     5.6020     2.2890 
   92.7500   -22.1800    90.3380    24.7410     5.1770     4.3180     5.2670     2.2970 
   92.8750   -21.6880    93.1050    24.7840     5.2110     4.2060     5.0610     2.2970 
   93.0000   -21.3060    91.9220    24.8000     5.1640     4.2530     5.1590     2.3010 
   93.1250   -21.0830    85.0220    24.8610     5.2900     4.6390     5.8730     2.3330 
   93.2500   -21.0280    78.3970    24.9350     6.3280     5.4500     7.3150     2.3990 
   93.3750   -21.1490    74.5660    24.9360     9.2640     6.7660     9.5580     2.4810 
   93.5000   -21.4770    71.9940    24.8740    14.3310     8.5240    12.4090     2.5440 
   93.6250   -22.0650    70.5530    24.8390    18.3200    10.2240    14.8700     2.5530 
   93.7500   -22.8310    71.0950    24.8110    17.8140    11.0220    15.5760     2.5280 
   93.8750   -23.7070    72.0830    24.7230    13.8880    10.5500    14.1980     2.4840 
   94.0000   -24.6390    71.4720    24.5060    10.0850     9.2120    11.7540     2.4200 
   94.1250   -25.6140    69.5980    24.1470     8.2600     7.7590     9.5920     2.3340 
   94.2500   -26.6130    69.6710    23.8080     7.4340     6.6420     8.1860     2.2540 
   94.3750   -27.6230    72.2920    23.6140     7.0470     5.9420     7.5030     2.2030 
   94.5000   -28.5920    74.6000    23.5500     7.0100     5.6270     7.3890     2.1810 
   94.6250   -29.4650    74.7880    23.4720     7.5550     5.6700     7.7210     2.1770 
   94.7500   -30.2390    74.5790    23.3430     8.5210     5.9310     8.2670     2.1810 
   94.8750   -30.9250    73.8090    23.2170     9.4420     6.3150     8.8750     2.1930 
   95.0000   -31.5150    71.9820    23.1330     9.8240     6.7140     9.4010     2.2130 
   95.1250   -31.9400    69.5490    23.1160     9.5390     7.0150     9.7200     2.2280 
   95.2500   -32.1620    67.6100    23.1620     9.3900     7.1960     9.8710     2.2240 
   95.3750   -32.1460    66.4260    23.2770    10.2780     7.2840     9.9390     2.1990 
   95.5000   -31.8320    65.0920    23.4400    12.2870     7.3310    10.0140     2.1650 
   95.6250   -31.1220    64.8010    23.5640    13.3890     7.3450    10.0820     2.1400 
