~V
VERS. 2.00: Ver 2.00
~W
STRT.M 61.0000:
STOP.M 238.0000:
STEP.M 0.1250:
NULL. -999.2500:
UWI. DF32044:
~C
DEPT.M :
DEN.GM/CC :
SP.MV :
GR.API :
RML.OHMM :
RI. :
RXO.OHMM :
CALI.CM :
~A
# ...
  117.2500     2.3070   -25.0030    81.4590     6.0040     5.0850     5.6580    24.9630 
  117.3750     2.3240   -25.1040    78.9060     5.6940     4.8910     5.4610    24.9590 
  117.5000     2.3370   -25.2620    80.5700     5.2500     4.6300     5.2290    24.9530 
  117.6250     2.3420   -25.3840    83.1690     4.8360     4.3900     5.0620    24.9530 
  117.7500     2.3420   -25.6770    81.3800     4.6690     4.3000     5.0280    24.9550 
  117.8750     2.3410   -26.2270    77.5750     4.9480     4.4930     5.1360    24.9600 
  118.0000     2.3470   -26.8000    76.9700     5.8030     5.0720     5.3990    24.9470 
  118.1250     2.3690   -27.5040    78.0630     7.2890     6.1120     6.3160    24.9030 
  118.2500     2.3950   -28.4850    75.9560     9.0330     7.3980     8.9770    24.8290 
  118.3750     2.4080   -29.4980    70.1550    10.5950     8.6610    13.9790    24.7500 
  118.5000     2.3950   -30.4560    64.5700    11.5190     9.5860    18.3600    24.6670 
  118.6250     2.3480   -31.5180    62.4910    11.4590     9.8710    16.1390    24.6240 
  118.7500     2.2900   -32.4520    61.1660    10.8710     9.6980    12.2320    24.6550 
  118.8750     2.2370   -33.1530    59.4900    10.2500     9.3500    10.4600    24.7300 
  119.0000     2.2000   -33.7950    58.1160     9.9380     9.0930    10.4700    24.8130 
  119.1250     2.1770   -34.2040    57.6380    10.0450     9.0810    10.8440    24.9320 
  119.2500     2.1610   -34.4050    57.9200    10.3490     9.2190    11.0080    25.0700 
  119.3750     2.1470   -34.4920    58.1230    10.6560     9.3770    11.0320    25.2150 
  119.5000     2.1390   -34.4120    58.8520    10.8220     9.4390    11.0210    25.3660 
  119.6250     2.1380   -34.1540    60.4270    10.7520     9.3190    10.7970    25.3440 
  119.7500     2.1420   -33.9390    61.7840    10.4890     9.0500    10.2250    25.2200 
  119.8750     2.1460   -33.6230    61.9890    10.0610     8.6700     9.5910    24.9300 
  120.0000     2.1430   -33.1660    60.2920     9.4950     8.2220     9.2520    24.6250 
  120.1250     2.1350   -32.7850    57.9890     8.8400     7.7600     9.0880    24.4710 
  120.2500     2.1310   -32.3060    58.1870     8.2410     7.3680     8.6880    24.3950 
  120.3750     2.1400   -31.7030    63.3630     7.9170     7.1740     7.9600    24.3290 
  120.5000     2.1680   -31.1640    70.9200     8.1680     7.3690     7.5140    24.2290 
  120.6250     2.2210   -30.6210    74.0350     9.3760     8.2430     8.1440    24.1040 
  120.7500     2.2930   -29.8980    72.7760    11.3030     9.6830     9.6770    23.9700 
  120.8750     2.3760   -29.1150    69.6080    13.4180    11.3660    12.6110    23.8440 
  121.0000     2.4530   -28.3870    65.9850    14.8760    12.7150    18.7410    23.7890 
  121.1250     2.4920   -27.5530    64.0430    14.4960    12.8580    29.6460    23.8150 
  121.2500     2.4820   -26.6970    66.1730    12.4280    11.7150    31.6210    23.8820 
  121.3750     2.4280   -26.0280    72.1210     9.6120     9.7370    19.1990    23.9270 
  121.5000     2.3590   -25.4330    77.5790     7.2020     7.6930     9.0170    23.9450 
  121.6250     2.3070   -24.8500    80.9720     5.8850     6.2510     5.6310    23.9480 
  121.7500     2.2830   -24.4960    83.7950     5.3910     5.4310     5.0510    23.9470 
  121.8750     2.2820   -24.2930    87.2400     5.4460     5.1050     5.3750    23.9350 
  122.0000     2.2910   -24.0840    91.0100     5.7580     5.0860     5.4120    23.9000 
  122.1250     2.3000   -24.0660    90.8260     6.0160     5.1770     5.2030    23.8390 
  122.2500     2.3080   -24.1090    85.5870     6.0260     5.2010     5.1120    23.7890 
  122.3750     2.3190   -24.1380    79.7590     5.7580     5.1020     5.1420    23.7680 
  122.5000     2.3350   -24.2430    79.1600     5.3000     4.8990     5.1540    23.7880 
  122.6250     2.3520   -24.3790    83.3000     4.8400     4.6830     5.0190    23.8550 
  122.7500     2.3630   -24.4050    84.4560     4.6120     4.6010     4.8730    23.9120 
  122.8750     2.3680   -24.5220    83.5010     4.8290     4.7960     4.8670    23.9410 
  123.0000     2.3720   -24.7190    82.1640     5.6300     5.3720     5.2200    23.9600 
  123.1250     2.3810   -24.7340    77.7090     7.0410     6.3600     6.5190    24.0210 
  123.2500     2.3960   -24.7860    70.8020     8.6170     7.4750     9.7610    24.1570 
  123.3750     2.4070   -24.8660    66.1170     9.8450     8.3780    16.0600    24.3370 
  123.5000     2.4000   -24.8110    66.8360    10.2190     8.7280    22.0980    24.4750 
  123.6250     2.3610   -24.7160    69.3640     9.4280     8.2720    18.1690    24.5310 
  123.7500     2.3010   -24.7680    72.7280     8.1410     7.3760    11.0350    24.5160 
  123.8750     2.2410   -24.8200    78.4550     7.0110     6.4410     6.7760    24.4740 
  124.0000     2.2030   -24.7920    84.7790     6.4010     5.7660     5.2750    24.4080 
  124.1250     2.2000   -24.9180    86.0310     6.3950     5.5090     5.1970    24.3350 
  124.2500     2.2230   -25.0790    84.4310     6.6960     5.5360     5.5250    24.2990 
  124.3750     2.2540   -25.1310    84.9270     7.0790     5.7150     5.8290    24.2750 
  124.5000     2.2810   -25.1890    87.8520     7.3690     5.9220     5.9580    24.2570 
  124.6250     2.2950   -25.3710    87.8560     7.4600     6.0560     5.9780    24.2330 
  124.7500     2.3020   -25.4550    85.8790     7.4250     6.1080     5.9640    24.2240 
  124.8750     2.3050   -25.4740    85.3610     7.3320     6.0990     5.9770    24.2230 
  125.0000     2.3040   -25.5800    84.6810     7.2290     6.0550     6.0570    24.2250 
  125.1250     2.2970   -25.5580    82.2120     7.1280     5.9900     6.1030    24.2230 
  125.2500     2.2860   -25.5340    81.2470     7.0190     5.9080     6.1310    24.2180 
  125.3750     2.2710   -25.6060    82.9130     6.8880     5.8030     6.4340    24.1950 
  125.5000     2.2550   -25.6100    83.1380     6.7310     5.6750     7.1830    24.1380 
  125.6250     2.2410   -25.5160    80.4050     6.5630     5.5370     7.9330    24.0900 
  125.7500     2.2380   -25.4450    80.1230     6.4340     5.4210     8.0150    24.1040 
  125.8750     2.2520   -25.2880    82.6430     6.3820     5.3520     7.4510    24.1860 
  126.0000     2.2870   -25.0550    84.3720     6.4110     5.3360     6.8700    24.2480 
  126.1250     2.3380   -24.9770    82.8650     6.4700     5.3440     7.0510    24.2570 
  126.2500     2.3870   -24.8260    83.3290     6.4730     5.3240     8.0760    24.2910 
  126.3750     2.4150   -24.5650    89.7100     6.3800     5.2440     8.8940    24.3600 
  126.5000     2.4160   -24.4510    97.9160     6.2080     5.0980     8.0600    24.4230 
  126.6250     2.3900   -24.4310   100.3050     6.0460     4.9210     6.1800    24.4660 
  126.7500     2.3540   -24.3190    96.3430     5.9640     4.7730     5.1010    24.4790 
  126.8750     2.3180   -24.2680    90.0820     5.9580     4.6940     5.0330    24.4690 
  127.0000     2.2880   -24.3160    85.1790     5.9910     4.7010     5.3770    24.4330 
  127.1250     2.2670   -24.2540    83.9270     6.0300     4.8010     5.5010    24.3480 
  127.2500     2.2530   -24.2060    84.8090     6.0850     4.9620     5.4520    24.1670 
  127.3750     2.2450   -24.3010    85.3940     6.2000     5.1630     5.4890    23.8310 
  127.5000     2.2430   -24.3650    85.7370     6.4040     5.3880     5.7740    23.4430 
  127.6250     2.2500   -24.2740    84.7230     6.6770     5.6150     6.1450    23.3790 
  127.7500     2.2640   -24.2980    82.0880     6.9250     5.8060     6.3050    23.7110 
  127.8750     2.2850   -24.3450    79.5970     7.0640     5.9200     6.2750    24.1980 
  128.0000     2.3100   -24.2610    79.1360     7.0260     5.9180     6.1990    24.5030 
  128.1250     2.3320   -24.2740    79.2980     6.7520     5.7530     6.1860    24.5800 
  128.2500     2.3410   -24.2770    79.2090     6.3120     5.4630     6.0890    24.6050 
  128.3750     2.3320   -24.1420    81.3590     5.7830     5.0920     5.7060    24.6340 
