~V
VERS. 2.00: Ver 2.00
~W
STRT.M 61.0000:
STOP.M 238.0000:
STEP.M 0.1250:
NULL. -999.2500:
UWI. DF32044:
~C
DEPT.M :
DEN.GM/CC :
SP.MV :
GR.API :
RML.OHMM :
RI. :
RXO.OHMM :
CALI.CM :
~A
# ...
  207.2500     2.2950   -24.9660    65.1490    40.0370    38.3990    44.3480    25.1090 
  207.3750     2.3280   -24.4660    65.5950    40.7190    39.3170    51.4910    25.0870 
  207.5000     2.3780   -23.9500    65.0280    40.4510    39.5100    64.9570    25.0360 
  207.6250     2.4210   -23.4540    63.9350    38.6010    38.2480    66.5250    25.0110 
  207.7500     2.4420   -22.9310    64.1220    35.7490    35.8890    51.1960    25.0030 
  207.8750     2.4400   -22.3620    64.7480    32.6020    33.0210    36.7150    24.9950 
  208.0000     2.4310   -21.9050    63.6480    29.7400    30.2300    30.5160    24.9730 
  208.1250     2.4270   -21.5670    60.9620    27.4430    27.8850    30.9690    24.9300 
  208.2500     2.4260   -21.1670    59.0800    25.4670    25.8600    31.6850    24.9120 
  208.3750     2.4160   -20.8040    59.4460    23.5900    23.9730    29.2770    24.9090 
  208.5000     2.3930   -20.6240    61.9700    21.7070    22.1120    25.7860    24.9080 
  208.6250     2.3590   -20.4640    63.6810    19.9620    20.3670    23.6020    24.9020 
  208.7500     2.3280   -20.2700    65.0080    18.5970    18.9310    21.4890    24.9010 
  208.8750     2.3050   -20.2130    66.8650    17.7880    17.9670    19.0250    24.9040 
  209.0000     2.2900   -20.2030    68.4340    17.5450    17.5090    17.3120    24.9050 
  209.1250     2.2830   -20.0270    68.1900    17.7380    17.4920    18.3440    24.9060 
  209.2500     2.2820   -19.9490    66.4740    18.0340    17.6410    21.5000    24.9050 
  209.3750     2.2860   -19.9810    64.9130    18.2580    17.7900    23.6730    24.8900 
  209.5000     2.2920   -19.8850    65.1050    18.3650    17.8560    21.9410    24.8580 
  209.6250     2.2960   -19.6520    66.9950    18.4580    17.8570    18.5220    24.8430 
  209.7500     2.2950   -19.5220    67.0060    18.6810    17.8980    17.2920    24.8340 
  209.8750     2.2890   -19.3830    63.6830    19.0890    18.0540    18.5340    24.8130 
  210.0000     2.2790   -19.1280    60.1900    19.6560    18.3470    20.8370    24.7900 
  210.1250     2.2680   -18.9070    60.4870    20.3500    18.7950    22.1770    24.8000 
  210.2500     2.2610   -18.7500    62.6420    21.1790    19.3930    22.4700    24.8320 
  210.3750     2.2610   -18.5880    64.4380    22.2410    20.2020    22.6370    24.8290 
  210.5000     2.2710   -18.4200    64.9490    23.6460    21.2940    23.3400    24.8210 
  210.6250     2.2860   -18.3360    63.1500    25.4660    22.7390    26.2750    24.8300 
  210.7500     2.2970   -18.3140    59.1770    27.4790    24.3760    31.8560    24.8070 
  210.8750     2.3040   -18.2630    55.3680    29.4140    26.0010    37.0610    24.6760 
  211.0000     2.3070   -18.2620    54.3080    31.0200    27.3960    37.8610    24.4000 
  211.1250     2.3020   -18.4220    56.2400    32.1240    28.3710    36.6690    24.1590 
  211.2500     2.2880   -18.4840    57.9050    32.8910    29.0200    36.9030    24.1760 
  211.3750     2.2630   -18.4370    57.6310    33.4330    29.4330    37.1860    24.4880 
  211.5000     2.2330   -18.5120    55.9850    33.7400    29.6330    36.5240    24.8910 
  211.6250     2.2130   -18.6020    56.6910    33.5220    29.4080    36.3930    25.0640 
  211.7500     2.2180   -18.5030    60.6840    32.4530    28.5240    36.8850    25.0930 
  211.8750     2.2500   -18.4130    64.9410    30.2880    26.7360    35.3840    25.0650 
  212.0000     2.3010   -18.2920    66.4890    26.9580    23.9900    31.2850    25.0040 
  212.1250     2.3500   -17.9750    67.4490    22.8570    20.4850    26.8100    24.9300 
  212.2500     2.3770   -17.7150    71.0620    18.7000    16.9090    22.2080    24.8640 
  212.3750     2.3810   -17.5020    74.8100    15.1250    13.7680    16.6250    24.8030 
  212.5000     2.3730   -17.1260    75.4830    12.7640    11.3880    11.5610    24.6990 
  212.6250     2.3700   -16.7020    73.0460    11.6070    10.0230     9.2120    24.4670 
  212.7500     2.3800   -16.4370    71.0280    11.2930     9.4530     9.1280    24.1070 
  212.8750     2.3950   -16.1530    69.6790    11.6150     9.5140    10.8100    23.8270 
  213.0000     2.4040   -15.8390    66.3650    12.2900     9.9780    13.1750    23.8520 
  213.1250     2.3990   -15.6230    60.9420    12.9530    10.5590    13.6550    24.2130 
  213.2500     2.3850   -15.4270    57.6750    13.3020    10.9570    12.1890    24.5850 
  213.3750     2.3690   -15.2160    59.4560    13.2230    11.0350    10.4310    24.7420 
  213.5000     2.3590   -15.0390    64.5330    12.7770    10.7970     9.2710    24.6760 
  213.6250     2.3600   -14.9440    67.7560    12.1350    10.3390     8.4870    24.3920 
  213.7500     2.3700   -14.8500    65.9740    11.5280     9.8420     7.9090    24.0090 
  213.8750     2.3880   -14.7090    59.6220    11.0630     9.3950     7.6050    23.6340 
  214.0000     2.4090   -14.6360    54.9170    10.7720     9.0340     7.3350    23.4160 
  214.1250     2.4300   -14.6530    57.7970    10.6390     8.7660     7.1360    23.4590 
  214.2500     2.4430   -14.5780    62.1350    10.5660     8.5440     7.5450    23.6530 
  214.3750     2.4470   -14.4760    62.4730    10.4880     8.3300     9.1000    23.9770 
  214.5000     2.4400   -14.5080    60.0080    10.3590     8.0930    11.5410    24.3560 
  214.6250     2.4260   -14.5750    59.0590    10.1470     7.8130    12.5330    24.5500 
  214.7500     2.4120   -14.4840    59.2900     9.8790     7.5100    10.9620    24.6090 
  214.8750     2.4020   -14.4420    60.1320     9.5970     7.2200     8.5380    24.6230 
  215.0000     2.3970   -14.4960    62.2740     9.3650     6.9890     7.0560    24.6520 
  215.1250     2.3980   -14.3840    62.7920     9.2680     6.8790     6.8920    24.7050 
  215.2500     2.4000   -14.3130    61.0170     9.3160     6.8910     7.1770    24.7300 
  215.3750     2.4010   -14.3460    59.5170     9.4860     7.0080     7.6630    24.7280 
  215.5000     2.4020   -14.2520    60.0960     9.7140     7.1880     8.6170    24.7080 
  215.6250     2.4060   -14.0290    60.6590     9.9120     7.3680     9.6490    24.6670 
  215.7500     2.4120   -13.9800    59.3980    10.0160     7.4920     9.6510    24.6370 
  215.8750     2.4210   -13.9590    57.9450    10.0080     7.5350     8.7290    24.6250 
  216.0000     2.4330   -13.8000    58.3390     9.9050     7.4940     8.1250    24.6230 
  216.1250     2.4420   -13.6930    62.1630     9.7410     7.3760     8.2780    24.6220 
  216.2500     2.4480   -13.6410    65.2950     9.5660     7.2270     8.2580    24.6220 
  216.3750     2.4500   -13.5800    63.7200     9.4040     7.0780     7.8400    24.6220 
  216.5000     2.4510   -13.5310    58.0810     9.2730     6.9600     7.5380    24.6220 
  216.6250     2.4510   -13.4770    54.0560     9.2110     6.9170     7.5900    24.6220 
  216.7500     2.4530   -13.4280    53.1800     9.2570     6.9610     7.5570    24.6220 
  216.8750     2.4570   -13.4290    53.5630     9.4460     7.1010     7.3210    24.6220 
  217.0000     2.4610   -13.4580    54.3750     9.7810     7.3240     7.0390    24.6200 
  217.1250     2.4620   -13.4640    57.1440    10.2200     7.5990     6.9970    24.5950 
  217.2500     2.4550   -13.5040    61.4160    10.6430     7.8630     7.3240    24.5220 
  217.3750     2.4410   -13.5250    67.7420    10.9500     8.0650     8.0630    24.3940 
  217.5000     2.4210   -13.5560    73.8800    11.0780     8.1720     9.1380    24.2180 
  217.6250     2.4000   -13.7300    74.4890    11.0020     8.1590    10.1850    24.1310 
  217.7500     2.3880   -13.8240    70.5630    10.8220     8.0730    10.7500    24.1390 
  217.8750     2.3860   -13.7680    66.6750    10.6200     7.9600    10.7670    24.1840 
  218.0000     2.3960   -13.8060    65.7810    10.4810     7.8750    10.5600    24.1960 
  218.1250     2.4110   -13.9130    65.7690    10.5210     7.9080    10.3510    24.2120 
  218.2500     2.4240   -13.8180    64.1490    10.7960     8.1210    10.1520    24.3270 
  218.3750     2.4330   -13.7280    61.5350    11.3590     8.5680    10.1710    24.4050 
