~V
VERS. 2.00: Ver 2.00
~W
STRT.M 61.0000:
STOP.M 238.0000:
STEP.M 0.1250:
NULL. -999.2500:
UWI. DF32044:
~C
DEPT.M :
DEN.GM/CC :
SP.MV :
GR.API :
RML.OHMM :
RI. :
RXO.OHMM :
CALI.CM :
~A
# ...
   83.5000     2.2140   -44.7260    61.8920    10.2730     8.3150    10.1660    23.9590 
   83.6250     2.2310   -45.2030    60.3570    10.2660     8.2990    10.2930    23.9650 
   83.7500     2.2330   -45.6540    59.8150    10.1620     8.2160    10.2950    23.9680 
   83.8750     2.2200   -45.8540    61.2480     9.9820     8.0850    10.1210    23.9440 
   84.0000     2.2000   -45.6790    62.9470     9.7870     7.9420     9.8730    23.8650 
   84.1250     2.1820   -45.3460    62.5110     9.6690     7.8370     9.7380    23.7540 
   84.2500     2.1720   -44.9130    60.1350     9.6600     7.7880     9.7430    23.6630 
   84.3750     2.1700   -44.3420    56.8680     9.7520     7.7950     9.8390    23.6770 
   84.5000     2.1760   -43.7620    54.6370     9.9040     7.8400     9.9520    23.7940 
   84.6250     2.1880   -43.1290    55.2860    10.0570     7.8960    10.0580    23.8310 
   84.7500     2.2000   -42.4010    56.3800    10.1640     7.9370    10.1710    23.8610 
   84.8750     2.2070   -41.9300    56.9190    10.1990     7.9480    10.4860    23.8710 
   85.0000     2.2070   -41.7780    56.7750    10.1580     7.9270    11.2550    23.8670 
   85.1250     2.1990   -41.6500    57.2700    10.0470     7.8770    11.7100    23.7940 
   85.2500     2.1910   -41.5590    58.7470     9.9160     7.8180    10.9530    23.6000 
   85.3750     2.1850   -41.5400    61.4280     9.8130     7.7650     9.6320    23.3580 
   85.5000     2.1840   -41.4790    65.1810     9.7690     7.7300     8.8390    23.1750 
   85.6250     2.1860   -41.3310    67.4940     9.7950     7.7210     8.8180    23.1050 
   85.7500     2.1880   -41.3120    67.6440     9.8470     7.7300     8.9480    23.1000 
   85.8750     2.1880   -41.2960    65.5950     9.8790     7.7420     9.0960    23.1230 
   86.0000     2.1870   -41.0830    61.5620     9.8550     7.7370     9.2390    23.1760 
   86.1250     2.1850   -40.8600    58.7750     9.7370     7.6820     9.3340    23.3170 
   86.2500     2.1840   -40.6220    58.3420     9.5400     7.5680     9.3730    23.5170 
   86.3750     2.1830   -40.1320    58.9830     9.2850     7.3940     9.2800    23.7460 
   86.5000     2.1850   -39.5380    57.8520     9.0080     7.1790     9.0080    23.9910 
   86.6250     2.1910   -39.0110    58.1840     8.7780     6.9650     8.6590    24.2220 
   86.7500     2.1990   -38.3210    63.1200     8.6510     6.7950     8.3560    24.2460 
   86.8750     2.2050   -37.5810    68.5850     8.6400     6.6870     8.0430    24.1300 
   87.0000     2.2070   -36.9690    68.9460     8.6980     6.6260     7.6700    24.0090 
   87.1250     2.2060   -36.3540    63.2290     8.7110     6.5650     7.5180    23.9730 
   87.2500     2.2110   -35.8120    59.6780     8.6020     6.4610     7.7410    24.0090 
   87.3750     2.2250   -35.4030    61.0810     8.3750     6.3140     7.9950    24.1170 
   87.5000     2.2490   -35.0400    65.8900     8.1210     6.1660     7.6610    24.2640 
   87.6250     2.2710   -34.8950    69.7530     8.0080     6.1040     6.8340    24.3820 
   87.7500     2.2810   -35.0280    71.6810     8.1300     6.1870     6.5000    24.3710 
   87.8750     2.2770   -35.2250    71.1520     8.5110     6.4350     7.0000    24.2400 
   88.0000     2.2630   -35.4310    67.0550     9.0990     6.8270     8.0050    24.1240 
   88.1250     2.2480   -35.8230    61.3950     9.7740     7.3020     8.8040    24.1800 
   88.2500     2.2350   -36.1510    57.6400    10.3550     7.7460     9.2240    24.2360 
   88.3750     2.2230   -36.4380    59.2520    10.7120     8.0720     9.4520    24.2480 
   88.5000     2.2120   -36.7610    65.1080    10.7700     8.2150     9.6020    24.2440 
   88.6250     2.2090   -36.8580    68.8710    10.4880     8.1150     9.6550    24.2160 
   88.7500     2.2160   -36.6580    67.3400    10.0000     7.8370     9.6540    24.0620 
   88.8750     2.2370   -36.3840    64.8520     9.4070     7.4380     9.3840    23.7240 
   89.0000     2.2650   -36.1690    67.7470     8.8010     6.9900     8.4720    23.3300 
   89.1250     2.2860   -35.8240    73.5190     8.2820     6.5710     7.5010    23.1850 
   89.2500     2.2910   -35.4980    73.8630     7.9050     6.2330     7.2340    23.2620 
   89.3750     2.2770   -35.3410    69.0490     7.7080     6.0100     7.5620    23.5810 
   89.5000     2.2480   -35.2420    65.0890     7.7150     5.9250     7.8150    24.0350 
   89.6250     2.2120   -35.2690    66.7720     7.9670     6.0120     7.4920    24.3970 
   89.7500     2.1780   -35.6080    68.8670     8.4100     6.2420     7.2570    24.4880 
   89.8750     2.1520   -36.0200    68.4440     8.9950     6.5940     7.5340    24.4040 
   90.0000     2.1360   -36.3590    67.0010     9.6440     7.0240     8.2780    24.3010 
   90.1250     2.1290   -36.8000    66.8110    10.2180     7.4530     8.9820    24.2580 
   90.2500     2.1300   -37.2560    65.5780    10.6070     7.7990     9.3580    24.2280 
   90.3750     2.1360   -37.6710    62.6850    10.7580     8.0120     9.6180    24.1800 
   90.5000     2.1480   -38.0190    60.7900    10.6930     8.0810     9.8320    24.1320 
   90.6250     2.1640   -38.1390    62.4230    10.4760     8.0240     9.7680    24.0840 
   90.7500     2.1760   -38.0060    64.1130    10.2130     7.9050     9.5770    24.0610 
   90.8750     2.1780   -37.8690    64.4750     9.9450     7.7530     9.4630    24.0710 
   91.0000     2.1680   -37.6770    64.6480     9.6980     7.5910     9.4790    24.1180 
   91.1250     2.1490   -37.3000    67.2110     9.5280     7.4510     9.3740    24.2060 
   91.2500     2.1280   -36.9600    71.6850     9.4780     7.3680     8.9520    24.3600 
   91.3750     2.1090   -36.6100    74.8840     9.5770     7.3660     8.4320    24.4870 
   91.5000     2.0970   -36.1750    75.5510     9.8040     7.4400     8.3410    24.4580 
   91.6250     2.0950   -35.7800    73.2410    10.0410     7.5340     9.0080    24.2510 
   91.7500     2.1040   -35.4090    68.8360    10.1010     7.5380     9.6460    24.0650 
   91.8750     2.1280   -34.8420    64.7800     9.8380     7.3610     9.5300    23.9770 
   92.0000     2.1640   -34.1190    65.4540     9.2110     6.9590     8.8410    23.9580 
   92.1250     2.2090   -33.4720    73.7400     8.3090     6.3600     8.0290    23.9600 
   92.2500     2.2520   -32.8250    83.8200     7.4070     5.7200     6.9430    23.9660 
   92.3750     2.2860   -32.1680    89.9840     6.6980     5.1640     5.6460    23.9740 
   92.5000     2.3030   -31.7870    88.8780     6.3030     4.7860     4.7430    23.9720 
   92.6250     2.3040   -31.6970    83.1970     6.3260     4.6830     4.6980    23.9630 
   92.7500     2.2970   -31.7500    79.6820     6.6820     4.8250     5.1010    23.9590 
   92.8750     2.2850   -32.1560    80.7950     7.3070     5.1850     5.6790    23.9600 
   93.0000     2.2720   -32.9830    82.6400     8.1020     5.7050     6.5800    23.9640 
   93.1250     2.2560   -33.9200    78.1810     8.9290     6.3010     7.8780    23.9750 
   93.2500     2.2380   -34.9670    67.8560     9.6390     6.8560     8.8750    24.0010 
   93.3750     2.2210   -36.0320    58.9120    10.1370     7.2930     9.1330    24.0370 
   93.5000     2.2040   -36.9260    58.3760    10.3850     7.5660     9.1560    24.0720 
   93.6250     2.1860   -37.7060    63.3220    10.3880     7.6510     9.5460    24.1160 
   93.7500     2.1680   -38.3240    64.3290    10.2870     7.6240     9.8840    24.1480 
   93.8750     2.1500   -38.7080    61.0900    10.1780     7.5490     9.6960    24.1990 
   94.0000     2.1360   -38.9400    58.5830    10.1220     7.4800     9.0620    24.2720 
   94.1250     2.1310   -39.0320    60.1040    10.1300     7.4540     8.6480    24.2630 
   94.2500     2.1340   -38.8880    61.1450    10.1440     7.4580     8.7620    24.1830 
   94.3750     2.1430   -38.6990    60.5370    10.1200     7.4730     9.1360    24.1190 
   94.5000     2.1540   -38.4760    60.2900    10.0370     7.4790     9.3830    24.0460 
   94.6250     2.1630   -37.9940    61.9560     9.9420     7.4850     9.3220    23.9380 
