~V
VERS. 2.00: Ver 2.00
~W
STRT.M 60.0000:
STOP.M 232.0000:
STEP.M 0.1250:
NULL. -999.2500:
UWI. DF323:
~C
DEPT.M :
GR.API :
RML.OHMM :
RI. :
RXO.OHMM :
CALI.CM :
SP.MV :
DEN.GM/CC :
AC.US/MT :
~A
# ...
  200.0000    82.1650    35.9630    35.0660    33.0250    26.3870    -9.9970     2.4960   244.5930 
  200.1250    83.0000    37.7890    36.5250    34.7650    26.5030    -9.8580     2.4910   244.4800 
  200.2500    87.1380    39.5530    37.8220    34.6500    26.7260    -9.7020     2.4820   242.7590 
  200.3750    90.5290    41.2800    39.0920    34.6990    27.0000    -9.5960     2.4740   238.4120 
  200.5000    92.9170    43.0680    40.4290    36.8490    27.2090    -9.6080     2.4700   232.0100 
  200.6250    95.1100    45.2170    41.9610    40.2430    27.2720    -9.6980     2.4690   226.6390 
  200.7500    95.7100    47.9930    43.8320    39.9270    27.2760    -9.7720     2.4680   224.6190 
  200.8750    91.9150    51.5570    46.1920    37.0180    27.2740    -9.8310     2.4650   225.5750 
  201.0000    87.5770    55.9020    49.1040    37.9750    27.2100    -9.9230     2.4600   227.3790 
  201.1250    88.2290    60.9660    52.5620    45.1200    27.0080   -10.0770     2.4580   227.5430 
  201.2500    91.0470    66.1230    56.1360    52.2100    26.7810   -10.2490     2.4630   225.4700 
  201.3750    92.9700    70.4170    59.2230    55.4370    26.6340   -10.4250     2.4740   221.6090 
  201.5000    90.3680    72.7990    61.1630    56.3230    26.5790   -10.5810     2.4910   217.1790 
  201.6250    85.9920    72.4780    61.4680    53.4580    26.5830   -10.6930     2.5100   213.9750 
  201.7500    86.0280    70.6190    60.8070    46.9090    26.6330   -10.7860     2.5250   212.7170 
  201.8750    89.6950    68.4670    59.9110    42.0550    26.7310   -10.8930     2.5350   213.2830 
  202.0000    92.3350    67.1670    59.4950    43.4080    26.8370   -11.0110     2.5370   215.1480 
  202.1250    92.5710    67.5940    60.1720    54.3640    26.9100   -11.1150     2.5330   217.9740 
  202.2500    94.1630    69.4110    61.7960    72.8060    26.9420   -11.2360     2.5260   221.4510 
  202.3750    95.6840    72.1130    64.1020    88.9130    26.9310   -11.3460     2.5170   225.5750 
  202.5000    93.1810    75.0500    66.7050    87.1480    26.9030   -11.4070     2.5090   230.1220 
  202.6250    88.3720    77.4540    69.1330    77.8410    26.8560   -11.4300     2.5060   234.4890 
  202.7500    87.5500    79.0870    71.1320    76.1130    26.7620   -11.4940     2.5120   237.8610 
  202.8750    91.2150    80.1250    72.6970    82.1220    26.6400   -11.5730     2.5290   239.5360 
  203.0000    94.7970    80.7860    73.8520    92.5360    26.5540   -11.6350     2.5490   239.2870 
  203.1250    93.5490    80.8250    74.3120    91.7080    26.5440   -11.6230     2.5560   237.4890 
  203.2500    89.5920    80.0410    73.9260    81.5510    26.5560   -11.5650     2.5420   235.4720 
  203.3750    87.9520    78.4860    72.6900    74.7660    26.5530   -11.5110     2.5070   233.8590 
  203.5000    89.5800    76.5340    70.8800    72.2150    26.5360   -11.4810     2.4650   232.6500 
  203.6250    90.6700    74.6620    69.0040    65.2380    26.5120   -11.4690     2.4360   231.8590 
  203.7500    89.8290    73.2020    67.5240    55.9120    26.5530   -11.3800     2.4280   231.8340 
  203.8750    90.1060    72.3280    66.6040    55.3910    26.7150   -11.2360     2.4390   232.8890 
  204.0000    92.9180    71.9990    66.1960    66.5350    26.9460   -11.0980     2.4570   234.5360 
  204.1250    95.0480    72.0730    66.1800    72.6360    27.1080   -11.0270     2.4730   235.3890 
  204.2500    94.5420    72.3080    66.3180    63.0400    27.1570   -10.9570     2.4820   234.7500 
  204.3750    91.9930    72.5190    66.4830    49.8030    27.1600   -10.8360     2.4890   232.7340 
  204.5000    90.3670    72.5560    66.6030    42.5450    27.1790   -10.7090     2.4960   230.0830 
  204.6250    93.0850    72.2890    66.5820    44.6580    27.2230   -10.6130     2.5020   228.1600 
  204.7500    97.9120    71.6190    66.3000    53.9090    27.2410   -10.5440     2.5050   227.8260 
  204.8750   100.6880    70.4300    65.6330    61.5900    27.1510   -10.4900     2.5060   229.1240 
  205.0000   100.5130    68.7790    64.6030    56.3370    26.8880   -10.4330     2.5030   231.2900 
  205.1250    99.4400    67.1600    63.4810    46.3020    26.4670   -10.3460     2.5010   232.9870 
  205.2500    96.4290    66.2190    62.7170    41.6690    26.0660   -10.2450     2.5000   233.5830 
  205.3750    93.6270    66.3530    62.6370    41.0470    25.8200   -10.1300     2.4990   233.2760 
  205.5000    95.7270    67.6350    63.3240    44.0130    25.7470    -9.9570     2.5010   232.5960 
  205.6250   100.8920    69.6280    64.5810    52.4210    25.7560    -9.7150     2.5050   232.0110 
  205.7500   100.1230    71.2910    65.8100    61.4240    25.7590    -9.5000     2.5110   231.4320 
  205.8750    93.4720    71.9050    66.5780    65.3410    25.7560    -9.2950     2.5180   230.8690 
  206.0000    90.2370    71.2840    66.6860    64.0730    25.7470    -9.0230     2.5230   230.1660 
  206.1250    93.2180    69.9300    66.2370    58.9070    25.7650    -8.7450     2.5210   228.6470 
  206.2500    93.7260    68.6770    65.6860    50.1850    25.9000    -8.5100     2.5120   227.1920 
  206.3750    89.8250    67.7530    65.2280    42.9770    26.1640    -8.3450     2.4990   226.5810 
  206.5000    87.6820    67.0150    64.8160    41.4430    26.4710    -8.2780     2.4900   227.3900 
  206.6250    92.2290    66.0330    64.0800    46.3520    26.7690    -8.2980     2.4910   229.5740 
  206.7500    96.7400    64.3930    62.6300    53.1480    27.0710    -8.3020     2.4990   231.9560 
  206.8750    97.1010    61.7480    60.2620    56.1570    27.3440    -8.2450     2.5040   233.7980 
  207.0000    94.3810    57.9540    57.1120    54.5130    27.5580    -8.2310     2.4940   235.0350 
  207.1250    91.3510    53.2820    53.6310    51.1620    27.7760    -8.2450     2.4630   236.1620 
  207.2500    88.7140    48.8230    50.4460    46.3760    27.9900    -8.2610     2.4230   237.6910 
  207.3750    85.6670    45.4630    47.9430    40.8220    28.0370    -8.3390     2.3910   239.6390 
  207.5000    82.6400    43.7110    46.3290    36.2630    27.8120    -8.4390     2.3780   241.6530 
  207.6250    82.4770    43.7960    45.7890    36.0120    27.3630    -8.4760     2.3890   243.1310 
  207.7500    85.2480    45.1100    46.1000    38.1000    26.9340    -8.5300     2.4130   244.0280 
  207.8750    90.1990    47.3520    47.1790    38.5880    26.6570    -8.7100     2.4400   244.6030 
  208.0000    95.0690    50.2860    48.9350    36.0430    26.5460    -8.9760     2.4650   244.8750 
  208.1250    96.1430    53.8360    51.3070    30.7660    26.5390    -9.2790     2.4820   243.9390 
  208.2500    93.6550    57.7560    53.9870    26.4790    26.5520    -9.5570     2.4940   241.2550 
  208.3750    90.5140    61.8230    56.7240    26.0090    26.5720    -9.7250     2.5000   237.1470 
  208.5000    89.4350    65.7580    59.2310    30.1290    26.5950    -9.7620     2.5000   232.6730 
  208.6250    90.2250    68.9390    61.1190    37.2570    26.6050    -9.8160     2.4980   228.8950 
  208.7500    91.4450    70.8940    62.3200    42.8810    26.5870    -9.9230     2.5020   225.7850 
  208.8750    93.6940    71.3930    62.8570    46.6790    26.5540   -10.0050     2.5120   223.1000 
  209.0000    98.4320    70.6550    62.8110    49.9550    26.5480    -9.9830     2.5280   221.0840 
  209.1250   103.2070    69.2900    62.1730    52.2240    26.5820    -9.8910     2.5420   220.7380 
  209.2500   103.8110    67.9490    61.0970    55.6990    26.6080    -9.8090     2.5500   222.0680 
  209.3750   102.0790    66.7460    59.7150    62.2040    26.6030    -9.7820     2.5510   224.5300 
  209.5000   100.9480    65.7170    58.2860    69.2280    26.5660    -9.8430     2.5450   227.6030 
  209.6250   100.3560    65.1920    57.2750    73.3890    26.5240    -9.8740     2.5360   231.2610 
  209.7500    99.0430    65.5270    56.9180    78.2590    26.5060    -9.8190     2.5270   234.8850 
  209.8750    98.0870    66.8780    57.2360    82.6560    26.5190    -9.7640     2.5220   236.9750 
