~V
VERS. 2.00: Ver 2.00
~W
STRT.M 62.0000:
STOP.M 272.0000:
STEP.M 0.1250:
NULL. -999.2500:
UWI. DF32143:
~C
DEPT.M :
SP.MV :
GR.API :
CALI.CM :
RXO.OHMM :
RI. :
RML.OHMM :
DEN.GM/CC :
~A
# ...
  219.5000   -14.4550    71.3740    24.1580    27.3750    32.4860    35.8720     2.2400 
  219.6250   -14.4440    73.3540    24.1680    27.6610    32.3250    36.4500     2.2340 
  219.7500   -14.4810    74.6000    24.2710    29.3480    33.1750    38.2510     2.2330 
  219.8750   -14.5740    70.5260    24.4770    33.3350    35.2080    41.4660     2.2320 
  220.0000   -14.7080    62.5570    24.7760    40.2410    38.4560    46.1150     2.2220 
  220.1250   -14.8470    58.9110    25.1390    49.3980    42.8430    52.0610     2.2090 
  220.2500   -14.9720    60.8700    25.4620    56.9830    47.6610    58.4220     2.2050 
  220.3750   -15.0710    63.3330    25.6250    60.7960    52.3490    64.4740     2.2150 
  220.5000   -15.1430    62.4840    25.6130    62.3170    56.5570    69.7720     2.2250 
  220.6250   -15.1690    60.1030    25.5450    65.0990    60.2270    74.2900     2.2270 
  220.7500   -15.1770    60.5110    25.5220    69.5300    63.6800    78.5370     2.2330 
  220.8750   -15.1690    62.0460    25.5330    75.0150    67.0530    82.6840     2.2510 
  221.0000   -15.1430    60.8860    25.5070    81.5800    70.2210    86.4790     2.2750 
  221.1250   -15.1100    58.1370    25.4310    87.7480    72.7600    89.3700     2.3000 
  221.2500   -15.0600    57.8200    25.3730    90.2660    74.8070    91.7600     2.3370 
  221.3750   -14.9800    61.4910    25.3750    89.0200    76.8500    94.4020     2.3930 
  221.5000   -14.8400    66.3090    25.4370    87.4930    78.9080    97.0070     2.4570 
  221.6250   -14.6060    67.5670    25.4810    92.3170    78.3080    94.7020     2.5070 
  221.7500   -14.2790    65.1720    25.4290   105.8320    71.0530    81.9850     2.5460 
  221.8750   -13.8490    63.4460    25.3170   119.0850    55.8650    60.0810     2.5870 
  222.0000   -13.3270    64.1980    25.2480   105.9670    37.4490    37.7370     2.6360 
  222.1250   -12.7390    62.9910    25.2330    62.8320    23.1530    22.6620     2.6700 
  222.2500   -12.1440    58.7390    25.1850    26.1870    14.2150    13.7040     2.6620 
  222.3750   -11.5700    56.6860    25.1490    10.2470     9.2900     8.8830     2.6110 
  222.5000   -11.0680    58.7220    25.2450     5.4880     6.8070     6.5910     2.5390 
  222.6250   -10.6750    60.0580    25.4740     5.1630     5.8300     5.9300     2.4770 
  222.7500   -10.3820    58.8380    25.6490     5.7960     5.5370     5.9640     2.4410 
  222.8750   -10.1960    57.4640    25.6460     6.4550     5.6080     6.2640     2.4300 
  223.0000   -10.1260    56.4120    25.4620     6.6000     5.7850     6.5090     2.4380 
  223.1250   -10.1670    55.6400    25.2380     5.9170     5.8540     6.4800     2.4500 
  223.2500   -10.2770    55.0560    25.1050     5.1330     5.7600     6.2180     2.4530 
  223.3750   -10.4490    55.6310    25.0630     4.8340     5.5140     5.7900     2.4480 
  223.5000   -10.6680    57.3510    25.0530     4.8320     5.1530     5.2560     2.4390 
  223.6250   -10.9140    61.0010    25.0170     4.5540     4.7320     4.6980     2.4250 
  223.7500   -11.1240    66.1370    24.9240     4.0380     4.3510     4.2400     2.4000 
  223.8750   -11.2610    70.2350    24.7260     3.6030     4.0870     3.9850     2.3630 
  224.0000   -11.3120    73.5390    24.4180     3.5060     3.9950     4.0030     2.3280 
  224.1250   -11.2680    78.9690    24.2650     3.9970     4.1410     4.3710     2.3160 
  224.2500   -11.1430    86.8990    24.5030     4.8640     4.4760     4.9850     2.3310 
  224.3750   -10.9460    95.7450    25.0180     5.6610     4.9380     5.7260     2.3590 
  224.5000   -10.6770   103.6250    25.4620     6.0490     5.4260     6.4210     2.3820 
  224.6250   -10.3600   108.5630    25.5770     6.1440     5.7980     6.8610     2.3900 
  224.7500   -10.0550   109.3080    25.5140     6.2500     6.0000     7.0250     2.3890 
  224.8750    -9.8090   108.4510    25.3920     6.2990     6.0470     6.9760     2.3860 
  225.0000    -9.6330   109.2350    25.2760     6.1840     5.9940     6.8210     2.3850 
  225.1250    -9.5360   111.2260    25.2380     6.0030     5.9010     6.6510     2.3890 
  225.2500    -9.5110   109.3570    25.2700     5.9140     5.8140     6.5270     2.3910 
  225.3750    -9.5600   104.6990    25.3400     5.9360     5.7660     6.4960     2.3900 
  225.5000    -9.6670   102.9450    25.4040     5.9870     5.7860     6.6110     2.3880 
  225.6250    -9.8190   104.6230    25.4150     5.9720     5.9080     6.9250     2.3890 
  225.7500    -9.9970   103.7110    25.3700     5.9990     6.0990     7.3600     2.3910 
  225.8750   -10.1860    99.9000    25.2880     6.2560     6.3100     7.8050     2.3920 
  226.0000   -10.3500    98.3480    25.1870     6.6870     6.4650     8.1150     2.3950 
  226.1250   -10.4490   100.3010    25.0910     6.8290     6.4690     8.1250     2.4040 
  226.2500   -10.4770    98.9360    25.0560     6.5800     6.3230     7.8770     2.4100 
  226.3750   -10.4250    94.8200    25.1140     6.2870     6.0910     7.4970     2.4040 
  226.5000   -10.3260    93.5790    25.2210     6.2330     5.8870     7.1910     2.3870 
  226.6250   -10.2160    95.2720    25.2570     6.3890     5.9050     7.2970     2.3680 
  226.7500   -10.1090    95.8790    25.2050     6.7460     6.2970     8.0740     2.3560 
  226.8750   -10.0050    94.2010    25.1440     7.8410     7.2770     9.8460     2.3530 
  227.0000    -9.9310    90.8640    25.1450    10.7180     9.1480    12.9840     2.3580 
  227.1250    -9.9210    84.6170    25.1730    18.2810    12.5420    18.1350     2.3650 
  227.2500    -9.9600    76.4040    25.1310    31.2720    17.4150    24.8900     2.3650 
  227.3750   -10.0390    71.7620    25.0380    45.4490    23.1510    32.0600     2.3590 
  227.5000   -10.1410    72.0700    24.9460    52.9440    28.1810    37.3840     2.3620 
  227.6250   -10.2300    73.2340    24.8430    47.3470    30.4100    38.5270     2.3860 
  227.7500   -10.3020    71.8350    24.7120    36.2840    30.2880    37.0910     2.4150 
  227.8750   -10.3480    70.1230    24.5950    28.1510    28.9990    35.0010     2.4250 
  228.0000   -10.3650    72.0190    24.5530    27.3530    27.5250    33.3270     2.3990 
  228.1250   -10.3410    75.4340    24.6220    30.9400    26.1240    31.9620     2.3420 
  228.2500   -10.2820    76.6530    24.7610    31.8660    24.4630    30.0910     2.2890 
  228.3750   -10.2020    77.0810    24.9080    28.7870    22.3570    27.3810     2.2590 
  228.5000   -10.1060    80.0370    25.0230    24.1520    20.0640    24.2940     2.2520 
  228.6250   -10.0190    84.2890    25.1270    19.5460    18.3740    22.1510     2.2650 
  228.7500    -9.9550    83.7200    25.2280    15.6920    17.9720    21.9530     2.2910 
  228.8750    -9.9280    77.5120    25.2760    15.2010    19.5940    24.4630     2.3230 
  229.0000    -9.9310    69.2690    25.2090    22.8920    24.2600    30.5080     2.3440 
  229.1250    -9.9720    63.3060    24.9970    53.4920    34.3290    42.3430     2.3310 
  229.2500   -10.0430    60.8940    24.7460   100.9690    50.1010    60.6270     2.2950 
  229.3750   -10.1360    61.3270    24.5700   130.0030    69.6510    83.9580     2.2570 
  229.5000   -10.2280    63.2260    24.5110   123.7880    86.2740   103.5830     2.2360 
  229.6250   -10.3030    63.4330    24.5290   113.2100    88.9770   103.0160     2.2320 
  229.7500   -10.3500    62.1470    24.5610   115.6710    79.1230    87.1510     2.2310 
  229.8750   -10.3800    61.1660    24.6060   106.5000    63.3540    67.4570     2.2290 
  230.0000   -10.3990    63.2680    24.6710    75.4240    48.0790    50.8690     2.2310 
  230.1250   -10.4130    70.0780    24.7690    43.8240    37.2650    40.0520     2.2410 
  230.2500   -10.4330    76.0580    24.8800    28.2160    30.5670    33.6890     2.2570 
  230.3750   -10.4650    77.7990    24.9660    22.8080    27.2250    30.9530     2.2740 
  230.5000   -10.5120    76.9860    25.0160    23.2810    26.4970    31.1070     2.2890 
  230.6250   -10.5690    75.7700    25.0370    29.4270    27.9790    33.5880     2.2900 
