~V
VERS. 2.00: Ver 2.00
~W
STRT.M 60.0000:
STOP.M 271.0000:
STEP.M 0.1250:
NULL. -999.2500:
UWI. DF324:
~C
DEPT.M :
SP.MV :
AC.US/MT :
DEN.GM/CC :
GR.API :
CALI.CM :
RXO.OHMM :
RI. :
RML.OHMM :
~A
# ...
  260.0000   -11.7790   304.3470     2.4420    74.8930    23.5150    11.7890    11.8520    12.8680 
  260.1250   -11.6990   299.7510     2.4460    75.0420    23.5370    16.1330    11.9250    12.9450 
  260.2500   -11.5990   293.7830     2.4440    75.1130    23.5300    21.1320    11.9580    12.9790 
  260.3750   -11.4940   287.9120     2.4360    75.1130    23.5050    22.9070    11.9310    12.9510 
  260.5000   -11.3910   281.6920     2.4190    75.1130    23.4740    20.5880    11.8280    12.8430 
  260.6250   -11.2810   275.5320     2.3990    75.1130    23.4600    17.9990    11.6350    12.6410 
  260.7500   -11.1600   273.5480     2.3840    75.1130    23.5320    16.6690    11.3970    12.3900 
  260.8750   -11.0370   278.3410     2.3810    75.1130    23.6030    15.8650    11.1710    12.1520 
  261.0000   -10.9200   287.0170     2.3850    75.1130    23.6620    14.5230    11.0340    12.0070 
  261.1250   -10.8120   292.7670     2.3970    75.1130    23.6650    12.9220    11.0920    12.0690 
  261.2500   -10.7110   293.4540     2.4160    75.1130    23.6410    12.0310    11.3580    12.3480 
  261.3750   -10.6070   290.4480     2.4390    75.1130    23.6540    12.2380    11.8190    12.8340 
  261.5000   -10.4850   285.2730     2.4550    75.1130    23.7140    13.2440    12.4190    13.4650 
  261.6250   -10.3430   279.2620     2.4530    75.1130    23.7110    14.5130    13.0310    14.1090 
  261.7500   -10.1930   274.8810     2.4460    75.1130    23.6750    15.7020    13.5030    14.6050 
  261.8750   -10.0400   273.9000     2.4420    75.1130    23.6780    16.5030    13.7320    14.8460 
  262.0000    -9.8910   276.1410     2.4400    75.1130    23.7130    16.2740    13.6890    14.8010 
  262.1250    -9.7580   279.6050     2.4370    75.1130    23.7430    15.2870    13.3960    14.4930 
  262.2500    -9.6490   282.4250     2.4390    75.1130    23.7610    14.1200    13.0000    14.0760 
  262.3750    -9.5730   284.5300     2.4500    75.1130    23.7650    13.1190    12.6030    13.6580 
  262.5000    -9.5370   286.3220     2.4610    75.1130    23.7680    12.3930    12.2810    13.3200 
  262.6250    -9.5550   287.8290     2.4590    75.1130    23.7720    12.3650    12.1100    13.1400 
  262.7500    -9.6170   288.8730     2.4460    75.1130    23.7730    12.5390    12.0770    13.1050 
  262.8750    -9.7200   289.0200     2.4320    75.1130    23.7740    12.7160    12.1650    13.1980 
  263.0000    -9.8570   287.3670     2.4240    75.1130    23.7750    12.9090    12.3470    13.3890 
  263.1250   -10.0160   282.6480     2.4230    75.1130    23.7730    13.3400    12.6020    13.6570 
  263.2500   -10.1870   276.0750     2.4240    75.1130    23.7660    14.2670    12.8940    13.9640 
  263.3750   -10.3610   269.7470     2.4270    75.1130    23.7510    15.6870    13.1940    14.2800 
  263.5000   -10.5230   265.6030     2.4360    75.1130    23.7250    17.3490    13.4700    14.5700 
  263.6250   -10.6620   264.5380     2.4560    75.1130    23.7090    18.8110    13.6870    14.7980 
  263.7500   -10.7880   264.9990     2.4770    75.1130    23.7020    19.3980    13.8440    14.9640 
  263.8750   -10.9080   265.1120     2.4850    75.1130    23.6990    19.2190    13.9460    15.0720 
  264.0000   -11.0200   262.3140     2.4730    75.1130    23.6920    19.6630    14.0040    15.1320 
  264.1250   -11.1140   253.2850     2.4520    75.1130    23.6770    21.8620    14.0290    15.1590 
  264.2500   -11.1770   239.6460     2.4450    75.1130    23.6420    28.5400    14.0430    15.1730 
  264.3750   -11.2010   225.5620     2.4490    75.1130    23.5980    42.9620    14.0530    15.1840 
  264.5000   -11.1930   216.3450     2.4460    75.1130    23.6240    61.8730    14.0630    15.1950 
  264.6250   -11.1570   218.0800     2.4220    75.1130    23.6440    68.5580    14.0720    15.2040 
  264.7500   -11.0920   230.7810     2.4020    75.1130    23.6430    58.9830    14.0740    15.2060 
  264.8750   -10.9880   252.1050     2.4050    75.1130    23.6320    40.2770    14.0670    15.1980 
  265.0000   -10.8460   275.8300     2.4200    75.1130    23.6560    21.7990    14.0520    15.1820 
  265.1250   -10.6840   292.0590     2.4170    75.1130    23.6980    12.2340    14.0350    15.1650 
  265.2500   -10.5410   296.7730     2.3970    75.1130    23.7290     8.3900    14.0220    15.1520 
  265.3750   -10.4510   290.6380     2.3760    75.1130    23.7090     7.4420    14.0180    15.1470 
  265.5000   -10.4300   277.1850     2.3570    75.1130    23.6350     7.4930    14.0230    15.1530 
  265.6250   -10.4790   262.0860     2.3350    75.1130    23.5730     8.6200    14.0360    15.1650 
  265.7500   -10.5710   251.9970     2.3220    75.1130    23.5350    10.6030    14.0520    15.1820 
  265.8750   -10.6920   249.5850     2.3360    75.1130    23.5040    12.5680    14.0650    15.1970 
  266.0000   -10.8220   252.3350     2.3780    75.1130    23.4500    13.4950    14.0720    15.2030 
  266.1250   -10.9390   254.7380     2.4320    75.1130    23.3580    13.4180    14.0730    15.2050 
  266.2500   -11.0440   256.0180     2.4790    75.1130    23.2770    13.2800    14.0730    15.2050 
  266.3750   -11.1260   260.0630     2.5070    75.1130    23.2630    13.0520    14.0730    15.2050 
  266.5000   -11.1540   269.4090     2.5090    75.1130    23.3240    12.6290    14.0730    15.2050 
  266.6250   -11.0900   281.1170     2.4880    75.1130    23.4810    12.6510    14.0730    15.2050 
  266.7500   -10.9690   288.6660     2.4630    75.1130    23.6340    13.9790    14.0730    15.2050 
  266.8750   -10.8330   289.2350     2.4350    75.1130    23.7220    16.5890    14.0730    15.2050 
  267.0000   -10.7150   283.4290     2.4040    75.1130    23.7050    18.3080    14.0730    15.2050 
  267.1250  -999.2500   272.7470     2.3840    75.1130    23.6470    16.9720    14.0730    15.2050 
  267.2500  -999.2500   260.0570     2.3900    75.1130    23.6230    13.4680    14.0730    15.2050 
  267.3750  -999.2500   254.8260     2.4140    75.1130    23.6020    10.3910    14.0730    15.2050 
  267.5000  -999.2500   238.9990     2.4300    75.1130    23.4500     8.5470    14.0730    15.2050 
  267.6250  -999.2500   235.4350     2.4190    75.1130    23.1840     7.5290    14.0730    15.2050 
  267.7500  -999.2500   234.7900     2.4020    75.1130    22.9410     6.7780    14.0730    15.2050 
  267.8750  -999.2500   235.0290     2.3980    75.1130    22.7740     6.2750    14.0730    15.2050 
  268.0000  -999.2500   235.1780     2.4050    75.1130    22.6300     6.0760    14.0730    15.2050 
  268.1250  -999.2500   235.2370     2.4020    75.1130    22.4250     6.3490    14.0730    15.2050 
  268.2500  -999.2500   235.3310     2.3690    75.1130    22.1770     6.8890    14.0730    15.2050 
  268.3750  -999.2500   235.3830     2.2900    75.1130    21.8690     7.3060    14.0730    15.2050 
  268.5000  -999.2500   235.3400     2.1690    75.1130    21.1350     6.9880    14.0730    15.2050 
  268.6250  -999.2500   235.2620     2.0400    75.1130    19.2010     5.7010    14.0730    15.2050 
  268.7500  -999.2500   235.2680     1.9460    75.1130    16.5800     4.3290    14.0730    15.2050 
  268.8750  -999.2500   235.3650     1.8980    75.1130    14.6300     3.4940    14.0730    15.2050 
  269.0000  -999.2500  -999.2500     1.8830    75.1130    13.8100     3.1870    14.0730    15.2050 
  269.1250  -999.2500  -999.2500     1.8820    75.1130    13.7010     3.1360    14.0730    15.2050 
  269.2500  -999.2500  -999.2500     1.8870    75.1130    13.6880     3.1320    14.0730    15.2050 
  269.3750  -999.2500  -999.2500     1.8930    75.1130    13.6960     3.1430    14.0730    15.2050 
  269.5000  -999.2500  -999.2500     1.8960    75.1130    13.7100     3.1600    14.0730    15.2050 
  269.6250  -999.2500  -999.2500     1.8920    75.1130    13.7180     3.1710    14.0730    15.2050 
  269.7500  -999.2500  -999.2500     1.8890    75.1130    13.7160     3.1690    14.0730    15.2050 
  269.8750  -999.2500  -999.2500     1.8900    75.1130    13.7060     3.1610    14.0730    15.2050 
