~V
VERS. 2.00: Ver 2.00
~W
STRT.M 62.0000:
STOP.M 272.0000:
STEP.M 0.1250:
NULL. -999.2500:
UWI. DF32143:
~C
DEPT.M :
SP.MV :
GR.API :
CALI.CM :
RXO.OHMM :
RI. :
RML.OHMM :
DEN.GM/CC :
~A
# ...
  197.0000   -26.6690    63.3450    25.9720    78.3880    74.3010    77.3330     2.2560 
  197.1250   -27.1000    64.7110    25.7270    80.4250    77.6230    81.8860     2.2560 
  197.2500   -27.6500    63.7610    25.3840    88.2000    81.8070    87.5540     2.2510 
  197.3750   -28.2950    61.8980    25.0680   100.9920    87.6380    95.2270     2.2440 
  197.5000   -29.0210    59.8090    24.8720   116.8920    95.6270   105.4870     2.2380 
  197.6250   -29.7630    56.8830    24.7940   131.0710   106.2060   118.8720     2.2290 
  197.7500   -30.4320    54.5350    24.7600   140.8360   118.7420   134.6090     2.2190 
  197.8750   -30.9540    53.9340    24.7570   147.6280   132.6990   151.9870     2.2200 
  198.0000   -31.2860    54.2530    24.7780   154.6110   147.0540   169.5720     2.2370 
  198.1250   -31.3930    54.0390    24.7870   164.8780   159.6950   184.2230     2.2580 
  198.2500   -31.2660    52.4750    24.7720   176.6180   168.6910   193.2270     2.2650 
  198.3750   -30.9010    51.1730    24.7350   183.5130   172.5080   194.7180     2.2600 
  198.5000   -30.3240    51.6710    24.6850   179.8810   170.4900   188.5110     2.2580 
  198.6250   -29.5860    53.9810    24.6450   167.5630   162.3850   175.5190     2.2680 
  198.7500   -28.7550    55.8110    24.6280   155.5160   150.6600   159.5580     2.2810 
  198.8750   -27.8840    56.5850    24.6240   145.3030   136.8060   142.5420     2.2920 
  199.0000   -27.0160    58.7530    24.6130   131.8030   121.6300   124.9060     2.2980 
  199.1250   -26.1840    60.9680    24.6660   111.6760   104.5770   105.4720     2.2970 
  199.2500   -25.4100    62.2450    24.9020    92.2510    85.8880    84.7730     2.2950 
  199.3750   -24.7170    65.1340    25.2830    74.7000    67.2810    65.3190     2.2950 
  199.5000   -24.1270    70.9820    25.6060    54.0810    51.3770    49.8490     2.3030 
  199.6250   -23.6420    75.5500    25.6850    33.5920    40.8710    40.5050     2.3120 
  199.7500   -23.2850    76.2810    25.6150    23.1910    35.3290    36.2180     2.3150 
  199.8750   -23.0340    74.9950    25.5110    26.9700    34.5850    36.6390     2.3110 
  200.0000   -22.8680    70.9430    25.4450    47.0640    38.8900    41.9010     2.3010 
  200.1250   -22.7680    64.8140    25.4600    78.4220    50.2720    54.0110     2.2820 
  200.2500   -22.6870    60.6920    25.4880   104.8960    68.4780    73.3970     2.2580 
  200.3750   -22.5990    59.2030    25.5120   124.1380    91.8760    99.4960     2.2380 
  200.5000   -22.4720    58.3690    25.5830   138.8090   115.1360   126.7130     2.2340 
  200.6250   -22.2860    57.3310    25.7010   143.6670   129.5340   143.1190     2.2480 
  200.7500   -22.0040    57.0780    25.7650   139.2300   134.6590   148.0240     2.2600 
  200.8750   -21.6310    55.8930    25.7560   132.9000   135.3310   148.6020     2.2540 
  201.0000   -21.1650    53.4800    25.7530   129.7110   138.1770   152.6180     2.2410 
  201.1250   -20.5900    52.0790    25.7010   134.4510   151.2400   167.6500     2.2690 
  201.2500   -19.9320    51.2810    25.5010   155.3880   174.8270   192.4150     2.3620 
  201.3750   -19.1870    49.1290    25.0960   310.0390   188.4260   180.6300     2.5000 
  201.5000   -18.3540    48.3170    24.9560   601.2880   144.6180   113.6110     2.6320 
  201.6250   -17.4290    48.1470    24.9730   556.5630    81.6930    58.6860     2.7140 
  201.7500   -16.4580    47.4120    25.0180   289.5050    40.0710    29.2490     2.7570 
  201.8750   -15.4870    48.6400    25.0920    64.1000    18.7990    14.9270     2.7670 
  202.0000   -14.5570    53.2380    25.1050    15.6720     9.4410     8.2130     2.7360 
  202.1250   -13.7160    56.9900    24.9570     6.8110     6.1380     5.5800     2.6550 
  202.2500   -12.9660    56.7980    24.7730     4.3850     4.7730     4.6070     2.5580 
  202.3750   -12.3290    54.4680    24.7040     4.1700     4.3460     4.5560     2.4760 
  202.5000   -11.8000    52.7140    24.7690     4.6080     4.4570     4.9820     2.4210 
  202.6250   -11.4060    53.1810    24.8730     5.1300     4.8360     5.5060     2.3940 
  202.7500   -11.1290    54.9090    24.9460     5.3570     5.1980     5.8360     2.3810 
  202.8750   -10.9400    55.7340    24.9300     5.1430     5.4340     5.9170     2.3770 
  203.0000   -10.8140    54.5450    24.7980     4.7580     5.5390     5.8340     2.3820 
  203.1250   -10.7270    52.1850    24.6510     4.5980     5.5570     5.7140     2.3930 
  203.2500   -10.6680    50.9800    24.5910     4.6520     5.5620     5.6490     2.4030 
  203.3750   -10.6260    50.6000    24.6160     4.7660     5.5810     5.6640     2.4020 
  203.5000   -10.5940    50.8350    24.7660     4.8740     5.6120     5.7500     2.3900 
  203.6250   -10.5520    51.1060    25.1140     5.0050     5.6380     5.8860     2.3800 
  203.7500   -10.5070    50.5010    25.4840     5.1260     5.6480     6.0390     2.3830 
  203.8750   -10.4620    49.8850    25.6750     5.1750     5.6490     6.2050     2.3930 
  204.0000   -10.4380    48.7110    25.6620     5.1710     5.6500     6.3760     2.3980 
  204.1250   -10.4420    47.0980    25.5680     5.2070     5.6520     6.5320     2.3950 
  204.2500   -10.5140    46.7020    25.5930     5.3010     5.6450     6.6420     2.3950 
  204.3750   -10.6880    49.2460    25.7330     5.3970     5.6160     6.6840     2.4070 
  204.5000   -11.0040    55.1170    25.7460     5.4300     5.5650     6.6580     2.4270 
  204.6250   -11.4750    62.0540    25.3330     5.3270     5.5060     6.5970     2.4370 
  204.7500   -12.0710    68.9270    24.6880     5.1620     5.4720     6.5800     2.4320 
  204.8750   -12.7980    75.7820    24.1480     5.1470     5.4980     6.6720     2.4180 
  205.0000   -13.6150    81.3070    23.9520     5.5430     5.6160     6.9290     2.4060 
  205.1250   -14.4780    83.7550    24.1270     6.5250     5.8820     7.4340     2.4060 
  205.2500   -15.2960    83.5520    24.4020     7.8230     6.2990     8.1670     2.4090 
  205.3750   -15.9870    82.7710    24.5760     9.3300     6.8630     9.0880     2.4040 
  205.5000   -16.4750    81.3620    24.6530    11.2560     7.5200    10.0840     2.3870 
  205.6250   -16.7010    79.6460    24.7380    13.4090     8.1420    10.9210     2.3720 
  205.7500   -16.6650    78.7050    24.8120    14.1620     8.5850    11.4150     2.3720 
  205.8750   -16.3770    77.6440    24.7860    12.7100     8.7740    11.5030     2.3850 
  206.0000   -15.8940    75.8620    24.6490    10.1150     8.7400    11.2920     2.4000 
  206.1250   -15.2660    74.8240    24.5040     8.0510     8.6120    11.0300     2.4110 
  206.2500   -14.5810    75.8400    24.4560     6.6900     8.5560    10.9390     2.4160 
  206.3750   -13.9150    76.9030    24.4840     5.8240     8.6510    11.0900     2.4150 
  206.5000   -13.3420    74.8000    24.5220     5.4050     8.9210    11.4660     2.4110 
  206.6250   -12.9420    71.8360    24.5360     5.3370     9.3590    12.0060     2.4020 
  206.7500   -12.7370    73.3740    24.5410     5.3610     9.8860    12.6130     2.3880 
  206.8750   -12.7110    76.8940    24.5440     5.4640    10.4770    13.2940     2.3640 
  207.0000   -12.8300    76.0740    24.5200     5.8350    11.1620    14.1400     2.3300 
  207.1250   -13.0670    71.9410    24.5140     7.1980    12.0590    15.3510     2.2920 
  207.2500   -13.3660    70.9240    24.5480    10.6230    13.2450    17.0160     2.2660 
  207.3750   -13.6910    71.3050    24.5360    17.1530    14.8160    19.2330     2.2590 
  207.5000   -14.0100    69.4440    24.4190    26.1270    16.8340    22.0230     2.2630 
  207.6250   -14.2960    68.2800    24.2820    33.7060    19.2800    25.2560     2.2590 
  207.7500   -14.5380    71.6480    24.2330    37.3660    21.7950    28.4040     2.2500 
  207.8750   -14.7310    74.8050    24.2590    37.2510    23.9650    30.9100     2.2440 
  208.0000   -14.8740    72.5760    24.3410    34.3960    25.4060    32.3220     2.2480 
  208.1250   -14.9880    67.2000    24.5040    30.4050    25.8440    32.4190     2.2610 
