~V
VERS. 2.00: Ver 2.00
~W
STRT.M 62.0000:
STOP.M 282.0000:
STEP.M 0.1250:
NULL. -999.2500:
UWI. DF32160:
~C
DEPT.M :
GR.API :
CALI.CM :
RXO.OHMM :
RI. :
RML.OHMM :
DEN.GM/CC :
SP.MV :
~A
# ...
  152.0000    88.8760    25.5690     6.9120     6.6650     8.4930     2.2680   -17.7040 
  152.1250    84.8160    25.4380     6.9510     6.7140     8.5220     2.2500   -17.8020 
  152.2500    80.7030    25.3090     6.9050     6.6480     8.3790     2.2230   -17.9430 
  152.3750    78.9490    25.2200     6.9030     6.5230     8.1640     2.2050   -18.1100 
  152.5000    76.0610    25.1620     6.9230     6.4180     8.0160     2.2040   -18.2760 
  152.6250    71.8470    25.1180     6.9710     6.4590     8.1310     2.2110   -18.4340 
  152.7500    71.0970    25.0970     7.1220     6.7130     8.5900     2.2120   -18.5750 
  152.8750    75.5210    25.1210     7.5600     7.2270     9.4330     2.2060   -18.6840 
  153.0000    81.3490    25.2060     8.6310     8.0120    10.6350     2.2010   -18.7540 
  153.1250    84.8450    25.3570    10.5790     9.0320    12.0630     2.1960   -18.7990 
  153.2500    85.1500    25.4940    12.4150    10.0600    13.3380     2.1860   -18.8230 
  153.3750    83.0110    25.5630    13.2080    10.8560    14.1190     2.1740   -18.8270 
  153.5000    79.4180    25.5710    12.9960    11.2470    14.2670     2.1650   -18.8230 
  153.6250    76.0200    25.5620    12.4790    11.1940    13.9080     2.1620   -18.8110 
  153.7500    74.5430    25.5590    11.9370    10.9420    13.4520     2.1650   -18.7890 
  153.8750    75.2900    25.5590    11.4240    10.6440    13.0720     2.1790   -18.7530 
  154.0000    76.8650    25.5590    11.1490    10.3410    12.7350     2.1990   -18.7080 
  154.1250    77.8780    25.5590    11.0760     9.9370    12.2110     2.2150   -18.6410 
  154.2500    81.3260    25.5610    10.7720     9.3570    11.3800     2.2200   -18.5600 
  154.3750    87.2250    25.5560    10.0350     8.6100    10.2940     2.2220   -18.4660 
  154.5000    91.3730    25.5340     8.9430     7.7890     9.1230     2.2350   -18.3740 
  154.6250    92.5790    25.5060     7.8900     7.0660     8.1460     2.2690   -18.2910 
  154.7500    92.6950    25.5020     7.2360     6.5790     7.5530     2.3080   -18.2270 
  154.8750    91.0000    25.5130     6.9510     6.4290     7.4700     2.3280   -18.1980 
  155.0000    87.3660    25.5050     6.9540     6.6960     8.0010     2.3150   -18.2160 
  155.1250    85.6620    25.4570     7.8110     7.5410     9.3420     2.2820   -18.2830 
  155.2500    84.6650    25.3690     9.8460     8.8630    11.2940     2.2590   -18.4040 
  155.3750    81.7570    25.2180    12.6520    10.4010    13.3990     2.2550   -18.5900 
  155.5000    79.4490    24.9990    15.5060    11.5620    14.7240     2.2680   -18.8190 
  155.6250    82.4170    24.7800    17.2650    11.4120    13.9610     2.2850   -19.1020 
  155.7500    89.1780    24.6390    16.3600    10.1000    11.6590     2.3010   -19.4160 
  155.8750    94.9630    24.5750    12.5010     8.3090     8.9980     2.3180   -19.7370 
  156.0000    96.5430    24.5430     7.8800     6.7160     6.9150     2.3380   -20.0530 
  156.1250    94.3390    24.5260     5.5070     5.7450     5.8670     2.3510   -20.3580 
  156.2500    93.3160    24.5350     5.2040     5.3510     5.6510     2.3420   -20.6290 
  156.3750    92.7640    24.5650     5.9490     5.5020     6.1640     2.3090   -20.8460 
  156.5000    86.9500    24.6020     6.9280     6.1430     7.2700     2.2650   -20.9920 
  156.6250    76.8990    24.6860     7.8620     7.1370     8.6820     2.2290   -21.0450 
  156.7500    70.8510    24.8340     8.7720     8.0410     9.7480     2.2050   -21.0410 
  156.8750    71.3400    24.9790     9.3980     8.4180     9.9100     2.1960   -20.9950 
  157.0000    74.7470    25.0370     9.2230     8.0620     9.0480     2.2030   -20.9190 
  157.1250    80.4070    24.9530     7.9140     7.1520     7.6310     2.2340   -20.8410 
  157.2500    88.9700    24.8130     6.2850     6.2290     6.4110     2.2820   -20.7780 
  157.3750    96.7360    24.6970     5.0820     5.5750     5.6990     2.3290   -20.7480 
  157.5000    98.4240    24.6230     4.6940     5.3080     5.5670     2.3500   -20.7700 
  157.6250    91.4740    24.5530     5.3400     5.4820     5.9910     2.3250   -20.8530 
  157.7500    84.2030    24.4760     6.7220     5.9140     6.6630     2.2790   -20.9860 
  157.8750    82.9840    24.4250     8.1690     6.4090     7.2830     2.2460   -21.1560 
  158.0000    86.5710    24.4070     8.6530     6.7590     7.5930     2.2480   -21.3420 
  158.1250    88.9400    24.3980     7.6770     6.8510     7.5400     2.2780   -21.5290 
  158.2500    86.0330    24.3970     6.4990     6.8630     7.4640     2.3040   -21.7090 
  158.3750    80.7840    24.4070     6.1630     6.9800     7.6320     2.3090   -21.8640 
  158.5000    78.1530    24.4170     7.0150     7.3130     8.1430     2.2940   -21.9910 
  158.6250    80.6830    24.4170     8.6180     7.8620     8.9150     2.2690   -22.0800 
  158.7500    82.5470    24.4220     9.9340     8.4190     9.6250     2.2510   -22.1320 
  158.8750    81.9820    24.4450    10.4340     8.7660     9.9900     2.2520   -22.1680 
  159.0000    81.6410    24.4770    10.0730     8.7550     9.8670     2.2690   -22.1960 
  159.1250    82.5700    24.4760     9.1400     8.3830     9.3370     2.2830   -22.2230 
  159.2500    82.5880    24.4270     8.3260     7.9470     8.8180     2.2820   -22.2560 
  159.3750    80.9550    24.3630     7.8580     7.6970     8.6330     2.2770   -22.3110 
  159.5000    78.8390    24.3220     7.5770     7.8260     9.0220     2.2780   -22.3880 
  159.6250    76.1350    24.2870     8.2010     8.5900    10.3100     2.2830   -22.5060 
  159.7500    73.4820    24.2360    11.4980    10.0320    12.4850     2.2750   -22.6470 
  159.8750    71.5330    24.1920    18.3740    12.1700    15.4660     2.2510   -22.7970 
  160.0000    69.6990    24.1650    25.5300    14.8060    18.8790     2.2180   -22.9650 
  160.1250    69.5730    24.1670    26.9310    17.4050    21.9090     2.1920   -23.1470 
  160.2500    71.5820    24.2540    24.3180    19.4450    24.0320     2.1760   -23.3360 
  160.3750    73.8630    24.4350    22.2430    20.8930    25.4230     2.1640   -23.5280 
  160.5000    72.8930    24.6220    22.9480    22.1930    26.8320     2.1500   -23.7160 
  160.6250    66.7440    24.7150    27.3480    24.1610    29.3500     2.1440   -23.8900 
  160.7500    62.1790    24.7720    34.4260    27.1730    33.3210     2.1520   -24.0490 
  160.8750    63.9100    24.9000    42.5820    31.2600    38.6920     2.1650   -24.1890 
  161.0000    68.2400    25.1590    50.0300    36.1290    44.9880     2.1710   -24.3140 
  161.1250    66.9400    25.5080    54.8830    41.0660    51.1030     2.1630   -24.4020 
  161.2500    62.7230    25.7900    56.7710    45.1760    55.8320     2.1500   -24.4400 
  161.3750    61.7590    25.9270    56.5850    48.0070    58.7030     2.1350   -24.4370 
  161.5000    64.1790    25.9540    56.0950    49.6610    60.0890     2.1210   -24.4040 
  161.6250    65.1310    25.9500    55.8260    50.5580    60.7190     2.1150   -24.3350 
  161.7500    63.3500    25.9460    55.1480    51.2270    61.1960     2.1170   -24.2480 
  161.8750    60.6400    25.9430    54.5950    51.5760    61.2590     2.1180   -24.1480 
  162.0000    57.9390    25.9500    55.4560    50.9940    59.9760     2.1140   -24.0190 
  162.1250    58.4450    25.9750    56.2470    48.2940    55.8380     2.1170   -23.8840 
  162.2500    60.8550    25.9650    51.8300    43.5690    49.3250     2.1390   -23.7630 
  162.3750    62.5800    25.8870    41.4450    37.5530    41.6770     2.1710   -23.6490 
  162.5000    63.4830    25.7770    30.2580    31.4350    34.4110     2.1960   -23.5450 
  162.6250    67.0640    25.7030    23.9770    26.5030    28.9050     2.2000   -23.4440 
  162.7500    71.2410    25.6690    21.0060    23.0450    25.2410     2.2000   -23.3450 
  162.8750    71.9120    25.6500    19.3090    21.0290    23.2980     2.2220   -23.2520 
  163.0000    69.5310    25.6270    18.5290    20.2670    22.8120     2.2860   -23.1700 
  163.1250    67.1610    25.5700    19.6650    20.6230    23.5490     2.3830   -23.0950 
