~V
VERS. 2.00: Ver 2.00
~W
STRT.M 62.0000:
STOP.M 256.0000:
STEP.M 0.1250:
NULL. -999.2500:
UWI. DF32087:
~C
DEPT.M :
SP.MV :
GR.API :
RML.OHMM :
RI. :
RXO.OHMM :
CALI.CM :
DEN.GM/CC :
~A
# ...
  118.2500   -22.5750    66.4590     8.9330     7.4810     8.5880    25.5300     2.1370 
  118.3750   -22.5800    66.5970     9.1040     7.7350     8.4570    25.1630     2.1500 
  118.5000   -22.4750    68.6890     9.1280     7.8410     8.1910    25.0020     2.1680 
  118.6250   -22.2060    70.0300     8.9630     7.7550     8.0380    24.9920     2.1800 
  118.7500   -21.8710    70.1600     8.6310     7.5010     8.0500    25.0160     2.1860 
  118.8750   -21.5260    71.2660     8.1570     7.1030     7.8780    25.0820     2.1980 
  119.0000   -21.1870    73.9130     7.6070     6.6150     7.2190    25.1790     2.2200 
  119.1250   -20.9760    76.6980     7.0900     6.1250     6.2970    25.2810     2.2500 
  119.2500   -20.8360    78.7040     6.6970     5.7150     6.0450    25.3470     2.2760 
  119.3750   -20.8330    80.2750     6.4790     5.4330     5.9940    25.3680     2.2930 
  119.5000   -20.9120    80.2350     6.4410     5.2960     5.9690    25.3730     2.3010 
  119.6250   -21.1230    76.3220     6.5640     5.3080     5.9400    25.3870     2.3050 
  119.7500   -21.4250    72.4660     6.7530     5.4020     6.0520    25.4020     2.3130 
  119.8750   -21.7870    72.3470     6.9450     5.5320     6.3180    25.3680     2.3210 
  120.0000   -22.2250    76.1640     7.1060     5.6660     6.6050    25.2890     2.3190 
  120.1250   -22.6140    79.7560     7.2540     5.8070     6.8210    25.2450     2.2930 
  120.2500   -23.0550    79.7530     7.4760     6.0070     6.9240    25.3570     2.2500 
  120.3750   -23.4270    77.7370     7.8680     6.3400     6.9870    25.5730     2.2070 
  120.5000   -23.8050    76.5380     8.4970     6.8670     7.0600    25.5860     2.1800 
  120.6250   -24.1970    75.6000     9.3920     7.6270     7.8210    25.1390     2.1790 
  120.7500   -24.5070    73.2430    10.4060     8.5160    10.1770    24.7460     2.1900 
  120.8750   -24.7990    69.0570    11.4010     9.4260    14.3990    24.5390     2.2020 
  121.0000   -25.0080    64.5790    12.2490    10.2450    17.2090    24.4320     2.2100 
  121.1250   -25.2580    60.8920    12.8510    10.8680    14.4160    24.3660     2.2220 
  121.2500   -25.4140    58.8080    13.2530    11.3040    13.5180    24.3670     2.2470 
  121.3750   -25.5970    58.6700    13.4780    11.5590    17.6580    24.5020     2.2790 
  121.5000   -25.7220    60.0660    13.5110    11.6270    27.4080    24.6470     2.3030 
  121.6250   -25.8820    60.9910    13.2890    11.4680    24.8310    24.7050     2.2990 
  121.7500   -25.9900    60.5270    12.8970    11.1580    16.5280    24.7140     2.2720 
  121.8750   -26.1030    59.3540    12.5020    10.8230    12.8710    24.7140     2.2360 
  122.0000   -26.1860    58.3820    12.3380    10.6450    11.8540    24.7240     2.2120 
  122.1250   -26.2360    58.4790    12.6740    10.8550    11.4360    24.7580     2.2250 
  122.2500   -26.2620    58.6880    13.4300    11.4290    11.5840    24.8220     2.2660 
  122.3750   -26.2790    58.9040    14.3910    12.2340    12.0030    24.8610     2.3160 
  122.5000   -26.3260    59.9860    15.2260    13.0240    13.0980    24.8270     2.3490 
  122.6250   -26.3470    62.4810    15.5150    13.4580    18.1270    24.6910     2.3420 
  122.7500   -26.3810    65.6400    15.2200    13.4310    24.9360    24.6740     2.3060 
  122.8750   -26.4330    67.0220    14.4890    12.9920    24.2210    24.6810     2.2600 
  123.0000   -26.5210    66.3790    13.5950    12.3130    17.1920    24.6370     2.2220 
  123.1250   -26.6310    63.2440    12.8090    11.6050    14.9420    24.5620     2.1980 
  123.2500   -26.7260    60.5770    12.2210    11.0080    14.7090    24.5240     2.1820 
  123.3750   -26.8300    59.9090    11.8180    10.5570    13.4180    24.5570     2.1720 
  123.5000   -26.8630    60.4340    11.5500    10.2390    11.7250    24.6250     2.1670 
  123.6250   -26.9040    60.1960    11.3770    10.0400    10.9980    24.6380     2.1670 
  123.7500   -26.9430    60.2760    11.2560     9.9140    11.0670    24.6320     2.1710 
  123.8750   -26.9440    61.1670    11.1870     9.8560    11.1310    24.6350     2.1760 
  124.0000   -26.9180    61.5830    11.1800     9.8670    10.7430    24.6500     2.1800 
  124.1250   -26.8510    60.6470    11.2650     9.9670    10.4790    24.6800     2.1800 
  124.2500   -26.8330    58.7230    11.4350    10.1380    10.7570    24.7080     2.1780 
  124.3750   -26.7410    57.3410    11.6700    10.3610    11.1600    24.7310     2.1740 
  124.5000   -26.7050    58.1220    11.9110    10.5880    11.4560    24.7440     2.1670 
  124.6250   -26.5430    60.8500    12.0340    10.7180    11.4600    24.7720     2.1610 
  124.7500   -26.4080    61.6650    11.9460    10.6710    11.3460    24.7830     2.1550 
  124.8750   -26.2420    59.8370    11.5990    10.3980    11.2290    24.7710     2.1500 
  125.0000   -26.1000    59.4840    11.0220     9.9090    11.0180    24.7340     2.1480 
  125.1250   -25.9260    61.7720    10.3330     9.2830    10.4190    24.7190     2.1530 
  125.2500   -25.7460    63.7430     9.7290     8.6890     9.6870    24.7140     2.1700 
  125.3750   -25.6120    65.0430     9.3470     8.2530     8.7960    24.7080     2.1980 
  125.5000   -25.5020    67.0700     9.2650     8.0630     7.8790    24.6860     2.2340 
  125.6250   -25.4760    68.5220     9.5320     8.1860     8.1310    24.6360     2.2660 
  125.7500   -25.5080    67.4700    10.0120     8.5260     8.7590    24.6080     2.2830 
  125.8750   -25.5720    65.8800    10.5850     8.9890     9.7350    24.5770     2.2780 
  126.0000   -25.6490    63.8190    11.1210     9.4650    10.8750    24.5140     2.2550 
  126.1250   -25.7290    60.9030    11.4910     9.8350    11.4180    24.4380     2.2270 
  126.2500   -25.8230    60.0490    11.6870    10.0620    11.6590    24.3510     2.2050 
  126.3750   -25.8470    62.2440    11.7370    10.1500    11.2610    24.2440     2.1930 
  126.5000   -25.8560    63.4270    11.6840    10.1230    10.8640    24.1760     2.1910 
  126.6250   -25.8060    59.9010    11.5500     9.9950    10.5890    24.1390     2.1950 
  126.7500   -25.6970    56.9420    11.3590     9.8000    10.2730    24.0840     2.2010 
  126.8750   -25.5800    57.6690    11.1270     9.5590    10.0620    24.0270     2.2050 
  127.0000   -25.4530    60.9920    10.8850     9.3010     9.7560    24.0430     2.2060 
  127.1250   -25.3080    66.0990    10.6930     9.0870     9.5560    24.1090     2.2040 
  127.2500   -25.1080    70.4220    10.6070     8.9710     9.5060    24.1220     2.2000 
  127.3750   -24.9540    71.6550    10.6790     9.0020     9.7510    24.0890     2.1910 
  127.5000   -24.7330    69.2760    10.9550     9.2180     9.9870    24.0600     2.1800 
  127.6250   -24.5790    65.6970    11.4840     9.6650     9.9860    24.0490     2.1670 
  127.7500   -24.3420    63.1340    12.1590    10.2600    10.1900    24.0790     2.1610 
  127.8750   -24.0880    60.4190    12.8110    10.8760    10.7710    24.1960     2.1720 
  128.0000   -23.7200    57.0800    13.1880    11.3100    11.9850    24.3820     2.2090 
  128.1250   -23.3830    53.8900    12.9240    11.2500    13.6160    24.4670     2.2770 
  128.2500   -23.0210    53.4300    12.0180    10.6400    14.5050    24.4460     2.3530 
  128.3750   -22.6730    57.9690    10.6470     9.5720    13.2130    24.4850     2.4110 
  128.5000   -22.3280    66.4310     9.1630     8.3000    10.5060    24.7860     2.4360 
  128.6250   -22.0200    73.4830     7.9960     7.1750     7.6000    25.0520     2.4230 
  128.7500   -21.8030    79.0550     7.2990     6.3940     6.7010    25.1370     2.3950 
  128.8750   -21.6190    85.0510     7.0640     6.0010     6.7680    25.1120     2.3640 
  129.0000   -21.5410    89.1150     7.1720     5.9390     6.7240    25.0760     2.3320 
  129.1250   -21.4690    86.1090     7.4440     6.0990     6.8780    25.0120     2.2970 
  129.2500   -21.4040    79.5040     7.6520     6.2840     7.4560    24.8740     2.2630 
  129.3750   -21.3470    74.4100     7.6830     6.3780     7.9470    24.7280     2.2370 
