~V
VERS. 2.00: Ver 2.00
~W
STRT.M 60.0000:
STOP.M 229.0000:
STEP.M 0.1250:
NULL. -999.2500:
UWI. DF32026:
~C
DEPT.M :
SP.MV :
GR.API :
CALI.CM :
RXO.OHMM :
RI. :
RML.OHMM :
DEN.GM/CC :
~A
# ...
  195.0000    76.6830    68.1700    24.7200   108.3780   116.4320   120.2600     2.2040 
  195.1250    77.1560    67.3550    24.9280   100.2400   117.2440   120.7920     2.1870 
  195.2500    77.6070    67.5460    24.9840   112.1900   121.6690   125.0060     2.1730 
  195.3750    78.0490    69.1220    24.8900   136.2120   128.8580   131.9370     2.1720 
  195.5000    78.4700    70.9280    24.8000   151.6840   137.2730   139.9410     2.1820 
  195.6250    78.8390    71.4330    24.7340   149.6000   144.5660   146.7430     2.1980 
  195.7500    79.1870    71.4900    24.7050   145.6830   149.1710   151.0200     2.2200 
  195.8750    79.5030    73.0150    24.8450   150.8390   150.9480   152.6910     2.2450 
  196.0000    79.8000    73.9240    25.0180   165.9300   151.1090   152.8080     2.2680 
  196.1250    80.0730    70.3410    25.1840   170.2990   151.1540   152.8260     2.2840 
  196.2500    80.3710    67.0220    25.2320   162.8320   151.5090   153.5330     2.2930 
  196.3750    80.6820    66.3360    24.9910   154.5710   151.6550   155.1410     2.2940 
  196.5000    81.0020    66.9600    24.7610   154.6020   150.8680   157.4300     2.2820 
  196.6250    81.3150    67.0570    24.8580   167.7160   148.6140   159.4970     2.2510 
  196.7500    81.6330    68.7140    25.2130   171.4940   146.0400   160.8690     2.2150 
  196.8750    81.9520    72.9500    25.5290   162.6090   145.2930   162.8660     2.1950 
  197.0000    82.2830    76.3070    25.5790   152.7910   148.6160   168.1070     2.2190 
  197.1250    82.6290    73.0650    25.2710   149.3350   154.3670   176.2680     2.3050 
  197.2500    82.9840    66.1220    24.9870   150.3850   149.2610   175.9030     2.4190 
  197.3750    83.3080    61.4370    24.8420   166.6780   120.7600   152.2860     2.5180 
  197.5000    83.6070    63.2080    24.7300   210.2080    78.4820   106.2410     2.5630 
  197.6250    83.8800    67.2460    24.6300   179.6490    45.7350    61.7590     2.5390 
  197.7500    84.1190    68.6260    24.5370    96.2450    25.9740    32.9380     2.4800 
  197.8750    84.2990    68.3480    24.4640    29.5270    15.1010    17.5010     2.4160 
  198.0000    84.4120    68.3170    24.3760     9.6590     9.3950    10.0470     2.3720 
  198.1250    84.4290    70.0840    24.4220     6.7310     7.2670     6.4570     2.3590 
  198.2500    84.3690    72.3790    24.6660     5.9960     5.8100     5.3510     2.3620 
  198.3750    84.2590    73.5150    24.9720     5.9860     5.3330     5.1900     2.3730 
  198.5000    84.0950    72.9270    25.1880     6.4480     5.4960     5.5930     2.3840 
  198.6250    83.8750    71.7830    25.0610     7.0410     6.0690     6.2740     2.3920 
  198.7500    83.6040    74.5230    24.8750     7.4070     6.7640     6.9620     2.3920 
  198.8750    83.3370    82.8670    24.8490     7.7840     7.4290     7.5410     2.3900 
  199.0000    83.0880    94.9400    24.9820     8.2750     7.9550     7.9520     2.3940 
  199.1250    82.8930   102.0820    25.0750     8.6450     8.2740     8.1610     2.4060 
  199.2500    82.7220   101.9350    24.9510     8.9140     8.4420     8.2520     2.4190 
  199.3750    82.5830    99.7500    24.7160     9.0450     8.5030     8.2840     2.4290 
  199.5000    82.4900   100.4420    24.5440     9.0470     8.4920     8.3100     2.4380 
  199.6250    82.4670   100.6360    24.5200     9.0280     8.4410     8.3780     2.4460 
  199.7500    82.5150    98.7700    24.5200     8.9990     8.3790     8.4890     2.4440 
  199.8750    82.5990    99.2460    24.5650     8.9370     8.3090     8.6180     2.4310 
  200.0000    82.6980   103.1380    24.7390     8.8750     8.2350     8.7450     2.4150 
  200.1250    82.8060   105.5880    24.9750     8.8760     8.1570     8.8640     2.4060 
  200.2500    82.9200   104.3690    24.9420     8.9080     8.0750     8.9860     2.4000 
  200.3750    83.0580   102.0280    24.6650     9.0150     7.9830     9.1060     2.3910 
  200.5000    83.2040   102.9590    24.4420     9.1590     7.8760     9.2080     2.3800 
  200.6250    83.3670   108.6690    24.4030     9.2200     7.7290     9.2380     2.3730 
  200.7500    83.5150   113.4150    24.4170     9.1150     7.5230     9.1570     2.3710 
  200.8750    83.6720   113.0330    24.5110     8.9040     7.2720     8.9740     2.3730 
  201.0000    83.8450   109.6530    24.7200     8.7070     7.0470     8.7810     2.3790 
  201.1250    84.0210   109.4370    25.0260     8.6130     7.0150     8.8180     2.3830 
  201.2500    84.2170   111.6970    25.3200     8.7130     7.3100     9.2910     2.3790 
  201.3750    84.4070   113.8490    25.4890     9.3860     8.0760    10.4050     2.3640 
  201.5000    84.6070   113.0070    25.5400    11.3640     9.4440    12.3210     2.3410 
  201.6250    84.8270   107.3410    25.5390    15.8840    11.6220    15.2490     2.3170 
  201.7500    85.0740    99.8020    25.5360    21.0210    14.4500    18.8940     2.3010 
  201.8750    85.3480    93.9730    25.5350    24.9070    17.7060    22.8970     2.2990 
  202.0000    85.6620    90.5850    25.5340    27.5820    21.0140    26.7630     2.3200 
  202.1250    86.0280    86.6220    25.5090    30.1940    23.8060    29.8250     2.3710 
  202.2500    86.4280    83.1770    25.3110    32.9250    25.6750    31.7200     2.4300 
  202.3750    86.8590    81.5600    24.8570    35.1130    26.2370    32.0480     2.4730 
  202.5000    87.3150    80.1620    24.5020    35.9280    25.2810    30.5690     2.4870 
  202.6250    87.7640    75.6460    24.3820    33.7270    22.9100    27.4460     2.4790 
  202.7500    88.2060    70.7110    24.3960    28.6820    20.1040    23.9230     2.4700 
  202.8750    88.6160    70.1370    24.4180    22.5080    17.4880    20.7990     2.4680 
  203.0000    88.9930    72.8590    24.3560    17.5520    15.3540    18.4160     2.4640 
  203.1250    89.3120    73.0040    24.2540    15.6400    13.7420    16.7600     2.4430 
  203.2500    89.6060    70.4990    24.2020    15.0470    12.3810    15.3800     2.4050 
  203.3750    89.8590    69.9130    24.1820    14.5140    11.1290    14.0160     2.3640 
  203.5000    90.0730    73.3070    24.1410    12.7870     9.9490    12.5970     2.3340 
  203.6250    90.2430    77.7020    23.9060    10.4120     8.9510    11.3260     2.3220 
  203.7500    90.3930    80.0230    23.4380     8.7240     8.2180    10.4250     2.3240 
  203.8750    90.5420    80.1050    22.9240     8.2690     7.7960     9.9860     2.3380 
  204.0000    90.6700    80.0360    22.8060     8.3170     7.6680     9.9620     2.3590 
  204.1250    90.8050    82.0840    23.1590     8.5080     7.7750    10.2000     2.3750 
  204.2500    90.9020    83.6000    23.4670     8.7360     7.9530    10.4430     2.3850 
  204.3750    90.9950    80.6700    23.6410     8.9000     8.1100    10.5680     2.3970 
  204.5000    91.0790    75.5670    23.7510     8.7860     8.2040    10.5650     2.4140 
  204.6250    91.1360    74.0700    23.8420     8.4500     8.2420    10.5100     2.4310 
  204.7500    91.1770    74.1640    23.9460     8.2340     8.2640    10.4880     2.4430 
  204.8750    91.2000    72.6330    24.0920     8.2250     8.2910    10.5340     2.4470 
  205.0000    91.2070    71.0490    24.2200     8.4550     8.3320    10.6560     2.4450 
  205.1250    91.1900    72.6660    24.2820     8.9180     8.3830    10.8410     2.4420 
  205.2500    91.1650    76.2810    24.3210     9.2900     8.4260    11.0300     2.4430 
  205.3750    91.1290    78.7730    24.3350     9.3090     8.4320    11.1590     2.4450 
  205.5000    91.0910    77.0130    24.3110     9.1380     8.3690    11.1680     2.4400 
  205.6250    91.0560    70.9700    24.2900     9.1640     8.2180    11.0250     2.4240 
  205.7500    91.0150    67.0240    24.2790     9.0850     8.0290    10.8130     2.4100 
  205.8750    90.9600    69.4450    24.2640     8.6350     7.8630    10.6310     2.4120 
  206.0000    90.9020    75.5940    24.2430     7.9890     7.7810    10.5760     2.4330 
  206.1250    90.8430    77.4950    24.2610     7.7240     7.8450    10.7260     2.4580 
