~V
VERS. 2.00: Ver 2.00
~W
STRT.M 62.0000:
STOP.M 272.0000:
STEP.M 0.1250:
NULL. -999.2500:
UWI. DF32143:
~C
DEPT.M :
SP.MV :
GR.API :
CALI.CM :
RXO.OHMM :
RI. :
RML.OHMM :
DEN.GM/CC :
~A
# ...
  140.7500   -25.5370    62.8120    24.0460    10.5010     8.1820     9.7890     2.1470 
  140.8750   -25.7770    59.7180    24.0540    10.4640     8.2900     9.9380     2.1330 
  141.0000   -26.0060    57.4000    24.0480    10.4690     8.3610    10.0230     2.1290 
  141.1250   -26.1710    57.8070    24.0730    10.4510     8.3970    10.0640     2.1350 
  141.2500   -26.2710    59.3460    24.0970    10.5340     8.4220    10.0870     2.1450 
  141.3750   -26.3130    61.2890    24.0520    10.7140     8.4410    10.0960     2.1570 
  141.5000   -26.3230    62.4070    23.9090    10.8060     8.4560    10.0990     2.1680 
  141.6250   -26.3020    61.1840    23.7040    10.6690     8.4730    10.1240     2.1730 
  141.7500   -26.2690    60.5720    23.5330    10.5510     8.4990    10.1880     2.1720 
  141.8750   -26.2180    62.0660    23.4740    10.6610     8.5400    10.2860     2.1670 
  142.0000   -26.1520    63.4190    23.5700    10.9130     8.5960    10.3950     2.1660 
  142.1250   -26.0690    63.2390    23.8000    11.0090     8.6590    10.4830     2.1720 
  142.2500   -25.9620    63.6930    24.0230    10.9000     8.7090    10.5310     2.1800 
  142.3750   -25.8180    65.0980    24.1600    10.6990     8.7280    10.5300     2.1840 
  142.5000   -25.6440    64.9630    24.2080    10.4800     8.7070    10.4810     2.1860 
  142.6250   -25.4680    63.1510    24.1870    10.2600     8.6450    10.4010     2.1900 
  142.7500   -25.2880    62.7160    24.1240    10.0770     8.5710    10.3340     2.1970 
  142.8750   -25.0980    64.4240    24.0350     9.9370     8.5180    10.3250     2.2080 
  143.0000   -24.8880    66.9960    23.9510     9.8120     8.5160    10.4090     2.2230 
  143.1250   -24.6660    67.4930    23.8940     9.7580     8.5620    10.5530     2.2340 
  143.2500   -24.4270    65.8190    23.8630     9.8460     8.5690    10.5950     2.2290 
  143.3750   -24.1770    64.1850    23.8640     9.9700     8.4320    10.3710     2.2080 
  143.5000   -23.9460    65.7800    23.8950     9.7740     8.0940     9.8220     2.1840 
  143.6250   -23.7610    69.5880    23.9490     8.8520     7.5990     9.0780     2.1780 
  143.7500   -23.6480    71.0750    24.0030     7.6770     7.1350     8.4530     2.1930 
  143.8750   -23.6350    69.3100    24.0280     7.0080     6.8400     8.1520     2.2100 
  144.0000   -23.6880    66.2680    24.0130     7.3800     6.7970     8.2610     2.2100 
  144.1250   -23.7910    64.5750    23.9950     8.6520     7.0480     8.7830     2.1860 
  144.2500   -23.9360    64.0970    24.0070     9.7610     7.4630     9.4710     2.1600 
  144.3750   -24.1330    63.0230    24.0310    10.1430     7.9020    10.0810     2.1490 
  144.5000   -24.3370    60.8130    24.0450     9.9080     8.2130    10.3890     2.1550 
  144.6250   -24.5040    59.2280    24.0440     9.4340     8.2820    10.2760     2.1670 
  144.7500   -24.5950    61.2610    24.0400     8.9770     8.1990     9.9770     2.1710 
  144.8750   -24.5770    65.2030    24.0430     8.6600     8.0750     9.7050     2.1630 
  145.0000   -24.4630    67.1820    24.0590     8.5420     7.9890     9.5760     2.1450 
  145.1250   -24.2130    67.2660    24.0860     8.5780     7.9510     9.5640     2.1330 
  145.2500   -23.8100    68.8870    24.1060     8.6590     7.8800     9.4900     2.1380 
  145.3750   -23.2300    72.4190    24.1120     8.7530     7.6990     9.2190     2.1520 
  145.5000   -22.4920    74.8470    24.1070     8.6730     7.3700     8.7160     2.1630 
  145.6250   -21.5950    74.1870    24.1340     8.0160     6.9160     8.0570     2.1670 
  145.7500   -20.6030    73.7160    24.2360     6.9800     6.4400     7.4100     2.1780 
  145.8750   -19.5750    76.3730    24.4060     6.0780     6.0100     6.8670     2.2050 
  146.0000   -18.5680    81.4800    24.6070     5.6300     5.6640     6.4600     2.2390 
  146.1250   -17.6730    83.0840    24.8220     5.4880     5.4270     6.2020     2.2610 
  146.2500   -16.9870    80.8460    25.0360     5.3200     5.2760     6.0450     2.2640 
  146.3750   -16.5540    79.5870    25.1890     5.1400     5.1970     5.9610     2.2540 
  146.5000   -16.3630    83.0410    25.2200     5.1050     5.1730     5.9200     2.2470 
  146.6250   -16.4480    89.2880    25.1270     5.2480     5.1840     5.8950     2.2600 
  146.7500   -16.7340    90.9240    24.9940     5.2950     5.2020     5.8650     2.2860 
  146.8750   -17.1400    87.0180    24.8700     5.0600     5.2070     5.8170     2.3070 
  147.0000   -17.5730    82.9110    24.7590     4.6540     5.1850     5.7410     2.3110 
  147.1250   -17.9550    83.9220    24.6280     4.4390     5.1290     5.6420     2.2980 
  147.2500   -18.2000    86.6170    24.4740     4.4610     5.0520     5.5350     2.2890 
  147.3750   -18.2950    87.4280    24.3490     4.5480     4.9680     5.4290     2.2950 
  147.5000   -18.2460    87.1220    24.3130     4.6050     4.8840     5.3270     2.3130 
  147.6250   -18.0270    88.8910    24.3570     4.6590     4.7950     5.2240     2.3290 
  147.7500   -17.6780    92.0000    24.4150     4.6920     4.6940     5.1160     2.3400 
  147.8750   -17.2700    94.8180    24.4900     4.6780     4.5860     5.0100     2.3520 
  148.0000   -16.8700    97.0770    24.6480     4.6250     4.4820     4.9150     2.3660 
  148.1250   -16.5380    96.7860    24.9990     4.5550     4.4060     4.8450     2.3710 
  148.2500   -16.3020    94.8300    25.4200     4.5460     4.3690     4.8190     2.3610 
  148.3750   -16.1490    93.6570    25.6670     4.6730     4.3900     4.8700     2.3350 
  148.5000   -16.0940    95.3800    25.5910     4.8710     4.4850     5.0310     2.3040 
  148.6250   -16.1860    94.6900    25.3200     5.0210     4.6750     5.3290     2.2820 
  148.7500   -16.4210    87.6570    25.0970     5.3990     4.9370     5.7140     2.2800 
  148.8750   -16.7880    80.9660    24.9480     6.3210     5.2410     6.1300     2.3010 
  149.0000   -17.2800    81.0250    24.8740     7.4960     5.5450     6.5070     2.3350 
  149.1250   -17.8780    85.3500    24.9060     7.9500     5.7920     6.7720     2.3540 
  149.2500   -18.5290    87.1840    24.9300     7.5970     5.9630     6.9210     2.3390 
  149.3750   -19.1700    86.6050    24.8560     7.0290     6.0560     6.9660     2.2870 
  149.5000   -19.7400    85.6350    24.6680     6.7220     6.0820     6.9350     2.2180 
  149.6250   -20.1480    84.5920    24.4090     6.7040     6.0620     6.8690     2.1680 
  149.7500   -20.3640    84.3220    24.1820     6.7290     6.0560     6.8510     2.1550 
  149.8750   -20.3680    85.7230    24.0430     6.6250     6.1150     6.9580     2.1680 
  150.0000   -20.1740    86.3010    23.9440     6.3620     6.2830     7.2460     2.1910 
  150.1250   -19.8010    83.2300    23.7660     6.3740     6.5810     7.7270     2.2220 
  150.2500   -19.3390    80.0380    23.5610     7.0020     6.9310     8.2510     2.2620 
  150.3750   -18.8780    80.1750    23.4200     7.8520     7.2200     8.6210     2.3040 
  150.5000   -18.4710    84.1520    23.3700     8.0840     7.3210     8.6540     2.3290 
  150.6250   -18.1840    87.1330    23.5110     7.3420     7.1370     8.2630     2.3270 
  150.7500   -18.0100    87.8150    23.9180     6.5070     6.7850     7.6920     2.3120 
  150.8750   -17.9450    87.8480    24.4840     6.0830     6.3940     7.1530     2.2910 
  151.0000   -17.9580    87.2720    24.9470     6.0180     6.0760     6.7870     2.2630 
  151.1250   -18.0230    83.5260    25.1160     6.0660     5.9200     6.6830     2.2360 
  151.2500   -18.0930    78.5320    25.1500     6.1400     5.9120     6.7660     2.2190 
  151.3750   -18.1220    75.9600    25.1720     6.3190     6.0280     6.9820     2.2120 
  151.5000   -18.1050    77.6950    25.1940     6.7130     6.2450     7.2990     2.2060 
  151.6250   -18.0120    80.9140    25.2140     7.3860     6.5910     7.7620     2.1940 
  151.7500   -17.8830    81.7310    25.2790     8.2170     7.0880     8.4250     2.1860 
  151.8750   -17.7390    79.9160    25.4030     9.4020     7.7880     9.3700     2.2020 
