~V
VERS. 2.00: Ver 2.00
~W
STRT.M 60.0000:
STOP.M 276.0000:
STEP.M 0.1250:
NULL. -999.2500:
UWI. DF32145:
~C
DEPT.M :
SP.MV :
GR.API :
CALI.CM :
RXO.OHMM :
RI. :
RML.OHMM :
DEN.GM/CC :
~A
# ...
   82.5000   -24.5340   100.4320    23.7590     5.0030     4.3500     6.3250     2.3020 
   82.6250   -24.0660   104.9970    23.7060     4.8830     4.0590     5.9470     2.3240 
   82.7500   -23.7230   104.5820    23.6480     5.0850     4.0050     5.9430     2.3260 
   82.8750   -23.5400   101.9170    23.6000     5.4890     4.1610     6.2600     2.3130 
   83.0000   -23.5400   101.0980    23.5730     5.9870     4.4710     6.7990     2.2900 
   83.1250   -23.8140   100.1180    23.5660     6.6040     4.8690     7.4040     2.2640 
   83.2500   -24.2080    94.1260    23.5650     6.9710     5.2540     7.9140     2.2450 
   83.3750   -24.6100    87.0820    23.5650     7.0370     5.5830     8.2830     2.2390 
   83.5000   -25.0400    85.4070    23.5650     6.8820     5.8510     8.5540     2.2430 
   83.6250   -25.3990    88.5300    23.5650     6.8210     6.0810     8.8290     2.2440 
   83.7500   -25.6600    91.1820    23.5650     7.1260     6.3140     9.1880     2.2350 
   83.8750   -25.8150    90.5870    23.5740     7.8600     6.5440     9.6120     2.2180 
   84.0000   -25.8640    86.7780    23.6120     8.6210     6.6970     9.9300     2.2030 
   84.1250   -25.6640    81.6070    23.6960     9.0010     6.5870     9.7450     2.2010 
   84.2500   -25.3150    78.9660    23.7590     9.1370     6.1760     8.9780     2.2140 
   84.3750   -24.8560    81.1200    23.7810     8.9850     5.5690     7.8830     2.2430 
   84.5000   -24.2720    88.5030    23.7750     7.8990     4.9720     6.9000     2.2820 
   84.6250   -23.7050    98.4600    23.7490     6.3920     4.6400     6.4830     2.3210 
   84.7500   -23.1770   105.9530    23.7130     5.8690     4.6490     6.6880     2.3640 
   84.8750   -22.7230   106.3710    23.6920     7.0110     4.9940     7.4780     2.4160 
   85.0000   -22.3930    99.4400    23.6590     8.8600     5.5760     8.6540     2.4740 
   85.1250   -22.3720    91.0650    23.5400     9.8530     6.1740     9.7290     2.5040 
   85.2500   -22.5640    86.3910    23.3350     9.2610     6.5710    10.2620     2.4850 
   85.3750   -22.9530    85.5950    23.1340     8.1900     6.7460    10.2780     2.4190 
   85.5000   -23.5400    86.8870    23.0140     7.6360     6.8470    10.1840     2.3280 
   85.6250   -24.2200    86.7120    22.9830     8.2750     7.1090    10.4820     2.2530 
   85.7500   -24.9460    84.2290    22.9780     9.7700     7.5790    11.2240     2.2100 
   85.8750   -25.6670    81.4060    22.9780    11.1000     8.1460    12.1650     2.1940 
   86.0000   -26.2970    80.3880    22.9780    11.3250     8.5910    12.8610     2.1940 
   86.1250   -26.8140    80.5700    22.9780    10.7180     8.6740    12.8440     2.1950 
   86.2500   -27.2940    79.4750    22.9780    10.0460     8.4560    12.3100     2.1900 
   86.3750   -27.6600    77.6160    22.9780     9.4670     8.0900    11.6170     2.1830 
   86.5000   -27.8950    77.2640    22.9780     9.0130     7.7280    11.0650     2.1820 
   86.6250   -28.0220    77.7760    22.9780     8.8750     7.4660    10.7880     2.1910 
   86.7500   -28.1420    77.4590    22.9780     8.9550     7.2720    10.6680     2.2020 
   86.8750   -28.1900    77.2250    22.9780     9.0920     7.1080    10.6040     2.2060 
   87.0000   -28.2430    79.4840    22.9780     9.1190     6.9470    10.5270     2.1980 
   87.1250   -28.2990    85.0890    22.9780     8.9550     6.7960    10.4300     2.1850 
   87.2500   -28.4080    89.4460    22.9780     8.7600     6.6830    10.3620     2.1790 
   87.3750   -28.5940    88.7560    22.9780     8.6750     6.6300    10.3700     2.1840 
   87.5000   -28.7920    84.7160    22.9780     8.8780     6.6420    10.4740     2.1950 
   87.6250   -29.1020    82.1070    22.9780     9.2830     6.7060    10.6420     2.2090 
   87.7500   -29.4020    80.8730    22.9780     9.5130     6.7750    10.7940     2.2170 
   87.8750   -29.7300    77.1210    22.9780     9.4610     6.8260    10.8800     2.2130 
   88.0000   -30.0550    70.6580    22.9780     9.3820     6.8480    10.8890     2.1940 
   88.1250   -30.4360    67.8830    22.9960     9.4320     6.8580    10.8440     2.1720 
   88.2500   -30.7740    69.6890    23.0430     9.4790     6.8850    10.8050     2.1640 
   88.3750   -31.0440    72.0250    23.1060     9.4680     6.9460    10.8140     2.1720 
   88.5000   -31.3230    72.0480    23.1680     9.5430     7.0440    10.8830     2.1890 
   88.6250   -31.5250    71.1380    23.2020    10.0520     7.1560    10.9960     2.2050 
   88.7500   -31.7230    72.5020    23.2370    10.9530     7.2510    11.1020     2.2140 
   88.8750   -31.8530    74.9200    23.2650    11.5070     7.3070    11.1470     2.2130 
   89.0000   -31.9580    75.6390    23.2770    11.2060     7.3080    11.0910     2.2010 
   89.1250   -31.9520    73.9350    23.3150    10.3480     7.2360    10.9170     2.1810 
   89.2500   -31.8080    71.9170    23.4080     9.8600     7.1060    10.6870     2.1650 
   89.3750   -31.5600    70.9290    23.5170     9.5530     6.9520    10.4600     2.1570 
   89.5000   -31.1710    70.8420    23.5880     9.2610     6.8010    10.2600     2.1580 
   89.6250   -30.6740    70.6450    23.6270     9.0070     6.6650    10.0420     2.1580 
   89.7500   -30.0580    69.8900    23.6640     8.8440     6.5290     9.7610     2.1550 
   89.8750   -29.3780    69.5090    23.6800     8.6540     6.3770     9.4260     2.1550 
   90.0000   -28.5970    70.2450    23.6910     8.1970     6.1930     9.0800     2.1730 
   90.1250   -27.7090    73.2180    23.7120     7.3010     5.9790     8.7610     2.2120 
   90.2500   -26.8550    78.0260    23.7340     6.4870     5.7570     8.4760     2.2550 
   90.3750   -26.0790    82.9060    23.7210     6.1390     5.5490     8.2170     2.2880 
   90.5000   -25.4370    86.0170    23.7000     6.1480     5.3680     7.9750     2.3010 
   90.6250   -24.9370    86.6610    23.6910     6.0980     5.2400     7.7950     2.2950 
   90.7500   -24.5980    86.8990    23.6910     6.1000     5.1860     7.7290     2.2770 
   90.8750   -24.4200    86.2300    23.6890     6.3490     5.2130     7.7960     2.2520 
   91.0000   -24.3210    84.1400    23.6860     6.9110     5.3040     7.9470     2.2210 
   91.1250   -24.3010    82.8060    23.6870     7.8140     5.4090     8.0550     2.1990 
   91.2500   -24.2570    83.2480    23.7000     8.9800     5.4460     8.0010     2.1990 
   91.3750   -24.1800    86.6670    23.7360     9.5520     5.3660     7.7500     2.2260 
   91.5000   -24.0340    91.6330    23.7530     8.5790     5.1840     7.3810     2.2680 
   91.6250   -23.8250    96.4050    23.7290     6.9350     4.9710     7.0490     2.2970 
   91.7500   -23.5460    99.7910    23.6950     6.1400     4.8080     6.8310     2.3000 
   91.8750   -23.1940    98.8550    23.6810     6.0920     4.7160     6.7140     2.2870 
   92.0000   -22.8630    94.0140    23.6800     6.0950     4.6830     6.6510     2.2790 
   92.1250   -22.5590    88.5990    23.6800     5.9140     4.6690     6.5840     2.2860 
   92.2500   -22.3380    88.1660    23.6800     5.6900     4.6410     6.4860     2.2980 
   92.3750   -22.1670    92.6380    23.6800     5.6360     4.5970     6.3680     2.3100 
   92.5000   -22.0270    96.2690    23.6800     5.8220     4.5490     6.2560     2.3240 
   92.6250   -21.8780    96.8450    23.6800     5.9540     4.5110     6.1710     2.3360 
   92.7500   -21.7470    98.3250    23.6800     5.8220     4.4900     6.1160     2.3380 
   92.8750   -21.6700   101.9980    23.6800     5.5810     4.4940     6.1070     2.3290 
   93.0000   -21.6490   103.3540    23.6800     5.5000     4.5330     6.1620     2.3160 
   93.1250   -21.6780   100.2340    23.6800     5.6450     4.6170     6.3060     2.3060 
   93.2500   -21.7070    98.4270    23.6790     5.7980     4.7250     6.5100     2.2980 
   93.3750   -21.7450    99.8040    23.6780     5.9060     4.8250     6.7240     2.2960 
   93.5000   -21.7950   102.1060    23.6760     5.8950     4.8840     6.8780     2.2990 
   93.6250   -21.9040   102.3440    23.6820     5.8030     4.8550     6.8890     2.3040 
