~V
VERS. 2.00: Ver 2.00
~W
STRT.M 62.0000:
STOP.M 243.0000:
STEP.M 0.1250:
NULL. -999.2500:
UWI. DF32072:
~C
DEPT.M :
SP.MV :
GR.API :
CALI.CM :
RXO.OHMM :
RI. :
RML.OHMM :
DEN.GM/CC :
~A
# ...
   84.5000   -33.1530    89.3970    22.9660     8.1960     8.4990    11.6360     2.2770 
   84.6250   -33.2240    82.7720    22.8480     8.3610     8.2930    11.2680     2.2380 
   84.7500   -33.2330    75.2150    22.8220     8.4560     8.0190    10.8070     2.1950 
   84.8750   -33.1870    71.6640    22.7560     8.4030     7.7230    10.3370     2.1660 
   85.0000   -33.0500    70.9390    22.7260     8.1870     7.4690     9.9680     2.1480 
   85.1250   -32.8620    70.1000    22.7590     7.8970     7.3390     9.8220     2.1320 
   85.2500   -32.5680    69.2360    22.9540     7.7280     7.3140     9.8600     2.1190 
   85.3750   -32.2320    68.0360    23.3560     7.7650     7.3250     9.9780     2.1180 
   85.5000   -31.7930    67.3410    23.6450     7.7920     7.2730    10.0160     2.1290 
   85.6250   -31.3300    67.1910    23.7360     7.4530     7.0250     9.7570     2.1430 
   85.7500   -30.8810    67.2400    23.7360     6.7720     6.5700     9.1610     2.1610 
   85.8750   -30.4470    70.1990    23.7370     6.1130     5.9580     8.3060     2.1880 
   86.0000   -30.1160    77.0430    23.6390     5.6470     5.3010     7.3860     2.2280 
   86.1250   -29.9020    82.8540    23.6200     5.2390     4.7640     6.6730     2.2710 
   86.2500   -29.8590    84.4030    23.5830     4.7740     4.4350     6.2890     2.2930 
   86.3750   -29.9490    84.5420    23.7360     4.5190     4.3620     6.2820     2.2820 
   86.5000   -30.1830    85.7270    23.7440     4.8090     4.5540     6.6490     2.2480 
   86.6250   -30.4980    83.8920    23.5560     5.6540     5.0080     7.3630     2.2120 
   86.7500   -30.8170    78.0020    23.5120     6.4850     5.6050     8.2240     2.1930 
   86.8750   -31.1500    74.9270    23.7050     6.9930     6.2530     9.0690     2.1900 
   87.0000   -31.3910    78.6680    23.8320     7.2710     6.8610     9.7640     2.1970 
   87.1250   -31.5340    81.8200    23.6580     7.5900     7.3360    10.2190     2.2120 
   87.2500   -31.5580    80.0050    23.2680     7.9470     7.6710    10.5110     2.2250 
   87.3750   -31.4590    78.5880    22.8930     8.2300     7.8640    10.6780     2.2240 
   87.5000   -31.2750    82.9420    22.8510     8.3020     7.8890    10.6820     2.2050 
   87.6250   -31.0110    85.7980    23.1900     8.1330     7.6680    10.3700     2.1830 
   87.7500   -30.7440    82.2840    23.6230     7.8670     7.2340     9.7600     2.1780 
   87.8750   -30.4630    78.4020    23.8190     7.4950     6.6500     8.9580     2.1940 
   88.0000   -30.2380    79.9780    23.9170     6.8900     6.0320     8.1440     2.2220 
   88.1250   -30.0750    84.8030    24.1620     6.1880     5.5430     7.5540     2.2410 
   88.2500   -29.9630    87.9790    24.4360     5.7630     5.2590     7.2680     2.2410 
   88.3750   -29.9340    89.5520    24.4590     5.7200     5.1910     7.2890     2.2290 
   88.5000   -29.9140    89.3880    24.1970     5.9080     5.2970     7.5450     2.2170 
   88.6250   -29.9160    86.8990    24.3780     6.0910     5.4860     7.8890     2.2140 
   88.7500   -29.9420    86.3330    24.6010     6.1030     5.6150     8.1030     2.2180 
   88.8750   -30.0140    87.9880    24.5400     5.9670     5.6040     8.0670     2.2310 
   89.0000   -30.0970    89.1030    24.1070     5.7750     5.4520     7.8000     2.2500 
   89.1250   -30.2240    88.9350    23.7960     5.6300     5.2320     7.4450     2.2580 
   89.2500   -30.4420    90.6430    23.6660     5.4840     5.0410     7.1590     2.2550 
   89.3750   -30.6920    93.1200    23.6190     5.4370     4.9280     7.0030     2.2500 
   89.5000   -31.0730    93.2440    23.5580     5.6370     4.9180     7.0050     2.2530 
   89.6250   -31.5450    89.7180    23.5050     5.9420     5.0520     7.2130     2.2620 
   89.7500   -32.1040    85.6710    23.6040     6.0130     5.3200     7.6150     2.2670 
   89.8750   -32.6910    82.7670    23.8360     6.0030     5.7210     8.2160     2.2690 
   90.0000   -33.2690    81.2330    24.0480     6.3320     6.2300     8.9770     2.2730 
   90.1250   -33.8210    78.5410    23.9790     7.1390     6.7680     9.7570     2.2740 
   90.2500   -34.2670    73.4330    23.7950     7.8490     7.2070    10.3380     2.2600 
   90.3750   -34.6530    68.4280    23.8290     8.3470     7.4620    10.5730     2.2270 
   90.5000   -34.9470    65.8910    24.0220     8.6370     7.5050    10.4450     2.1840 
   90.6250   -35.1540    66.3390    24.1440     8.6210     7.3740    10.0690     2.1460 
   90.7500   -35.2850    66.7930    24.1590     8.4270     7.2010     9.6910     2.1230 
   90.8750   -35.3210    67.0390    24.1620     8.2620     7.0570     9.4290     2.1180 
   91.0000   -35.3370    69.1310    24.1670     8.2050     6.9680     9.2930     2.1260 
   91.1250   -35.2340    73.7320    24.1690     8.1830     6.9260     9.2400     2.1420 
   91.2500   -35.1150    77.0700    24.1740     8.0730     6.9210     9.2330     2.1590 
   91.3750   -34.9550    77.1160    24.1910     7.8610     6.9770     9.3130     2.1750 
   91.5000   -34.7270    75.2410    24.2300     7.6470     7.1150     9.5370     2.1880 
   91.6250   -34.4090    74.0420    24.2640     7.5570     7.3090     9.8920     2.1990 
   91.7500   -34.0200    73.3170    24.3010     7.6330     7.4220    10.1580     2.2100 
   91.8750   -33.6720    72.4590    24.3350     7.7910     7.2880    10.0490     2.2210 
   92.0000   -33.3240    71.0060    24.3520     7.7960     6.7990     9.3730     2.2260 
   92.1250   -33.0500    70.9390    24.3710     7.1990     6.0000     8.2170     2.2310 
   92.2500   -32.8880    75.2470    24.3750     6.0880     5.1880     7.0850     2.2430 
   92.3750   -32.8590    84.3710    24.2980     5.0740     4.5800     6.3130     2.2570 
   92.5000   -32.9280    93.6410    24.1280     4.6840     4.3030     6.0690     2.2590 
   92.6250   -33.2220    94.2920    23.9870     5.2520     4.4710     6.4850     2.2430 
   92.7500   -33.6200    88.9640    23.9060     6.2050     4.9900     7.4010     2.2260 
   92.8750   -33.9910    84.0260    23.9180     7.0520     5.7690     8.6460     2.2140 
   93.0000   -34.3670    81.1050    23.9400     7.5080     6.6410     9.9200     2.2030 
   93.1250   -34.7790    77.7230    23.9400     7.6870     7.3570    10.7860     2.1930 
   93.2500   -35.0990    74.7280    23.9400     7.8160     7.7950    11.1350     2.1880 
   93.3750   -35.2870    73.6460    23.9410     7.9170     7.9600    11.0860     2.1900 
   93.5000   -35.4780    73.8880    23.9440     8.0140     7.9390    10.8550     2.1970 
   93.6250   -35.6320    73.5350    23.9490     8.1180     7.8240    10.6100     2.2020 
   93.7500   -35.7280    72.4030    23.9510     8.1940     7.6990    10.4130     2.1960 
   93.8750   -35.8240    70.3820    23.9520     8.2120     7.6010    10.2750     2.1790 
   94.0000   -35.9290    68.3990    23.9550     8.2000     7.5330    10.1890     2.1590 
   94.1250   -36.0310    68.5960    23.9900     8.2350     7.4700    10.1240     2.1550 
   94.2500   -36.1210    70.0260    24.0630     8.3510     7.3720    10.0330     2.1710 
   94.3750   -36.2200    71.1960    24.1320     8.4100     7.2180     9.8790     2.1980 
   94.5000   -36.2890    71.7880    24.1660     8.2410     7.0080     9.6470     2.2200 
   94.6250   -36.3410    74.7120    24.1690     7.7640     6.7750     9.3620     2.2170 
   94.7500   -36.3710    79.5490    24.1700     7.3990     6.5740     9.1000     2.1940 
   94.8750   -36.3830    82.2540    24.1700     7.2480     6.4370     8.9200     2.1660 
   95.0000   -36.3620    79.8640    24.1700     7.2480     6.3750     8.8430     2.1490 
   95.1250   -36.1640    75.1020    24.1700     7.3310     6.3790     8.8500     2.1450 
   95.2500   -35.9140    72.8710    24.1700     7.3930     6.4070     8.8630     2.1430 
   95.3750   -35.6640    72.6500    24.1700     7.4010     6.4280     8.8400     2.1430 
   95.5000   -35.3430    73.4680    24.1700     7.3860     6.4280     8.7690     2.1480 
   95.6250   -34.9270    75.0560    24.1750     7.3720     6.4110     8.6740     2.1620 
