~V
VERS. 2.00: Ver 2.00
~W
STRT.M 61.0000:
STOP.M 238.0000:
STEP.M 0.1250:
NULL. -999.2500:
UWI. DF32044:
~C
DEPT.M :
DEN.GM/CC :
SP.MV :
GR.API :
RML.OHMM :
RI. :
RXO.OHMM :
CALI.CM :
~A
# ...
  139.7500     2.4800   -22.7570    61.2710    17.5070    15.5510    17.0780    24.1110 
  139.8750     2.4760   -22.7360    63.7240    18.2930    16.2960    17.8620    23.9840 
  140.0000     2.4730   -22.7230    64.4260    18.9980    17.0030    18.3820    23.8540 
  140.1250     2.4740   -22.8420    62.1920    19.5460    17.5940    19.4790    23.7760 
  140.2500     2.4810   -22.9000    59.8080    19.9360    18.0550    20.3940    23.7310 
  140.3750     2.4940   -22.8710    58.5390    20.1590    18.3730    20.4080    23.6720 
  140.5000     2.5090   -22.9130    58.4950    20.2210    18.5430    19.9170    23.6010 
  140.6250     2.5200   -23.0210    60.2520    20.1350    18.5640    19.8110    23.5660 
  140.7500     2.5260   -23.0350    60.6520    19.9860    18.5070    19.8560    23.5510 
  140.8750     2.5280   -23.0210    58.2980    19.8350    18.4240    19.7570    23.5560 
  141.0000     2.5320   -23.1080    53.8900    19.7090    18.3470    19.4590    23.6040 
  141.1250     2.5400   -23.0670    51.1910    19.5790    18.2670    18.9960    23.7280 
  141.2500     2.5500   -22.9220    51.1160    19.3820    18.1380    18.7830    23.7890 
  141.3750     2.5580   -22.8960    51.6110    19.0650    17.9140    18.6980    23.7890 
  141.5000     2.5620   -22.8450    51.5080    18.6150    17.5730    18.1710    23.7970 
  141.6250     2.5640   -22.6440    51.2190    18.0910    17.1450    17.1510    23.8710 
  141.7500     2.5670   -22.5130    51.2670    17.6250    16.7400    16.3140    23.9580 
  141.8750     2.5700   -22.4410    51.6720    17.3030    16.4370    15.6260    24.0050 
  142.0000     2.5730   -22.2350    51.2730    17.1420    16.2670    14.9960    24.0100 
  142.1250     2.5710   -22.1040    49.6470    17.0790    16.2030    15.1180    23.9940 
  142.2500     2.5640   -22.1160    47.5590    16.9870    16.1420    16.1120    23.9890 
  142.3750     2.5510   -22.0640    48.3450    16.8050    16.0240    17.0240    23.9530 
  142.5000     2.5360   -21.9910    52.8520    16.5080    15.8560    16.7990    23.8990 
  142.6250     2.5240   -22.0240    57.3560    16.3360    15.7760    15.8180    23.8260 
  142.7500     2.5170   -22.0950    58.2110    16.5590    15.9850    15.1830    23.7850 
  142.8750     2.5130   -22.1470    58.0150    17.5720    16.6780    15.1150    23.7820 
  143.0000     2.5100   -22.2410    60.4050    19.4280    17.9860    15.7180    23.7680 
  143.1250     2.5040   -22.4040    65.6080    22.5090    19.9860    17.6850    23.7610 
  143.2500     2.4910   -22.5740    70.5860    26.0570    22.3540    21.6040    23.7760 
  143.3750     2.4730   -22.7340    74.1660    29.1150    24.7630    27.3480    23.8240 
  143.5000     2.4540   -22.9740    75.6080    31.3600    26.8850    32.6960    23.8700 
  143.6250     2.4380   -23.3290    77.8100    32.9770    28.4440    33.4570    23.8610 
  143.7500     2.4230   -23.6170    82.2180    34.3020    29.6400    32.5170    23.8400 
  143.8750     2.4080   -23.9650    84.3120    35.7860    30.8270    33.7900    23.7980 
  144.0000     2.3880   -24.4750    79.2570    37.9440    32.4690    37.7800    23.7770 
  144.1250     2.3650   -24.5590    69.7360    41.5370    35.2700    41.1160    23.7880 
  144.2500     2.3420   -24.9450    63.7660    46.8160    39.5230    42.8870    23.8190 
  144.3750     2.3210   -25.3590    62.1140    54.0110    45.4520    47.1690    23.8300 
  144.5000     2.3010   -25.9090    62.6500    63.0320    52.9820    57.5670    23.8310 
  144.6250     2.2820   -26.3500    65.0620    73.3660    61.6640    75.3600    23.8310 
  144.7500     2.2630   -26.7090    67.0240    83.5320    70.2440    92.0500    23.8310 
  144.8750     2.2470   -27.0900    67.4860    92.2370    77.6710   100.7220    23.8330 
  145.0000     2.2360   -27.3380    68.1060    98.5960    83.2380   102.3730    23.8380 
  145.1250     2.2310   -27.5070    68.9910   102.2400    86.6180    98.4240    23.8400 
  145.2500     2.2290   -27.7130    67.7440   104.3950    88.7630    93.1010    23.8410 
  145.3750     2.2290   -27.7400    64.3960   105.9090    90.3960    92.1660    23.8460 
  145.5000     2.2310   -27.6490    61.1850   107.3500    92.0820    97.3330    23.8560 
  145.6250     2.2340   -27.6720    59.0380   109.1280    94.2800   103.1230    23.8680 
  145.7500     2.2370   -27.5880    58.5010   111.4720    97.1430   104.5180    23.8520 
  145.8750     2.2400   -27.3990    59.9450   114.5120   100.7110   103.5840    23.8430 
  146.0000     2.2390   -27.3380    61.7050   117.9970   104.7100   102.9760    23.8410 
  146.1250     2.2330   -27.2030    62.3610   120.6150   108.0300   103.4540    23.8410 
  146.2500     2.2210   -26.9380    62.9670   120.4940   109.0910   105.7100    23.8420 
  146.3750     2.2090   -26.7870    62.9060   115.9310   106.3840   108.8590    23.8540 
  146.5000     2.2010   -26.7270    61.5620   106.2190    99.0920   101.6280    23.8940 
  146.6250     2.2050   -26.5270    60.8930    91.7970    87.1030    67.4240    23.9510 
  146.7500     2.2210   -26.2880    60.9040    75.9580    73.0360    38.9720    23.9530 
  146.8750     2.2440   -26.1440    61.7080    61.2210    59.1400    28.0840    23.8710 
  147.0000     2.2670   -25.9640    63.6210    49.3660    47.3320    30.4810    23.7450 
  147.1250     2.2840   -25.7380    65.4900    41.8220    39.3310    40.3080    23.6790 
  147.2500     2.2940   -25.6840    66.8320    38.0700    34.9180    40.0080    23.6290 
  147.3750     2.2980   -25.5920    69.9370    38.0460    34.0640    29.0390    23.5380 
  147.5000     2.2950   -25.3720    75.6780    41.6860    36.6800    22.4280    23.4160 
  147.6250     2.2820   -25.3110    77.4800    49.1590    42.9310    26.4120    23.3530 
  147.7500     2.2630   -25.3170    72.9040    58.7630    51.2920    41.0300    23.3590 
  147.8750     2.2420   -25.2780    66.3540    68.6340    60.1340    64.9880    23.3700 
  148.0000     2.2240   -25.2990    63.4760    76.5270    67.4720    82.0470    23.3720 
  148.1250     2.2160   -25.3050    66.3080    80.0510    71.1510    78.1470    23.3720 
  148.2500     2.2180   -25.2560    70.5720    80.0620    71.6740    71.8610    23.3720 
  148.3750     2.2290   -25.2850    73.7800    78.3890    70.4080    72.9890    23.3720 
  148.5000     2.2440   -25.3170    73.7280    77.2750    69.1980    79.7970    23.3720 
  148.6250     2.2590   -25.1740    69.3390    79.0260    70.0850    83.0520    23.3720 
  148.7500     2.2670   -25.1070    64.2980    83.6680    73.4200    81.5410    23.3720 
  148.8750     2.2670   -25.0990    62.3450    89.8080    78.3500    84.6510    23.3720 
  149.0000     2.2570   -24.9270    63.3400    94.4310    82.6230    98.0080    23.3720 
  149.1250     2.2440   -24.8240    63.7090    92.2630    81.9650   118.8690    23.3720 
  149.2500     2.2380   -24.7890    64.2740    81.7450    74.5180   133.5590    23.3670 
  149.3750     2.2480   -24.6810    66.6210    64.8510    61.0060   129.8070    23.3390 
  149.5000     2.2760   -24.5240    69.0300    46.9170    45.1380   101.7030    23.2670 
  149.6250     2.3170   -24.5100    69.7110    33.4910    32.0090    57.3880    23.1970 
  149.7500     2.3550   -24.5270    69.6110    24.8650    23.1410    29.1950    23.1790 
  149.8750     2.3790   -24.4480    69.5930    20.0620    18.0220    17.1880    23.1890 
  150.0000     2.3860   -24.4200    70.5030    18.0730    15.6540    13.3880    23.1940 
  150.1250     2.3780   -24.5040    73.7770    18.4840    15.5440    14.1210    23.1770 
  150.2500     2.3640   -24.4720    77.6010    20.4520    16.9370    16.3840    23.1460 
  150.3750     2.3480   -24.4310    78.2960    23.5430    19.5250    19.2710    23.1400 
  150.5000     2.3310   -24.5970    75.7700    27.1720    22.8470    23.1400    23.1830 
  150.6250     2.3160   -24.6690    73.6080    30.4040    26.0930    27.0800    23.2500 
  150.7500     2.3030   -24.6280    71.8860    32.3930    28.3680    29.7920    23.2730 
  150.8750     2.2940   -24.7330    71.9390    32.6300    29.0830    31.2050    23.2440 
