~V
VERS. 2.00: Ver 2.00
~W
STRT.M 62.0000:
STOP.M 282.0000:
STEP.M 0.1250:
NULL. -999.2500:
UWI. DF32160:
~C
DEPT.M :
GR.API :
CALI.CM :
RXO.OHMM :
RI. :
RML.OHMM :
DEN.GM/CC :
SP.MV :
~A
# ...
  163.2500    64.9810    25.4630    21.9660    21.5320    24.7910     2.4690   -23.0200 
  163.3750    62.6850    25.3230    23.9290    22.5420    25.9780     2.5230   -22.9420 
  163.5000    60.5940    25.1880    24.4470    23.2240    26.6350     2.5500   -22.8490 
  163.6250    59.2970    25.1190    23.4490    23.2250    26.4380     2.5650   -22.7530 
  163.7500    61.0460    25.1650    22.0100    22.7180    25.7100     2.5740   -22.6550 
  163.8750    65.4130    25.3070    20.7810    21.9660    24.8010     2.5780   -22.5570 
  164.0000    67.9310    25.4560    20.0000    21.2260    24.0020     2.5780   -22.4690 
  164.1250    65.2090    25.5300    19.6110    20.6820    23.5000     2.5770   -22.3830 
  164.2500    60.7130    25.5570    19.4260    20.3430    23.2630     2.5750   -22.2960 
  164.3750    56.6830    25.5800    19.4430    20.1840    23.2540     2.5700   -22.2290 
  164.5000    53.6270    25.5960    19.5840    20.1600    23.4100     2.5640   -22.1920 
  164.6250    53.5870    25.5870    19.8910    20.1980    23.6320     2.5630   -22.1790 
  164.7500    56.2860    25.5710    20.2760    20.1990    23.7850     2.5650   -22.1850 
  164.8750    58.3150    25.5610    20.2870    20.1040    23.7780     2.5660   -22.2110 
  165.0000    58.1280    25.5520    19.6250    19.8950    23.5800     2.5630   -22.2520 
  165.1250    58.2040    25.5230    18.8580    19.6030    23.2310     2.5570   -22.3020 
  165.2500    59.9380    25.4970    18.7810    19.3180    22.8800     2.5540   -22.3630 
  165.3750    60.3360    25.5000    19.4050    19.1150    22.6450     2.5550   -22.4200 
  165.5000    58.4180    25.5370    20.3760    19.0530    22.6080     2.5580   -22.4650 
  165.6250    58.0650    25.5800    21.4020    19.2030    22.8490     2.5630   -22.4860 
  165.7500    60.4390    25.6070    22.1310    19.5270    23.3020     2.5730   -22.4780 
  165.8750    62.9390    25.6160    22.5560    19.9780    23.9050     2.5870   -22.4410 
  166.0000    63.9230    25.6260    23.1200    20.4830    24.5710     2.5940   -22.3670 
  166.1250    65.6690    25.6440    23.8110    20.9000    25.1180     2.5810   -22.2830 
  166.2500    67.0240    25.6520    23.5690    21.0080    25.2360     2.5650   -22.2030 
  166.3750    65.8610    25.6360    22.2470    20.5210    24.5450     2.5620   -22.1290 
  166.5000    62.4270    25.6050    20.8470    19.2600    22.8400     2.5760   -22.0680 
  166.6250    60.5310    25.5830    19.3960    17.3040    20.2880     2.5820   -22.0370 
  166.7500    60.6200    25.5760    16.6790    15.2430    17.6890     2.5640   -22.0470 
  166.8750    60.8170    25.5770    13.1380    13.5130    15.6250     2.5270   -22.1040 
  167.0000    60.7850    25.5740    10.7140    12.3760    14.4240     2.4900   -22.2090 
  167.1250    61.6910    25.5640    10.8540    11.9950    14.2660     2.4780   -22.3440 
  167.2500    62.5840    25.5600    12.2940    12.1510    14.7870     2.4860   -22.4910 
  167.3750    61.5590    25.5520    13.8170    12.6620    15.6760     2.5030   -22.6370 
  167.5000    58.9490    25.5260    14.7910    13.3020    16.5750     2.5180   -22.7770 
  167.6250    56.7300    25.4940    14.9730    13.7890    17.1040     2.5250   -22.9160 
  167.7500    57.3190    25.4700    14.5530    14.0050    17.2180     2.5300   -23.0520 
  167.8750    59.5230    25.4540    13.9600    13.9710    17.0340     2.5330   -23.1760 
  168.0000    59.9320    25.4460    13.7160    13.7640    16.6910     2.5380   -23.2760 
  168.1250    59.3680    25.4390    13.7540    13.4370    16.2580     2.5490   -23.3470 
  168.2500    60.4200    25.4270    13.4420    13.0710    15.8200     2.5610   -23.3980 
  168.3750    62.3700    25.4020    12.7650    12.7350    15.4600     2.5630   -23.4490 
  168.5000    63.9500    25.3630    12.1570    12.4930    15.2620     2.5510   -23.4940 
  168.6250    65.5900    25.3240    11.9630    12.4050    15.2940     2.5360   -23.5180 
  168.7500    66.1420    25.2860    12.1110    12.4310    15.4640     2.5350   -23.5180 
  168.8750    65.3820    25.2450    12.5340    12.4850    15.6210     2.5460   -23.4860 
  169.0000    66.5500    25.1980    12.8960    12.4460    15.5860     2.5540   -23.4430 
  169.1250    69.8250    25.1670    12.6000    12.1990    15.2120     2.5490   -23.3990 
  169.2500    70.0930    25.1780    11.7260    11.7930    14.6240     2.5400   -23.3490 
  169.3750    66.6790    25.2120    10.7610    11.3150    13.9760     2.5360   -23.2920 
  169.5000    63.4520    25.2270    10.1880    10.8620    13.4250     2.5380   -23.2510 
  169.6250    63.1350    25.2100    10.2110    10.5570    13.1340     2.5390   -23.2380 
  169.7500    64.9410    25.2190    10.4210    10.4370    13.1110     2.5340   -23.2470 
  169.8750    67.5730    25.2820    10.5930    10.5180    13.3500     2.5290   -23.2810 
  170.0000    70.5610    25.3540    10.9380    10.8030    13.8420     2.5270   -23.3280 
  170.1250    74.6270    25.3800    11.9200    11.3200    14.6090     2.5150   -23.3870 
  170.2500    78.4980    25.3800    13.2000    12.0040    15.5630     2.4850   -23.4470 
  170.3750    78.7690    25.3870    14.1780    12.8030    16.6240     2.4450   -23.4880 
  170.5000    74.5630    25.4080    14.6420    13.6440    17.6810     2.4150   -23.4940 
  170.6250    70.7760    25.4340    14.9350    14.4110    18.5700     2.4050   -23.4560 
  170.7500    70.8120    25.4570    15.3350    15.0100    19.1850     2.4080   -23.3810 
  170.8750    71.1840    25.4690    15.6170    15.3660    19.4430     2.4170   -23.2770 
  171.0000    68.8330    25.4710    15.5220    15.4350    19.3000     2.4230   -23.1610 
  171.1250    65.1470    25.4710    15.0620    15.1670    18.7100     2.4230   -23.0460 
  171.2500    63.8220    25.4720    14.4190    14.6740    17.8480     2.4260   -22.9480 
  171.3750    64.3540    25.4730    13.5580    14.0590    16.8730     2.4350   -22.8810 
  171.5000    64.2420    25.4650    12.5800    13.4200    15.9290     2.4450   -22.8490 
  171.6250    64.1160    25.4400    11.8390    12.8440    15.1300     2.4540   -22.8700 
  171.7500    67.0370    25.3880    11.4750    12.3550    14.4790     2.4660   -22.9450 
  171.8750    72.4570    25.2860    11.2860    11.9590    13.9610     2.4810   -23.0760 
  172.0000    75.1220    25.1310    10.9780    11.6390    13.5360     2.4910   -23.2510 
  172.1250    73.3040    25.0120    10.5190    11.3700    13.1710     2.4830   -23.4530 
  172.2500    73.6620    24.9990    10.1670    11.1200    12.8470     2.4670   -23.6840 
  172.3750    75.1270    25.0540     9.9250    10.8850    12.5660     2.4520   -23.9540 
  172.5000    74.5710    25.0490     9.5980    10.6580    12.3170     2.4440   -24.2630 
  172.6250    74.3390    24.8060     9.2120    10.4350    12.0800     2.4360   -24.6250 
  172.7500    78.5790    24.3990     9.1270    10.2390    11.8800     2.4230   -25.0480 
  172.8750    84.2640    24.0360     9.3700    10.1510    11.8380     2.4100   -25.5460 
  173.0000    85.8280    23.9110     9.6940    10.3200    12.1880     2.4040   -26.1200 
  173.1250    82.6150    24.0280    10.5280    11.0650    13.4200     2.4030   -26.7690 
  173.2500    78.0640    24.1540    12.1420    12.5920    15.7970     2.3940   -27.4610 
  173.3750    74.7300    24.2070    15.2940    15.1860    19.6220     2.3710   -28.1690 
  173.5000    72.9410    24.2150    21.0020    19.1130    25.0880     2.3360   -28.8830 
  173.6250    70.6860    24.3570    28.9390    24.6290    32.2550     2.2850   -29.5670 
  173.7500    70.5310    24.7550    38.2320    30.8820    39.9410     2.2300   -30.1870 
  173.8750    74.0420    25.3430    47.9590    36.6990    46.6630     2.1860   -30.7240 
  174.0000    76.0620    25.8780    56.4310    40.9010    51.0710     2.1690   -31.1720 
  174.1250    72.9720    26.1050    59.0420    42.6640    52.4170     2.1840   -31.5370 
  174.2500    71.0080    26.1120    55.0360    42.8060    52.0120     2.2140   -31.8550 
  174.3750    73.3530    26.0360    48.7380    42.1490    50.9920     2.2470   -32.1410 
