~V
VERS. 2.00: Ver 2.00
~W
STRT.M 55.0000:
STOP.M 285.0000:
STEP.M 0.1250:
NULL. -999.2500:
UWI. DF32159:
~C
DEPT.M :
GR.API :
CALI.CM :
RXO.OHMM :
RI. :
RML.OHMM :
DEN.GM/CC :
SP.MV :
~A
# ...
  212.5000    74.6130    25.6230    26.2670    14.7070    22.3320     2.3240   -22.5510 
  212.6250    76.4820    25.6950    25.6240    14.2990    21.2760     2.3560   -21.7940 
  212.7500    80.1500    25.8210    21.7990    13.5840    19.7730     2.3960   -21.0870 
  212.8750    85.0350    25.9630    17.0550    12.8220    18.3940     2.4400   -20.3880 
  213.0000    88.9440    26.0440    14.4210    12.2380    17.5230     2.4720   -19.6380 
  213.1250    89.1540    26.0200    14.6620    11.9560    17.2690     2.4730   -18.7510 
  213.2500    91.2760    25.9690    15.3820    11.8170    17.1950     2.4500   -17.6980 
  213.3750    98.8980    25.9470    15.2090    11.5810    16.8040     2.4130   -16.4840 
  213.5000   105.3690    25.9450    14.1240    10.9910    15.6850     2.3800   -15.1480 
  213.6250   101.9490    25.9000    12.4520     9.8990    13.7330     2.3690   -13.7420 
  213.7500    91.4410    25.7930    10.2440     8.5890    11.5490     2.3810   -12.3740 
  213.8750    78.6150    25.6630     7.7190     7.3310     9.5950     2.4050   -11.1200 
  214.0000    66.2900    25.5720     5.6080     6.3160     8.1400     2.4260   -10.0490 
  214.1250    57.8430    25.5460     4.6470     5.6710     7.3420     2.4280    -9.2400 
  214.2500    54.9960    25.5440     4.4500     5.3250     7.0180     2.4160    -8.6680 
  214.3750    55.3660    25.5820     4.4910     5.2190     7.0130     2.3990    -8.3260 
  214.5000    55.3080    25.7610     4.4620     5.2770     7.1490     2.3880    -8.1940 
  214.6250    54.7990    26.1280     4.3830     5.4250     7.2810     2.3840    -8.2860 
  214.7500    57.0430    26.4160     4.3960     5.5870     7.3660     2.3780    -8.5120 
  214.8750    62.8760    26.3860     4.5380     5.7340     7.4330     2.3700    -8.8320 
  215.0000    70.2420    26.0730     4.7780     5.8550     7.5080     2.3670    -9.1950 
  215.1250    76.9720    25.7750     5.0320     5.9370     7.5660     2.3830    -9.5500 
  215.2500    83.6760    25.6460     5.1920     5.9820     7.5680     2.4110    -9.8730 
  215.3750    89.6240    25.6190     5.2060     5.9930     7.5110     2.4380   -10.1630 
  215.5000    93.2680    25.6070     5.1200     5.9860     7.4360     2.4540   -10.4290 
  215.6250    93.4680    25.5970     5.0600     5.9870     7.4200     2.4570   -10.6760 
  215.7500    92.6950    25.5970     5.0940     6.0190     7.4970     2.4520   -10.9470 
  215.8750    94.1820    25.6160     5.2090     6.0880     7.6690     2.4430   -11.2760 
  216.0000    95.8570    25.6650     5.3820     6.1860     7.8970     2.4380   -11.7180 
  216.1250    94.3020    25.7520     5.5810     6.2780     8.1120     2.4390   -12.3200 
  216.2500    90.7650    25.8500     5.7340     6.3220     8.2500     2.4450   -13.0650 
  216.3750    88.3890    25.9320     5.7790     6.2960     8.2680     2.4550   -13.9480 
  216.5000    88.3510    25.9890     5.7320     6.2010     8.1450     2.4640   -14.9480 
  216.6250    89.3340    26.0170     5.6780     6.0560     7.8810     2.4620   -16.0460 
  216.7500    89.8140    26.0170     5.7440     5.9140     7.5830     2.4420   -17.1740 
  216.8750    89.9690    25.9840     6.0440     5.8480     7.4260     2.4100   -18.3040 
  217.0000    91.5960    25.9210     6.5850     5.9770     7.6780     2.3840   -19.3840 
  217.1250    91.3590    25.8440     7.3370     6.5570     8.8220     2.3800   -20.3410 
  217.2500    85.7770    25.7800     8.8560     7.7730    11.0870     2.3870   -21.1700 
  217.3750    78.8290    25.7430    12.9200     9.8820    14.7530     2.3890   -21.8420 
  217.5000    75.1050    25.7330    22.3960    13.1040    19.9710     2.3830   -22.3410 
  217.6250    73.6350    25.7510    36.6410    17.4980    26.4450     2.3750   -22.6370 
  217.7500    72.3800    25.8160    44.0330    22.1030    32.5210     2.3750   -22.8050 
  217.8750    73.6320    25.9820    40.4080    25.9870    36.9170     2.3770   -22.8560 
  218.0000    76.0550    26.2990    33.4030    28.9630    39.8470     2.3720   -22.8290 
  218.1250    75.7790    26.6790    33.1000    32.0240    43.2710     2.3600   -22.7880 
  218.2500    75.0580    26.8820    39.7970    36.4130    48.9790     2.3470   -22.7610 
  218.3750    73.2610    26.8250    53.9660    42.7550    57.7960     2.3270   -22.7820 
  218.5000    68.7120    26.6390    76.1420    50.8470    69.3870     2.2980   -22.8830 
  218.6250    66.6250    26.5220    97.0250    59.1150    81.1520     2.2760   -23.0910 
  218.7500    68.9340    26.4910   102.2310    65.2290    89.1160     2.2740   -23.3640 
  218.8750    71.7620    26.4890    91.5500    68.1200    91.7590     2.2790   -23.6740 
  219.0000    72.2390    26.4890    76.9130    68.3010    90.5560     2.2720   -23.9660 
  219.1250    72.5090    26.4870    68.0230    67.1690    88.1550     2.2520   -24.1530 
  219.2500    73.7970    26.4840    63.3670    66.2790    86.5500     2.2350   -24.2080 
  219.3750    74.3010    26.4840    60.6570    66.1890    86.1950     2.2260   -24.1020 
  219.5000    73.8620    26.4950    59.7700    66.7800    86.6150     2.2180   -23.8010 
  219.6250    71.5220    26.5240    62.2820    67.0680    86.1620     2.2070   -23.2550 
  219.7500    68.0500    26.5580    65.8050    65.8910    83.2940     2.2000   -22.5270 
  219.8750    65.2370    26.5710    65.7810    62.6850    77.5670     2.2020   -21.6670 
  220.0000    66.1140    26.5510    59.6340    57.7150    69.8550     2.2150   -20.7310 
  220.1250    69.8300    26.5030    49.7410    51.9460    61.8980     2.2300   -19.8320 
  220.2500    73.7840    26.4610    41.7720    46.6630    55.1350     2.2380   -19.0350 
  220.3750    75.8800    26.4420    37.7820    42.4770    50.0410     2.2400   -18.3780 
  220.5000    74.7230    26.4460    37.5050    39.5510    46.5710     2.2370   -17.9010 
  220.6250    71.4880    26.4490    39.0920    37.9060    44.6150     2.2370   -17.6520 
  220.7500    68.0480    26.4360    39.8090    37.0830    43.5870     2.2380   -17.5810 
  220.8750    66.2110    26.4210    38.9030    36.8440    43.2160     2.2370   -17.6530 
  221.0000    66.0990    26.4270    37.5550    37.0090    43.3130     2.2340   -17.8230 
  221.1250    68.5380    26.4830    37.9300    37.5310    43.8310     2.2380   -17.9880 
  221.2500    73.0600    26.5560    40.2100    38.3210    44.6470     2.2510   -18.0840 
  221.3750    75.8380    26.5980    43.7100    39.2930    45.6310     2.2650   -18.0910 
  221.5000    73.5690    26.5930    47.8230    40.2670    46.5450     2.2720   -17.9880 
  221.6250    68.3970    26.6130    51.5520    40.9780    47.0700     2.2730   -17.7570 
  221.7500    66.3510    26.6930    52.9290    41.3800    47.2370     2.2740   -17.4220 
  221.8750    69.0540    26.7550    50.9200    41.6150    47.3040     2.2740   -17.0190 
  222.0000    72.7810    26.6900    47.1100    41.9580    47.6640     2.2710   -16.6120 
  222.1250    72.0450    26.4820    45.5410    42.7740    48.7710     2.2620   -16.3170 
  222.2500    69.9440    26.2640    47.7360    44.0600    50.4930     2.2510   -16.1630 
  222.3750    68.4760    26.1150    52.0010    45.5760    52.4040     2.2380   -16.1780 
  222.5000    68.1320    26.0420    55.6560    46.8840    53.8700     2.2240   -16.3880 
  222.6250    68.6810    26.0210    56.9210    47.4200    54.1760     2.2220   -16.8530 
  222.7500    70.3710    26.0210    56.1610    47.2010    53.5210     2.2350   -17.5000 
  222.8750    73.9680    26.0310    53.7860    46.5570    52.4570     2.2520   -18.2980 
  223.0000    76.4000    26.0400    51.0320    46.0100    51.6710     2.2630   -19.1690 
  223.1250    74.6300    26.0330    49.5210    46.1680    51.8430     2.2630   -20.0040 
  223.2500    71.2740    26.0000    49.5980    47.1780    53.0170     2.2610   -20.7460 
  223.3750    70.4500    25.9400    52.2570    49.0410    55.1090     2.2600   -21.3480 
  223.5000    72.4310    25.8790    58.7340    51.6020    57.8850     2.2680   -21.7610 
  223.6250    72.4060    25.8840    67.1470    54.5970    61.0030     2.2890   -21.9280 
