~V
VERS. 2.00: Ver 2.00
~W
STRT.M 60.0000:
STOP.M 258.0000:
STEP.M 0.1250:
NULL. -999.2500:
UWI. DF32100:
~C
DEPT.M :
SP.MV :
GR.API :
CALI.CM :
RXO.OHMM :
RI. :
RML.OHMM :
DEN.GM/CC :
~A
# ...
   71.2500   -24.4640    89.6970    21.1590     7.7210     7.0810     9.0300     2.1910 
   71.3750   -24.8350    87.8080    21.3070     7.6670     6.8690     8.7440     2.1970 
   71.5000   -25.1560    86.2890    21.5070     7.6210     6.5960     8.4360     2.1940 
   71.6250   -25.4400    88.5430    21.8550     7.4370     6.3120     8.1300     2.1850 
   71.7500   -25.6530    91.7670    22.1410     7.1470     6.0680     7.8650     2.1770 
   71.8750   -25.8490    93.8600    22.2920     6.8430     5.9230     7.7220     2.1710 
   72.0000   -26.0960    94.7640    22.3970     6.6250     5.9480     7.8090     2.1680 
   72.1250   -26.3660    94.3980    22.4380     6.6400     6.2360     8.2730     2.1820 
   72.2500   -26.6940    92.0610    22.4020     7.0880     6.7390     9.0600     2.2260 
   72.3750   -27.0210    87.1410    22.1770     7.9480     7.3690    10.0410     2.3000 
   72.5000   -27.3520    80.6410    21.6640     8.8440     7.9620    10.9370     2.3720 
   72.6250   -27.6910    76.4860    21.0630     9.1300     8.2660    11.2940     2.3860 
   72.7500   -28.1000    78.1110    20.7180     8.9550     8.2370    11.0830     2.3440 
   72.8750   -28.5270    83.4470    20.6820     8.7550     7.9710    10.5450     2.2760 
   73.0000   -28.9020    86.4910    20.9560     8.8190     7.6340    10.0070     2.2150 
   73.1250   -29.1880    83.1820    21.5970     9.0140     7.3970     9.7390     2.1780 
   73.2500   -29.3960    78.1830    22.3450     9.1600     7.3140     9.7460     2.1600 
   73.3750   -29.6260    75.4730    23.0030     9.1840     7.3740     9.9440     2.1550 
   73.5000   -29.8170    75.3380    23.4430     9.1970     7.5220    10.2070     2.1530 
   73.6250   -29.9570    75.5170    23.5210     9.2830     7.7010    10.4270     2.1500 
   73.7500   -30.0270    74.0370    23.4320     9.3650     7.8640    10.5740     2.1490 
   73.8750   -29.9880    71.2090    23.2430     9.3050     7.9740    10.6290     2.1540 
   74.0000   -29.8900    69.1130    23.1080     9.1710     7.9970    10.5800     2.1580 
   74.1250   -29.8080    69.2150    23.0670     9.1400     7.9130    10.4140     2.1520 
   74.2500   -29.7010    70.6500    23.0630     9.1660     7.7550    10.1780     2.1410 
   74.3750   -29.5350    72.4000    23.0610     9.1250     7.5520     9.9130     2.1330 
   74.5000   -29.3960    74.1990    23.0620     8.9930     7.3390     9.6600     2.1340 
   74.6250   -29.2310    74.1340    23.0640     8.8690     7.1650     9.4740     2.1410 
   74.7500   -29.0210    73.6770    23.0620     8.7850     7.0520     9.3810     2.1520 
   74.8750   -28.8150    74.4130    23.0590     8.7590     7.0120     9.3930     2.1610 
   75.0000   -28.5660    75.1450    23.0580     8.8490     7.0410     9.4920     2.1620 
   75.1250   -28.2370    72.6320    23.0620     9.0190     7.1150     9.6230     2.1540 
   75.2500   -27.8220    68.9340    23.0620     9.1410     7.1640     9.6870     2.1510 
   75.3750   -27.2520    68.7640    23.0580     9.0950     7.1280     9.5980     2.1550 
   75.5000   -26.5530    72.9640    23.0540     8.8610     6.9580     9.2900     2.1610 
   75.6250   -25.7360    75.8390    23.0530     8.3970     6.6150     8.7360     2.1630 
   75.7500   -24.9280    77.0620    23.0530     7.6670     6.1820     8.0790     2.1720 
   75.8750   -24.1330    80.3840    23.0520     6.7230     5.7560     7.4740     2.1900 
   76.0000   -23.3810    87.1710    23.0310     5.9510     5.4320     7.0560     2.2060 
   76.1250   -22.7480    93.1730    22.9260     5.8350     5.3010     6.9420     2.2090 
   76.2500   -22.1800    95.1540    22.7030     6.1190     5.3400     7.0800     2.2020 
   76.3750   -21.7300    94.6710    22.4120     6.5290     5.5030     7.3950     2.1930 
   76.5000   -21.3870    94.4980    22.1700     6.7190     5.6990     7.7480     2.1890 
   76.6250   -21.0940    94.3630    21.9620     6.5810     5.7880     7.8880     2.1920 
   76.7500   -20.7980    94.0550    21.8580     6.2500     5.7070     7.6750     2.2020 
   76.8750   -20.5160    94.6340    21.8280     5.9820     5.4640     7.1410     2.2140 
   77.0000   -20.1670    97.2120    21.8430     5.7440     5.1250     6.4840     2.2270 
   77.1250   -19.7620   100.6010    21.9060     5.3270     4.7830     5.9610     2.2450 
   77.2500   -19.4410   105.1390    22.0100     4.9390     4.5080     5.6490     2.2630 
   77.3750   -19.1190   108.7680    22.1490     4.8910     4.3260     5.5230     2.2700 
   77.5000   -18.8060   107.7130    22.3560     5.1590     4.2290     5.5060     2.2630 
   77.6250   -18.6050   103.2660    22.6630     5.3060     4.2030     5.5290     2.2550 
   77.7500   -18.4250   102.0950    22.9080     5.1980     4.2300     5.5890     2.2580 
   77.8750   -18.3180   103.3870    22.9870     5.0060     4.3290     5.7440     2.2700 
   78.0000   -18.3550   102.9490    22.9060     4.9400     4.5140     6.0260     2.2780 
   78.1250   -18.4020   100.8570    22.6440     5.1880     4.7710     6.3850     2.2720 
   78.2500   -18.4310    99.2350    22.2980     5.7000     5.0130     6.6560     2.2610 
   78.3750   -18.4600    97.8610    21.9190     6.1670     5.1460     6.6910     2.2560 
   78.5000   -18.4100    96.5520    21.5560     6.1000     5.1000     6.4330     2.2640 
   78.6250   -18.3560    97.6540    21.6070     5.4510     4.8760     5.9570     2.2850 
   78.7500   -18.3880   101.6600    22.0780     4.9110     4.6110     5.5040     2.3060 
   78.8750   -18.3930   104.3550    22.7460     4.8190     4.4030     5.2340     2.3130 
   79.0000   -18.4220   102.7680    23.2050     4.9860     4.3030     5.2420     2.3010 
   79.1250   -18.4370    98.7730    23.2990     5.0520     4.3230     5.5660     2.2760 
   79.2500   -18.4460    96.8300    23.1230     5.0190     4.3750     6.0200     2.2510 
   79.3750   -18.5420    96.7780    22.8200     5.0080     4.3760     6.3800     2.2360 
   79.5000   -18.6960    98.1370    22.5480     5.0800     4.2780     6.4470     2.2350 
   79.6250   -18.8890   101.6910    22.3560     4.9820     4.0890     6.1550     2.2530 
   79.7500   -19.0620   105.3890    22.3850     4.6810     3.8840     5.7340     2.2810 
   79.8750   -19.2730   108.5440    22.8590     4.4180     3.7280     5.3810     2.2980 
   80.0000   -19.5440   108.9990    23.6110     4.4140     3.6960     5.2490     2.2810 
   80.1250   -19.9500   106.3720    23.9300     4.7750     3.9250     5.5340     2.2340 
   80.2500   -20.3860   102.0510    23.9390     5.4610     4.4590     6.2850     2.2060 
   80.3750   -20.8310    96.3180    23.7630     6.5470     5.3170     7.5370     2.2330 
   80.5000   -21.3130    88.7590    23.5200     8.0850     6.3900     9.1540     2.3120 
   80.6250   -21.6960    80.9670    23.3130     8.9420     7.2820    10.5140     2.3890 
   80.7500   -21.9660    77.4950    23.1870     8.8980     7.5680    10.8240     2.4140 
   80.8750   -22.1540    78.0550    23.1470     8.1090     7.1490     9.9360     2.3800 
   81.0000   -22.1980    81.6560    23.1440     7.0470     6.3100     8.4800     2.3200 
   81.1250   -22.1020    88.8960    23.1450     6.0670     5.4980     7.2980     2.2800 
   81.2500   -22.0180    95.5500    23.1410     5.5830     4.9880     6.7040     2.2630 
   81.3750   -21.8750    97.6440    23.1310     5.7050     4.8520     6.7130     2.2540 
   81.5000   -21.6370    94.9810    23.1270     6.1450     5.0370     7.2090     2.2360 
   81.6250   -21.3650    91.1820    23.1310     6.5840     5.3730     7.9000     2.2050 
   81.7500   -21.0050    89.5080    23.1410     6.8470     5.5850     8.2870     2.1720 
   81.8750   -20.5260    89.2420    23.1720     6.8280     5.5120     8.0630     2.1490 
   82.0000   -19.9840    91.6580    23.3150     6.3210     5.1470     7.2890     2.1510 
   82.1250   -19.3950    99.7120    23.7020     5.2840     4.6270     6.3570     2.1900 
   82.2500   -18.7760   110.2210    24.1200     4.4570     4.1600     5.6490     2.2450 
   82.3750   -18.2070   118.2090    24.3090     4.1430     3.8290     5.2690     2.2870 
