~V
VERS. 2.00: Ver 2.00
~W
STRT.M 55.0000:
STOP.M 285.0000:
STEP.M 0.1250:
NULL. -999.2500:
UWI. DF32159:
~C
DEPT.M :
GR.API :
CALI.CM :
RXO.OHMM :
RI. :
RML.OHMM :
DEN.GM/CC :
SP.MV :
~A
# ...
  178.7500    63.1010    26.5450    95.5160   163.3190   200.9990     2.2270   -35.3220 
  178.8750    61.2840    26.5950    94.4040   168.7250   207.4370     2.2400   -35.4450 
  179.0000    63.7140    26.6240    96.0470   173.5330   213.3970     2.2350   -35.5370 
  179.1250    66.0210    26.6570   100.3910   179.0060   220.3840     2.2130   -35.5550 
  179.2500    65.7910    26.7060   107.1700   185.5880   228.7340     2.1940   -35.4690 
  179.3750    64.2570    26.7620   115.5070   193.2710   238.2790     2.1910   -35.2870 
  179.5000    62.8170    26.8090   124.5520   201.6070   248.2830     2.1990   -34.9860 
  179.6250    62.1660    26.8320   135.7930   208.7470   255.8350     2.2040   -34.5400 
  179.7500    63.0170    26.8390   149.5250   211.2010   255.7500     2.2060   -33.9830 
  179.8750    66.1580    26.8390   161.9140   204.8190   242.3280     2.2090   -33.3260 
  180.0000    69.6850    26.8340   166.3120   187.5090   214.5280     2.2160   -32.6240 
  180.1250    68.7910    26.8140   155.1030   161.3810   179.0480     2.2250   -31.9360 
  180.2500    65.8260    26.7800   132.6810   134.6630   146.7250     2.2280   -31.3280 
  180.3750    65.0900    26.7420   107.4070   112.3030   121.8530     2.2260   -30.7970 
  180.5000    67.7350    26.7050    88.0290    96.3900   105.0420     2.2260   -30.3640 
  180.6250    70.4680    26.6590    79.9550    87.7690    96.2400     2.2360   -30.0690 
  180.7500    71.1140    26.6170    79.4580    84.2530    92.8300     2.2530   -29.8740 
  180.8750    70.7730    26.6070    82.5200    84.5810    93.3860     2.2620   -29.7850 
  181.0000    69.9140    26.6260    86.0040    86.9600    95.8000     2.2570   -29.7590 
  181.1250    69.2170    26.6290    89.8950    88.1630    96.0800     2.2440   -29.7530 
  181.2500    68.7380    26.5990    94.6580    85.3300    91.1640     2.2350   -29.7050 
  181.3750    67.8880    26.5600    92.7590    77.7800    81.0460     2.2390   -29.6140 
  181.5000    67.9460    26.5320    76.4810    67.3390    68.6560     2.2570   -29.4660 
  181.6250    72.6530    26.4960    53.3010    57.4210    58.0540     2.2790   -29.2230 
  181.7500    79.0250    26.4630    39.4310    50.2040    50.8990     2.2940   -28.9170 
  181.8750    81.7010    26.4840    36.0080    46.1480    47.2930     2.2980   -28.5630 
  182.0000    80.8230    26.5880    37.9850    44.9180    46.7030     2.2980   -28.2020 
  182.1250    79.4470    26.7200    43.0730    46.1290    48.5890     2.2960   -27.8810 
  182.2500    77.0230    26.8020    49.6370    48.4650    51.4590     2.2840   -27.6530 
  182.3750    74.7970    26.8290    53.0510    50.8550    54.1230     2.2700   -27.5310 
  182.5000    75.7750    26.8330    50.2660    52.2750    55.5390     2.2690   -27.5530 
  182.6250    79.8310    26.8330    45.1990    51.9630    55.0650     2.2870   -27.7770 
  182.7500    82.1210    26.8340    42.0020    50.5160    53.5230     2.3010   -28.1580 
  182.8750    83.1020    26.8340    38.9720    48.7170    51.8240     2.2980   -28.6460 
  183.0000    84.5220    26.8330    35.8310    47.4150    50.8940     2.2840   -29.1780 
  183.1250    83.2700    26.8320    36.3930    47.6460    51.8740     2.2740   -29.7020 
  183.2500    79.2820    26.8340    42.5120    49.7820    55.1020     2.2670   -30.1400 
  183.3750    75.4790    26.8370    52.5910    54.0720    60.7900     2.2610   -30.4720 
  183.5000    73.3640    26.8380    63.4190    60.3550    68.6800     2.2580   -30.6520 
  183.6250    72.4170    26.8330    73.8520    67.8750    77.7340     2.2540   -30.6190 
  183.7500    71.1250    26.8180    84.3710    74.7230    85.5810     2.2430   -30.3930 
  183.8750    70.9180    26.7890    91.2280    79.1780    90.1130     2.2250   -30.0210 
  184.0000    72.0930    26.7510    91.1670    80.1930    90.2610     2.2090   -29.5690 
  184.1250    73.0820    26.7130    85.8600    77.4330    86.0920     2.2100   -29.0750 
  184.2500    72.6270    26.6660    77.8150    72.5260    79.8390     2.2250   -28.6240 
  184.3750    71.7550    26.5840    66.0920    66.5610    72.8120     2.2470   -28.2400 
  184.5000    70.7480    26.4730    54.2090    60.4790    65.9860     2.2610   -27.9490 
  184.6250    68.7150    26.3900    47.5610    55.1180    60.1670     2.2560   -27.8010 
  184.7500    68.0320    26.3710    43.8870    50.8060    55.5880     2.2480   -27.7900 
  184.8750    69.4360    26.4000    40.0270    47.7940    52.4830     2.2520   -27.8810 
  185.0000    71.6190    26.4450    35.9580    46.2240    50.9710     2.2700   -28.0120 
  185.1250    71.9720    26.4870    35.1520    46.2780    51.2010     2.2950   -28.1290 
  185.2500    73.1970    26.5280    38.7840    47.4410    52.5600     2.3180   -28.1750 
  185.3750    77.6230    26.5650    45.0120    49.3210    54.5730     2.3300   -28.1450 
  185.5000    80.6580    26.5870    50.6080    51.4960    56.7630     2.3240   -28.0270 
  185.6250    78.4760    26.5880    53.4990    53.5890    58.7550     2.3040   -27.7780 
  185.7500    74.5050    26.5780    54.7680    55.4550    60.4990     2.2860   -27.4310 
  185.8750    73.4650    26.5670    55.4410    57.0620    62.0300     2.2770   -27.0150 
  186.0000    75.9890    26.5630    57.1250    58.2990    63.2310     2.2700   -26.5820 
  186.1250    77.1760    26.5770    61.1650    58.6280    63.4360     2.2600   -26.1980 
  186.2500    75.6470    26.6000    64.9520    57.7550    62.2680     2.2560   -25.8940 
  186.3750    72.1290    26.6010    65.5980    55.7690    59.8730     2.2610   -25.6820 
  186.5000    70.0980    26.5620    61.4720    53.3200    57.0680     2.2680   -25.5670 
  186.6250    72.2910    26.5060    53.1030    51.4830    55.1650     2.2770   -25.6130 
  186.7500    73.8970    26.4770    46.3310    50.9450    54.9080     2.2870   -25.7960 
  186.8750    71.5840    26.4780    46.5930    52.0030    56.5420     2.2960   -26.1220 
  187.0000    67.5900    26.4940    54.4550    54.5070    59.7440     2.3000   -26.5720 
  187.1250    67.8880    26.5040    62.8110    57.8180    63.5980     2.2980   -27.1570 
  187.2500    70.9110    26.4970    65.3950    60.7130    66.6990     2.2950   -27.8340 
  187.3750    73.2900    26.4780    63.7890    62.2650    68.0810     2.2910   -28.5770 
  187.5000    73.5440    26.4550    62.0540    62.0000    67.3890     2.2880   -29.3590 
  187.6250    73.5380    26.4310    61.5280    60.0580    65.0370     2.2870   -30.1130 
  187.7500    73.9700    26.4070    61.0040    57.8310    62.6860     2.2850   -30.8030 
  187.8750    73.2850    26.3960    59.2000    56.5570    61.7570     2.2770   -31.4100 
  188.0000    70.7460    26.4080    56.0240    57.4160    63.5900     2.2670   -31.9450 
  188.1250    66.4160    26.4340    55.6440    62.3100    70.3150     2.2680   -32.3760 
  188.2500    62.5580    26.4540    64.2690    71.8110    82.4030     2.2780   -32.7260 
  188.3750    60.8910    26.4600    86.0330    86.2880   100.2340     2.2860   -33.0100 
  188.5000    61.7850    26.4650   115.2210   104.7910   122.7790     2.2860   -33.2480 
  188.6250    64.3240    26.5000   131.6120   123.9750   145.9360     2.2820   -33.4810 
  188.7500    64.6540    26.5960   129.3820   139.0810   163.5630     2.2780   -33.7240 
  188.8750    62.7690    26.7480   119.9320   147.7580   172.8620     2.2680   -33.9630 
  189.0000    60.8460    26.8950   116.1560   150.9110   175.7280     2.2490   -34.1610 
  189.1250    60.3540    26.9320   122.7140   151.4890   176.5030     2.2290   -34.3050 
  189.2500    58.7800    26.9200   132.3840   152.3980   178.3350     2.2170   -34.3950 
  189.3750    56.6170    26.9670   137.7390   154.3500   181.7150     2.2130   -34.4300 
  189.5000    56.3820    27.0460   136.4260   157.4180   186.5440     2.2160   -34.4000 
  189.6250    59.1110    26.9570   132.8200   161.9840   193.2070     2.2220   -34.2550 
  189.7500    61.8350    26.7060   133.0810   168.0540   201.6590     2.2250   -34.0100 
  189.8750    62.1800    26.4660   138.8600   175.3860   211.5030     2.2250   -33.6950 
