~V
VERS. 2.00: Ver 2.00
~W
STRT.M 63.0000:
STOP.M 291.0000:
STEP.M 0.1250:
NULL. -999.2500:
UWI. DF325:
~C
DEPT.M :
DEN.GM/CC :
SP.MV :
AC.US/MT :
GR.API :
RML.OHMM :
RI. :
RXO.OHMM :
CALI.CM :
~A
# ...
  213.0000     2.2770   -23.3790   413.7960    67.2640    35.6080    34.5140    54.4190    25.2440 
  213.1250     2.2590   -22.9710   412.8740    68.0210    42.2510    42.1710    66.3210    25.2590 
  213.2500     2.2430   -22.5030   411.9500    70.2220    50.2080    52.9520    71.8260    25.1980 
  213.3750     2.2310   -21.9890   407.9570    68.5650    65.2050    71.6680    78.3040    25.1820 
  213.5000     2.2330   -21.4200   396.4230    63.9030    94.7920   105.0940    95.8320    25.2480 
  213.6250     2.2720   -20.7330   369.7130    59.4540   146.2110   159.1490   136.9020    25.3570 
  213.7500     2.3540   -19.9610   328.7700    54.5620   207.5540   221.9520   186.6270    25.3870 
  213.8750     2.4660   -19.1290   280.4090    49.8680   258.1680   273.0740   230.4250    25.3220 
  214.0000     2.5800   -18.2580   238.1370    47.1500   268.8400   286.5840   250.1660    25.2080 
  214.1250     2.6560   -17.3610   220.4150    47.9030   206.2150   235.4150   198.6610    25.1690 
  214.2500     2.6850   -16.4880   228.3300    53.3120   116.5860   151.6320   104.5580    25.2080 
  214.3750     2.6800   -15.6380   255.7970    63.1310    57.7990    79.8990    42.8710    25.2030 
  214.5000     2.6560   -14.8220   293.5170    75.5990    30.7210    38.6210    19.1860    25.1440 
  214.6250     2.6220   -14.1520   331.6770    88.3840    19.8470    21.6110    11.2370    25.0330 
  214.7500     2.5900   -13.6190   361.3510    95.9860    14.6840    14.3130     8.4170    24.9530 
  214.8750     2.5670   -13.1780   376.7780    96.7480    12.5590    11.5870     7.7330    24.9610 
  215.0000     2.5600   -12.7950   377.4570    94.6920    11.8070    10.8320     8.0660    25.0500 
  215.1250     2.5630   -12.5190   368.7590    94.1040    11.5990    10.6610     8.7210    25.1330 
  215.2500     2.5560   -12.3010   361.9100    92.3010    10.8860    10.1690     8.9430    25.1310 
  215.3750     2.5300   -12.0740   363.3180    87.8450     9.4280     9.0570     8.5250    25.0390 
  215.5000     2.4870   -11.8250   374.4760    83.1840     7.5670     7.4720     7.4640    24.8820 
  215.6250     2.4480   -11.5460   390.1890    80.1890     5.9470     5.9280     5.7210    24.6280 
  215.7500     2.4280   -11.2450   401.0190    78.3070     4.8990     4.8330     4.6350    24.3180 
  215.8750     2.4300   -10.9540   403.2820    79.5000     4.4490     4.2930     4.2330    24.1150 
  216.0000     2.4450   -10.6960   398.3310    84.0300     4.5060     4.2730     4.3390    24.1000 
  216.1250     2.4580   -10.4520   389.4220    87.7880     4.9840     4.7290     4.7670    24.2920 
  216.2500     2.4600   -10.2200   379.9150    88.9750     5.6630     5.4420     5.4070    24.3730 
  216.3750     2.4510   -10.0380   372.6010    89.9360     6.3820     6.2420     6.2800    24.3300 
  216.5000     2.4340    -9.9080   370.6380    90.5770     6.9810     6.9470     7.0610    24.2570 
  216.6250     2.4140    -9.7920   375.5760    89.1550     7.2900     7.3470     7.5220    24.4630 
  216.7500     2.3990    -9.6700   384.2460    88.4500     7.3280     7.4260     7.5490    24.9070 
  216.8750     2.3910    -9.5390   394.3870    90.1450     7.1670     7.2380     7.3680    25.2830 
  217.0000     2.3900    -9.3900   404.5900    89.1200     6.9190     6.8920     7.0530    25.3950 
  217.1250     2.3920    -9.2510   412.6560    82.8640     6.6930     6.5040     6.6480    25.3340 
  217.2500     2.3920    -9.1520   417.0720    79.4130     6.5410     6.1660     6.4090    25.2870 
  217.3750     2.3870    -9.0940   417.8660    82.8790     6.4740     5.9140     6.2750    25.2910 
  217.5000     2.3780    -9.0720   416.5150    87.6050     6.4820     5.7630     6.2130    25.3720 
  217.6250     2.3650    -9.1270   414.3430    88.7190     6.5520     5.7280     6.2140    25.4520 
  217.7500     2.3530    -9.2710   411.2560    90.0640     6.6520     5.7790     6.2790    25.4940 
  217.8750     2.3430    -9.4600   406.8870    91.1580     6.7740     5.8990     6.4630    25.4960 
  218.0000     2.3370    -9.6830   401.9030    89.4160     6.9280     6.0770     6.7960    25.4890 
  218.1250     2.3340    -9.9370   397.7910    86.3170     7.1420     6.3160     7.1940    25.4900 
  218.2500     2.3330   -10.2080   394.8750    83.7510     7.4200     6.6010     7.6660    25.4970 
  218.3750     2.3340   -10.4870   392.7630    80.6550     7.7630     6.9270     8.2410    25.4920 
  218.5000     2.3340   -10.7750   391.5350    76.1830     8.1510     7.2810     8.9270    25.4830 
  218.6250     2.3310   -11.0600   391.9780    75.6650     8.5560     7.6480     9.5860    25.4790 
  218.7500     2.3240   -11.3180   394.0000    79.1190     8.9470     8.0100    10.0980    25.4790 
  218.8750     2.3160   -11.5670   396.6520    82.3710     9.3100     8.3600    10.6520    25.4720 
  219.0000     2.3080   -11.8310   398.5940    83.1740     9.6550     8.7070    11.3960    25.4470 
  219.1250     2.3050   -12.0830   398.3800    82.8870    10.0440     9.0950    12.1830    25.4260 
  219.2500     2.3080   -12.2980   396.2040    83.3190    10.5750     9.5920    13.1510    25.4130 
  219.3750     2.3160   -12.5130   392.6170    84.2920    11.3730    10.2950    14.5440    25.4230 
  219.5000     2.3310   -12.7400   388.2870    83.2070    12.5650    11.3090    16.3440    25.4510 
  219.6250     2.3510   -12.9510   383.1370    79.9900    14.2970    12.7800    18.5070    25.4580 
  219.7500     2.3710   -13.1460   376.3480    77.9710    16.4070    14.6090    21.1390    25.4610 
  219.8750     2.3860   -13.3280   367.7870    77.1250    18.6620    16.6350    24.3540    25.4440 
  220.0000     2.3900   -13.4850   359.5820    74.7690    20.7460    18.6060    27.8230    25.4290 
  220.1250     2.3760   -13.6360   357.9890    71.6920    22.2770    20.1740    29.8780    25.4400 
  220.2500     2.3530   -13.8180   365.1990    71.7960    23.2430    21.2470    29.5840    25.4520 
  220.3750     2.3300   -13.9860   377.9030    73.3180    23.7680    21.8710    27.5520    25.4450 
  220.5000     2.3130   -14.0950   389.0820    73.0990    24.0460    22.1900    26.3080    25.4500 
  220.6250     2.3040   -14.1820   392.6690    74.0080    24.2360    22.3590    26.5550    25.4860 
  220.7500     2.2990   -14.2880   391.9630    77.5050    24.4330    22.5280    27.0620    25.5120 
  220.8750     2.2940   -14.4020   391.4230    79.3760    24.6750    22.7610    27.4490    25.5170 
  221.0000     2.2870   -14.5040   393.0750    77.3370    24.9900    23.0900    27.2420    25.5120 
  221.1250     2.2790   -14.5850   395.9290    75.3750    25.4040    23.5370    26.7240    25.5170 
  221.2500     2.2750   -14.6450   397.9900    75.6830    25.8670    24.0510    26.5180    25.5110 
  221.3750     2.2740   -14.6860   398.9710    77.1120    26.3000    24.5720    26.5460    25.4980 
  221.5000     2.2760   -14.7360   399.1410    77.7690    26.6090    25.0200    26.5530    25.4810 
  221.6250     2.2800   -14.7670   398.7310    78.4560    26.6580    25.2610    26.6620    25.4560 
  221.7500     2.2850   -14.7520   397.7590    79.7010    26.4300    25.2350    26.4840    25.4220 
  221.8750     2.2890   -14.6950   396.3440    79.4330    25.9190    24.9030    25.8300    25.4160 
  222.0000     2.2930   -14.6140   395.0990    77.0680    25.1560    24.2780    25.1690    25.4420 
  222.1250     2.2970   -14.5330   394.9140    76.7430    24.1850    23.4080    24.5460    25.4820 
  222.2500     2.3000   -14.4770   395.5030    80.5090    23.1750    22.4730    23.9000    25.5050 
  222.3750     2.3040   -14.4570   396.1160    84.1890    22.2030    21.6320    23.3810    25.5130 
  222.5000     2.3060   -14.4560   396.1730    83.1110    21.4870    21.0660    23.2380    25.5120 
  222.6250     2.3010   -14.5090   395.8250    79.0790    21.4580    21.0760    23.8450    25.5010 
  222.7500     2.2900   -14.6570   396.0330    76.0240    22.4200    21.7750    25.2760    25.4920 
  222.8750     2.2750   -14.8970   397.3840    73.2310    24.6040    23.2660    27.8510    25.4910 
