~V
VERS. 2.00: Ver 2.00
~W
STRT.M 62.0000:
STOP.M 282.0000:
STEP.M 0.1250:
NULL. -999.2500:
UWI. DF32160:
~C
DEPT.M :
GR.API :
CALI.CM :
RXO.OHMM :
RI. :
RML.OHMM :
DEN.GM/CC :
SP.MV :
~A
# ...
   95.7500    76.8540    25.0360     7.4480     6.5330     8.1560     2.1160   -28.9730 
   95.8750    77.7980    25.1520     7.5710     6.5360     8.3940     2.1260   -29.3600 
   96.0000    76.1050    25.2760     7.7340     6.6990     8.7830     2.1350   -29.6340 
   96.1250    73.4250    25.3420     8.0690     6.9400     9.1980     2.1360   -29.7650 
   96.2500    71.9290    25.3480     8.6020     7.1800     9.5550     2.1280   -29.7800 
   96.3750    71.7130    25.2700     9.1300     7.3650     9.7800     2.1220   -29.6950 
   96.5000    71.8910    25.1860     9.4080     7.4450     9.8030     2.1300   -29.5490 
   96.6250    73.0050    25.3590     9.2420     7.3600     9.5550     2.1510   -29.3570 
   96.7500    73.4980    25.4370     8.6620     7.1410     9.1180     2.1690   -29.1820 
   96.8750    72.1250    25.0610     7.8560     6.8380     8.6070     2.1790   -29.0640 
   97.0000    70.4000    24.3930     7.2410     6.5630     8.2260     2.1810   -29.0070 
   97.1250    68.4540    24.0470     7.2040     6.5180     8.2980     2.1880   -29.0370 
   97.2500    65.9470    24.1580     7.5910     6.7970     8.9230     2.2110   -29.1520 
   97.3750    62.7980    24.4020     8.7510     7.4240    10.0960     2.2530   -29.3470 
   97.5000    60.3180    24.6010    12.2440     8.3070    11.6120     2.3020   -29.6000 
   97.6250    59.0270    24.6710    19.3220     9.1410    12.8490     2.3160   -29.8770 
   97.7500    59.4710    24.7700    23.0550     9.5170    13.1250     2.2820   -30.1080 
   97.8750    61.1660    25.0230    19.4830     9.2560    12.2850     2.2150   -30.2730 
   98.0000    62.9510    25.3040    12.7260     8.5340    10.8460     2.1490   -30.3600 
   98.1250    64.8270    25.3540     9.5390     7.7410     9.5980     2.1160   -30.3920 
   98.2500    67.1500    25.1880     8.8280     7.1770     8.9000     2.1190   -30.3920 
   98.3750    70.1810    24.8920     9.2490     6.9260     8.7600     2.1500   -30.3600 
   98.5000    72.3740    24.5580    10.2350     6.9490     9.0070     2.1890   -30.3010 
   98.6250    72.5370    24.3100    10.9660     7.1180     9.3560     2.2100   -30.2160 
   98.7500    71.5270    24.2760    10.7030     7.2490     9.5380     2.2060   -30.1020 
   98.8750    69.8810    24.4340     9.7640     7.2680     9.4870     2.1900   -29.9560 
   99.0000    66.8440    24.5360     8.9770     7.1780     9.2680     2.1700   -29.7880 
   99.1250    63.2480    24.3610     8.6840     7.0310     9.0050     2.1500   -29.5860 
   99.2500    63.0300    24.0500     8.5730     6.8960     8.8040     2.1340   -29.3700 
   99.3750    65.1470    23.7860     8.5890     6.8030     8.6910     2.1340   -29.1630 
   99.5000    66.7090    23.6120     8.7040     6.7500     8.6450     2.1500   -28.9600 
   99.6250    67.2170    23.5100     8.7100     6.7200     8.6280     2.1710   -28.7740 
   99.7500    69.0780    23.5870     8.6010     6.6890     8.6080     2.1790   -28.6270 
   99.8750    70.8680    23.9230     8.5690     6.6510     8.5820     2.1700   -28.5180 
  100.0000    71.1140    24.4090     8.7300     6.6090     8.5610     2.1500   -28.4470 
  100.1250    72.4550    24.8280     9.0080     6.5720     8.5530     2.1370   -28.4090 
  100.2500    72.9950    25.1620     9.2440     6.5420     8.5500     2.1360   -28.3850 
  100.3750    69.8930    25.4670     9.3620     6.5190     8.5410     2.1350   -28.3560 
  100.5000    65.8660    25.7320     9.3110     6.4980     8.5180     2.1220   -28.3240 
  100.6250    65.1980    25.9650     9.0940     6.4750     8.4800     2.1000   -28.2710 
  100.7500    67.2590    26.2820     8.8950     6.4510     8.4400     2.0810   -28.1910 
  100.8750    68.3500    26.6610     8.8540     6.4280     8.4000     2.0650   -28.0790 
  101.0000    67.4000    26.9240     8.9240     6.4080     8.3560     2.0510   -27.9310 
  101.1250    67.5400    26.8530     8.8620     6.3820     8.2920     2.0440   -27.7290 
  101.2500    70.5350    26.4660     8.6290     6.3400     8.1990     2.0520   -27.4700 
  101.3750    75.8200    25.9130     8.3620     6.2720     8.0800     2.0760   -27.1590 
  101.5000    78.3420    25.4440     8.1510     6.1770     7.9450     2.1050   -26.8160 
  101.6250    74.6520    25.2550     7.9660     6.0630     7.8170     2.1180   -26.4380 
  101.7500    70.2920    25.2260     7.7890     5.9490     7.7190     2.1140   -26.0430 
  101.8750    69.7210    25.2250     7.6140     5.8450     7.6580     2.1090   -25.6480 
  102.0000    71.5620    25.2020     7.4140     5.7510     7.6200     2.1120   -25.2580 
  102.1250    72.3820    25.1870     7.2040     5.6490     7.5510     2.1230   -24.8800 
  102.2500    71.9040    25.1900     7.0200     5.5180     7.3870     2.1340   -24.5060 
  102.3750    73.0660    25.2050     6.8780     5.3400     7.0870     2.1400   -24.1290 
  102.5000    76.7650    25.2200     6.8300     5.1190     6.6770     2.1440   -23.7380 
  102.6250    78.7070    25.2440     6.9030     4.9220     6.3190     2.1500   -23.3390 
  102.7500    76.7940    25.2700     6.9520     4.8650     6.2440     2.1640   -22.9600 
  102.8750    73.5970    25.2770     7.1680     5.0770     6.6610     2.1950   -22.6230 
  103.0000    72.4920    25.2650     8.4650     5.6690     7.7100     2.2550   -22.3580 
  103.1250    73.0670    25.2640    12.8120     6.7500     9.4730     2.3540   -22.2460 
  103.2500    71.2350    25.2830    20.1970     8.0760    11.4680     2.4550   -22.2920 
  103.3750    67.6830    25.2940    26.5900     9.2060    12.9210     2.5040   -22.4730 
  103.5000    65.3080    25.2500    25.9680     9.5830    12.9900     2.4660   -22.7550 
  103.6250    65.8170    25.1300    18.1410     8.8920    11.4650     2.3590   -23.1300 
  103.7500    68.8110    25.0210    11.4990     7.7670     9.5670     2.2540   -23.5280 
  103.8750    72.4760    24.9670     8.6970     6.6930     8.0480     2.1840   -23.9110 
  104.0000    74.6050    24.9400     8.1780     5.9140     7.1610     2.1450   -24.2500 
  104.1250    73.2120    24.8960     7.9230     5.5240     6.9170     2.1310   -24.4940 
  104.2500    70.4890    24.8380     7.3740     5.4020     7.0200     2.1300   -24.6340 
  104.3750    69.1600    24.8340     7.1000     5.4530     7.2840     2.1330   -24.6840 
  104.5000    68.8160    24.9290     7.4230     5.5890     7.5640     2.1330   -24.6810 
  104.6250    68.1010    25.1290     8.0300     5.7460     7.7780     2.1370   -24.6450 
  104.7500    68.7270    25.4550     8.3320     5.8810     7.9220     2.1510   -24.6240 
  104.8750    71.7570    25.6990     8.1990     5.9790     7.9980     2.1680   -24.6310 
  105.0000    74.8320    25.5300     7.8720     6.0330     8.0230     2.1750   -24.6640 
  105.1250    76.3640    24.9220     7.7130     6.0560     8.0280     2.1650   -24.7200 
  105.2500    76.2860    24.4130     7.7730     6.0700     8.0430     2.1570   -24.7940 
  105.3750    75.2340    24.2480     7.9180     6.0820     8.0670     2.1570   -24.8950 
  105.5000    75.1450    24.3370     8.0260     6.0860     8.0860     2.1580   -25.0230 
  105.6250    76.2360    24.5330     8.0770     6.0810     8.0890     2.1510   -25.2040 
  105.7500    75.1980    24.7090     8.1080     6.0720     8.0800     2.1340   -25.4140 
  105.8750    72.0810    24.7700     8.1570     6.0680     8.0710     2.1170   -25.6390 
  106.0000    69.0600    24.7750     8.2900     6.0770     8.0700     2.1060   -25.8600 
  106.1250    66.2380    24.8110     8.5230     6.1080     8.0910     2.0990   -26.0470 
  106.2500    63.1320    24.8390     8.7510     6.1730     8.1650     2.0870   -26.1990 
  106.3750    60.9840    24.8590     8.9340     6.3020     8.3480     2.0680   -26.3130 
  106.5000    61.1720    24.9310     9.1980     6.5110     8.6680     2.0530   -26.3810 
  106.6250    62.5380    25.1490    10.5400     6.7900     9.0980     2.0480   -26.3830 
  106.7500    65.2910    25.4150    13.7330     7.0590     9.4930     2.0490   -26.3380 
  106.8750    68.1090    25.5100    16.8970     7.2310     9.7010     2.0530   -26.2640 
