~V
VERS. 2.00: Ver 2.00
~W
STRT.M 60.0000:
STOP.M 258.0000:
STEP.M 0.1250:
NULL. -999.2500:
UWI. DF32100:
~C
DEPT.M :
SP.MV :
GR.API :
CALI.CM :
RXO.OHMM :
RI. :
RML.OHMM :
DEN.GM/CC :
~A
# ...
  172.5000   -35.6300    70.7170    20.8910    63.7130   154.9320   167.7780     2.2140 
  172.6250   -35.6910    66.6660    20.8910    69.8940   159.5010   173.0120     2.2260 
  172.7500   -35.7340    64.8410    20.8910    80.0530   166.7110   181.1990     2.2380 
  172.8750   -35.7630    65.6410    20.8910    89.4680   174.1650   189.6640     2.2410 
  173.0000   -35.7460    66.6220    20.8910    94.0240   178.1830   194.6750     2.2370 
  173.1250   -35.6700    66.6690    20.8910    93.3320   174.2820   191.8190     2.2320 
  173.2500   -35.5840    68.6140    20.8860    90.6110   164.1520   182.3340     2.2320 
  173.3750   -35.5030    73.9850    20.8650    86.3060   151.1980   169.2150     2.2380 
  173.5000   -35.4650    78.7180    20.8100    82.0130   138.8270   156.0400     2.2430 
  173.6250   -35.4410    78.5710    20.7540    79.5040   129.7090   146.1090     2.2410 
  173.7500   -35.4560    76.3450    20.6880    78.8900   123.9860   140.0510     2.2340 
  173.8750   -35.5030    76.0120    20.6260    78.3740   121.2470   137.5090     2.2280 
  174.0000   -35.5930    77.0880    20.5820    77.0950   120.6120   137.3920     2.2280 
  174.1250   -35.6990    76.5440    20.5440    75.8620   120.8700   138.1360     2.2360 
  174.2500   -35.8100    74.5800    20.5020    76.3990   120.3790   137.8530     2.2430 
  174.3750   -35.9300    71.5460    20.4580    76.6680   118.2400   135.6150     2.2480 
  174.5000   -36.0870    67.8410    20.3890    74.0430   114.6310   131.6820     2.2500 
  174.6250   -36.2720    66.5410    20.3100    70.6470   111.1030   127.7680     2.2520 
  174.7500   -36.4570    69.5330    20.2500    69.1220   109.6630   126.1260     2.2560 
  174.8750   -36.5770    73.6820    20.2080    73.2880   111.8640   128.5690     2.2570 
  175.0000   -36.6550    74.5270    20.1920    89.9550   118.7780   136.3130     2.2500 
  175.1250   -36.7130    71.4720    20.1950   125.8810   131.3790   150.1450     2.2350 
  175.2500   -36.7830    70.5660    20.2230   161.2130   147.4190   167.2640     2.2230 
  175.3750   -36.8390    73.6030    20.3410   173.7040   164.0910   184.6150     2.2190 
  175.5000   -36.8680    75.4520    20.6040   166.5320   178.2020   199.1680     2.2190 
  175.6250   -36.8350    72.9360    21.0030   161.3940   187.6620   209.0400     2.2200 
  175.7500   -36.7710    70.7220    21.3960   160.3680   194.8330   216.4630     2.2220 
  175.8750   -36.7340    71.2190    21.8580   158.0430   202.1480   223.7970     2.2230 
  176.0000   -36.6670    69.3220    22.3870   160.5990   210.9710   232.5460     2.2240 
  176.1250   -36.5950    64.3490    22.7980   167.9040   221.1820   242.8240     2.2210 
  176.2500   -36.4870    62.0800    22.8410   174.2520   231.2640   253.1530     2.2140 
  176.3750   -36.3700    63.2430    22.6030   177.3250   239.9070   262.0630     2.2060 
  176.5000   -36.2220    64.7910    22.3890   183.0300   245.4330   267.7270     2.2020 
  176.6250   -36.1180    65.1640    22.3170   194.6440   242.4940   265.0760     2.2040 
  176.7500   -36.0140    65.5240    22.3850   201.1130   228.6940   251.7850     2.2090 
  176.8750   -35.9240    65.7470    22.6110   194.5400   206.5640   229.3220     2.2120 
  177.0000   -35.8980    65.5780    23.0620   173.5880   183.0920   203.7500     2.2130 
  177.1250   -35.9370    64.0560    23.5660   142.6770   166.2510   183.9180     2.2100 
  177.2500   -35.9900    63.1050    23.9320   120.7920   158.5470   174.4060     2.2070 
  177.3750   -36.0520    64.2130    23.9760   124.4810   160.9200   177.1960     2.2040 
  177.5000   -36.0810    66.5720    23.8720   152.4450   173.3930   192.1220     2.2000 
  177.6250   -36.0970    68.6230    23.7880   182.1820   196.2540   218.0990     2.1950 
  177.7500   -36.1490    69.1130    23.7600   204.8290   224.6760   248.6990     2.1920 
  177.8750   -36.2230    67.6530    23.7550   225.1180   253.0470   278.1100     2.1940 
  178.0000   -36.3070    64.6230    23.7550   244.8420   275.1740   301.1150     2.1990 
  178.1250   -36.3670    63.4830    23.7550   255.5840   286.1590   313.5630     2.2020 
  178.2500   -36.3960    64.2700    23.7550   250.5730   286.8940   315.9370     2.2010 
  178.3750   -36.3880    65.2110    23.7550   233.6680   275.5330   306.3140     2.1980 
  178.5000   -36.4230    65.4670    23.7460   212.7810   251.3240   283.5880     2.1910 
  178.6250   -36.4370    65.9590    23.7120   180.1450   218.3860   250.2940     2.1770 
  178.7500   -36.4630    66.6490    23.6350   135.1630   186.2250   215.7330     2.1680 
  178.8750   -36.4470    67.9290    23.5010    89.8600   159.7440   185.8050     2.1760 
  179.0000   -36.3620    68.8350    23.3150    59.7230   140.6220   163.4620     2.2000 
  179.1250   -36.2020    68.7990    23.1070    49.1680   129.3290   150.0580     2.2230 
  179.2500   -36.0600    69.8920    23.0020    48.9320   123.2070   142.8440     2.2320 
  179.3750   -35.9180    71.7980    23.0050    56.7020   120.8990   140.3210     2.2300 
  179.5000   -35.7760    71.0010    23.1200    69.8810   121.1960   141.1170     2.2280 
  179.6250   -35.6390    67.4580    23.3340    83.4870   123.2190   144.1840     2.2310 
  179.7500   -35.4200    65.7140    23.5480    92.5910   126.0040   148.1840     2.2360 
  179.8750   -35.2140    64.6500    23.6900    98.4590   129.2790   152.6270     2.2410 
  180.0000   -35.0140    62.8240    23.7460   101.6710   132.9850   157.3620     2.2440 
  180.1250   -34.8340    62.9560    23.7550   100.4970   137.4990   162.8730     2.2430 
  180.2500   -34.6660    64.6110    23.7550    98.6180   143.3130   169.8850     2.2380 
  180.3750   -34.5350    64.2480    23.7550    99.7630   150.8010   178.6780     2.2330 
  180.5000   -34.3730    61.9760    23.7550   103.0520   159.4460   188.1690     2.2300 
  180.6250   -34.2590    62.6710    23.7550   104.0810   166.4440   194.6380     2.2290 
  180.7500   -34.1570    63.6850    23.7550   101.7290   167.9720   194.5000     2.2270 
  180.8750   -34.0270    62.3750    23.7550    94.5830   161.7900   186.1110     2.2250 
  181.0000   -33.8980    62.2560    23.7550    84.0500   149.4680   171.2830     2.2250 
  181.1250   -33.8140    65.7700    23.7510    73.4410   136.2720   155.3240     2.2290 
  181.2500   -33.6540    70.0840    23.7310    64.7610   127.3520   144.2240     2.2330 
  181.3750   -33.4660    72.7470    23.6900    59.1160   125.2960   141.7190     2.2320 
  181.5000   -33.2570    72.8470    23.6600    56.9640   131.9070   150.6860     2.2260 
  181.6250   -32.9830    70.2360    23.6510    60.3770   151.5600   176.5300     2.2120 
  181.7500   -32.6840    65.6650    23.6510    70.6410   185.7080   218.1480     2.1950 
  181.8750   -32.3890    61.6220    23.6510    86.4890   235.2390   270.7470     2.1800 
  182.0000   -32.0430    59.2540    23.6510    99.2370   290.1030   318.3930     2.1690 
  182.1250   -31.5930    58.1160    23.6490    97.0240   310.1240   328.0310     2.1640 
  182.2500   -31.1310    57.9370    23.6330    82.8370   279.0260   295.3970     2.1670 
  182.3750   -30.6190    59.4700    23.6090    65.0180   223.5720   240.2290     2.1820 
  182.5000   -30.0790    62.0330    23.6230    51.3800   174.1830   186.9990     2.2070 
  182.6250   -29.4920    62.3470    23.6980    46.4100   142.3010   150.0420     2.2330 
  182.7500   -28.8650    60.8800    23.7420    47.9740   122.5790   125.2540     2.2510 
  182.8750   -28.1790    60.5930    23.7540    54.5060   109.2000   109.9710     2.2660 
  183.0000   -27.4990    63.2800    23.7440    60.7110    99.0510   100.7540     2.2780 
  183.1250   -26.8080    67.8510    23.7130    58.7280    91.8950    94.3530     2.2850 
  183.2500   -26.1290    70.6960    23.6720    52.0380    86.1230    89.3080     2.2900 
  183.3750   -25.4050    70.7850    23.6540    50.5200    81.0810    84.9730     2.2940 
  183.5000   -24.6680    68.6510    23.6510    57.8950    76.1280    80.6490     2.2940 
  183.6250   -23.9030    66.8370    23.6510    62.7640    70.3700    75.2700     2.2810 
