~V
VERS. 2.00: Ver 2.00
~W
STRT.M 55.0000:
STOP.M 285.0000:
STEP.M 0.1250:
NULL. -999.2500:
UWI. DF32159:
~C
DEPT.M :
GR.API :
CALI.CM :
RXO.OHMM :
RI. :
RML.OHMM :
DEN.GM/CC :
SP.MV :
~A
# ...
   88.7500    72.6040    25.4670    25.4100    11.3190    16.3220     2.4430   -31.0230 
   88.8750    73.9440    25.2650    18.8230    10.5070    14.4110     2.3690   -32.0070 
   89.0000    75.8870    25.1050    11.8940     9.2080    12.0560     2.2700   -32.7460 
   89.1250    75.9090    25.0280     9.3540     8.1170    10.4850     2.2000   -33.1810 
   89.2500    74.4960    25.0010     8.7870     7.4370     9.7650     2.1710   -33.3700 
   89.3750    72.7000    25.0030     8.7970     7.1350     9.6690     2.1660   -33.2890 
   89.5000    72.3320    25.0130     8.8640     7.0930     9.8940     2.1620   -32.9260 
   89.6250    75.8590    25.0090     8.8570     7.1700    10.1510     2.1510   -32.2330 
   89.7500    80.1310    24.9950     8.7500     7.2300    10.2870     2.1440   -31.2690 
   89.8750    80.3650    24.9800     8.5800     7.2410    10.3110     2.1450   -30.0570 
   90.0000    76.4620    24.9700     8.4090     7.2180    10.2870     2.1500   -28.6370 
   90.1250    73.8800    24.9570     8.2420     7.1910    10.2620     2.1540   -27.1180 
   90.2500    76.9150    24.9400     8.0660     7.1640    10.2270     2.1540   -25.6280 
   90.3750    81.9490    24.9260     8.0350     7.1060    10.1290     2.1510   -24.2700 
   90.5000    84.6930    24.9250     8.3310     6.9730     9.9080     2.1440   -23.1220 
   90.6250    86.9500    24.9390     8.5710     6.7140     9.4920     2.1450   -22.2880 
   90.7500    91.4490    24.9550     8.0560     6.3650     8.9490     2.1600   -21.7170 
   90.8750    95.5610    24.9660     6.8590     5.9890     8.3910     2.1880   -21.4240 
   91.0000    94.7380    24.9690     5.7190     5.6610     7.9500     2.2220   -21.3950 
   91.1250    89.2670    24.9640     5.2500     5.4610     7.7360     2.2470   -21.5240 
   91.2500    85.0750    24.9580     5.3010     5.3840     7.7040     2.2640   -21.6830 
   91.3750    83.6080    24.9440     5.7330     5.4110     7.7880     2.2760   -21.8120 
   91.5000    85.4410    24.9140     6.2690     5.4920     7.8940     2.2830   -21.8390 
   91.6250    87.8320    24.8720     6.3120     5.5560     7.9230     2.2780   -21.7030 
   91.7500    87.7540    24.8390     5.8420     5.5670     7.8680     2.2630   -21.4440 
   91.8750    86.0660    24.8270     5.3100     5.5370     7.7810     2.2480   -21.0340 
   92.0000    85.9610    24.8390     5.0440     5.5070     7.7300     2.2430   -20.4970 
   92.1250    89.6240    24.8640     5.0590     5.5280     7.7850     2.2480   -19.9390 
   92.2500    93.8660    24.8860     5.2920     5.5990     7.9290     2.2500   -19.4520 
   92.3750    96.1690    24.9200     5.7300     5.6830     8.0820     2.2460   -19.0790 
   92.5000    95.1520    25.0070     6.0760     5.7110     8.1080     2.2420   -18.8670 
   92.6250    94.0320    25.1750     5.8810     5.6010     7.8490     2.2500   -18.8580 
   92.7500    96.6580    25.3520     5.3470     5.3750     7.3790     2.2690   -18.9740 
   92.8750   100.1880    25.4760     4.8700     5.0960     6.8550     2.2920   -19.1890 
   93.0000   100.9640    25.5420     4.6300     4.8500     6.4510     2.3120   -19.4480 
   93.1250    98.8280    25.6160     4.5600     4.7250     6.3210     2.3290   -19.6710 
   93.2500    95.8560    25.7400     4.5950     4.7260     6.4150     2.3370   -19.8380 
   93.3750    91.5600    25.9150     4.8230     4.8200     6.6490     2.3270   -19.9470 
   93.5000    87.5400    26.0720     5.2490     4.9510     6.9120     2.3010   -20.0190 
   93.6250    88.3960    26.0900     5.5730     5.0530     7.0730     2.2690   -20.0730 
   93.7500    92.9700    26.0000     5.5010     5.0990     7.0940     2.2510   -20.1770 
   93.8750   100.5110    25.9190     5.1440     5.0920     6.9950     2.2550   -20.3830 
   94.0000   108.9900    25.9240     4.9060     5.0590     6.8450     2.2780   -20.7650 
   94.1250   110.4900    25.9840     5.0680     5.0370     6.7500     2.3030   -21.3450 
   94.2500   106.0510    26.0320     5.3100     5.0620     6.7830     2.3140   -22.0120 
   94.3750   103.0880    26.0520     5.3950     5.1570     6.9750     2.3150   -22.6830 
   94.5000   102.6240    26.0200     5.4310     5.3350     7.3120     2.3130   -23.2830 
   94.6250    97.3440    25.9360     5.8860     5.5950     7.7630     2.3050   -23.7710 
   94.7500    89.3870    25.8590     6.9170     5.8750     8.2100     2.2860   -24.1520 
   94.8750    84.7460    25.8280     8.1520     6.1080     8.5180     2.2590   -24.4340 
   95.0000    83.7620    25.8460     8.7960     6.2410     8.5930     2.2300   -24.6350 
   95.1250    81.1050    25.9000     8.3650     6.3200     8.5680     2.2120   -24.8190 
   95.2500    75.8110    25.9750     7.7170     6.5530     8.8860     2.2060   -25.0740 
   95.3750    71.2250    26.0290     7.7180     7.1930    10.0300     2.2170   -25.4870 
   95.5000    71.3760    26.0090     9.3090     8.5150    12.4450     2.2540   -26.0990 
   95.6250    75.1470    25.9220    15.1690    10.9110    16.6670     2.3420   -26.9120 
   95.7500    75.6000    25.8490    26.0540    14.0410    21.8140     2.4680   -27.8220 
   95.8750    74.1590    25.8260    36.3440    16.8070    25.5130     2.5950   -28.7650 
   96.0000    75.4460    25.8950    36.9490    17.5210    24.8320     2.6680   -29.6860 
   96.1250    78.3230    26.1560    26.8590    15.4770    20.0350     2.6260   -30.5340 
   96.2500    78.0020    26.4490    17.3800    12.7290    15.3390     2.4950   -31.2990 
   96.3750    75.6590    26.5100    12.2080    10.5090    12.2900     2.3820   -31.9540 
   96.5000    73.4390    26.2940    10.1300     9.1890    10.9130     2.3010   -32.4920 
   96.6250    70.1210    26.0710    10.4550     8.7840    10.8530     2.1980   -32.9080 
   96.7500    66.3220    25.9750    13.0480     8.8770    11.2610     2.1820   -33.2600 
   96.8750    63.9070    25.8630    16.7960     9.1400    11.5620     2.2440   -33.5430 
   97.0000    61.9260    25.6420    18.0900     9.2680    11.4110     2.3380   -33.7310 
   97.1250    59.8720    25.4560    14.9080     9.1230    10.9490     2.3780   -33.7780 
   97.2500    58.8520    25.5130    11.3900     8.9070    10.6910     2.3370   -33.7050 
   97.3750    60.1690    25.9010    10.0670     8.8080    10.8680     2.2560   -33.5140 
   97.5000    62.3190    26.3710    10.3100     8.9150    11.4120     2.2020   -33.2040 
   97.6250    64.1540    26.3510    10.6580     9.1820    11.9500     2.2220   -32.8050 
   97.7500    65.6960    25.8390    10.5510     9.3740    12.0880     2.2680   -32.3750 
   97.8750    67.5380    25.2630    10.2220     9.3090    11.7180     2.2880   -31.9920 
   98.0000    69.2780    24.9690    10.0360     8.9560    11.0320     2.2640   -31.7310 
   98.1250    70.0240    24.9150    10.1440     8.4350    10.3870     2.2170   -31.6520 
   98.2500    70.2120    24.8810    10.2350     7.9460     9.9600     2.1830   -31.7260 
   98.3750    70.9440    24.8440    10.1320     7.5870     9.7400     2.1700   -31.9420 
   98.5000    72.0940    24.8220     9.9200     7.3840     9.6550     2.1730   -32.2870 
   98.6250    72.3050    24.8160     9.8210     7.3290     9.6680     2.1820   -32.7260 
   98.7500    72.7700    24.8180     9.8710     7.3530     9.7530     2.1840   -33.1850 
   98.8750    72.6280    24.8230    10.0000     7.4080     9.8550     2.1780   -33.6000 
   99.0000    71.0780    24.8270    10.1140     7.4510     9.9080     2.1670   -33.9120 
   99.1250    70.0520    24.8270    10.0980     7.4520     9.8690     2.1560   -34.0560 
   99.2500    70.0870    24.8450     9.9320     7.4210     9.7850     2.1460   -34.0580 
   99.3750    69.5120    24.9070     9.6940     7.3760     9.7050     2.1380   -34.0100 
   99.5000    68.1090    25.0050     9.5290     7.3300     9.6590     2.1320   -33.8290 
   99.6250    68.0100    25.0900     9.5740     7.2880     9.6460     2.1310   -33.4740 
   99.7500    68.7970    25.1340     9.7080     7.2380     9.6240     2.1310   -33.0160 
   99.8750    69.7680    25.1490     9.7350     7.1630     9.5520     2.1310   -32.5080 
