~V
VERS. 2.00: Ver 2.00
~W
STRT.M 60.0000:
STOP.M 271.0000:
STEP.M 0.1250:
NULL. -999.2500:
UWI. DF324:
~C
DEPT.M :
SP.MV :
AC.US/MT :
DEN.GM/CC :
GR.API :
CALI.CM :
RXO.OHMM :
RI. :
RML.OHMM :
~A
# ...
  130.0000   -13.0570   295.9100     2.5290    55.4360    24.0310    20.7940    17.1950    17.3410 
  130.1250   -12.9260   289.1210     2.5340    54.0500    24.0780    21.2440    17.5800    17.8480 
  130.2500   -12.8320   282.5960     2.5210    54.4550    24.0600    21.0520    18.1440    18.5180 
  130.3750   -12.7890   276.5230     2.5100    56.4700    24.0430    20.8830    18.8220    19.2690 
  130.5000   -12.8050   270.3640     2.5180    57.7800    24.0380    21.1000    19.5050    19.9750 
  130.6250   -12.8830   263.9460     2.5430    56.6220    24.0310    22.5110    20.0110    20.4390 
  130.7500   -13.0050   257.8270     2.5550    55.0370    24.0270    25.0780    20.2420    20.5810 
  130.8750   -13.1520   253.3570     2.5410    54.8110    24.0300    26.7780    20.1470    20.3720 
  131.0000   -13.3090   252.3190     2.5080    56.0060    24.0320    26.0480    19.7540    19.8730 
  131.1250   -13.4570   256.6390     2.4850    57.7130    24.0100    23.7060    19.1750    19.2290 
  131.2500   -13.5890   265.6730     2.4800    59.5500    23.9540    21.9020    18.6080    18.6540 
  131.3750   -13.7030   278.8580     2.4820    61.3230    23.8330    20.4160    18.1800    18.2810 
  131.5000   -13.7980   293.5920     2.4820    62.6340    23.5930    18.8350    17.9870    18.1940 
  131.6250   -13.8740   302.3740     2.4870    63.7240    23.2320    18.4490    18.1050    18.4390 
  131.7500   -13.9280   300.3570     2.5040    65.6860    22.8910    20.4760    18.4120    18.8470 
  131.8750   -13.9630   289.2800     2.5210    68.1840    22.6890    23.7120    18.7780    19.2700 
  132.0000   -13.9790   276.8350     2.5240    69.2090    22.7040    25.5350    19.0870    19.5860 
  132.1250   -13.9990   271.7820     2.5190    67.4660    22.8700    24.5890    19.2420    19.7070 
  132.2500   -14.0360   273.0410     2.5280    65.1520    23.0150    23.3840    19.2710    19.6890 
  132.3750   -14.0960   275.8690     2.5480    63.3440    23.0930    22.6900    19.2380    19.6190 
  132.5000   -14.1770   276.8790     2.5620    61.5990    23.1600    21.7200    19.2390    19.6180 
  132.6250   -14.2750   276.1360     2.5590    60.3350    23.3140    20.4860    19.4070    19.8370 
  132.7500   -14.3880   275.2220     2.5520    60.6760    23.5490    19.8610    19.7620    20.2690 
  132.8750   -14.5170   273.9050     2.5460    62.0010    23.7180    20.1260    20.2520    20.8360 
  133.0000   -14.6660   271.7750     2.5390    62.9010    23.6750    20.9480    20.7670    21.4020 
  133.1250   -14.8270   269.9720     2.5370    63.2800    23.4700    22.0950    21.1570    21.7900 
  133.2500   -14.9890   269.7830     2.5450    63.4450    23.2690    23.2870    21.3210    21.9120 
  133.3750   -15.1390   270.8240     2.5560    62.6540    23.1730    24.3700    21.2070    21.7340 
  133.5000   -15.2720   271.9480     2.5580    60.9240    23.1920    24.9230    20.8470    21.3070 
  133.6250   -15.3850   273.1010     2.5460    60.6360    23.2710    24.0620    20.3320    20.7380 
  133.7500   -15.4870   275.3950     2.5280    62.3060    23.3510    22.6280    19.8130    20.1930 
  133.8750   -15.5780   279.0500     2.5110    63.7890    23.4310    21.7460    19.3680    19.7520 
  134.0000   -15.6520   282.9990     2.5020    63.6530    23.5360    21.7610    19.0320    19.4380 
  134.1250   -15.7070   285.5750     2.4930    63.2700    23.6340    22.2070    18.8220    19.2460 
  134.2500   -15.7460   286.7200     2.4730    63.4210    23.7020    22.5800    18.6890    19.1140 
  134.3750   -15.7710   287.5860     2.4450    62.8840    23.7360    22.7210    18.5860    18.9860 
  134.5000   -15.7830   289.8360     2.4270    61.2840    23.7940    22.3360    18.4650    18.8260 
  134.6250   -15.7790   294.2900     2.4310    60.0190    23.9230    21.1950    18.3050    18.6280 
  134.7500   -15.7570   298.4170     2.4400    59.6060    23.9640    20.0740    18.1420    18.4380 
  134.8750   -15.7150   299.4460     2.4400    60.0840    23.9040    19.7410    18.0240    18.3100 
  135.0000   -15.6530   296.6760     2.4330    61.9260    23.8180    20.2920    18.0050    18.3080 
  135.1250   -15.5720   292.4020     2.4360    64.2220    23.7510    21.3780    18.1460    18.4970 
  135.2500   -15.4780   289.4840     2.4570    65.0970    23.7260    22.2770    18.4190    18.8280 
  135.3750   -15.3760   287.5230     2.4920    64.7690    23.7430    22.9480    18.7750    19.2380 
  135.5000   -15.2750   284.1250     2.5320    64.3420    23.7870    23.4990    19.1280    19.6240 
  135.6250   -15.1760   277.3250     2.5520    63.3310    23.8700    24.2350    19.3290    19.8200 
  135.7500   -15.0790   270.1760     2.5400    61.4440    23.9880    25.2440    19.3100    19.7700 
  135.8750   -14.9860   267.3350     2.5080    59.8670    24.1270    25.3460    19.0720    19.4870 
  136.0000   -14.9040   271.8920     2.4830    59.9860    24.2530    23.7510    18.6740    19.0450 
  136.1250   -14.8380   282.7860     2.4740    61.3990    24.3230    21.6360    18.2130    18.5590 
  136.2500   -14.7880   293.3210     2.4650    61.7410    24.3590    20.4860    17.8100    18.1540 
  136.3750   -14.7580   299.4860     2.4520    59.7750    24.3690    20.2530    17.5350    17.8950 
  136.5000   -14.7480   300.5610     2.4470    55.9080    24.3590    20.3390    17.4080    17.7950 
  136.6250   -14.7630   297.7120     2.4580    51.9320    24.3130    20.9110    17.4220    17.8330 
  136.7500   -14.8010   293.4740     2.4750    49.2640    24.2410    21.7980    17.4980    17.9140 
  136.8750   -14.8640   289.6420     2.4890    48.3770    24.1910    22.6310    17.5840    17.9750 
  137.0000   -14.9460   288.1780     2.4980    49.3820    24.1810    22.7870    17.6440    17.9830 
  137.1250   -15.0380   290.3940     2.4860    51.3660    24.1990    22.2080    17.6620    17.9340 
  137.2500   -15.1270   294.1530     2.4610    52.9450    24.2180    21.7880    17.6580    17.8590 
  137.3750   -15.2010   297.5580     2.4440    54.2380    24.2270    21.6320    17.6340    17.7600 
  137.5000   -15.2520   300.1560     2.4440    56.2810    24.2250    21.5420    17.5700    17.6240 
  137.6250   -15.2740   302.5520     2.4520    59.3310    24.1920    21.2870    17.4180    17.4220 
  137.7500   -15.2740   304.1770     2.4630    62.0270    24.1310    20.8470    17.1470    17.1130 
  137.8750   -15.2500   303.0060     2.4800    64.3960    24.0740    20.4420    16.7140    16.6520 
  138.0000   -15.2090   297.7100     2.4920    67.6010    24.0490    19.9800    16.1150    16.0340 
  138.1250   -15.1540   290.0450     2.4830    71.5370    24.0430    19.0680    15.3730    15.2800 
  138.2500   -15.0940   285.2100     2.4660    74.0390    24.0370    17.6470    14.5910    14.4950 
  138.3750   -15.0380   286.2880     2.4550    74.1850    24.0360    15.7220    13.8540    13.7670 
  138.5000   -14.9900   292.6500     2.4460    73.1390    24.0360    13.9030    13.2490    13.1890 
  138.6250   -14.9560   300.2310     2.4350    71.9640    24.0320    12.9990    12.8970    12.8890 
  138.7500   -14.9340   304.9420     2.4330    70.4850    24.0240    12.5710    12.8150    12.8920 
  138.8750   -14.9330   305.8350     2.4450    68.6790    24.0140    12.0870    13.0230    13.2180 
  139.0000   -14.9560   303.7740     2.4640    67.0640    24.0100    11.9250    13.5100    13.8340 
  139.1250   -15.0060   299.9170     2.4800    65.7500    24.0180    13.2110    14.2420    14.6840 
  139.2500   -15.0850   295.5430     2.4920    63.8360    24.0230    15.6610    15.0610    15.5930 
  139.3750   -15.1940   291.4130     2.5000    61.4890    24.0340    18.2450    15.8340    16.4230 
  139.5000   -15.3360   288.0290     2.5060    59.8030    24.0540    19.8310    16.4510    17.0610 
  139.6250   -15.5120   284.8610     2.5090    60.4510    24.0850    20.0840    16.7930    17.3910 
  139.7500   -15.7150   281.0310     2.5140    64.2890    24.0870    20.0750    16.8890    17.4620 
  139.8750   -15.9370   277.9570     2.5270    70.9010    24.0210    20.1770    16.7940    17.3560 
