~V
VERS. 2.00: Ver 2.00
~W
STRT.M 55.0000:
STOP.M 256.0000:
STEP.M 0.1250:
NULL. -999.2500:
UWI. DF327:
~C
DEPT.M :
SP.MV :
DEN.GM/CC :
AC.US/MT :
GR.API :
RML.OHMM :
RI. :
RXO.OHMM :
CALI.CM :
~A
# ...
  215.0000   -18.7740     2.2870   379.1250    78.7350    41.7320    39.1710    48.1500    23.9090 
  215.1250   -19.0080     2.2650   386.2480    77.8220    42.1490    39.8770    49.2180    23.8660 
  215.2500   -19.2630     2.2460   391.7850    75.2980    41.7970    40.0030    50.6330    23.8220 
  215.3750   -19.5130     2.2360   394.4730    74.1110    40.7310    39.5950    52.0850    23.8680 
  215.5000   -19.7510     2.2350   393.6140    74.7610    39.3500    38.8690    53.2970    23.9120 
  215.6250   -19.9920     2.2410   389.4720    75.5380    38.4030    38.2120    53.0210    23.8110 
  215.7500   -20.2090     2.2490   384.5290    76.5950    38.3490    37.9500    50.7560    23.6470 
  215.8750   -20.3890     2.2560   380.9240    79.1870    39.1810    38.1650    47.5660    23.6150 
  216.0000   -20.5440     2.2590   379.7760    82.4600    40.4710    38.6960    46.0390    23.7170 
  216.1250   -20.7080     2.2610   380.2910    82.3710    41.4540    39.1450    47.0280    23.7860 
  216.2500   -20.8920     2.2660   380.2470    79.8900    41.6170    39.1410    48.1620    23.6710 
  216.3750   -21.1000     2.2730   378.8420    77.3610    40.9160    38.5560    47.3450    23.4800 
  216.5000   -21.2770     2.2800   376.8850    76.7030    39.7400    37.5580    45.6370    23.3760 
  216.6250   -21.3790     2.2810   376.4780    79.3590    38.8150    36.6560    44.0480    23.3120 
  216.7500   -21.4690     2.2720   378.5200    81.2970    38.7190    36.4810    43.6790    23.2270 
  216.8750   -21.5870     2.2540   383.0810    79.8090    39.9500    37.6740    45.9220    23.1440 
  217.0000   -21.7410     2.2300   389.5500    75.7380    43.2570    40.9990    52.4360    23.1200 
  217.1250   -21.9100     2.2090   396.2100    72.0540    50.4480    47.9750    65.4850    23.2350 
  217.2500   -22.0310     2.1960   399.6560    71.6000    61.9270    58.7690    83.2540    23.4650 
  217.3750   -22.0730     2.1930   395.9590    73.5840    77.2390    72.9790   102.2000    23.6670 
  217.5000   -22.0700     2.2040   381.6820    74.8700    93.9370    88.6620   119.9670    23.7780 
  217.6250   -22.0580     2.2370   354.4240    70.9160   106.3530   101.3170   135.2380    23.7950 
  217.7500   -22.0180     2.2890   321.1780    65.5900   110.1720   107.1700   141.8610    23.7830 
  217.8750   -21.9510     2.3570   290.6090    65.0230   105.0130   104.8680   139.7170    23.7300 
  218.0000   -21.8510     2.4280   271.0090    69.2380    95.3600    96.5480   130.6300    23.6550 
  218.1250   -21.6830     2.4830   267.6780    73.7320    87.1910    87.0000   110.8460    23.6190 
  218.2500   -21.4810     2.5130   274.4270    75.2480    82.0030    79.9430    87.1950    23.7360 
  218.3750   -21.2800     2.5160   286.1090    73.8880    78.5660    75.6030    78.2000    23.7760 
  218.5000   -21.1180     2.5010   297.1740    71.2740    75.1490    72.5430    85.8520    23.6810 
  218.6250   -20.9980     2.4740   299.7840    68.9560    70.3970    68.9490    96.3480    23.5970 
  218.7500   -20.8710     2.4480   291.7400    69.4290    64.5840    64.2640    99.2250    23.6750 
  218.8750   -20.6800     2.4300   276.1160    71.5080    58.2700    58.8370    78.0750    23.8120 
  219.0000   -20.3800     2.4260   260.5970    73.0310    51.7890    53.1710    51.5750    23.7540 
  219.1250   -19.9950     2.4370   252.0170    72.8660    45.4860    47.6660    40.8890    23.5290 
  219.2500   -19.5950     2.4590   247.7700    71.2740    40.0990    42.7620    36.4450    23.2020 
  219.3750   -19.1860     2.4890   242.3890    69.2450    36.7270    39.2650    35.0150    22.9250 
  219.5000   -18.7260     2.5230   232.9880    66.4550    36.5670    38.3720    37.8390    22.8350 
  219.6250   -18.1700     2.5570   224.2390    64.4000    41.0570    41.9270    48.9370    23.2120 
  219.7500   -17.5960     2.5840   223.7660    66.9260    48.9870    49.2380    64.6170    23.6670 
  219.8750   -17.0550     2.5930   236.9400    72.4930    58.1150    58.3420    80.2120    23.8640 
  220.0000   -16.5710     2.5760   265.8200    76.3490    64.7460    65.6210    85.5630    23.8360 
  220.1250   -16.1510     2.5340   306.8270    74.2360    63.1650    65.5570    82.6750    23.7650 
  220.2500   -15.7710     2.4850   345.8380    71.8500    53.2510    57.4420    74.0580    23.7240 
  220.3750   -15.4100     2.4400   371.9240    71.8090    39.3240    44.1240    46.9350    23.7280 
  220.5000   -15.0630     2.4080   383.2240    71.7980    27.1410    30.6590    20.6830    23.6430 
  220.6250   -14.7550     2.3900   387.0050    70.5500    19.4500    21.1000    10.8470    23.5440 
  220.7500   -14.4620     2.3820   391.7660    69.5050    14.6630    15.0000     8.5430    23.4740 
  220.8750   -14.1650     2.3830   397.9080    69.3480    11.7000    11.2970     7.8910    23.4310 
  221.0000   -13.8790     2.3890   402.7740    69.4950     9.8370     9.0730     7.4250    23.3850 
  221.1250   -13.6440     2.3990   404.0260    69.8770     8.6720     7.8570     6.9480    23.3540 
  221.2500   -13.4610     2.4090   401.7050    69.9760     7.8690     7.1730     6.5920    23.3460 
  221.3750   -13.3290     2.4150   396.3730    69.7510     7.3440     6.8660     6.4650    23.3350 
  221.5000   -13.2570     2.4160   390.2490    73.6180     7.0560     6.8400     6.6240    23.3250 
  221.6250   -13.2860     2.4110   386.7160    83.4130     7.0880     7.0470     6.9650    23.3670 
  221.7500   -13.3940     2.4030   386.1620    89.3710     7.2310     7.3660     7.6740    23.4960 
  221.8750   -13.5670     2.3960   387.0530    87.3520     7.4770     7.7130     8.6010    23.6120 
  222.0000   -13.7570     2.3920   387.7780    81.5130     7.8130     8.0080     9.2950    23.6670 
  222.1250   -13.9210     2.3930   388.3050    80.8660     8.0370     8.1790     9.6740    23.7340 
  222.2500   -14.0660     2.3960   389.2060    86.9040     8.2000     8.2270     9.9590    23.8810 
  222.3750   -14.2150     2.3990   390.2030    98.0490     8.2760     8.1710    10.2400    24.0220 
  222.5000   -14.3680     2.4000   390.7960   110.8730     8.2350     8.0520    10.4600    24.0900 
  222.6250   -14.4730     2.3990   390.8590   117.4040     8.1230     7.9260    10.4470    24.0980 
  222.7500   -14.5290     2.3980   391.0830   118.8370     8.0110     7.8370    10.2580    24.0810 
  222.8750   -14.5490     2.3980   392.0140   120.7190     7.9310     7.8010    10.0750    24.0520 
  223.0000   -14.5510     2.3970   393.8010   124.1230     7.8610     7.8120    10.0190    24.0240 
  223.1250   -14.5200     2.3970   396.1800   125.0980     7.8730     7.8500    10.0790    23.9960 
  223.2500   -14.4440     2.3960   398.5570   123.3750     7.8950     7.8840    10.1830    23.9920 
  223.3750   -14.3220     2.3970   400.6840   121.3520     7.9070     7.8890    10.2240    23.9980 
  223.5000   -14.1540     2.4010   402.4730   121.2470     7.8760     7.8490    10.1450    24.0020 
  223.6250   -13.9330     2.4080   403.7750   122.1570     7.7330     7.7510     9.9970    24.0170 
  223.7500   -13.6690     2.4160   404.5160   121.9470     7.5380     7.6180     9.8020    24.0340 
  223.8750   -13.3960     2.4210   404.6260   120.6610     7.3760     7.4740     9.5870    24.0500 
  224.0000   -13.1840     2.4200   404.3480   121.0250     7.2600     7.3400     9.3510    24.0590 
  224.1250   -13.0830     2.4130   404.1580   123.7080     7.2140     7.2250     9.1540    24.0320 
  224.2500   -13.0520     2.4040   404.3630   123.4710     7.2100     7.1070     9.0610    24.0020 
  224.3750   -13.0540     2.3990   404.9930   119.6100     7.1940     6.9560     9.0980    23.9930 
  224.5000   -13.0860     2.3980   405.5810   115.0630     7.1250     6.7520     9.1970    24.0020 
  224.6250   -13.2280     2.4020   404.3800   111.6610     6.9210     6.5100     9.2700    24.0000 
  224.7500   -13.4830     2.4060   399.7980   110.4300     6.7720     6.3150     9.2950    23.9680 
  224.8750   -13.8240     2.4060   391.0550   111.5940     6.8640     6.2820     9.4680    23.9160 
