~V
VERS. 2.00: Ver 2.00
~W
STRT.M 62.0000:
STOP.M 318.0000:
STEP.M 0.1250:
NULL. -999.2500:
UWI. DF321:
~C
DEPT.M :
DEN.GM/CC :
SP.MV :
AC.US/MT :
GR.API :
CALI.CM :
RXO.OHMM :
RI. :
RML.OHMM :
~A
# ...
  192.0000     2.3130   -21.6180   383.5120   106.6750    23.5260     5.2000     4.7380     6.2140 
  192.1250     2.2920   -21.8470   386.5550   109.7600    23.6420     5.4060     4.5950     6.0030 
  192.2500     2.2650   -22.0820   387.6910   105.9260    23.5870     5.7560     4.6070     6.0800 
  192.3750     2.2360   -22.2850   387.5290   101.3870    23.3980     6.0260     4.7720     6.4120 
  192.5000     2.2070   -22.3870   386.9020   100.8670    23.2040     6.2860     5.0430     6.8980 
  192.6250     2.1850   -22.4660   386.1770   100.6450    23.0760     6.7350     5.3460     7.3840 
  192.7500     2.1770   -22.4970   385.0140    97.1320    23.0900     7.0820     5.6070     7.7510 
  192.8750     2.1870   -22.4500   382.9460    93.6000    23.2760     7.0440     5.7860     7.9500 
  193.0000     2.2110   -22.3380   380.0290    93.8730    23.6360     6.7200     5.8510     7.9570 
  193.1250     2.2470   -22.1480   377.6130    96.0320    23.5910     6.4570     5.7540     7.7190 
  193.2500     2.2860   -21.8590   377.7820    96.8640    23.4610     6.2990     5.5320     7.2940 
  193.3750     2.3110   -21.5250   382.0500    95.9510    23.3940     6.1380     5.2270     6.7610 
  193.5000     2.3150   -21.2340   390.4610    95.9890    23.4300     5.7950     4.8990     6.2280 
  193.6250     2.3100   -20.9170   401.2600    99.3960    23.4650     5.2710     4.6130     5.8210 
  193.7500     2.3140   -20.6850   411.1260   102.8210    23.3790     4.9790     4.4000     5.5800 
  193.8750     2.3200   -20.5170   418.2410   101.9390    23.2180     5.0250     4.2710     5.4990 
  194.0000     2.3200   -20.3680   422.2460    96.4580    23.0820     5.1080     4.2160     5.5260 
  194.1250     2.3170   -20.2980   423.8080    93.0430    23.2100     5.0170     4.2030     5.5790 
  194.2500     2.3170   -20.2700   424.6090    94.6300    23.4170     4.9110     4.1790     5.5750 
  194.3750     2.3170   -20.3110   425.3490    96.5830    23.6650     4.8980     4.1170     5.4840 
  194.5000     2.3160   -20.4110   426.1400    95.7410    23.8720     4.9070     4.0160     5.3250 
  194.6250     2.3200   -20.5600   426.4780    95.9870    23.9620     4.8580     3.9030     5.1420 
  194.7500     2.3290   -20.6880   425.6800    99.9750    23.9890     4.8280     3.8220     5.0060 
  194.8750     2.3340   -20.8620   423.0500   103.9000    23.9670     4.8940     3.8200     4.9860 
  195.0000     2.3280   -21.1430   418.1030   103.4860    23.8880     5.0660     3.9420     5.1530 
  195.1250     2.3150   -21.4060   410.5920    99.6120    23.7130     5.3620     4.2410     5.5990 
  195.2500     2.3050   -21.7160   401.9840    95.2090    23.4570     5.9400     4.6760     6.2610 
  195.3750     2.3040   -22.0030   394.0090    90.1480    23.2220     6.8010     5.1730     7.0170 
  195.5000     2.3080   -22.1490   388.5240    86.4920    23.0810     7.7050     5.6090     7.6550 
  195.6250     2.3120   -22.2710   387.3310    86.2690    23.0240     8.1100     5.8110     7.8670 
  195.7500     2.3080   -22.3170   389.3680    86.7600    22.9900     7.8070     5.7560     7.6450 
  195.8750     2.2920   -22.2530   393.0420    86.7070    22.9660     7.0380     5.5050     7.1440 
  196.0000     2.2750   -22.1060   396.5540    86.7600    22.9670     6.2550     5.1740     6.5960 
  196.1250     2.2700   -21.9100   398.4980    89.2900    23.0030     5.7830     4.8820     6.1980 
  196.2500     2.2770   -21.6580   399.1360    91.3670    23.1430     5.5990     4.6760     5.9740 
  196.3750     2.2840   -21.4020   399.1430    91.0530    23.3000     5.6230     4.5590     5.8860 
  196.5000     2.2870   -21.2520   399.1680    89.8340    23.4120     5.6480     4.5080     5.8750 
  196.6250     2.2940   -21.0980   399.5310    90.1420    23.3790     5.5160     4.5110     5.9040 
  196.7500     2.3000   -21.0180   400.0260    91.8500    23.3640     5.3830     4.5470     5.9600 
  196.8750     2.2950   -21.0370   400.4130    93.4380    23.3560     5.3840     4.6040     6.0420 
  197.0000     2.2750   -21.1000   400.6040    95.6280    23.3560     5.4910     4.6570     6.1150 
  197.1250     2.2560   -21.2250   400.7190    97.5550    23.3520     5.6180     4.6680     6.1190 
  197.2500     2.2510   -21.4170   400.9160    97.9120    23.3480     5.7390     4.6310     6.0360 
  197.3750     2.2640   -21.6410   401.1600   100.0930    23.3460     5.7780     4.5660     5.8960 
  197.5000     2.2880   -21.8750   401.2720   105.5600    23.3460     5.6580     4.5120     5.7670 
  197.6250     2.3120   -22.1860   401.0590   109.1500    23.3260     5.5690     4.5220     5.7410 
  197.7500     2.3200   -22.5210   400.6160   107.9640    23.2460     5.7070     4.6090     5.8280 
  197.8750     2.3080   -22.8610   400.0940   104.0740    23.1130     6.0310     4.7700     6.0090 
  198.0000     2.2840   -23.1980   399.6020   100.5700    23.0160     6.3800     5.0060     6.2670 
  198.1250     2.2650   -23.5120   399.2750    96.7180    23.0110     6.6870     5.3460     6.6380 
  198.2500     2.2620   -23.7870   399.3810    91.9610    23.0200     6.9650     5.7910     7.1550 
  198.3750     2.2710   -23.9970   400.3560    87.6270    23.0180     7.3120     6.3260     7.8340 
  198.5000     2.2800   -24.0710   402.4950    85.4930    22.9970     7.9430     6.8660     8.5800 
  198.6250     2.2820   -24.0170   405.5510    85.6080    22.9340     8.8620     7.1930     9.0390 
  198.7500     2.2850   -23.8210   408.2120    84.6850    22.8640     9.3330     7.1410     8.8970 
  198.8750     2.2960   -23.4090   409.2410    82.6250    22.7980     8.7840     6.6740     8.0960 
  199.0000     2.3140   -22.9540   407.8830    82.4710    22.7130     7.2540     5.9340     6.9120 
  199.1250     2.3340   -22.4710   403.9530    85.5750    22.5380     5.6600     5.1770     5.8160 
  199.2500     2.3570   -21.9810   398.8050    88.0180    22.4330     4.6920     4.6170     5.0970 
  199.3750     2.3840   -21.6110   393.4810    88.2560    22.5390     4.3830     4.3430     4.8270 
  199.5000     2.4150   -21.3740   388.8120    88.0270    22.8430     4.5080     4.3820     4.9870 
  199.6250     2.4460   -21.3160   385.5710    88.6050    22.9170     5.0360     4.7690     5.5720 
  199.7500     2.4650   -21.4080   383.8660    89.9900    22.8630     5.8420     5.3940     6.4310 
  199.8750     2.4610   -21.7280   383.8490    90.9540    22.9310     6.8810     6.1670     7.4430 
  200.0000     2.4320   -22.1490   385.5050    91.3770    23.1620     8.2150     6.9720     8.4560 
  200.1250     2.3960   -22.6780   388.5910    90.9300    23.6150     9.7830     7.6610     9.2810 
  200.2500     2.3730   -23.3080   392.0300    90.9960    24.2150    10.9670     8.1650     9.8500 
  200.3750     2.3690   -23.9330   395.0270    90.9200    24.6620    11.3780     8.4760    10.1720 
  200.5000     2.3800   -24.5890   397.1690    88.6820    24.4800    11.4120     8.6290    10.3140 
  200.6250     2.3930   -25.2570   398.4380    87.0550    23.9540    11.6100     8.6740    10.3610 
  200.7500     2.4000   -25.9370   399.2650    89.0150    23.6210    11.8730     8.7170    10.4440 
  200.8750     2.4040   -26.5900   399.7240    92.8670    23.4970    11.8860     8.8660    10.6950 
  201.0000     2.4070   -27.2360   399.7200    94.6610    23.4100    11.6210     9.2490    11.2610 
  201.1250     2.4040   -27.8080   399.2770    94.6420    23.3600    11.6780    10.0650    12.3900 
  201.2500     2.3900   -28.3160   398.9610    94.8700    23.3190    12.9520    11.3510    14.1250 
  201.3750     2.3670   -28.7870   399.2900    95.0610    23.3410    16.2220    13.1260    16.4770 
  201.5000     2.3400   -29.1700   400.4230    94.9100    23.4980    20.6360    15.2870    19.2910 
  201.6250     2.3180   -29.4830   401.9690    92.7660    23.6990    24.8480    17.5120    22.0610 
  201.7500     2.3060   -29.7340   403.1220    88.4890    23.5510    26.9160    19.3090    24.0970 
  201.8750     2.2990   -29.8990   403.3820    85.4810    23.3340    27.0900    20.3690    25.0200 
