~V
VERS. 2.00: Ver 2.00
~W
STRT.M 62.0000:
STOP.M 272.0000:
STEP.M 0.1250:
NULL. -999.2500:
UWI. DF32143:
~C
DEPT.M :
SP.MV :
GR.API :
CALI.CM :
RXO.OHMM :
RI. :
RML.OHMM :
DEN.GM/CC :
~A
   62.0000    40.5630    61.3080    25.9670     0.4760     0.7510     0.1230     2.1360 
   62.1250    33.4010    69.6260    26.0840     0.9820     0.8020     0.0680     2.1660 
   62.2500    25.9050    78.5270    26.4560     2.0190     0.9340     0.2490     2.2150 
   62.3750    18.3110    85.5130    26.7350     3.2490     1.1940     0.6970     2.2390 
   62.5000    10.9120    90.2990    26.4180     4.0700     1.6500     1.4680     2.2370 
   62.6250     4.3630    91.1670    25.4510     4.4060     2.3680     2.5020     2.2310 
   62.7500    -0.9300    88.7360    24.5010     4.9930     3.1870     3.4200     2.2290 
   62.8750    -4.5900    84.8600    23.8450     5.9470     3.9280     4.0240     2.2290 
   63.0000    -6.8760    83.8020    23.3740     6.6250     4.4930     4.3760     2.2290 
   63.1250    -8.4900    87.5890    23.0010     6.3900     4.8690     4.6110     2.2280 
   63.2500    -9.9230    89.6130    22.7340     5.8230     5.1380     4.8200     2.2220 
   63.3750   -11.2180    87.1280    22.6220     5.5850     5.3540     5.0430     2.2140 
   63.5000   -12.3950    82.8180    22.6760     5.8500     5.5690     5.3200     2.2100 
   63.6250   -13.5210    79.6130    22.8250     6.3800     5.8210     5.6740     2.2090 
   63.7500   -14.6350    77.5700    22.9720     6.9020     6.0940     6.0670     2.2030 
   63.8750   -15.7450    75.5530    23.0800     7.3820     6.3570     6.4600     2.1880 
   64.0000   -16.8310    74.1160    23.1410     7.7920     6.5880     6.8260     2.1650 
   64.1250   -17.8210    72.3620    23.1770     8.0580     6.7840     7.1700     2.1360 
   64.2500   -18.7050    68.7900    23.2500     8.2720     6.9640     7.5100     2.1090 
   64.3750   -19.4650    64.9150    23.4120     8.4710     7.1350     7.8420     2.1010 
   64.5000   -20.1060    62.8790    23.6380     8.4710     7.2930     8.1450     2.1140 
   64.6250   -20.6280    64.0620    23.6840     8.1230     7.4140     8.3670     2.1280 
   64.7500   -21.0570    66.9190    23.4360     7.7540     7.4840     8.4890     2.1260 
   64.8750   -21.3770    69.7240    22.9550     7.5930     7.4910     8.5030     2.1180 
   65.0000   -21.6040    70.3960    22.4150     7.6620     7.4350     8.4280     2.1190 
   65.1250   -21.7710    67.1590    22.0990     7.9590     7.3180     8.2900     2.1280 
   65.2500   -21.9280    64.1900    22.1330     8.3880     7.1680     8.1400     2.1330 
   65.3750   -22.1040    65.0800    22.4110     8.7980     7.0080     8.0080     2.1310 
   65.5000   -22.2720    68.4260    22.6410     9.0610     6.8600     7.9100     2.1300 
   65.6250   -22.4100    70.0020    22.6230     9.1540     6.7480     7.8440     2.1370 
   65.7500   -22.5380    69.4520    22.4900     9.1730     6.6650     7.7820     2.1430 
   65.8750   -22.6660    68.9140    22.3480     9.1370     6.6030     7.7110     2.1400 
   66.0000   -22.7900    69.4580    22.2390     9.0450     6.5530     7.6140     2.1300 
   66.1250   -22.9180    70.5210    22.1490     8.9030     6.5090     7.4460     2.1260 
   66.2500   -23.0430    71.4210    22.0540     8.7820     6.4900     7.2300     2.1290 
   66.3750   -23.1690    72.4590    21.9700     8.7620     6.5440     7.0670     2.1300 
   66.5000   -23.3120    72.4710    21.9070     8.7940     6.7290     7.0740     2.1260 
   66.6250   -23.4790    70.9850    21.8040     8.6280     7.0970     7.3180     2.1260 
   66.7500   -23.6580    69.5700    21.6570     8.2710     7.5680     7.6920     2.1330 
   66.8750   -23.8410    70.3710    21.6010     7.9980     8.0140     8.0610     2.1400 
   67.0000   -24.0290    72.4680    21.7390     8.0410     8.2710     8.2420     2.1420 
   67.1250   -24.2270    74.6230    22.0040     8.3540     8.1750     8.0560     2.1400 
   67.2500   -24.4440    74.4190    22.2240     8.5980     7.8370     7.6390     2.1380 
   67.3750   -24.6900    71.3500    22.3370     8.5780     7.4080     7.1740     2.1330 
   67.5000   -24.9560    67.6380    22.3150     8.3270     7.0230     6.8000     2.1250 
   67.6250   -25.2390    67.1870    22.1470     8.1140     6.7810     6.6020     2.1170 
   67.7500   -25.5300    69.1230    22.0010     8.1320     6.6690     6.5410     2.1090 
   67.8750   -25.8050    70.0960    22.0500     8.3380     6.6550     6.5740     2.1000 
   68.0000   -26.0490    68.9300    22.2790     8.5900     6.7000     6.6580     2.0970 
   68.1250   -26.2280    66.9420    22.5190     8.7930     6.7770     6.7750     2.1050 
   68.2500   -26.3350    66.4990    22.6930     8.9470     6.8680     6.9090     2.1180 
   68.3750   -26.3510    68.8660    22.8230     9.0150     6.9640     7.0420     2.1310 
   68.5000   -26.2640    71.4000    22.9340     8.9420     7.0520     7.1580     2.1430 
   68.6250   -26.0650    70.1200    23.0450     8.7450     7.1070     7.2410     2.1470 
   68.7500   -25.7760    69.0530    23.1350     8.5150     7.1150     7.3170     2.1450 
   68.8750   -25.4280    72.9730    23.1460     8.2240     7.0670     7.4150     2.1400 
   69.0000   -25.0490    80.1430    23.0490     7.7990     6.9680     7.5480     2.1400 
   69.1250   -24.6590    80.7480    22.8990     7.2760     6.8380     7.7100     2.1450 
   69.2500   -24.2680    76.0790    22.7260     6.8320     6.7150     7.8590     2.1480 
   69.3750   -23.8960    74.5250    22.4800     6.5460     6.6180     7.9620     2.1440 
   69.5000   -23.5700    78.7430    22.1720     6.3940     6.5510     8.0150     2.1380 
   69.6250   -23.3230    81.9730    21.8940     6.2850     6.5070     8.0340     2.1400 
   69.7500   -23.1700    80.3010    21.7150     6.1390     6.4610     8.0360     2.1460 
   69.8750   -23.1280    77.3380    21.6390     5.9730     6.3950     8.0160     2.1420 
   70.0000   -23.2000    77.5570    21.6230     5.8670     6.3080     7.9850     2.1250 
   70.1250   -23.3940    78.6110    21.6330     5.9280     6.2200     7.9720     2.1140 
   70.2500   -23.6880    76.5170    21.6670     6.1910     6.1530     7.9950     2.1250 
   70.3750   -24.0660    73.2710    21.7270     6.6760     6.1190     8.0590     2.1490 
   70.5000   -24.5170    72.8550    21.8210     7.3100     6.1130     8.1450     2.1650 
   70.6250   -25.0340    74.9000    21.9510     7.9030     6.1250     8.2230     2.1560 
   70.7500   -25.5710    74.7980    22.1050     8.3070     6.1380     8.2760     2.1370 
   70.8750   -26.1080    72.8660    22.2830     8.4690     6.1520     8.3040     2.1230 
   71.0000   -26.6300    71.9050    22.4460     8.4160     6.1710     8.3190     2.1230 
   71.1250   -27.1080    70.8350    22.5810     8.3030     6.2220     8.3910     2.1330 
   71.2500   -27.5260    68.2940    22.8160     8.3710     6.3640     8.6450     2.1410 
   71.3750   -27.8840    66.0010    23.2930     8.6850     6.6770     9.2200     2.1430 
   71.5000   -28.2020    66.2610    23.9540     9.1270     7.2130    10.1790     2.1420 
   71.6250   -28.4860    70.3870    24.5130     9.5360     7.9620    11.4280     2.1460 
   71.7500   -28.7630    72.7060    24.8140     9.8620     8.7000    12.5210     2.1540 
   71.8750   -29.0430    70.4000    24.8350    10.0400     9.1500    12.9630     2.1570 
   72.0000   -29.3340    66.0410    24.6280     9.9650     9.0900    12.4510     2.1450 
   72.1250   -29.6420    64.4770    24.3720     9.6430     8.4830    11.1390     2.1240 
   72.2500   -29.9780    65.3100    24.2230     9.3330     7.7020     9.7680     2.1100 
   72.3750   -30.3430    66.7490    24.1520     9.1650     7.0030     8.7390     2.1090 
   72.5000   -30.7150    69.1880    24.0350     9.1270     6.5250     8.1880     2.1180 
   72.6250   -31.0700    71.7620    24.0120     9.1670     6.3380     8.1110     2.1250 
   72.7500   -31.3860    72.1480    24.2610     9.2840     6.3370     8.2510     2.1220 
   72.8750   -31.6320    69.1830    24.6190     9.5110     6.4260     8.4350     2.1110 
   73.0000   -31.7830    64.1880    24.8290     9.8080     6.5190     8.5530     2.0990 
   73.1250   -31.8250    59.8230    24.8880    10.0270     6.5690     8.5710     2.0930 
