~V
VERS. 2.00: Ver 2.00
~W
STRT.M 60.0000:
STOP.M 270.0000:
STEP.M 0.1250:
NULL. -999.2500:
UWI. DF32131:
~C
DEPT.M :
DEN.GM/CC :
GR.API :
CALI.CM :
RXO.OHMM :
RI. :
RML.OHMM :
SP.MV :
~A
# ...
  105.0000     2.1640    72.6550    23.1090     9.7480     6.0860     8.3640   -25.8300 
  105.1250     2.1680    69.9340    23.1090     9.4780     5.9570     8.2350   -25.6240 
  105.2500     2.1700    70.4180    23.1090     9.3150     5.9590     8.3290   -25.3960 
  105.3750     2.1660    74.0290    23.1090     9.1720     6.0370     8.5640   -25.2190 
  105.5000     2.1570    77.7660    23.0890     9.2410     6.1390     8.8330   -25.0370 
  105.6250     2.1560    79.4020    22.9990     9.4880     6.2170     9.0250   -24.8980 
  105.7500     2.1670    79.1040    22.8370     9.5590     6.2700     9.1210   -24.8140 
  105.8750     2.1870    78.3320    22.6710     9.3200     6.3210     9.1630   -24.7670 
  106.0000     2.2080    77.6570    22.4950     9.1000     6.3970     9.2170   -24.8110 
  106.1250     2.2150    79.1150    22.2080     9.1620     6.5220     9.3410   -24.8430 
  106.2500     2.2070    80.6360    21.9060     9.4370     6.6800     9.5340   -24.9180 
  106.3750     2.1930    80.1370    21.6520     9.7910     6.8390     9.7630   -24.9880 
  106.5000     2.1760    78.1260    21.4180    10.1170     6.9660     9.9650   -25.1220 
  106.6250     2.1600    74.3380    21.1730    10.1890     7.0280    10.0720   -25.2820 
  106.7500     2.1470    72.3210    21.0550     9.9680     7.0570    10.1040   -25.4210 
  106.8750     2.1420    74.3210    21.0220     9.6320     7.0850    10.1040   -25.5550 
  107.0000     2.1520    77.6000    21.0480     9.4390     7.1260    10.0990   -25.5790 
  107.1250     2.1720    76.8840    21.3220     9.5700     7.1590    10.0630   -25.5120 
  107.2500     2.1880    74.2430    21.9180     9.8740     7.1410     9.9530   -25.4060 
  107.3750     2.1880    73.7150    22.5450    10.1500     7.0560     9.7530   -25.2480 
  107.5000     2.1760    75.4530    22.8570    10.1440     6.9280     9.5000   -25.0300 
  107.6250     2.1670    77.7050    22.9010     9.7550     6.8200     9.3060   -24.6750 
  107.7500     2.1640    77.4100    22.9020     9.2830     6.7770     9.2380   -24.2070 
  107.8750     2.1640    72.8870    22.9020     9.2260     6.7690     9.2470   -23.5880 
  108.0000     2.1600    69.5210    22.9020     9.5750     6.6980     9.1610   -22.7670 
  108.1250     2.1580    74.0590    22.9060     9.6350     6.4120     8.7110   -21.7750 
  108.2500     2.1710    80.5870    22.9360     9.1760     5.8960     7.8750   -20.6540 
  108.3750     2.2040    84.4310    23.0050     8.0010     5.2290     6.8050   -19.5330 
  108.5000     2.2520    89.6990    23.0640     6.5720     4.5460     5.7590   -18.5030 
  108.6250     2.3000   100.6730    23.0840     5.7420     4.0170     5.0010   -17.6390 
  108.7500     2.3270   109.9850    23.0690     5.6050     3.7160     4.5930   -16.9390 
  108.8750     2.3250   112.1790    23.0350     5.8240     3.7010     4.5820   -16.3300 
  109.0000     2.2970   110.7710    23.0000     6.2330     4.0090     5.0080   -15.8990 
  109.1250     2.2700   113.4230    22.9850     6.5820     4.6900     5.9730   -15.6240 
  109.2500     2.2820   116.5130    22.9830     6.9150     5.6340     7.3610   -15.4900 
  109.3750     2.3450   115.0000    22.9830     7.8250     6.7150     9.0130   -15.4290 
  109.5000     2.4380   108.6280    22.9830    10.1070     7.6980    10.5140   -15.3620 
  109.6250     2.5010   101.5790    22.9830    12.7320     8.1250    10.9490   -15.2380 
  109.7500     2.4970    95.6550    22.9830    13.0160     7.8310    10.0980   -15.0200 
  109.8750     2.4400    90.5320    22.9840    10.8130     6.9560     8.4450   -14.8430 
  110.0000     2.3730    88.8510    22.9850     8.1320     5.8520     6.7330   -14.7030 
  110.1250     2.3360    92.5690    22.9870     6.7470     4.8990     5.5080   -14.6250 
  110.2500     2.3220    99.3050    22.9850     6.0230     4.2310     4.7560   -14.5780 
  110.3750     2.3200   106.3690    22.9830     5.8180     3.8350     4.3590   -14.5630 
  110.5000     2.3280   110.9220    22.9830     5.7690     3.6580     4.2070   -14.5570 
  110.6250     2.3500   111.5090    22.9830     5.6050     3.6860     4.2920   -14.6570 
  110.7500     2.3770   111.2690    22.9790     5.4880     3.8740     4.6030   -14.9200 
  110.8750     2.3980   111.4430    22.9540     5.7180     4.2110     5.1610   -15.2780 
  111.0000     2.4020   109.5690    22.8670     6.5640     4.6610     5.9290   -15.7460 
  111.1250     2.3790   103.2230    22.6310     7.6930     5.1390     6.7360   -16.2650 
  111.2500     2.3360    97.4790    22.2740     8.0620     5.4970     7.2900   -16.7220 
  111.3750     2.2880    94.9310    21.9630     7.5710     5.6340     7.4070   -16.9650 
  111.5000     2.2530    93.9190    21.8400     6.9540     5.5320     7.1200   -17.0940 
  111.6250     2.2390    92.5170    21.8890     6.7440     5.2520     6.6240   -17.2180 
  111.7500     2.2380    93.6750    21.9670     6.6440     4.9290     6.1440   -17.1250 
  111.8750     2.2440    96.3690    22.0010     6.3690     4.6200     5.7450   -16.8990 
  112.0000     2.2540    98.9330    22.0370     5.9980     4.3480     5.4240   -16.5820 
  112.1250     2.2680   102.4090    22.1370     5.8210     4.1340     5.1930   -16.2100 
  112.2500     2.2810   106.2870    22.2680     5.7860     4.0010     5.0750   -15.8900 
  112.3750     2.2900   107.8980    22.3120     5.7550     3.9830     5.1090   -15.6700 
  112.5000     2.2950   107.7140    22.2490     5.7950     4.0830     5.2990   -15.6790 
  112.6250     2.2920   108.5870    22.1220     6.1250     4.2770     5.6110   -15.8120 
  112.7500     2.2780   108.2220    21.8700     6.5820     4.4850     5.9280   -16.0420 
  112.8750     2.2620   104.5890    21.5390     6.8040     4.6560     6.1660   -16.2910 
  113.0000     2.2540   101.1160    21.3070     6.5650     4.7590     6.2880   -16.5820 
  113.1250     2.2570   101.6000    21.2100     6.1950     4.7940     6.3180   -16.8460 
  113.2500     2.2580   102.4520    21.1570     6.1780     4.8100     6.3470   -17.0760 
  113.3750     2.2510   102.0740    21.0800     6.4040     4.8320     6.4170   -17.2420 
  113.5000     2.2410   101.3800    20.9060     6.5570     4.8650     6.5160   -17.2290 
  113.6250     2.2340   100.1150    20.5570     6.4490     4.9080     6.6070   -17.2040 
  113.7500     2.2330    97.1010    20.1800     6.2480     4.9880     6.7130   -17.1400 
  113.8750     2.2410    95.5950    19.9170     6.0340     5.1380     6.9040   -16.9660 
  114.0000     2.2670    98.2300    19.7690     5.9490     5.3620     7.2310   -16.6920 
  114.1250     2.3230   102.6190    19.7580     6.2310     5.6050     7.6560   -16.3970 
  114.2500     2.3910   103.8540    19.9230     6.6980     5.7530     7.9720   -16.1060 
  114.3750     2.4370   101.0190    20.4240     6.8240     5.7190     7.9720   -15.9340 
  114.5000     2.4340    96.9930    21.2340     6.2920     5.4920     7.5820   -15.9350 
  114.6250     2.3810    94.6250    22.0670     5.6120     5.1510     6.9620   -16.0740 
  114.7500     2.3230    93.7240    22.4880     5.2990     4.8680     6.4570   -16.3100 
  114.8750     2.2850    93.0900    22.6120     5.3240     4.7600     6.2780   -16.7300 
  115.0000     2.2670    91.5220    22.6400     5.4980     4.9060     6.5340   -17.2350 
  115.1250     2.2530    88.1500    22.6930     5.8970     5.3550     7.2700   -17.8290 
  115.2500     2.2300    83.7990    22.7570     6.6870     5.9530     8.2070   -18.3750 
  115.3750     2.2040    79.9030    22.8950     7.7970     6.5140     9.0000   -18.6880 
  115.5000     2.1890    76.5350    23.1820     8.3950     6.8280     9.3020   -18.8080 
  115.6250     2.1950    76.0120    23.6340     7.7160     6.7310     8.8950   -18.6450 
  115.7500     2.2100    81.4270    23.9030     6.4600     6.3440     8.0960   -18.3690 
  115.8750     2.2230    88.5630    23.9880     5.6780     5.8160     7.1880   -17.9380 
  116.0000     2.2320    89.3530    23.9950     5.5260     5.2920     6.3770   -17.3870 
  116.1250     2.2490    84.3650    23.9950     5.4960     4.8840     5.8000   -16.7440 
