~V
VERS. 2.00: Ver 2.00
~W
STRT.M 62.0000:
STOP.M 256.0000:
STEP.M 0.1250:
NULL. -999.2500:
UWI. DF32087:
~C
DEPT.M :
SP.MV :
GR.API :
RML.OHMM :
RI. :
RXO.OHMM :
CALI.CM :
DEN.GM/CC :
~A
# ...
  174.5000   -48.6100    47.7100   424.7310   381.9860   213.3610    24.8790     2.2020 
  174.6250   -48.6270    47.6470   513.2680   450.0810   253.7970    25.0040     2.1840 
  174.7500   -48.5430    48.7130   579.8800   499.9200   310.4730    25.0760     2.1700 
  174.8750   -48.4130    48.8490   616.5340   527.3060   358.6940    25.1040     2.1630 
  175.0000   -48.0970    47.0050   628.4340   536.3150   368.6730    25.1160     2.1650 
  175.1250   -47.7250    46.5950   627.4880   535.0590   399.9880    25.1300     2.1710 
  175.2500   -47.2520    47.9220   625.4910   532.7090   421.4470    25.1450     2.1770 
  175.3750   -46.8250    48.3700   626.5410   532.8850   408.1480    25.1660     2.1800 
  175.5000   -46.4740    47.8850   632.8080   537.4930   372.7080    25.2060     2.1810 
  175.6250   -46.1930    49.6970   646.4430   548.3020   358.0680    25.2250     2.1800 
  175.7500   -46.0370    52.7120   666.1050   564.1440   369.9910    25.2240     2.1770 
  175.8750   -45.9180    53.5260   690.3110   583.8150   391.1590    25.1940     2.1710 
  176.0000   -45.9240    51.5290   716.7470   605.5070   394.7970    25.1250     2.1700 
  176.1250   -45.9200    50.0320   742.1240   626.7130   355.0450    25.0330     2.1850 
  176.2500   -45.9920    50.6180   763.5630   645.0620   317.5000    24.9330     2.2170 
  176.3750   -45.9900    51.1400   778.9210   658.7770   290.6990    24.8120     2.2560 
  176.5000   -45.9490    49.5390   786.6950   666.7140   280.1360    24.7200     2.2830 
  176.6250   -45.8470    46.3530   784.5060   667.4840   330.3130    24.8050     2.2780 
  176.7500   -45.7230    44.4490   773.3740   662.4250   426.8760    25.0140     2.2500 
  176.8750   -45.6220    44.6220   752.0810   651.8910   518.1320    25.1750     2.2130 
  177.0000   -45.4790    46.7940   720.5240   635.6200   568.2220    25.2400     2.1830 
  177.1250   -45.3980    48.7230   676.2310   610.5560   563.7000    25.2660     2.1680 
  177.2500   -45.2410    47.9140   620.6070   574.9320   555.7060    25.3000     2.1640 
  177.3750   -45.0100    46.3670   553.0780   526.3030   546.3280    25.3180     2.1680 
  177.5000   -44.7100    46.3470   477.8090   463.7490   503.7690    25.3250     2.1750 
  177.6250   -44.2000    47.7420   393.8300   387.9630   401.0810    25.2890     2.1840 
  177.7500   -43.6200    48.1510   307.9090   308.4150   310.5220    25.1590     2.1950 
  177.8750   -42.8760    48.2630   225.5450   234.6510   263.0700    24.9340     2.2070 
  178.0000   -42.1590    50.1580   166.2900   174.7110   191.4880    24.6990     2.2240 
  178.1250   -41.2550    53.5060   131.1120   134.9370   115.2340    24.5280     2.2430 
  178.2500   -40.3920    57.5760   111.0730   110.8410    72.4790    24.4340     2.2600 
  178.3750   -39.4820    60.7920   102.0450    99.1290    61.5150    24.3800     2.2700 
  178.5000   -38.5760    61.7840   101.2600    96.6790    64.7610    24.3540     2.2700 
  178.6250   -37.7630    60.3170   108.1540   102.2990    72.8940    24.4400     2.2630 
  178.7500   -36.8760    57.2320   121.1850   113.8190    83.5950    24.6560     2.2520 
  178.8750   -35.9890    55.4470   140.8200   131.1220    91.4590    24.9270     2.2410 
  179.0000   -34.9870    56.6340   167.8170   154.2070   104.1150    25.1720     2.2270 
  179.1250   -34.0390    59.4440   203.3040   182.9900   136.5430    25.2910     2.2090 
  179.2500   -33.0060    59.7700   243.4040   213.8680   194.4110    25.3270     2.1900 
  179.3750   -32.0600    56.9840   282.7860   242.5130   278.7100    25.3320     2.1750 
  179.5000   -31.1110    53.8380   314.5420   263.9960   313.4180    25.3290     2.1670 
  179.6250   -30.2460    52.7990   331.0720   273.2780   263.5240    25.3190     2.1680 
  179.7500   -29.3660    52.4520   336.2280   273.8180   237.1450    25.2900     2.1750 
  179.8750   -28.5450    51.9100   337.0720   271.0470   234.6190    25.2110     2.1850 
  180.0000   -27.7600    52.4310   340.0300   270.4360   241.0440    25.1150     2.1940 
  180.1250   -26.9880    53.9080   345.0740   273.8530   249.9490    25.1210     2.2000 
  180.2500   -26.2500    54.2780   343.1190   275.4120   248.3890    25.2260     2.2020 
  180.3750   -25.5200    52.7650   323.7690   267.1160   255.8770    25.3000     2.1980 
  180.5000   -24.7940    49.6970   281.7970   242.9840   291.4980    25.3210     2.1900 
  180.6250   -24.0420    47.3200   224.2540   202.8000   315.1670    25.3160     2.1830 
  180.7500   -23.3140    49.1880   172.3660   159.9560   291.0520    25.2990     2.1840 
  180.8750   -22.6180    55.6910   137.0670   125.6790   187.4730    25.2650     2.1950 
  181.0000   -21.9320    61.0380   120.4890   106.8860    95.8230    25.2500     2.2120 
  181.1250   -21.3320    60.0890   121.9720   107.4360    65.3640    25.2720     2.2190 
  181.2500   -20.6990    56.1070   132.4380   119.9530    78.2660    25.3130     2.2120 
  181.3750   -20.0560    53.2850   142.8940   135.8110   117.9090    25.3250     2.2010 
  181.5000   -19.3800    50.8290   142.9300   143.7990   201.2180    25.2920     2.2100 
  181.6250   -18.6650    47.2600   120.3710   129.9950   258.9480    25.1840     2.2720 
  181.7500   -18.0380    43.6070    83.5950    97.7710   244.9590    25.0600     2.3820 
  181.8750   -17.3970    43.1330    49.3650    60.6540   124.9050    24.9610     2.5110 
  182.0000   -16.8660    49.7040    27.4440    32.6170    38.1920    24.8600     2.6140 
  182.1250   -16.3640    64.1320    16.2380    18.2930    14.3670    24.7730     2.6500 
  182.2500   -16.0840    78.6420    10.1200    11.2810     7.5840    24.7540     2.6350 
  182.3750   -15.8600    86.3930     7.4750     8.0970     6.0640    24.7590     2.5960 
  182.5000   -15.7910    86.4410     6.7790     6.7970     6.1160    24.7630     2.5540 
  182.6250   -15.8460    86.3700     6.8710     6.5480     6.4050    24.7600     2.5220 
  182.7500   -15.9650    88.6870     7.2220     6.7240     7.0790    24.7490     2.5020 
  182.8750   -16.1210    90.1590     7.5750     7.0430     7.6180    24.7330     2.4930 
  183.0000   -16.2680    87.4150     7.7820     7.3130     7.5430    24.7470     2.4920 
  183.1250   -16.4410    84.3990     7.8050     7.4330     6.8210    24.7470     2.4910 
  183.2500   -16.5880    85.0140     7.7530     7.4480     6.7250    24.7460     2.4840 
  183.3750   -16.8030    86.7220     7.6930     7.4040     6.9110    24.7760     2.4690 
  183.5000   -17.0430    85.6700     7.6490     7.3300     7.2760    24.8260     2.4520 
  183.6250   -17.2760    83.2000     7.5990     7.2220     7.4770    24.8320     2.4390 
  183.7500   -17.5370    84.6160     7.5210     7.0800     7.2980    24.7930     2.4310 
  183.8750   -17.8030    88.6680     7.4250     6.9180     6.8900    24.7660     2.4250 
  184.0000   -18.1110    89.7460     7.3770     6.7870     6.8970    24.8290     2.4150 
  184.1250   -18.3020    86.2610     7.5510     6.8270     7.5880    24.9300     2.4000 
  184.2500   -18.3920    84.0980     8.0880     7.1610     8.2080    25.0180     2.3870 
  184.3750   -18.3210    84.8580     9.0750     7.8810     8.7030    25.0560     2.3840 
  184.5000   -18.1110    84.8820    10.4400     8.9590     9.3970    25.0720     2.3990 
  184.6250   -17.7800    82.7490    11.8270    10.1480    11.3380    25.0520     2.4370 
  184.7500   -17.2780    79.6390    12.6790    10.9810    15.1390    25.0200     2.4850 
  184.8750   -16.6800    75.5500    12.5590    11.0610    19.0410    24.9370     2.5330 
  185.0000   -15.9140    69.9890    11.3310    10.2080    18.8550    24.7640     2.5690 
  185.1250   -15.1800    63.2790     9.2830     8.5480    10.3190    24.5220     2.5880 
  185.2500   -14.4270    57.2080     7.2290     6.7330     6.8010    24.3350     2.5940 
  185.3750   -13.7990    53.5600     5.6090     5.1650     5.4450    24.2160     2.5880 
  185.5000   -13.2220    53.8920     4.5680     4.0310     4.9330    24.1450     2.5690 
  185.6250   -12.8070    55.0130     4.1390     3.4200     4.6690    24.1100     2.5330 
