~V
VERS. 2.00: Ver 2.00
~W
STRT.M 62.0000:
STOP.M 282.0000:
STEP.M 0.1250:
NULL. -999.2500:
UWI. DF32160:
~C
DEPT.M :
GR.API :
CALI.CM :
RXO.OHMM :
RI. :
RML.OHMM :
DEN.GM/CC :
SP.MV :
~A
# ...
  230.7500    61.6940    25.7870   105.0040    91.1960    92.3560     2.2930   -21.7800 
  230.8750    64.8300    25.7840    74.6490    73.6610    75.5890     2.2830   -21.3450 
  231.0000    65.2100    25.8140    59.8600    62.1710    65.1050     2.2540   -20.9020 
  231.1250    63.4120    25.9080    58.2700    56.1920    59.7650     2.2280   -20.4400 
  231.2500    62.4330    26.0110    60.7150    53.1060    56.8660     2.2140   -19.9670 
  231.3750    63.0840    26.0570    61.7850    51.4350    54.9190     2.2120   -19.5170 
  231.5000    64.5900    26.0610    59.9940    50.1580    52.9830     2.2190   -19.1170 
  231.6250    65.9670    26.1030    56.3680    48.9380    50.9950     2.2260   -18.7830 
  231.7500    66.6960    26.1790    52.2260    48.1430    49.6820     2.2290   -18.4960 
  231.8750    66.0980    26.2390    49.5540    48.2090    49.5720     2.2280   -18.2540 
  232.0000    63.0810    26.2570    51.5330    49.0510    50.4140     2.2230   -18.0500 
  232.1250    61.2660    26.2310    60.3390    49.5060    50.6510     2.2160   -17.9280 
  232.2500    64.3230    26.1720    69.1790    48.1380    48.6740     2.2050   -17.8680 
  232.3750    69.2190    26.0980    67.9540    44.4480    44.1470     2.1940   -17.8440 
  232.5000    70.4190    26.0410    53.9930    39.2110    38.1950     2.1880   -17.8280 
  232.6250    66.9450    26.0210    37.4060    34.0810    32.8520     2.1900   -17.7990 
  232.7500    65.8320    26.0170    28.0360    30.2090    29.2440     2.1990   -17.7620 
  232.8750    67.0400    26.0170    25.6510    27.8790    27.5580     2.2110   -17.7400 
  233.0000    66.3950    26.0250    27.3080    26.9560    27.4970     2.2260   -17.7510 
  233.1250    63.7810    26.0510    29.9790    27.2780    28.5940     2.2360   -17.7680 
  233.2500    63.0110    26.0800    31.7190    28.2760    30.0460     2.2340   -17.7960 
  233.3750    63.9420    26.0960    32.6130    29.6010    31.4790     2.2230   -17.8590 
  233.5000    66.3940    26.0990    33.5360    30.9590    32.7930     2.2160   -17.9860 
  233.6250    69.9900    26.0960    35.2210    32.0880    34.0620     2.2200   -18.1840 
  233.7500    71.8530    26.0650    37.0780    32.8700    35.2980     2.2260   -18.4490 
  233.8750    69.2890    26.0020    38.1510    33.2580    36.3780     2.2300   -18.7620 
  234.0000    66.1010    25.9590    37.8810    33.3110    37.1560     2.2330   -19.1130 
  234.1250    65.7420    25.9980    36.7560    33.2110    37.6860     2.2350   -19.5110 
  234.2500    64.9950    26.0640    36.3340    33.2310    38.3020     2.2280   -19.9220 
  234.3750    62.9040    26.0940    37.4080    33.5170    39.1670     2.2170   -20.3170 
  234.5000    61.9600    26.0740    39.5050    34.0570    40.2640     2.2170   -20.6670 
  234.6250    63.1320    26.0410    40.9580    34.6990    41.4240     2.2350   -20.9660 
  234.7500    64.4890    26.0200    40.9390    35.2480    42.4580     2.2510   -21.1990 
  234.8750    65.9460    26.0150    40.0850    35.6170    43.2660     2.2470   -21.3520 
  235.0000    67.6830    26.0170    39.5550    35.7970    43.8270     2.2260   -21.4020 
  235.1250    67.5820    26.0170    39.9060    35.8260    44.2060     2.2110   -21.3240 
  235.2500    65.7210    26.0180    40.0460    35.8150    44.5100     2.2120   -21.1670 
  235.3750    64.5660    26.0110    39.2080    35.8560    44.7650     2.2220   -20.9430 
  235.5000    65.5730    25.9690    37.9660    36.0910    45.0880     2.2320   -20.6720 
  235.6250    67.0500    25.9000    37.9370    36.8190    45.8480     2.2380   -20.3600 
  235.7500    68.4450    25.8530    39.8500    38.0950    47.2250     2.2430   -20.0420 
  235.8750    68.1820    25.8160    44.4050    39.7360    48.9910     2.2570   -19.7430 
  236.0000    64.2930    25.7310    51.2270    41.1740    50.3630     2.2830   -19.4930 
  236.1250    61.3200    25.5990    54.7970    41.3280    49.9660     2.3120   -19.3210 
  236.2500    63.3770    25.4960    50.4000    39.9320    47.6820     2.3280   -19.2070 
  236.3750    66.4680    25.4340    40.1940    37.4190    44.2990     2.3230   -19.1510 
  236.5000    66.4060    25.4250    30.5930    34.7060    41.1220     2.3010   -19.1470 
  236.6250    64.7600    25.5050    27.9410    32.9330    39.5010     2.2740   -19.2000 
  236.7500    64.3940    25.6170    34.2210    32.6780    39.8210     2.2510   -19.2750 
  236.8750    64.1140    25.6790    47.9430    34.3460    42.3810     2.2240   -19.3670 
  237.0000    63.6870    25.6830    59.3730    38.1160    47.3440     2.1890   -19.4630 
  237.1250    63.6310    25.7190    57.0860    43.9170    54.6740     2.1650   -19.5430 
  237.2500    61.6540    25.8830    45.6010    50.1880    62.3700     2.1790   -19.5910 
  237.3750    57.8020    26.1610    31.8390    55.0640    67.6660     2.2320   -19.6140 
  237.5000    54.2970    26.3530    20.2910    56.7680    67.9440     2.3040   -19.6000 
  237.6250    53.5350    26.1710    15.7420    54.0630    62.0660     2.3930   -19.5000 
  237.7500    55.4570    25.7840    18.1830    48.5350    53.2810     2.4940   -19.3420 
  237.8750    58.8520    25.4850    25.4310    41.7390    44.1330     2.5750   -19.1130 
  238.0000    61.1790    25.3720    34.2900    35.1500    36.2710     2.6030   -18.7970 
  238.1250    61.6540    25.3280    41.3830    29.7030    30.2210     2.5820   -18.3770 
  238.2500    62.2940    25.2890    46.6220    24.9980    25.0150     2.5650   -17.9090 
  238.3750    65.8240    25.2880    52.0590    20.5550    20.0790     2.5750   -17.4130 
  238.5000    71.3550    25.3020    53.4190    16.2070    15.3380     2.6040   -16.8930 
  238.6250    71.4700    25.2460    40.7940    12.3030    11.2760     2.6270   -16.3770 
  238.7500    66.7950    25.1280    22.2850     9.1670     8.1670     2.6140   -15.8830 
  238.8750    62.3220    25.0000     9.8240     6.9290     6.0360     2.5540   -15.4500 
  239.0000    60.4360    24.8880     5.2280     5.4980     4.6610     2.4670   -15.1120 
  239.1250    59.1270    24.7900     4.5350     4.7720     3.8530     2.3990   -14.9060 
  239.2500    58.5760    24.7430     4.4870     4.4750     3.4190     2.3650   -14.8050 
  239.3750    61.4140    24.8110     4.4910     4.4880     3.3410     2.3550   -14.8060 
  239.5000    67.0080    24.9740     4.6850     4.6950     3.5750     2.3570   -14.9200 
  239.6250    75.0870    25.1150     5.2780     5.0270     4.0830     2.3610   -15.1580 
  239.7500    84.4030    25.1640     6.0100     5.4490     4.7220     2.3650   -15.4640 
  239.8750    93.3470    25.1570     6.5190     5.9550     5.3900     2.3710   -15.7900 
  240.0000   100.9480    25.1690     6.6980     6.4990     5.9900     2.3800   -16.1030 
  240.1250   106.9450    25.2380     6.9290     6.9710     6.4200     2.3840   -16.3870 
  240.2500   110.3420    25.3230     7.4300     7.2880     6.6740     2.3740   -16.6410 
  240.3750   110.6240    25.3790     7.8860     7.4030     6.7660     2.3530   -16.8530 
  240.5000   110.8480    25.3960     7.9440     7.3420     6.7660     2.3330   -17.0250 
  240.6250   113.1300    25.3940     7.8010     7.2450     6.8430     2.3240   -17.1610 
  240.7500   113.0740    25.3930     8.1000     7.3270     7.2090     2.3240   -17.2880 
  240.8750   106.4490    25.3930     9.5350     7.7850     8.0870     2.3320   -17.4440 
  241.0000    94.5760    25.3930    13.1960     8.8520     9.7430     2.3430   -17.6530 
  241.1250    82.6130    25.3930    21.0900    11.0520    12.8140     2.3500   -17.9350 
  241.2500    72.9350    25.3950    32.2800    14.7020    17.6490     2.3420   -18.2680 
  241.3750    66.1210    25.3900    44.6670    20.2830    24.7670     2.3190   -18.6390 
  241.5000    63.8890    25.3680    57.8140    28.1640    34.4750     2.2910   -19.0450 
  241.6250    66.5890    25.3270    74.8030    38.4880    46.6870     2.2740   -19.4830 
  241.7500    68.1380    25.3000    92.1460    49.7040    59.4620     2.2640   -19.9460 
  241.8750    67.4050    25.2900   100.8520    60.2420    70.9060     2.2580   -20.4090 
