~V
VERS. 2.00: Ver 2.00
~W
STRT.M 59.0000:
STOP.M 261.0000:
STEP.M 0.1250:
NULL. -999.2500:
UWI. DF32116:
~C
DEPT.M :
SP.MV :
GR.API :
CALI.CM :
RXO.OHMM :
RI. :
RML.OHMM :
DEN.GM/CC :
~A
# ...
  137.7500   -23.0840    66.7080    24.3850    16.0290    12.1150    15.3040     2.2320 
  137.8750   -23.2770    65.9740    24.3660    12.3370    10.9400    13.4570     2.2070 
  138.0000   -23.4820    67.0170    24.3530    10.5480     9.8940    12.0290     2.1900 
  138.1250   -23.6770    66.5860    24.3820    10.1930     9.2040    11.2530     2.1740 
  138.2500   -23.8380    64.2890    24.4250    10.2400     8.8260    10.9010     2.1600 
  138.3750   -23.9620    61.7490    24.4430    10.3980     8.6840    10.7730     2.1560 
  138.5000   -24.0280    60.9340    24.4400    10.5930     8.7060    10.7580     2.1670 
  138.6250   -24.0170    61.8410    24.4720    10.7920     8.9290    10.9860     2.1770 
  138.7500   -23.9310    63.6080    24.5580    10.9110     9.4220    11.6550     2.1750 
  138.8750   -23.7490    65.4150    24.6670    10.9150    10.2730    12.9060     2.1600 
  139.0000   -23.4670    64.8160    24.7500    11.0270    11.4550    14.6340     2.1430 
  139.1250   -23.0490    62.9950    24.7650    11.6330    12.5990    16.1260     2.1370 
  139.2500   -22.4980    64.1180    24.7220    12.5300    12.9890    16.2650     2.1480 
  139.3750   -21.8350    69.6040    24.6320    13.2400    12.1460    14.5040     2.1750 
  139.5000   -21.1050    77.5890    24.5450    12.9950    10.2860    11.4750     2.2180 
  139.6250   -20.3350    85.0010    24.5750    10.9940     8.1950     8.5310     2.2780 
  139.7500   -19.5800    90.6230    24.7560     8.2160     6.5060     6.4130     2.3350 
  139.8750   -18.8910    92.7210    25.0280     5.9940     5.3600     5.1770     2.3680 
  140.0000   -18.2940    92.7800    25.2770     4.9510     4.7090     4.6490     2.3720 
  140.1250   -17.8760    92.6000    25.4100     4.8430     4.4980     4.6600     2.3540 
  140.2500   -17.6550    89.0030    25.4590     5.0030     4.5380     4.9130     2.3300 
  140.3750   -17.6250    82.3840    25.4620     5.1950     4.7300     5.2490     2.3040 
  140.5000   -17.7620    78.2790    25.4340     5.3420     4.9870     5.5510     2.2850 
  140.6250   -18.0610    78.8720    25.3630     5.5830     5.2440     5.7600     2.2820 
  140.7500   -18.4530    77.2880    25.2630     6.0460     5.4950     5.9390     2.2890 
  140.8750   -18.8770    72.8810    25.1500     6.4920     5.7950     6.2090     2.2910 
  141.0000   -19.2800    69.8130    25.0580     6.6970     6.2300     6.7190     2.2720 
  141.1250   -19.5900    66.5440    25.0150     7.0610     6.8970     7.5970     2.2400 
  141.2500   -19.7780    63.1560    25.0050     8.6470     7.7020     8.6620     2.2310 
  141.3750   -19.8230    63.4240    25.0250    12.2740     8.4290     9.5700     2.2680 
  141.5000   -19.7190    69.2330    25.0860    16.3490     8.7620     9.8560     2.3400 
  141.6250   -19.4770    76.9960    25.1890    15.9960     8.3680     9.1000     2.3930 
  141.7500   -19.1310    82.8570    25.2880    11.6740     7.5060     7.7710     2.3900 
  141.8750   -18.7130    86.1720    25.3470     7.3100     6.5200     6.4090     2.3470 
  142.0000   -18.2700    87.1970    25.3570     5.2980     5.6790     5.3740     2.3060 
  142.1250   -17.8120    88.5700    25.3340     5.0410     5.1390     4.8140     2.2950 
  142.2500   -17.3570    91.6830    25.3150     5.0540     4.8330     4.5440     2.2990 
  142.3750   -16.9170    93.3070    25.3130     5.0100     4.6830     4.4170     2.3000 
  142.5000   -16.5030    90.5570    25.3170     4.9180     4.6310     4.3650     2.2970 
  142.6250   -16.1260    85.0770    25.3200     4.8170     4.7220     4.5190     2.3000 
  142.7500   -15.8180    81.2670    25.3140     4.8600     5.0290     5.0250     2.3170 
  142.8750   -15.6300    77.4660    25.2930     5.5540     5.6150     5.9680     2.3410 
  143.0000   -15.5660    72.5010    25.2520     7.7270     6.4640     7.2650     2.3610 
  143.1250   -15.6840    69.4040    25.1920    11.0950     7.3520     8.4750     2.3610 
  143.2500   -15.9400    73.1770    25.1210    12.6720     7.8430     8.9450     2.3420 
  143.3750   -16.2870    80.7910    25.0590    11.0060     7.6970     8.4180     2.3140 
  143.5000   -16.6990    85.5430    25.0390     7.7270     7.0920     7.3150     2.2960 
  143.6250   -17.1650    85.5140    25.0710     5.8080     6.5230     6.4900     2.3110 
  143.7500   -17.6260    83.5520    25.0900     5.9790     6.3710     6.4500     2.3470 
  143.8750   -18.0360    80.8370    25.0590     8.2450     6.8420     7.4210     2.3800 
  144.0000   -18.3870    76.6040    25.0290    12.1700     8.1020     9.5330     2.3820 
  144.1250   -18.6480    72.1600    25.0870    16.5760    10.4330    12.9950     2.3300 
  144.2500   -18.8480    69.1800    25.1830    20.5600    13.5800    17.2880     2.2490 
  144.3750   -19.0370    65.5610    25.2330    24.3390    17.0550    21.6280     2.1720 
  144.5000   -19.2170    61.2880    25.2140    27.5970    20.0800    24.9930     2.1220 
  144.6250   -19.3970    61.1630    25.1760    28.8590    21.8740    26.5770     2.1110 
  144.7500   -19.5950    64.0980    25.1550    28.2800    22.7300    27.1050     2.1230 
  144.8750   -19.7960    64.7110    25.1340    27.1680    23.1240    27.3400     2.1400 
  145.0000   -19.9970    60.5110    25.1070    26.8510    23.4850    27.8360     2.1540 
  145.1250   -20.1890    56.7800    25.0890    28.1800    24.1190    28.9250     2.1570 
  145.2500   -20.3560    57.6830    25.0850    30.4470    24.9650    30.3420     2.1510 
  145.3750   -20.4980    60.7870    25.0850    32.4550    25.7550    31.5980     2.1400 
  145.5000   -20.6070    63.2510    25.0890    33.0650    26.1520    32.1570     2.1340 
  145.6250   -20.6570    64.6090    25.1070    31.5260    25.9030    31.6930     2.1340 
  145.7500   -20.6390    65.8820    25.1360    28.8100    25.3170    30.7810     2.1360 
  145.8750   -20.5370    66.0800    25.1720    26.3870    24.7840    30.0440     2.1370 
  146.0000   -20.3290    64.5470    25.2060    25.8200    24.6700    29.9770     2.1340 
  146.1250   -20.0130    63.5470    25.2140    27.8310    25.2800    30.9010     2.1310 
  146.2500   -19.6310    63.2150    25.1970    30.8090    26.4210    32.4410     2.1330 
  146.3750   -19.1980    62.2460    25.1780    33.4950    27.7470    34.0500     2.1420 
  146.5000   -18.7680    60.3050    25.1700    35.2910    28.7270    34.9900     2.1540 
  146.6250   -18.3790    59.3550    25.1660    35.4000    28.6440    34.3830     2.1670 
  146.7500   -18.0380    60.0530    25.1570    33.3250    27.4980    32.4630     2.1760 
  146.8750   -17.7670    61.1450    25.1600    29.3680    25.5940    29.7800     2.1780 
  147.0000   -17.5670    61.9750    25.1830    25.0360    23.4010    26.9730     2.1700 
  147.1250   -17.4170    63.8860    25.2070    22.2620    21.3780    24.5790     2.1650 
  147.2500   -17.3310    67.2530    25.2190    20.9430    19.7300    22.7370     2.1750 
  147.3750   -17.3170    69.1360    25.2220    20.0690    18.5110    21.4560     2.1920 
  147.5000   -17.3280    67.4340    25.2290    19.0000    17.7000    20.6730     2.1980 
  147.6250   -17.3430    64.8560    25.2320    18.2440    17.2950    20.3700     2.1870 
  147.7500   -17.3720    64.7240    25.2140    18.2140    17.2010    20.4380     2.1800 
  147.8750   -17.4200    66.5350    25.1830    18.5960    17.4340    20.9100     2.1890 
  148.0000   -17.4990    68.4490    25.1560    18.9570    18.0370    21.8390     2.2040 
  148.1250   -17.6430    67.6720    25.1490    19.7050    19.0630    23.2720     2.2080 
  148.2500   -17.8280    63.6780    25.1460    21.7220    20.3210    24.9290     2.2000 
  148.3750   -18.0250    59.8590    25.1310    25.2130    21.5820    26.4790     2.1920 
  148.5000   -18.2410    60.1050    25.1030    28.3690    22.5820    27.5660     2.2030 
  148.6250   -18.4240    63.2030    25.0770    27.9820    23.0520    27.8770     2.2520 
  148.7500   -18.5330    64.4330    25.0750    25.4240    23.1060    27.6890     2.3270 
  148.8750   -18.5630    62.1290    25.0980    23.9660    22.9450    27.3470     2.4050 
