~V
VERS. 2.00: Ver 2.00
~W
STRT.M 60.0000:
STOP.M 271.0000:
STEP.M 0.1250:
NULL. -999.2500:
UWI. DF324:
~C
DEPT.M :
SP.MV :
AC.US/MT :
DEN.GM/CC :
GR.API :
CALI.CM :
RXO.OHMM :
RI. :
RML.OHMM :
~A
# ...
  220.0000   -24.8720   418.8610     2.1670    74.0400    24.0150    89.4500    80.6480    83.7820 
  220.1250   -24.9500   416.7860     2.1750    71.5280    23.9550    88.9390    80.3820    83.5070 
  220.2500   -25.0670   413.5740     2.1780    69.0550    23.8440    89.2900    80.2020    83.3200 
  220.3750   -25.2270   409.5160     2.1700    67.8030    23.7220    90.1690    79.9420    83.0500 
  220.5000   -25.4300   405.9020     2.1570    68.6190    23.6380    89.3720    79.4140    82.5020 
  220.6250   -25.6800   405.4310     2.1450    70.8660    23.5980    86.2850    78.4730    81.5260 
  220.7500   -25.9640   408.3070     2.1390    72.5890    23.6390    81.8970    77.2680    80.2770 
  220.8750   -26.2600   412.3930     2.1450    73.0700    23.6800    77.9880    76.0270    78.9900 
  221.0000   -26.5420   414.8390     2.1620    72.3750    23.7230    75.7760    75.0070    77.9320 
  221.1250   -26.7870   414.3170     2.1810    70.7080    23.7700    76.0040    74.5040    77.4110 
  221.2500   -26.9880   412.1180     2.1920    68.8670    23.8100    76.7210    74.5400    77.4480 
  221.3750   -27.1390   407.9190     2.1910    67.1320    23.8160    76.7890    75.0600    77.9870 
  221.5000   -27.2370   400.3280     2.1810    65.7550    23.7670    75.7770    75.8800    78.8380 
  221.6250   -27.2800   389.8920     2.1660    65.6130    23.7410    74.7760    76.6710    79.6580 
  221.7500   -27.2790   382.4180     2.1540    66.5390    23.7060    75.6800    77.1270    80.1310 
  221.8750   -27.2370   383.4790     2.1450    67.0440    23.6690    79.9840    77.0520    80.0530 
  222.0000   -27.1550   394.8510     2.1420    66.0380    23.6240    87.7990    76.2950    79.2680 
  222.1250   -27.0270   411.8550     2.1530    64.5910    23.6140    99.1410    74.6040    77.5140 
  222.2500   -26.8720   424.0830     2.1740    64.2760    23.6680   105.5490    72.0200    74.8350 
  222.3750   -26.7080   426.4760     2.1870    65.8020    23.7120    99.0460    68.5830    71.2700 
  222.5000   -26.5440   421.3950     2.1850    69.1110    23.6880    81.5220    64.4750    67.0100 
  222.6250   -26.3840   416.3840     2.1880    73.0770    23.6050    63.4410    60.0380    62.4090 
  222.7500   -26.2390   414.0810     2.2130    75.1390    23.5260    48.8630    55.8380    58.0540 
  222.8750   -26.1150   410.9580     2.2500    74.2940    23.4640    37.8810    52.3610    54.4490 
  223.0000   -26.0160   404.5620     2.2860    72.3470    23.4530    30.6020    50.0300    52.0310 
  223.1250   -25.9420   397.6810     2.3120    72.5660    23.5140    28.8320    49.3740    51.3510 
  223.2500   -25.8780   393.3260     2.3240    74.5730    23.6120    30.5000    50.2040    52.2110 
  223.3750   -25.8140   388.8670     2.3220    75.5390    23.6730    33.7870    52.3250    54.4110 
  223.5000   -25.7470   378.7030     2.3120    73.7710    23.6970    36.9340    55.3340    57.5320 
  223.6250   -25.6740   357.9670     2.3110    71.0330    23.7050    42.1700    58.5470    60.8630 
  223.7500   -25.5900   331.9560     2.3220    70.2030    23.7160    52.4380    61.0650    63.4750 
  223.8750   -25.4890   309.6460     2.3420    71.5210    23.6970    66.3390    62.2400    64.6930 
  224.0000   -25.3760   301.2660     2.3610    73.4430    23.6060    77.9100    61.7970    64.2330 
  224.1250   -25.2630   316.2360     2.3660    74.9930    23.3790    79.7300    59.7970    62.1590 
  224.2500   -25.1530   347.1190     2.3510    77.0320    23.1560    72.7870    57.1610    59.4260 
  224.3750   -25.0390   383.1670     2.3190    79.7670    23.0130    61.4720    54.6320    56.8030 
  224.5000   -24.9110   412.6550     2.2830    81.8310    22.9580    50.8580    52.8790    54.9860 
  224.6250   -24.7650   426.1100     2.2540    81.7060    22.9480    46.5290    52.6380    54.7350 
  224.7500   -24.6020   428.5630     2.2330    80.6230    23.0030    47.1340    53.9620    56.1090 
  224.8750   -24.4130   427.3140     2.2190    79.9110    23.0670    50.9230    56.9050    59.1600 
  225.0000   -24.1890   426.2760     2.2100    79.8370    23.1010    56.9430    61.4070    63.8300 
  225.1250   -23.9120   422.6180     2.2180    79.8690    23.1100    67.0570    67.4020    70.0460 
  225.2500   -23.5890   415.0130     2.2420    78.9260    23.1610    78.3630    73.7880    76.6690 
  225.3750   -23.2300   405.5010     2.2750    76.0420    23.2700    85.4360    78.8200    81.8870 
  225.5000   -22.8450   392.5080     2.3100    71.2230    23.3760    86.9590    80.1780    83.2950 
  225.6250   -22.4350   363.8600     2.3560    66.2180    23.4300    91.4920    75.0200    77.9460 
  225.7500   -22.0130   316.1900     2.4220    63.2930    23.3860   106.1990    64.5480    67.0870 
  225.8750   -21.5890   260.8930     2.5030    62.9550    23.2630   128.5090    51.0060    53.0430 
  226.0000   -21.1790   221.3740     2.5720    63.8870    23.1510   139.7110    37.2930    38.8230 
  226.1250   -20.8080   224.9230     2.5910    63.5850    23.1210   117.7560    26.1620    27.2800 
  226.2500   -20.4790   263.6550     2.5650    62.1570    23.1770    74.7070    18.0360    18.8530 
  226.3750   -20.1870   317.4890     2.5090    61.5050    23.2960    36.0190    12.6300    13.2480 
  226.5000   -19.9220   364.0510     2.4410    62.8120    23.3970    14.2290     9.3000     9.7940 
  226.6250   -19.6900   388.1500     2.3830    65.2910    23.4230     7.9490     7.4850     7.9120 
  226.7500   -19.4980   396.9530     2.3500    67.7100    23.4090     6.3440     6.4070     6.7940 
  226.8750   -19.3580   400.1830     2.3390    69.7040    23.3950     5.8450     5.7740     6.1370 
  227.0000   -19.2780   405.2930     2.3360    70.4210    23.3810     5.2870     5.4020     5.7520 
  227.1250   -19.2680   414.7340     2.3300    68.9970    23.3780     4.6020     5.1860     5.5280 
  227.2500   -19.3180   425.0320     2.3250    66.8680    23.4160     4.0800     5.0440     5.3800 
  227.3750   -19.4380   433.0490     2.3230    65.4130    23.4700     3.8180     4.9650     5.2990 
  227.5000   -19.6400   437.0680     2.3260    65.4010    23.4660     3.7910     4.9580     5.2910 
  227.6250   -19.9330   436.4150     2.3320    67.9450    23.4520     3.9690     5.0470     5.3840 
  227.7500   -20.2860   432.4810     2.3520    72.6180    23.4310     4.4160     5.2190     5.5620 
  227.8750   -20.6770   425.6120     2.3890    77.8700    23.3890     5.3530     5.4590     5.8100 
  228.0000   -21.0790   416.3640     2.4310    82.0980    23.3690     6.8690     5.7490     6.1110 
  228.1250   -21.4620   406.8150     2.4440    84.8930    23.4470     7.5820     6.0650     6.4390 
  228.2500   -21.8150   399.8710     2.4240    87.1300    23.6470     7.6240     6.3690     6.7550 
  228.3750   -22.1340   396.5470     2.3980    89.4240    23.7880     7.5380     6.6340     7.0300 
  228.5000   -22.4130   395.7470     2.3920    92.8860    23.8090     7.7330     6.8400     7.2430 
  228.6250   -22.6420   395.7560     2.3990    98.2340    23.7460     8.1460     6.9670     7.3750 
  228.7500   -22.8340   396.1030     2.3970   103.9090    23.7090     8.4880     7.0310     7.4410 
  228.8750   -23.0040   397.4580     2.3850   108.8120    23.7210     8.6660     7.0530     7.4640 
  229.0000   -23.1690   400.0500     2.3730   113.4070    23.7770     8.5350     7.0510     7.4620 
  229.1250   -23.3390   402.9360     2.3630   118.6180    23.8760     8.1900     7.0370     7.4480 
  229.2500   -23.5090   404.5690     2.3550   124.4050    23.9260     7.8870     7.0160     7.4260 
  229.3750   -23.6750   404.3430     2.3540   130.6910    23.9200     7.7270     6.9780     7.3870 
  229.5000   -23.8430   402.9260     2.3600   136.2010    23.8640     7.6740     6.9170     7.3230 
  229.6250   -24.0290   402.0920     2.3670   137.3070    23.7700     7.6660     6.8470     7.2500 
  229.7500   -24.2320   402.8470     2.3700   133.7690    23.7380     7.6500     6.8140     7.2160 
  229.8750   -24.4480   404.9030     2.3720   128.6400    23.7660     7.5570     6.8800     7.2840 
