~V
VERS. 2.00: Ver 2.00
~W
STRT.M 60.0000:
STOP.M 227.0000:
STEP.M 0.1250:
NULL. -999.2500:
UWI. DF32025:
~C
DEPT.M :
DEN.GM/CC :
GR.API :
RML.OHMM :
RI. :
RXO.OHMM :
CALI.CM :
SP.MV :
~A
# ...
  150.0000     2.2340    59.9510    92.9560    89.2030   103.5830    24.4530   -16.8880 
  150.1250     2.2280    61.0960    95.7960    91.8740   100.1660    24.4570   -16.8010 
  150.2500     2.2220    61.1000    96.8670    92.6280    82.3280    24.4510   -16.6960 
  150.3750     2.2160    60.5790    98.2730    93.2960    69.1920    24.4450   -16.5770 
  150.5000     2.2100    60.7510   101.8520    95.6090    73.4520    24.4400   -16.4980 
  150.6250     2.2060    60.5840   108.5940   100.6090    92.5600    24.4290   -16.2920 
  150.7500     2.2050    59.0750   117.0560   107.1710   103.0980    24.4080   -16.1650 
  150.8750     2.2100    58.6040   125.6770   113.9660   103.4550    24.3880   -16.0110 
  151.0000     2.2170    60.8960   132.9460   119.6910   102.4190    24.3880   -15.9120 
  151.1250     2.2240    61.8640   137.6010   123.2360   105.6130    24.4100   -15.8080 
  151.2500     2.2270    61.1440   140.2770   125.0700   111.2950    24.4400   -15.6770 
  151.3750     2.2240    61.6310   141.8120   125.8770   117.1290    24.4660   -15.5870 
  151.5000     2.2190    64.0060   142.9300   126.3040   117.3240    24.4970   -15.4050 
  151.6250     2.2140    65.3180   143.8310   126.6040   115.9190    24.5110   -15.2920 
  151.7500     2.2140    64.0030   144.2700   126.5960   115.3560    24.5150   -15.1340 
  151.8750     2.2170    62.4790   143.8650   125.9290   116.5770    24.5150   -14.9980 
  152.0000     2.2200    61.7880   142.4940   124.4270   117.9450    24.5150   -14.8130 
  152.1250     2.2210    62.0920   140.6840   122.4430   118.2500    24.5090   -14.7520 
  152.2500     2.2210    63.7570   139.8210   121.1420   115.4670    24.4930   -14.6270 
  152.3750     2.2190    66.7980   141.2760   121.7390   111.9460    24.4680   -14.5480 
  152.5000     2.2170    68.0240   146.0530   125.1790   111.6340    24.4520   -14.5200 
  152.6250     2.2130    64.8450   154.7610   132.1050   119.9010    24.4470   -14.5310 
  152.7500     2.2070    62.1570   165.5230   140.9540   138.5780    24.4470   -14.5840 
  152.8750     2.2000    63.2730   176.2620   149.9560   156.9570    24.4470   -14.5870 
  153.0000     2.1950    65.2490   184.8150   157.2320   162.4810    24.4470   -14.7220 
  153.1250     2.1940    64.5780   189.2480   161.0420   154.7310    24.4470   -14.6640 
  153.2500     2.1990    62.7820   190.6150   162.1230   148.0250    24.4440   -14.6940 
  153.3750     2.2050    60.1460   190.4480   161.7170   144.5950    24.4300   -14.7060 
  153.5000     2.2100    57.6050   190.1500   161.1600   144.7200    24.3990   -14.6910 
  153.6250     2.2100    59.2570   190.1260   161.2600   148.4060    24.3830   -14.6930 
  153.7500     2.2070    63.0770   189.4870   161.6170   152.4950    24.3690   -14.6210 
  153.8750     2.2020    64.6350   187.1220   161.4430   155.9300    24.3480   -14.6450 
  154.0000     2.1990    63.8000   182.3610   160.0270   157.7680    24.3310   -14.5570 
  154.1250     2.1990    64.4300   175.3110   157.0240   157.4310    24.2960   -14.6090 
  154.2500     2.2010    65.8870   167.7790   153.4280   153.6830    24.2920   -14.6550 
  154.3750     2.2040    65.6430   161.1890   150.3280   150.8600    24.3100   -14.7050 
  154.5000     2.2060    63.6120   156.1680   148.4590   147.9040    24.3530   -14.8320 
  154.6250     2.2080    62.1310   151.7100   147.2890   139.8220    24.4170   -14.9120 
  154.7500     2.2100    61.6350   144.9200   144.2200   130.9410    24.4900   -15.0700 
  154.8750     2.2120    61.9840   132.9270   136.1570   126.5620    24.5630   -15.1630 
  155.0000     2.2150    62.7360   114.2450   120.8390   126.7360    24.6310   -15.3200 
  155.1250     2.2250    62.4000    90.1760    98.1200   129.1890    24.6890   -15.3950 
  155.2500     2.2430    62.1300    66.7470    73.9670   120.2470    24.7360   -15.5060 
  155.3750     2.2690    65.4010    48.1790    53.5440    83.4370    24.7690   -15.5350 
  155.5000     2.2970    72.4900    36.0700    39.6100    43.3100    24.7870   -15.5820 
  155.6250     2.3170    77.9820    30.6140    32.9020    24.8240    24.7870   -15.6200 
  155.7500     2.3220    78.7200    29.3320    30.7290    19.0110    24.7750   -15.6340 
  155.8750     2.3140    76.4700    31.0190    31.7690    21.8130    24.7430   -15.6890 
  156.0000     2.2990    72.4470    34.7000    35.0620    34.6020    24.6910   -15.6430 
  156.1250     2.2850    67.9060    39.7760    40.0890    49.7090    24.6170   -15.7270 
  156.2500     2.2720    66.4970    45.7660    46.2070    50.9330    24.5300   -15.7290 
  156.3750     2.2590    68.1140    53.0580    53.5690    60.5730    24.4370   -15.7850 
  156.5000     2.2440    69.0990    62.4710    62.7400    79.8380    24.3460   -15.8080 
  156.6250     2.2320    68.6270    75.2520    74.6330   101.3280    24.2620   -15.7810 
  156.7500     2.2260    69.1240    90.8240    88.5700   111.9110    24.1880   -15.8050 
  156.8750     2.2250    69.0740   108.2510   103.5140   117.9670    24.1290   -15.7520 
  157.0000     2.2250    67.2040   126.2560   118.2210   120.5620    24.0840   -15.8260 
  157.1250     2.2230    65.4020   143.7590   131.7270   130.6650    24.0520   -15.8020 
  157.2500     2.2190    63.6020   160.5860   144.2500   151.3800    24.0300   -15.8170 
  157.3750     2.2170    61.3460   176.4360   155.8350   170.1440    24.0150   -15.9010 
  157.5000     2.2170    59.3540   190.0980   165.8410   186.3010    24.0070   -15.9550 
  157.6250     2.2190    58.4280   198.9460   172.6050   190.2800    24.0020   -16.1190 
  157.7500     2.2200    57.9300   202.9410   176.0970   178.7030    24.0000   -16.2110 
  157.8750     2.2200    59.2520   203.2560   177.0250   160.9720    24.0000   -16.3890 
  158.0000     2.2180    62.0680   201.9770   176.7560   154.0060    24.0000   -16.4790 
  158.1250     2.2180    62.8280   201.0830   176.7490   155.7120    24.0030   -16.6440 
  158.2500     2.2210    61.2420   201.1840   177.5690   158.0360    24.0100   -16.7880 
  158.3750     2.2260    60.6360   201.9740   179.0300   158.0040    24.0190   -16.9040 
  158.5000     2.2300    62.0900   202.8500   180.6090   158.0110    24.0290   -17.0230 
  158.6250     2.2310    62.2110   203.2400   181.6960   160.6120    24.0400   -17.1390 
  158.7500     2.2300    62.0700   203.3030   182.3010   158.0930    24.0510   -17.2610 
  158.8750     2.2270    63.2620   203.7550   182.9850   154.8980    24.0660   -17.3830 
  159.0000     2.2230    65.0210   205.8260   184.8520   154.2870    24.0840   -17.5720 
  159.1250     2.2190    64.8830   211.8850   190.0910   152.6650    24.1040   -17.6560 
  159.2500     2.2150    63.9960   223.0650   199.8510   155.2830    24.1250   -17.8440 
  159.3750     2.2100    62.8450   240.1430   214.8710   162.7590    24.1460   -17.9760 
  159.5000     2.2060    60.1130   262.6910   234.7890   180.4500    24.1670   -18.1460 
  159.6250     2.2040    55.6150   288.7820   257.9620   230.3720    24.1840   -18.2800 
  159.7500     2.2030    53.2890   313.7470   280.4220   299.9910    24.1990   -18.3870 
  159.8750     2.2040    53.4040   332.6170   298.6820   329.0360    24.2140   -18.5160 
  160.0000     2.2050    54.0340   341.8650   309.7980   309.7360    24.2270   -18.5610 
  160.1250     2.2060    55.2180   338.0610   310.3660   284.1510    24.2530   -18.7090 
  160.2500     2.2070    57.0880   324.3550   301.4240   274.7910    24.3010   -18.7290 
  160.3750     2.2060    57.1130   302.8990   283.6200   275.4100    24.3010   -18.7480 
  160.5000     2.2070    54.9410   278.7320   258.8510   267.4270    24.2950   -18.7380 
  160.6250     2.2100    52.7490   254.0870   231.0170   250.0760    24.2730   -18.7030 
  160.7500     2.2140    53.4140   231.5570   206.3920   215.9980    24.2390   -18.6650 
  160.8750     2.2170    56.4280   211.4600   189.5910   163.1760    24.2190   -18.5300 
  161.0000     2.2150    60.2580   203.2580   183.1020   129.6040    24.2130   -18.4390 
  161.1250     2.2100    61.1520   205.5290   187.2720   127.8090    24.2130   -18.2140 
