~V
VERS. 2.00: Ver 2.00
~W
STRT.M 62.0000:
STOP.M 243.0000:
STEP.M 0.1250:
NULL. -999.2500:
UWI. DF32072:
~C
DEPT.M :
SP.MV :
GR.API :
CALI.CM :
RXO.OHMM :
RI. :
RML.OHMM :
DEN.GM/CC :
~A
# ...
  197.0000   -29.4260    75.7570    24.9070    66.3680    61.2950    77.8510     2.1930 
  197.1250   -29.1730    76.3940    24.8760    58.7540    54.9560    69.9740     2.1950 
  197.2500   -28.9320    74.6920    24.8050    53.0720    50.0910    63.6350     2.1970 
  197.3750   -28.7230    73.6790    24.7200    48.4970    46.6210    58.9430     2.2050 
  197.5000   -28.4870    73.9390    24.6420    44.7260    44.4080    55.8330     2.2180 
  197.6250   -28.3510    73.3630    24.6020    43.1870    43.6840    54.6190     2.2300 
  197.7500   -28.2700    71.5170    24.5290    43.1570    44.4500    55.2630     2.2410 
  197.8750   -28.1800    71.2920    24.4010    43.6050    47.0070    58.0930     2.2560 
  198.0000   -28.1390    71.8350    24.3420    45.9220    51.7160    63.5210     2.2730 
  198.1250   -28.1560    68.4500    24.4810    56.3860    59.3760    72.3740     2.2800 
  198.2500   -28.2160    62.7990    24.7190    73.5560    69.6360    83.9790     2.2640 
  198.3750   -28.3250    60.1740    24.7570    93.3550    81.9810    97.4670     2.2270 
  198.5000   -28.4930    61.5380    24.6990   110.1160    95.2240   111.3560     2.1860 
  198.6250   -28.6040    63.7060    24.6970   119.9580   107.2590   123.4470     2.1590 
  198.7500   -28.8040    63.6330    24.8020   126.0980   116.7550   132.7330     2.1510 
  198.8750   -29.0270    62.2890    24.8820   130.9550   123.4770   139.1520     2.1530 
  199.0000   -29.2370    61.9880    24.9090   134.0060   127.5740   142.9800     2.1580 
  199.1250   -29.4970    62.6980    24.9060   135.3890   128.2240   143.6160     2.1540 
  199.2500   -29.6830    64.0890    24.9060   133.9270   125.6440   141.2720     2.1440 
  199.3750   -29.8690    66.1170    24.8960   131.1450   120.3320   136.2890     2.1340 
  199.5000   -30.0850    66.6500    24.8630   126.1300   113.4100   129.6190     2.1320 
  199.6250   -30.2620    63.5870    24.8700   114.1770   106.6230   122.9400     2.1410 
  199.7500   -30.3410    60.1320    25.0710   102.0490   101.4770   117.8580     2.1530 
  199.8750   -30.4210    60.1540    25.3660    96.2310    98.3280   114.7750     2.1630 
  200.0000   -30.4630    62.5520    25.3580    95.5570    96.1030   112.6010     2.1680 
  200.1250   -30.4650    63.0170    24.9540    99.7390    91.6960   108.2420     2.1720 
  200.2500   -30.4910    61.2170    24.7540   105.6030    83.0590    99.4830     2.1800 
  200.3750   -30.4480    59.9090    24.7030   103.3050    71.0960    86.6500     2.1990 
  200.5000   -30.3540    62.1240    24.7150    85.1600    59.1220    72.8210     2.2280 
  200.6250   -30.2830    67.0390    24.7530    62.7140    50.8310    62.4720     2.2560 
  200.7500   -30.2440    69.5840    24.7730    48.3660    46.8960    57.2870     2.2590 
  200.8750   -30.2090    69.2150    24.7630    46.8890    47.5710    58.0240     2.2330 
  201.0000   -30.1640    69.3710    24.7380    55.3990    53.2900    65.3920     2.2020 
  201.1250   -30.1190    70.7290    24.8400    65.8130    65.9280    81.2080     2.2020 
  201.2500   -30.0790    68.1310    25.0470    74.2240    84.5760   102.8390     2.2290 
  201.3750   -30.0760    61.0050    25.1600    96.8900   105.8950   125.3210     2.2560 
  201.5000   -30.1040    54.7180    25.1790   131.5510   122.2050   141.3480     2.2570 
  201.6250   -30.1290    56.9830    25.2650   149.1470   125.4330   144.5330     2.2220 
  201.7500   -30.1550    63.8050    25.3780   134.8690   121.1520   139.8550     2.1750 
  201.8750   -30.1450    68.2280    25.4210   116.1130   115.8810   133.2640     2.1360 
  202.0000   -30.1890    67.1150    25.4260   106.6590   113.5200   129.2980     2.1140 
  202.1250   -30.2670    64.2340    25.5040   112.2240   116.1230   130.7880     2.1070 
  202.2500   -30.3140    63.7120    25.5650   132.6790   122.7280   136.6890     2.1070 
  202.3750   -30.4340    62.9900    25.5840   161.6430   132.1660   145.5090     2.1110 
  202.5000   -30.5180    59.2270    25.5180   179.6010   142.6180   155.2940     2.1190 
  202.6250   -30.5980    55.4470    25.3620   174.6770   151.6590   163.8780     2.1400 
  202.7500   -30.7100    55.7400    25.1760   161.9020   157.6560   169.8670     2.1760 
  202.8750   -30.8000    59.0790    25.0380   152.4340   158.9130   171.6810     2.2210 
  203.0000   -30.8840    62.2400    24.9580   140.4320   153.0640   167.1640     2.2600 
  203.1250   -30.9640    64.3700    24.8910   119.7760   137.1800   153.2050     2.2740 
  203.2500   -30.9910    65.7600    24.8920   103.3520   115.5290   132.4060     2.2620 
  203.3750   -30.9590    66.0580    24.9850    95.6040    93.2860   108.8280     2.2310 
  203.5000   -30.9940    66.3040    25.0950    89.2910    74.4940    87.1170     2.2000 
  203.6250   -31.0030    68.2840    25.0790    81.0460    61.5260    71.2640     2.1850 
  203.7500   -30.9420    71.3060    25.1010    70.9740    53.1730    60.9040     2.1820 
  203.8750   -30.9450    73.7130    25.2410    59.0310    48.6150    55.1810     2.1830 
  204.0000   -30.9030    74.1120    25.4390    52.1420    47.1020    53.1010     2.1750 
  204.1250   -30.7810    72.1990    25.5710    51.7960    48.3200    54.1930     2.1550 
  204.2500   -30.7200    71.5160    25.5510    57.2340    51.1570    57.0980     2.1460 
  204.3750   -30.5810    72.3560    25.3920    65.9060    54.8000    60.8530     2.1720 
  204.5000   -30.3410    73.2400    25.2080    73.4200    58.3320    64.4550     2.2340 
  204.6250   -30.0910    72.2670    25.0780    70.2510    60.8530    66.9810     2.2960 
  204.7500   -29.8290    69.7190    24.8940    59.5150    62.3580    68.4150     2.3120 
  204.8750   -29.4840    66.5930    24.6520    50.6250    63.1680    69.0530     2.2800 
  205.0000   -29.1400    64.9120    24.6410    51.4610    63.7380    69.3340     2.2300 
  205.1250   -28.8240    66.9150    24.8960    63.5060    64.4340    69.6290     2.2060 
  205.2500   -28.4470    69.8680    25.1240    76.2240    65.3640    70.1020     2.2120 
  205.3750   -28.1480    71.0930    25.1930    80.0710    66.6420    70.9000     2.2380 
  205.5000   -27.8530    71.1520    25.1520    73.5740    68.5520    72.3510     2.2750 
  205.6250   -27.5420    70.8750    25.0750    66.3870    71.7750    75.1920     2.3110 
  205.7500   -27.2550    69.3760    25.0230    68.0970    76.5500    79.6380     2.3300 
  205.8750   -26.9360    67.8670    24.9590    74.7780    82.7730    85.4880     2.3240 
  206.0000   -26.6020    68.0330    24.8960    81.9780    89.3540    91.6090     2.2990 
  206.1250   -26.2510    70.0640    24.8220    92.8500    93.1960    95.3570     2.2730 
  206.2500   -25.8980    71.2120    24.7340   105.5950    92.3440    95.2350     2.2550 
  206.3750   -25.5250    71.1880    24.6980   106.0350    87.3580    91.6370     2.2510 
  206.5000   -25.1080    70.6650    24.7510    87.9340    80.9970    86.8380     2.2650 
  206.6250   -24.6460    69.4160    24.8500    67.9210    76.8510    84.3600     2.3070 
  206.7500   -24.1530    67.9660    24.8750    62.6490    76.5310    86.1980     2.3710 
  206.8750   -23.6330    68.3780    24.7870    80.5920    80.8770    93.5160     2.4580 
  207.0000   -23.0820    70.7920    24.5920   120.0910    90.4340   106.8720     2.5640 
  207.1250   -22.5010    73.3380    24.5180   177.5270   104.4440   124.9010     2.6680 
  207.2500   -21.8930    73.1870    24.6140   201.7160   112.9520   138.0650     2.7390 
  207.3750   -21.2390    69.3080    24.6780   183.3830   101.0400   132.5080     2.7530 
  207.5000   -20.6610    64.1870    24.6500   154.7020    69.7510   102.3880     2.7080 
  207.6250   -20.1510    62.4520    24.5510   113.8870    41.1560    63.8690     2.6190 
  207.7500   -19.6600    63.9220    24.4780    70.1600    23.4030    35.7800     2.5180 
  207.8750   -19.3200    66.1850    24.3590    30.4400    13.5440    19.5580     2.4260 
  208.0000   -19.0870    66.2320    24.0890    11.3420     8.2750    11.2850     2.3580 
  208.1250   -18.9970    64.0460    23.7090     6.3550     5.7980     7.6600     2.3270 
