~V
VERS. 2.00: Ver 2.00
~W
STRT.M 60.0000:
STOP.M 258.0000:
STEP.M 0.1250:
NULL. -999.2500:
UWI. DF32100:
~C
DEPT.M :
SP.MV :
GR.API :
CALI.CM :
RXO.OHMM :
RI. :
RML.OHMM :
DEN.GM/CC :
~A
# ...
   82.5000   -17.7020   122.4990    24.1550     4.2140     3.6480     5.1780     2.3030 
   82.6250   -17.3030   126.4800    23.8700     4.4430     3.5880     5.2600     2.3030 
   82.7500   -17.1590   129.7770    23.6930     4.5970     3.5670     5.3280     2.3080 
   82.8750   -17.2170   127.4040    23.5770     4.6090     3.5570     5.3200     2.3260 
   83.0000   -17.4400   120.5760    23.4110     4.5170     3.5830     5.2980     2.3530 
   83.1250   -17.8790   114.9360    23.0790     4.4720     3.7310     5.4510     2.3810 
   83.2500   -18.3640   111.1040    22.7570     4.7350     4.0410     5.8930     2.3970 
   83.3750   -18.8990   104.8780    22.6170     5.3900     4.5110     6.6590     2.3870 
   83.5000   -19.5260    96.6850    22.5930     6.3940     5.0750     7.6310     2.3470 
   83.6250   -20.1220    91.8190    22.5940     7.2520     5.5610     8.4090     2.2850 
   83.7500   -20.6540    88.9990    22.6010     7.8460     5.8300     8.6480     2.2230 
   83.8750   -21.1680    84.8220    22.6310     7.9790     5.8820     8.3940     2.1750 
   84.0000   -21.5760    79.5790    22.6910     7.6100     5.8500     8.0210     2.1580 
   84.1250   -21.7830    78.8520    22.7360     7.0960     5.9610     8.0440     2.1850 
   84.2500   -21.9600    81.2800    22.8280     7.5250     6.3760     8.6950     2.2430 
   84.3750   -22.0540    82.5460    23.0510     9.0470     7.1350    10.0360     2.3180 
   84.5000   -22.0090    82.3330    23.3420     9.9770     8.1150    11.8240     2.4000 
   84.6250   -21.8780    82.2870    23.3270     9.4940     8.8430    13.0880     2.4800 
   84.7500   -21.7310    81.1810    23.0760     9.2090     8.8360    12.8590     2.5330 
   84.8750   -21.5250    78.7110    22.8360     9.5960     8.0250    11.2020     2.5440 
   85.0000   -21.3130    78.7580    22.7430     8.8020     6.8010     9.1030     2.5100 
   85.1250   -21.2250    84.8020    22.7430     6.7510     5.6950     7.5370     2.4430 
   85.2500   -21.1820    93.2260    22.7430     5.1880     4.9240     6.6470     2.3680 
   85.3750   -21.1760    98.6640    22.7570     4.8330     4.4860     6.3230     2.2990 
   85.5000   -21.2890    97.9080    22.8010     4.9630     4.3230     6.3930     2.2510 
   85.6250   -21.4860    92.7150    22.9010     5.1050     4.3830     6.6580     2.2400 
   85.7500   -21.6400    88.3630    22.9690     5.1390     4.5450     6.8640     2.2510 
   85.8750   -21.8620    88.5960    23.0080     5.1540     4.7180     6.9050     2.2660 
   86.0000   -22.1670    92.6400    23.0220     5.1480     4.8240     6.8190     2.2670 
   86.1250   -22.4160    94.4700    22.9930     5.1030     4.8320     6.7290     2.2520 
   86.2500   -22.6610    90.2450    22.9190     5.0350     4.8220     6.7300     2.2410 
   86.3750   -22.9160    82.9300    22.8660     5.0150     4.8600     6.8310     2.2380 
   86.5000   -23.1130    80.1770    22.8990     5.1300     4.9550     6.9820     2.2360 
   86.6250   -23.2350    83.2580    22.8440     5.4180     5.0470     7.0930     2.2290 
   86.7500   -23.3660    85.0900    22.7000     5.5750     5.0670     7.1040     2.2260 
   86.8750   -23.4610    83.6440    22.5920     5.4930     5.0100     6.9940     2.2330 
   87.0000   -23.4610    82.3160    22.5590     5.2610     4.9080     6.7870     2.2490 
   87.1250   -23.4160    86.0790    22.5620     5.0940     4.7840     6.5430     2.2640 
   87.2500   -23.3480    91.2340    22.5790     5.0950     4.6490     6.3480     2.2750 
   87.3750   -23.2790    94.0010    22.6120     5.1480     4.5200     6.2490     2.2870 
   87.5000   -23.2410    94.1980    22.6170     5.1300     4.4310     6.2460     2.3010 
   87.6250   -23.3980    92.7340    22.5630     5.1460     4.4120     6.2980     2.3030 
   87.7500   -23.7260    91.1950    22.4830     5.3510     4.4450     6.3730     2.2910 
   87.8750   -24.1220    89.4930    22.4480     5.6260     4.5280     6.5140     2.2700 
   88.0000   -24.6130    88.3710    22.4680     5.7790     4.7000     6.8180     2.2490 
   88.1250   -25.2840    86.1660    22.5480     5.7700     5.0630     7.4050     2.2380 
   88.2500   -26.0130    83.2450    22.6500     6.1150     5.6240     8.2250     2.2370 
   88.3750   -26.7330    80.1830    22.7100     6.9480     6.2940     9.1450     2.2400 
   88.5000   -27.4320    77.3400    22.7720     7.8720     6.8690     9.9120     2.2390 
   88.6250   -28.0430    75.6160    22.9310     8.2340     7.1040    10.1910     2.2280 
   88.7500   -28.5300    75.2850    23.1990     8.2850     7.0620    10.0490     2.2080 
   88.8750   -28.9020    77.3510    23.4500     8.2120     6.9030     9.7020     2.1910 
   89.0000   -29.1460    80.8650    23.6370     8.0340     6.7740     9.4000     2.1860 
   89.1250   -29.2170    81.9880    23.7940     7.7620     6.7610     9.3510     2.1960 
   89.2500   -29.1210    78.2870    23.6970     7.5610     6.8410     9.5220     2.2030 
   89.3750   -28.8610    73.0010    23.2620     7.5140     6.9730     9.7940     2.1920 
   89.5000   -28.5110    71.9360    22.7460     7.6050     7.1030    10.0120     2.1680 
   89.6250   -28.1420    75.6220    22.5860     7.7900     7.1630    10.0520     2.1500 
   89.7500   -27.7180    78.3410    22.5690     7.9540     7.1240     9.9520     2.1500 
   89.8750   -27.3260    76.7950    22.4620     8.0790     7.0090     9.7700     2.1650 
   90.0000   -27.0290    72.9090    22.4230     8.1700     6.8810     9.5600     2.1790 
   90.1250   -26.7850    73.4670    22.5800     8.0910     6.7710     9.3410     2.1770 
   90.2500   -26.5960    78.3880    22.7010     7.8040     6.6320     9.0840     2.1630 
   90.3750   -26.4800    81.1060    22.7560     7.4170     6.4240     8.7780     2.1490 
   90.5000   -26.3890    77.1730    22.8460     7.0440     6.1660     8.4470     2.1460 
   90.6250   -26.2940    72.9540    23.0580     6.7800     5.9230     8.1390     2.1500 
   90.7500   -26.2850    74.7000    23.2540     6.6240     5.7390     7.8940     2.1530 
   90.8750   -26.3400    79.7090    23.3310     6.5640     5.6250     7.7340     2.1540 
   91.0000   -26.3890    83.5150    23.3410     6.5460     5.5760     7.6500     2.1560 
   91.1250   -26.4100    83.3540    23.3450     6.5810     5.5880     7.6220     2.1560 
   91.2500   -26.4950    82.5050    23.3730     6.6710     5.6290     7.6160     2.1570 
   91.3750   -26.6950    83.0630    23.4430     6.7670     5.6770     7.6330     2.1610 
   91.5000   -26.9680    84.0580    23.5100     6.8340     5.7200     7.6880     2.1700 
   91.6250   -27.1970    83.4310    23.4980     6.9340     5.7600     7.7980     2.1710 
   91.7500   -27.3860    81.9220    23.3580     7.0760     5.8120     7.9410     2.1590 
   91.8750   -27.5660    80.9330    23.0940     7.1770     5.8920     8.0890     2.1450 
   92.0000   -27.7730    79.0410    22.8130     7.2070     6.0110     8.2160     2.1410 
   92.1250   -27.9550    75.7180    22.6870     7.2430     6.1760     8.3110     2.1500 
   92.2500   -28.0290    72.8580    22.6530     7.3030     6.3400     8.3750     2.1580 
   92.3750   -28.0260    71.4880    22.6510     7.3930     6.4400     8.4060     2.1620 
   92.5000   -28.0170    71.2600    22.6510     7.5500     6.4490     8.4170     2.1610 
   92.6250   -28.0640    72.3640    22.6510     7.8080     6.4210     8.4470     2.1590 
   92.7500   -28.0930    73.4770    22.6510     8.0640     6.4530     8.5390     2.1550 
   92.8750   -28.0310    73.5690    22.6510     8.2630     6.5660     8.7200     2.1500 
   93.0000   -27.8520    72.5070    22.6510     8.4420     6.7070     8.9630     2.1470 
   93.1250   -27.6480    71.1090    22.6500     8.6840     6.7880     9.1530     2.1480 
   93.2500   -27.4860    69.5290    22.6370     8.8360     6.7790     9.1590     2.1470 
   93.3750   -27.3070    67.0320    22.5860     8.7230     6.6760     8.9210     2.1410 
   93.5000   -27.0780    65.9820    22.4790     8.2730     6.4700     8.4750     2.1400 
   93.6250   -26.7760    70.9280    22.4020     7.6750     6.1630     7.9430     2.1570 
