~V
VERS. 2.00: Ver 2.00
~W
STRT.M 60.0000:
STOP.M 229.0000:
STEP.M 0.1250:
NULL. -999.2500:
UWI. DF32026:
~C
DEPT.M :
SP.MV :
GR.API :
CALI.CM :
RXO.OHMM :
RI. :
RML.OHMM :
DEN.GM/CC :
~A
# ...
  172.5000    76.4820    99.5750    25.5610     9.2150     7.3440    10.5150     2.4360 
  172.6250    76.2270   103.7570    25.5910     9.2050     7.3130    10.4770     2.4260 
  172.7500    76.0330   103.6830    25.4200     9.6210     7.3140    10.5470     2.4060 
  172.8750    75.8900   101.1520    24.9980     9.9580     7.3690    10.7430     2.3930 
  173.0000    75.8050   100.0800    24.7530     9.9760     7.4700    11.0100     2.3920 
  173.1250    75.7910    97.4840    24.7360     9.7650     7.5850    11.2420     2.3990 
  173.2500    75.8410    91.1290    24.7460     9.6460     7.6820    11.3780     2.3980 
  173.3750    75.9370    86.1050    24.6420     9.7170     7.7480    11.4220     2.3880 
  173.5000    76.0850    87.7350    24.7000     9.8730     7.7890    11.4050     2.3730 
  173.6250    76.3280    91.8830    24.7810     9.8350     7.8260    11.3750     2.3640 
  173.7500    76.6130    92.2040    24.8090     9.7080     7.9010    11.4090     2.3680 
  173.8750    76.9530    90.2040    24.8280     9.6560     8.0600    11.5850     2.3820 
  174.0000    77.3600    89.2860    24.8500     9.7800     8.3300    11.9540     2.4020 
  174.1250    77.7780    89.3940    24.8970    10.1640     8.7090    12.5340     2.4230 
  174.2500    78.2540    89.8900    24.9950    10.8550     9.1000    13.1680     2.4380 
  174.3750    78.7660    90.9600    25.1330    11.6790     9.3660    13.6220     2.4370 
  174.5000    79.3120    92.4980    25.2840    12.2350     9.3440    13.6110     2.4220 
  174.6250    79.8730    95.5020    25.3140    11.9050     8.8870    12.8850     2.4060 
  174.7500    80.4590    98.3330    25.1340    11.0310     8.1480    11.7140     2.4050 
  174.8750    81.0540    99.4820    24.8110     9.6280     7.3100    10.4210     2.4090 
  175.0000    81.6240    96.8970    24.7000     7.9220     6.5500     9.3070     2.4130 
  175.1250    82.1810    90.3960    24.9520     6.7890     6.0320     8.6190     2.4170 
  175.2500    82.6640    81.7420    25.3100     6.5060     5.7520     8.3220     2.4220 
  175.3750    83.0840    70.1860    25.4850     6.7100     5.6790     8.3420     2.4260 
  175.5000    83.4360    57.4480    25.5360     6.9630     5.7500     8.5590     2.4300 
  175.6250    83.7130    49.1630    25.5540     7.1410     5.8830     8.8070     2.4400 
  175.7500    83.9180    48.3920    25.5550     7.2570     5.9780     8.9220     2.4630 
  175.8750    84.0440    51.8880    25.5480     7.3050     5.9860     8.8400     2.4900 
  176.0000    84.1130    53.9900    25.5320     7.2440     5.9030     8.5930     2.5070 
  176.1250    84.1310    53.2480    25.5170     7.0470     5.7630     8.2820     2.5080 
  176.2500    84.1160    52.5390    25.5060     6.7800     5.6310     8.0330     2.4950 
  176.3750    84.0730    52.5900    25.5110     6.5650     5.5530     7.9190     2.4780 
  176.5000    84.0280    53.0660    25.5140     6.5310     5.5560     7.9670     2.4630 
  176.6250    83.9730    54.4960    25.3690     6.7380     5.6530     8.1740     2.4520 
  176.7500    83.9090    58.2440    25.0190     7.0740     5.7920     8.4360     2.4450 
  176.8750    83.8450    65.6410    24.6660     7.4040     5.9160     8.6450     2.4410 
  177.0000    83.7770    75.0100    24.6160     7.5400     5.9750     8.7020     2.4400 
  177.1250    83.7000    81.6720    24.7870     7.3370     5.9230     8.5450     2.4430 
  177.2500    83.6160    83.0740    24.9470     7.0360     5.7950     8.2610     2.4480 
  177.3750    83.5140    82.9020    24.9560     6.8370     5.6380     7.9490     2.4490 
  177.5000    83.3570    84.1030    25.0950     6.7580     5.5020     7.7080     2.4460 
  177.6250    83.1640    84.4580    25.0360     6.6760     5.4470     7.6330     2.4480 
  177.7500    82.9330    83.2250    25.0140     6.5300     5.4800     7.7120     2.4610 
  177.8750    82.6780    83.7430    24.9550     6.4100     5.5940     7.9150     2.4710 
  178.0000    82.3990    87.2460    25.1890     6.4050     5.7510     8.1750     2.4690 
  178.1250    82.1060    89.2030    25.4410     6.6020     5.8660     8.3530     2.4640 
  178.2500    81.7950    89.7270    25.6310     6.8280     5.8700     8.3310     2.4560 
  178.3750    81.4790    91.5870    25.7320     6.9160     5.7470     8.0840     2.4420 
  178.5000    81.1850    94.2980    25.7700     6.7430     5.5510     7.7100     2.4270 
  178.6250    80.8840    96.2970    25.7700     6.4390     5.4020     7.4220     2.4200 
  178.7500    80.5960    97.1820    25.7700     6.3190     5.3880     7.3740     2.4150 
  178.8750    80.3080    98.1010    25.7700     6.6750     5.5490     7.6160     2.4030 
  179.0000    80.0200    99.1570    25.7790     7.5310     5.8790     8.1190     2.3850 
  179.1250    79.7390    98.7080    25.8100     8.4950     6.3540     8.8090     2.3750 
  179.2500    79.4740    97.5890    25.8550     9.3090     6.8870     9.5440     2.3780 
  179.3750    79.2270    97.4730    25.8780     9.9490     7.4190    10.2470     2.3860 
  179.5000    78.9770    98.2820    25.8690    10.6000     7.9120    10.8810     2.3890 
  179.6250    78.7430    96.3380    25.6760    11.6580     8.3270    11.4160     2.3830 
  179.7500    78.5410    92.0580    25.2750    12.7640     8.6370    11.8150     2.3760 
  179.8750    78.3830    88.7310    24.9000    13.5290     8.8020    11.9970     2.3740 
  180.0000    78.2570    89.2960    24.7460    13.6800     8.8240    11.9510     2.3740 
  180.1250    78.1560    94.2700    24.7450    13.0690     8.8080    11.8320     2.3670 
  180.2500    78.0830    97.9260    24.7400    12.4630     8.9440    11.9410     2.3470 
  180.3750    78.0280    96.2340    24.7310    12.4760     9.3810    12.4880     2.3160 
  180.5000    78.0130    90.3480    24.7120    13.7170    10.2060    13.5630     2.2890 
  180.6250    78.0420    87.8740    24.6880    17.2900    11.5240    15.2220     2.2790 
  180.7500    78.1040    88.0860    24.6720    21.1750    13.2550    17.2970     2.2790 
  180.8750    78.1760    87.8820    24.6540    23.4370    15.3870    19.7530     2.2770 
  181.0000    78.2750    87.2290    24.6330    23.8200    17.9500    22.6740     2.2700 
  181.1250    78.3870    85.4950    24.6270    27.5050    21.1380    26.3930     2.2640 
  181.2500    78.5310    81.6720    24.6990    35.9980    24.8180    30.7830     2.2590 
  181.3750    78.6950    76.1550    24.8750    44.0920    28.3590    34.9750     2.2560 
  181.5000    78.8730    72.8020    25.0920    46.1600    30.3330    36.9920     2.2630 
  181.6250    79.0540    75.5380    24.8170    44.5950    28.7960    34.3380     2.2900 
  181.7500    79.2240    81.3190    24.6640    45.7670    24.9240    28.9020     2.3270 
  181.8750    79.3880    86.8920    24.6090    43.2780    20.6720    23.3840     2.3660 
  182.0000    79.5500    90.7810    24.6090    35.0620    17.4550    19.5130     2.3960 
  182.1250    79.7150    92.3640    24.5980    29.2310    16.0200    18.1080     2.4020 
  182.2500    79.8550    91.3100    24.5980    36.2100    16.1220    18.7490     2.3780 
  182.3750    79.9860    88.7650    24.7010    52.0030    17.6930    21.2810     2.3330 
  182.5000    80.0930    87.5950    24.9410    59.2910    20.4340    25.1760     2.2860 
  182.6250    80.1660    88.8180    25.1790    51.1980    23.2510    28.6390     2.2620 
  182.7500    80.2210    88.9570    25.2190    42.0450    24.6090    29.6040     2.2640 
  182.8750    80.2580    87.7280    25.0860    37.9440    24.1800    27.9900     2.2780 
  183.0000    80.2520    86.9760    25.0850    33.8620    22.9540    25.5430     2.2880 
  183.1250    80.2330    87.3770    25.4110    27.1360    22.5140    24.4730     2.2750 
  183.2500    80.1940    86.9870    25.6350    26.7600    23.7640    25.6610     2.2490 
  183.3750    80.1310    84.1350    25.3990    35.9800    27.3270    29.6260     2.2300 
  183.5000    80.0500    78.9680    25.0800    50.3130    33.7410    36.8480     2.2290 
  183.6250    79.9660    75.5960    24.8960    60.7920    43.0840    47.4020     2.2440 
