~V
VERS. 2.00: Ver 2.00
~W
STRT.M 61.0000:
STOP.M 262.0000:
STEP.M 0.1250:
NULL. -999.2500:
UWI. DF32115:
~C
DEPT.M :
GR.API :
CALI.CM :
RXO.OHMM :
RI. :
RML.OHMM :
DEN.GM/CC :
SP.MV :
~A
# ...
  252.2500    66.5690    23.8430     4.9790     4.4490     5.5210     2.3760    -6.7470 
  252.3750    66.5690    23.8510     5.0610     4.4810     5.5760     2.3750    -6.6550 
  252.5000    66.5690    23.8650     5.1210     4.5150     5.6290     2.3780    -6.5590 
  252.6250    66.5690    23.8810     5.1240     4.5450     5.6700     2.3910    -6.4570 
  252.7500    66.5690    23.8830     5.0890     4.5660     5.6930     2.4090    -6.3730 
  252.8750    66.5690    23.8620     5.0620     4.5750     5.6940     2.4220    -6.3110 
  253.0000    66.5690    23.8220     5.0660     4.5710     5.6760     2.4210    -6.2660 
  253.1250    66.5690    23.7810     5.0640     4.5590     5.6480     2.4120    -6.2320 
  253.2500    66.5690    23.7410     5.0260     4.5470     5.6290     2.4090    -6.2070 
  253.3750    66.5690    23.6940     4.9980     4.5450     5.6320     2.4130    -6.1980 
  253.5000    66.5690    23.6450     5.0410     4.5590     5.6680     2.4180    -6.2170 
  253.6250    66.5690    23.6160     5.1400     4.5940     5.7420     2.4240    -6.2550 
  253.7500    66.5690    23.5930     5.2290     4.6420     5.8350     2.4300    -6.3000 
  253.8750    66.5690    23.5510     5.3200     4.6920     5.9290     2.4290    -6.3530 
  254.0000    66.5690    23.5010     5.4630     4.7320     5.9990     2.4200    -6.4030 
  254.1250    66.5690    23.4710     5.6570     4.7460     6.0210     2.4120    -6.4450 
  254.2500    66.5690    23.4510     5.8030     4.7370     6.0000     2.4120    -6.4900 
  254.3750    66.5690    23.4250     5.8150     4.7110     5.9470     2.4160    -6.5280 
  254.5000    66.5690    23.4000     5.6920     4.6790     5.8830     2.4180    -6.5440 
  254.6250    66.5690    23.3910     5.5120     4.6530     5.8280     2.4200    -6.5570 
  254.7500    66.5690    23.3830     5.3610     4.6360     5.7950     2.4240    -6.5830 
  254.8750    66.5690    23.3610     5.2710     4.6290     5.7840     2.4270    -6.6310 
  255.0000    66.5690    23.3310     5.2890     4.6280     5.7890     2.4240    -6.7050 
  255.1250    66.5690    23.3110     5.5370     4.6290     5.7980     2.4160    -6.8200 
  255.2500    66.5690    23.3060     6.0400     4.6290     5.8020     2.4160    -6.9660 
  255.3750    66.5690    23.3070     6.6930     4.6280     5.8010     2.4290    -7.1460 
  255.5000    66.5690    23.3070     7.1950     4.6270     5.7980     2.4480    -7.3490 
  255.6250    66.5690    23.3070     7.1920     4.6270     5.7950     2.4580    -7.5620 
  255.7500    66.5690    23.3070     6.8550     4.6270     5.7930     2.4500    -7.7590 
  255.8750    66.5690    23.3070     6.4810     4.6270     5.7920     2.4270    -7.9240 
  256.0000    66.5690    23.3080     6.2540     4.6270     5.7910     2.3990    -8.0570 
  256.1250    66.5690    23.3080     6.2470     4.6260     5.7920     2.3860    -8.1630 
  256.2500    66.5690    23.2870     6.3920     4.6260     5.7940     2.3880    -8.2370 
  256.3750    66.5690    23.2380     6.5320     4.6260     5.7960     2.3950    -8.2720 
  256.5000    66.5690    23.1810     6.4720     4.6260     5.7970     2.4010    -8.2860 
  256.6250    66.5690    23.1530     6.1720     4.6270     5.7970     2.4080    -8.2760 
  256.7500    66.5690    23.1500     5.8720     4.6270     5.7970     2.4190    -8.2470 
  256.8750    66.5690    23.1510     5.7010     4.6270     5.7970     2.4290    -8.2140 
  257.0000    66.5690    23.1510     5.6650     4.6280     5.7970     2.4350    -8.1940 
  257.1250    66.5690    23.1510     5.6970     4.6290     5.7970     2.4350    -8.1740 
  257.2500    66.5690    23.1510     5.7110     4.6290     5.7970     2.4330    -8.1590 
  257.3750    66.5690    23.1510     5.7630     4.6290     5.7970     2.4280    -8.1640 
  257.5000    66.5690    23.1510     5.9830     4.6290     5.7970     2.4240    -8.1850 
  257.6250    66.5690    23.1520     6.3590     4.6290     5.7970     2.4240    -8.2180 
  257.7500    66.5690    23.1510     6.6420     4.6290     5.7970     2.4260    -8.2580 
  257.8750    66.5690    23.1210     6.7120     4.6290     5.7970     2.4260    -8.2960 
  258.0000    66.5690    23.0470     6.5920     4.6290     5.7970     2.4190    -8.3130 
  258.1250    66.5690    22.9640     6.3390     4.6290     5.7970     2.4100    -8.3280 
  258.2500    66.5690    22.9210     6.0430     4.6290     5.7970     2.4030    -8.3420 
  258.3750    66.5690    22.9110     5.7470     4.6290     5.7970     2.4000    -8.3500 
  258.5000    66.5690    22.8960     5.4760     4.6290     5.7970     2.4010    -8.3470 
  258.6250    66.5690    22.8580     5.2940     4.6290     5.7970     2.4000    -8.3350 
  258.7500    66.5690    22.8040     5.2380     4.6290     5.7970     2.3960    -8.3260 
  258.8750    66.5690    22.7300     5.2730     4.6290     5.7970     2.3920    -8.3250 
  259.0000    66.5690    22.6300     5.3190     4.6290     5.7970     2.3730    -8.3240 
  259.1250    66.5690    22.4630     5.2590     4.6290     5.7970     2.2790    -8.3160 
  259.2500    66.5690    22.0310     5.0370     4.6290     5.7970     2.1050    -8.3070 
  259.3750    66.5690    20.8610     4.6980     4.6290     5.7970     1.9150    -8.3060 
  259.5000    66.5690    18.9000     4.3840     4.6290     5.7970     1.7900    -8.3130 
  259.6250    66.5690    17.0640     4.2370     4.6290     5.7970     1.7620    -8.3280 
  259.7500    66.5690    16.1750     4.2020     4.6290     5.7970     1.7680    -8.3420 
  259.8750    66.5690    16.0570     4.2040     4.6290     5.7970     1.7720    -8.3450 
  260.0000    66.5690    16.1130     4.2040     4.6290     5.7970     1.7720    -8.3450 
  260.1250    66.5690    16.1060     4.2040     4.6290     5.7970     1.7760    -8.3400 
  260.2500    66.5690    16.1070     4.2040     4.6290     5.7970     1.7830    -8.3170 
  260.3750    66.5690    16.1070     4.2040     4.6290     5.7970     1.7860    -8.2760 
  260.5000    66.5690    16.1060     4.2040     4.6290     5.7970     1.7850    -8.2290 
  260.6250    66.5690    16.1030     4.2050     4.6290     5.7970     1.7880    -8.1890 
  260.7500    66.5690    16.1010     4.2050     4.6290     5.7970     1.8010    -8.1560 
  260.8750    66.5690    16.1000     4.2050     4.6290     5.7970     1.8170    -8.1350 
  261.0000    66.5690    16.1000     4.2050     4.6290     5.7970     1.8270    -8.1170 
  261.1250    66.5690    16.1000     4.2040     4.6290     5.7970     1.8180    -8.1060 
  261.2500    66.5690    16.1000     4.2050     4.6290     5.7970     1.8360    -8.1170 
  261.3750    66.5690    16.1000     4.2050     4.6290     5.7970     1.9400    -8.1400 
  261.5000    66.5690    16.1010     4.2060     4.6290     5.7970     2.1030    -8.1630 
  261.6250    66.5690    16.1030     4.2050     4.6290     5.7970     2.2000    -8.1740 
  261.7500    66.5690    16.1030     4.2050     4.6290     5.7970     2.2020    -8.1740 
  261.8750    66.5690    16.1020     4.2050     4.6290     5.7970     2.1750    -8.1740 
  262.0000    66.5690    16.1000     4.2040     4.6290     5.7970     2.1700  -999.2500 
