~V
VERS. 2.00: Ver 2.00
~W
STRT.M 60.0000:
STOP.M 276.0000:
STEP.M 0.1250:
NULL. -999.2500:
UWI. DF32145:
~C
DEPT.M :
SP.MV :
GR.API :
CALI.CM :
RXO.OHMM :
RI. :
RML.OHMM :
DEN.GM/CC :
~A
# ...
  195.0000   -30.5240    97.0250    23.3590     6.3340     5.8590     8.1240     2.3750 
  195.1250   -30.8280    96.1870    23.6840     6.1370     6.0170     8.3960     2.3590 
  195.2500   -31.1590    96.8250    24.1020     6.2630     6.3330     8.9700     2.3500 
  195.3750   -31.4760    99.1810    24.4270     6.7300     6.7870     9.8130     2.3580 
  195.5000   -31.7630   100.7000    24.5160     7.4320     7.2970    10.7680     2.3790 
  195.6250   -31.9980    96.6420    24.4120     7.9920     7.7220    11.5270     2.3820 
  195.7500   -32.1810    89.8910    24.3970     8.1100     7.9910    11.9170     2.3630 
  195.8750   -32.2860    86.4720    24.5070     7.9550     8.1180    11.9870     2.3420 
  196.0000   -32.3300    89.2130    24.6950     8.0300     8.1900    11.9670     2.3350 
  196.1250   -32.2780    92.7330    24.9240     8.8400     8.3310    12.1600     2.3330 
  196.2500   -32.1680    94.0970    25.1200     9.9230     8.5980    12.6730     2.3290 
  196.3750   -32.0400    94.5890    25.1260    10.8840     9.0080    13.4970     2.3370 
  196.5000   -31.9340    93.5150    24.8380    11.6620     9.5540    14.5410     2.3710 
  196.6250   -31.8770    91.6560    24.5730    12.2530    10.1980    15.6490     2.4160 
  196.7500   -31.8300    92.1710    24.4530    12.7410    10.8420    16.6440     2.4380 
  196.8750   -31.7410    92.8740    24.4220    13.3490    11.3870    17.3910     2.4300 
  197.0000   -31.5740    90.3990    24.4000    14.4400    11.7480    17.7620     2.4100 
  197.1250   -31.3890    86.9730    24.3470    15.2300    11.8650    17.6880     2.4050 
  197.2500   -31.2050    87.2010    24.2980    15.1820    11.8880    17.4890     2.4150 
  197.3750   -30.9650    89.0950    24.2560    14.2920    11.9780    17.5220     2.4380 
  197.5000   -30.6280    90.5560    24.2350    13.8650    12.2540    18.0570     2.4770 
  197.6250   -30.1920    91.1870    24.2320    16.3850    12.7350    19.1710     2.5190 
  197.7500   -29.7440    90.7980    24.2320    21.6560    13.1550    20.2290     2.5420 
  197.8750   -29.3230    90.1940    24.2320    24.5900    13.1140    20.2470     2.5320 
  198.0000   -28.9320    91.9920    24.2320    21.5170    12.2910    18.5070     2.4920 
  198.1250   -28.5050    98.1150    24.2320    15.4370    10.7240    15.4320     2.4340 
  198.2500   -28.0570   102.3240    24.2320    10.9690     9.0580    12.5540     2.3810 
  198.3750   -27.6450    97.5860    24.2320     8.4460     7.7090    10.5590     2.3530 
  198.5000   -27.3040    85.8030    24.2210     7.3710     6.8830     9.6080     2.3540 
  198.6250   -27.0400    77.6570    24.1900     7.7010     6.6850     9.7070     2.3780 
  198.7500   -26.8100    77.5320    24.1280     8.5070     6.8690    10.3740     2.4020 
  198.8750   -26.6020    81.5660    24.0230     9.0390     7.1870    11.1220     2.4150 
  199.0000   -26.3950    86.9100    23.8250     8.8470     7.3560    11.3860     2.4180 
  199.1250   -26.2360    90.0500    23.6530     8.0760     7.1310    10.7440     2.4130 
  199.2500   -26.1350    87.2410    23.4480     7.0730     6.6180     9.6290     2.4080 
  199.3750   -26.0810    79.2100    23.1800     6.1570     6.0060     8.5200     2.3990 
  199.5000   -26.0230    70.4800    23.0050     5.6100     5.4730     7.7180     2.3860 
  199.6250   -25.9740    62.2170    22.9520     5.4950     5.1370     7.3340     2.3750 
  199.7500   -25.9560    54.3980    22.9190     5.4420     4.9650     7.2030     2.3770 
  199.8750   -26.0200    51.6100    22.8290     5.3380     4.9040     7.1970     2.3940 
  200.0000   -26.1990    56.0930    22.7100     5.2230     4.8960     7.2070     2.4150 
  200.1250   -26.4330    61.9030    22.6580     5.1420     4.8940     7.1700     2.4220 
  200.2500   -26.6330    64.7070    22.6450     5.0900     4.8940     7.1180     2.4170 
  200.3750   -26.8000    68.6250    22.6510     5.0890     4.9190     7.1110     2.4070 
  200.5000   -26.9990    76.3990    22.6920     5.1450     4.9890     7.1860     2.4020 
  200.6250   -27.2240    83.7070    22.8160     5.2370     5.1100     7.3550     2.4070 
  200.7500   -27.4380    87.2980    22.9890     5.3850     5.2600     7.5610     2.4160 
  200.8750   -27.5690    88.4660    23.1810     5.5960     5.4100     7.7430     2.4230 
  201.0000   -27.6630    86.8310    23.4310     5.7220     5.5240     7.8420     2.4250 
  201.1250   -27.7490    82.1980    23.6910     5.7260     5.5610     7.8150     2.4250 
  201.2500   -27.9260    81.0000    23.8030     5.6730     5.5200     7.6870     2.4210 
  201.3750   -28.1620    85.1150    23.8290     5.6560     5.4110     7.4860     2.4120 
  201.5000   -28.4320    89.5450    23.8290     5.6820     5.2600     7.2540     2.4000 
  201.6250   -28.7000    89.8310    23.8290     5.7620     5.1230     7.0700     2.3910 
  201.7500   -28.9990    89.8920    23.8290     5.8580     5.0660     7.0270     2.3900 
  201.8750   -29.3440    91.3540    23.8290     5.9950     5.1510     7.2160     2.3980 
  202.0000   -29.6950    91.2950    23.8290     6.2510     5.4170     7.7030     2.4050 
  202.1250   -30.0620    87.8660    23.8170     6.7850     5.8920     8.5170     2.3940 
  202.2500   -30.3660    84.1220    23.7840     7.6220     6.4620     9.4450     2.3680 
  202.3750   -30.6240    82.5660    23.7390     8.5720     6.9830    10.2160     2.3420 
  202.5000   -30.8050    82.5970    23.6970     9.1450     7.3020    10.5700     2.3300 
  202.6250   -30.9510    83.6320    23.6480     9.0320     7.3090    10.3890     2.3450 
  202.7500   -31.0700    86.3220    23.6270     8.4350     7.1310     9.9670     2.3720 
  202.8750   -31.1800    89.1960    23.6220     7.9470     6.9190     9.5650     2.3900 
  203.0000   -31.2260    89.7710    23.6220     8.0470     6.8220     9.3930     2.3910 
  203.1250   -31.1980    87.5540    23.6220     8.6400     7.0360     9.6800     2.3870 
  203.2500   -31.1740    86.3610    23.6220     9.4520     7.6560    10.5260     2.3980 
  203.3750   -31.1360    87.1750    23.6200    10.5310     8.8500    12.1550     2.4260 
  203.5000   -31.0860    86.5180    23.6060    12.8160    10.8850    14.9070     2.4560 
  203.6250   -30.9620    81.0990    23.5730    17.8550    14.5170    19.6760     2.4660 
  203.7500   -30.7750    74.7180    23.5430    28.1490    20.2610    27.0410     2.4560 
  203.8750   -30.5370    70.6980    23.5320    44.5330    28.6530    37.7540     2.4300 
  204.0000   -30.3230    68.7890    23.5300    60.2990    39.3820    51.6500     2.3890 
  204.1250   -30.1130    67.2170    23.5300    66.2270    50.1030    65.6010     2.3270 
  204.2500   -29.8600    68.0610    23.5280    63.8230    57.5510    74.6890     2.2620 
  204.3750   -29.5610    71.8720    23.5220    59.5300    60.4400    77.1840     2.2180 
  204.5000   -29.2860    75.3400    23.5060    57.0070    59.5870    74.8540     2.2060 
  204.6250   -29.0590    75.1960    23.4730    55.1900    56.7830    70.6710     2.2220 
  204.7500   -28.8770    74.5800    23.4340    51.6830    54.0750    67.1450     2.2400 
  204.8750   -28.7050    76.4430    23.4050    46.0140    52.4230    65.3080     2.2510 
  205.0000   -28.5240    78.1530    23.3880    39.9140    52.4600    65.8020     2.2560 
  205.1250   -28.3600    75.1750    23.4030    42.6420    54.8960    69.4300     2.2560 
  205.2500   -28.2430    71.3290    23.4570    51.9690    59.1740    75.4610     2.2490 
  205.3750   -28.1990    69.8800    23.5400    60.8440    64.4600    82.8100     2.2360 
  205.5000   -28.1700    69.5980    23.6420    63.3300    69.4520    89.6070     2.2250 
  205.6250   -28.1440    67.4080    23.7360    59.3920    72.3410    93.0440     2.2270 
  205.7500   -28.1090    65.9840    23.7730    54.8440    72.8040    92.7750     2.2330 
  205.8750   -28.0920    67.6140    23.7760    52.6130    71.4290    89.9680     2.2360 
  206.0000   -28.1030    70.6230    23.7730    53.5960    69.2890    86.3240     2.2330 
  206.1250   -28.1480    72.0230    23.7720    54.4920    67.3500    83.1660     2.2330 
