~V
VERS. 2.00: Ver 2.00
~W
STRT.M 60.0000:
STOP.M 232.0000:
STEP.M 0.1250:
NULL. -999.2500:
UWI. DF323:
~C
DEPT.M :
GR.API :
RML.OHMM :
RI. :
RXO.OHMM :
CALI.CM :
SP.MV :
DEN.GM/CC :
AC.US/MT :
~A
# ...
  100.0000    84.9290     6.9820     5.9810     7.9170    25.3360    -2.3570     2.2560   439.5340 
  100.1250    84.3570     7.1060     6.1630     7.7260    25.3380    -2.2830     2.2580   441.8610 
  100.2500    82.1900     7.3700     6.3830     7.2940    25.3750    -2.6150     2.2420   444.0500 
  100.3750    79.3390     7.8630     6.7030     7.6490    25.5000    -3.2900     2.2100   443.7080 
  100.5000    77.7430     8.5630     7.1280     9.2510    25.7360    -4.1560     2.1750   440.2120 
  100.6250    74.9010     9.2810     7.5720    11.0680    25.7810    -5.0560     2.1500   435.4730 
  100.7500    71.3440     9.7430     7.8950    11.6230    25.4420    -5.9250     2.1410   432.9360 
  100.8750    70.6830     9.8130     8.0230    11.5210    24.9230    -6.7990     2.1430   434.3170 
  101.0000    73.0380     9.5940     7.9960    11.4860    24.5720    -7.6810     2.1490   438.3330 
  101.1250    74.9750     9.4560     7.9910    11.3910    24.5110    -8.5080     2.1520   438.1960 
  101.2500    75.7210     9.7630     8.2010    11.2590    24.5140    -9.1810     2.1510   425.4490 
  101.3750    75.5280    10.6730     8.7270    11.4730    24.5100    -9.6080     2.1510   394.0280 
  101.5000    72.1680    12.0960     9.5590    13.0280    24.5140    -9.7820     2.1550   345.6370 
  101.6250    66.2440    13.6280    10.5400    16.8180    24.5250    -9.7820     2.1660   296.5530 
  101.7500    63.8890    14.6590    11.3270    20.5970    24.5260    -9.7450     2.1790   270.0270 
  101.8750    66.7570    14.8070    11.6380    20.9060    24.5130    -9.6930     2.1860   278.0220 
  102.0000    70.2140    14.0870    11.3830    17.5390    24.4990    -9.6280     2.1810   315.7950 
  102.1250    71.2860    12.9030    10.7080    14.3200    24.5020    -9.6360     2.1660   364.4900 
  102.2500    71.8000    11.8530     9.9980    12.8990    24.5140    -9.7350     2.1480   403.1700 
  102.3750    73.5610    11.1790     9.4530    12.7400    24.5220    -9.9150     2.1340   425.5460 
  102.5000    75.8090    10.8960     9.1450    12.9850    24.5250   -10.1850     2.1270   434.6460 
  102.6250    77.1580    10.9200     9.0670    13.0910    24.5210   -10.5540     2.1270   436.8840 
  102.7500    78.4770    11.0280     9.0900    13.1790    24.5160   -10.9300     2.1300   437.8930 
  102.8750    78.9200    11.0950     9.1300    13.1830    24.5120   -11.1750     2.1350   438.3200 
  103.0000    77.3540    11.0620     9.1360    12.8860    24.5080   -11.2520     2.1390   437.8370 
  103.1250    72.9120    10.9360     9.1050    12.2870    24.5000   -11.1920     2.1400   436.8400 
  103.2500    68.9760    10.8090     9.0770    11.8170    24.4940   -11.0850     2.1410   436.0570 
  103.3750    68.1350    10.7450     9.0760    11.7280    24.5000   -10.9420     2.1430   435.6640 
  103.5000    69.9550    10.7460     9.0910    11.8880    24.5120   -10.7690     2.1460   435.8420 
  103.6250    71.1780    10.7060     9.0650    12.0350    24.5180   -10.6010     2.1510   437.2760 
  103.7500    69.9980    10.5230     8.9500    12.1700    24.5140   -10.4500     2.1570   440.0160 
  103.8750    67.6800    10.1880     8.7460    12.2920    24.5120   -10.3800     2.1640   443.5680 
  104.0000    66.9750     9.7850     8.5070    11.8850    24.5100   -10.4000     2.1680   446.9250 
  104.1250    70.2840     9.5010     8.3500    10.8430    24.5040   -10.4790     2.1660   448.3930 
  104.2500    74.4730     9.4700     8.3580    10.3250    24.4990   -10.5810     2.1610   447.2600 
  104.3750    76.0350     9.7380     8.5550    10.9980    24.5010   -10.7340     2.1530   443.7230 
  104.5000    73.0330    10.2390     8.8990    12.4270    24.5150   -10.9100     2.1490   438.9450 
  104.6250    68.4160    10.7490     9.2600    13.0240    24.5290   -11.0330     2.1490   434.8130 
  104.7500    66.4370    10.9650     9.4560    12.7170    24.5330   -11.0710     2.1550   432.5290 
  104.8750    67.2040    10.7120     9.3690    12.5360    24.5250   -10.9690     2.1640   432.3700 
  105.0000    70.4750    10.0160     8.9880    12.6330    24.5020   -10.6620     2.1770   433.9070 
  105.1250    75.3900     9.0800     8.3870    11.7990    24.5860   -10.0250     2.1930   435.7350 
  105.2500    80.2030     8.2020     7.7480     9.9430    24.8590    -9.1170     2.2100   435.9050 
  105.3750    82.8580     7.5340     7.1900     8.2710    25.2160    -8.0230     2.2230   433.5550 
  105.5000    83.4450     7.1540     6.8060     7.6190    25.4580    -6.8950     2.2290   429.4680 
  105.6250    84.3390     7.1490     6.7070     7.8370    25.4920    -5.9080     2.2250   426.0190 
  105.7500    83.6750     7.4680     6.8700     8.2580    25.3850    -5.1630     2.2130   424.6570 
  105.8750    79.5510     8.0720     7.2660     8.8110    25.1440    -4.7350     2.1980   425.1530 
  106.0000    74.2410     8.8660     7.8270     9.8200    24.8490    -4.7060     2.1840   426.3810 
  106.1250    72.5000     9.6850     8.4440    11.4690    24.6840    -5.1260     2.1760   427.0860 
  106.2500    71.2300    10.3510     8.9930    12.6200    24.6450    -5.8240     2.1720   426.8070 
  106.3750    69.4470    10.7710     9.4070    12.4990    24.6330    -6.7190     2.1680   425.5440 
  106.5000    70.0070    10.9420     9.6770    11.9560    24.6100    -7.7210     2.1630   423.5000 
  106.6250    71.7510    10.9630     9.8440    12.3600    24.5430    -8.7210     2.1620   420.5510 
  106.7500    69.9790    11.0280    10.0050    13.3120    24.3530    -9.6180     2.1690   416.7230 
  106.8750    65.8320    11.2360    10.2110    14.1430    24.0760   -10.3530     2.1840   412.4410 
  107.0000    63.9430    11.5820    10.4590    14.6850    23.8660   -10.8900     2.2010   408.8960 
  107.1250    64.0940    11.9250    10.6840    14.6630    23.8350   -11.2960     2.2100   408.1890 
  107.2500    62.5740    12.0900    10.8200    14.2340    23.8730   -11.6850     2.2050   410.4220 
  107.3750    60.9450    12.0090    10.8350    13.7760    23.8960   -12.0800     2.1900   414.4280 
  107.5000    61.9680    11.7290    10.7400    13.4850    23.9060   -12.4340     2.1720   418.2930 
  107.6250    66.3560    11.3570    10.5520    13.4360    23.9150   -12.6560     2.1640   420.0550 
  107.7500    69.7140    10.9460    10.2830    13.3840    23.9190   -12.7460     2.1680   419.9310 
  107.8750    68.7480    10.4440     9.9060    13.1750    23.9180   -12.7260     2.1850   419.1700 
  108.0000    65.8380     9.8120     9.4150    13.1800    23.9160   -12.6090     2.2110   419.3150 
  108.1250    65.9520     9.1320     8.8750    13.1020    23.9460   -12.3130     2.2360   421.0490 
  108.2500    69.2620     8.6700     8.4500    12.0480    24.0570   -11.8630     2.2540   422.1440 
  108.3750    73.0570     8.7360     8.3390    10.5890    24.1980   -11.3030     2.2670   418.9070 
  108.5000    75.0650     9.5700     8.7340    10.1180    24.2650   -10.7350     2.2820   407.0080 
  108.6250    75.3260    11.3530     9.8460    11.5560    24.2360   -10.2920     2.3070   381.0940 
  108.7500    74.0290    13.6320    11.4740    14.9920    24.3250    -9.9600     2.3320   346.6400 
  108.8750    70.6620    15.7280    13.2350    22.6840    24.6940    -9.7640     2.3390   316.6690 
  109.0000    66.6400    16.7700    14.4780    35.9550    25.2000    -9.7820     2.3140   308.3660 
  109.1250    65.4490    16.0100    14.4350    36.3530    25.4860   -10.0980     2.2600   333.8330 
  109.2500    67.3970    14.2420    13.4440    23.3200    25.4630   -10.5540     2.2070   373.9200 
  109.3750    70.3030    12.3550    12.1000    14.8000    25.2190   -11.0210     2.1720   408.3910 
  109.5000    74.3200    10.9450    10.8950    12.4950    24.8980   -11.4000     2.1600   426.4990 
  109.6250    79.6380    10.2870    10.1330    12.7160    24.6270   -11.6550     2.1600   429.9930 
  109.7500    81.4260    10.1160     9.7520    12.4720    24.5010   -11.8430     2.1580   429.8680 
  109.8750    76.8560    10.1860     9.6420    11.8940    24.4850   -11.9960     2.1540   429.9350 
