~V
VERS. 2.00: Ver 2.00
~W
STRT.M 60.0000:
STOP.M 258.0000:
STEP.M 0.1250:
NULL. -999.2500:
UWI. DF32100:
~C
DEPT.M :
SP.MV :
GR.API :
CALI.CM :
RXO.OHMM :
RI. :
RML.OHMM :
DEN.GM/CC :
~A
# ...
  127.5000   -24.1990    66.3810    21.9670     9.1370     9.1770    10.8120     2.1740 
  127.6250   -24.0740    71.9730    22.2190     9.5970     8.8930    10.5590     2.1740 
  127.7500   -23.9390    75.0180    22.6540    10.3830     8.7080    10.4280     2.1740 
  127.8750   -23.8100    73.2920    22.9820    11.0990     8.6390    10.4530     2.1710 
  128.0000   -23.6920    68.5990    23.1000    11.4540     8.6380    10.5670     2.1670 
  128.1250   -23.5570    67.1760    23.0910    11.6320     8.6120    10.5930     2.1660 
  128.2500   -23.3870    70.1020    23.0610    11.6820     8.4870    10.4000     2.1660 
  128.3750   -23.1860    73.4060    23.0310    11.4870     8.2780    10.0030     2.1650 
  128.5000   -22.9480    74.2900    23.0190    11.0620     8.0700     9.5700     2.1640 
  128.6250   -22.6690    74.4490    23.0190    10.6930     8.0220     9.3950     2.1670 
  128.7500   -22.3560    74.0490    23.0190    10.5350     8.2060     9.6040     2.1810 
  128.8750   -22.0030    70.7010    23.0260    10.5480     8.6160    10.1910     2.2110 
  129.0000   -21.6060    65.9980    23.0660    10.6560     9.1200    10.9690     2.2570 
  129.1250   -21.1470    64.8850    23.2030    10.7000     9.3870    11.4230     2.2940 
  129.2500   -20.6760    66.9870    23.4430    10.5830     9.1800    11.1310     2.3050 
  129.3750   -20.1770    69.2210    23.7610    10.3260     8.4870    10.1000     2.2930 
  129.5000   -19.6600    72.0120    24.0940     9.7260     7.5290     8.7410     2.2740 
  129.6250   -19.1750    77.0650    24.1440     8.7040     6.6190     7.5620     2.2580 
  129.7500   -18.7240    84.3350    23.9780     7.7280     5.9260     6.7480     2.2490 
  129.8750   -18.3180    92.1180    23.7260     7.2210     5.4740     6.2810     2.2490 
  130.0000   -17.9400    96.8580    23.5200     7.1140     5.2180     6.0620     2.2570 
  130.1250   -17.6460    96.1670    23.3840     7.0880     5.1120     5.9860     2.2680 
  130.2500   -17.3850    94.2060    23.3190     7.0000     5.0800     5.9460     2.2770 
  130.3750   -17.1930    94.6590    23.2980     6.8650     5.0770     5.9040     2.2790 
  130.5000   -17.0310    97.0160    23.2950     6.7530     5.0610     5.8450     2.2690 
  130.6250   -16.8440    98.0770    23.3090     6.7730     5.0010     5.7570     2.2580 
  130.7500   -16.6650    96.2000    23.3430     6.8950     4.9040     5.6350     2.2600 
  130.8750   -16.4960    94.2450    23.3800     6.9580     4.7790     5.4700     2.2750 
  131.0000   -16.3540    95.4350    23.3900     6.8380     4.6370     5.2670     2.2900 
  131.1250   -16.2170    98.6880    23.3670     6.5640     4.4840     5.0610     2.2870 
  131.2500   -16.1100    99.8010    23.3320     6.3920     4.3410     4.8950     2.2620 
  131.3750   -16.0080    98.2200    23.3110     6.2920     4.2270     4.7910     2.2320 
  131.5000   -15.9390    98.3220    23.3060     6.2110     4.1630     4.7440     2.2230 
  131.6250   -15.9360   100.8230    23.3020     6.1820     4.1590     4.7330     2.2470 
  131.7500   -15.9570   103.1280    23.2880     6.2200     4.1700     4.7100     2.2760 
  131.8750   -15.9930   105.0850    23.2660     6.2380     4.1570     4.6490     2.2900 
  132.0000   -16.0370   106.6660    23.2520     6.1490     4.0970     4.5490     2.2930 
  132.1250   -16.1080   109.7960    23.2490     6.0320     3.9840     4.4370     2.3000 
  132.2500   -16.1980   113.1490    23.2490     5.9490     3.8440     4.3430     2.3160 
  132.3750   -16.3110   114.6270    23.2480     5.9160     3.6890     4.2630     2.3330 
  132.5000   -16.4450   113.5860    23.2450     5.8830     3.5190     4.1600     2.3340 
  132.6250   -16.6270   112.0290    23.2400     5.8400     3.3290     3.9610     2.3090 
  132.7500   -16.8330   111.3750    23.2400     5.7850     3.1520     3.6980     2.2850 
  132.8750   -17.0620   110.1220    23.2440     5.7440     3.0580     3.4970     2.2800 
  133.0000   -17.3420   107.3870    23.2480     5.7760     3.1500     3.5360     2.2910 
  133.1250   -17.6400   107.4950    23.2480     6.1400     3.6080     4.0730     2.3130 
  133.2500   -17.9890   108.5010    23.2440     7.3760     4.4820     5.1820     2.3530 
  133.3750   -18.4020   105.4980    23.2300    10.4780     5.7810     6.8880     2.4110 
  133.5000   -18.8790    96.5330    23.2040    14.9110     7.3100     8.9360     2.4630 
  133.6250   -19.3720    86.1870    23.1380    16.9420     8.4670    10.3570     2.4560 
  133.7500   -19.8890    81.6740    22.9870    15.1090     8.7960    10.4580     2.3900 
  133.8750   -20.3970    83.2790    22.7250    11.8550     8.3600     9.5470     2.2990 
  134.0000   -20.8680    86.4640    22.4410     9.5920     7.5950     8.4420     2.2230 
  134.1250   -21.3190    87.7130    22.2630     8.8660     6.9580     7.7740     2.1850 
  134.2500   -21.7310    87.8330    22.2280     8.7420     6.5950     7.5630     2.1690 
  134.3750   -22.0930    89.3210    22.3280     8.7840     6.4780     7.6730     2.1620 
  134.5000   -22.3870    91.7670    22.5940     8.7950     6.5110     7.9050     2.1590 
  134.6250   -22.5960    91.8640    22.8790     8.7790     6.5630     8.0350     2.1630 
  134.7500   -22.7530    90.5300    22.9960     8.8240     6.5410     7.9800     2.1650 
  134.8750   -22.9050    90.3930    23.0190     8.8640     6.4680     7.8300     2.1570 
  135.0000   -23.0460    92.0450    23.0180     8.8090     6.4610     7.7840     2.1430 
  135.1250   -23.2010    92.8070    23.0020     8.6980     6.7340     8.1190     2.1490 
  135.2500   -23.3630    90.5520    22.9540     8.9340     7.3800     8.9370     2.1830 
  135.3750   -23.5150    88.3470    22.8580    10.0890     8.4270    10.2780     2.2260 
  135.5000   -23.6800    87.8910    22.6890    12.7020     9.7370    11.9890     2.2530 
  135.6250   -23.8950    85.4920    22.6000    15.2160    10.8810    13.4580     2.2440 
  135.7500   -24.1040    79.6400    22.5600    15.6940    11.4180    14.0020     2.2150 
  135.8750   -24.2670    73.8540    22.5360    14.3010    11.2300    13.4930     2.1840 
  136.0000   -24.3940    71.9840    22.5190    12.6110    10.5490    12.3690     2.1600 
  136.1250   -24.4360    74.0080    22.5040    11.5500     9.7830    11.2520     2.1470 
  136.2500   -24.3880    77.3510    22.4470    10.9510     9.2350    10.4950     2.1380 
  136.3750   -24.2790    79.6860    22.3240    10.6780     8.9830    10.1950     2.1330 
  136.5000   -24.1380    78.4650    22.2320    10.6380     9.0140    10.3550     2.1360 
  136.6250   -23.9880    75.2290    22.2050    10.7060     9.3050    10.9590     2.1570 
  136.7500   -23.8510    75.0630    22.2410    10.6410     9.7190    11.7480     2.1870 
  136.8750   -23.7460    77.6400    22.3840    10.3400    10.1140    12.4230     2.2100 
  137.0000   -23.6800    79.7630    22.6680     9.9590    10.3100    12.6400     2.2110 
  137.1250   -23.6400    79.6160    22.9100     9.7340    10.0920    12.1200     2.1870 
  137.2500   -23.6250    78.8640    23.0000     9.6220     9.5470    11.1810     2.1540 
  137.3750   -23.6050    79.7490    22.9850     9.4480     8.8610    10.1890     2.1290 
  137.5000   -23.5580    82.8890    22.9010     9.0730     8.2570     9.4300     2.1220 
  137.6250   -23.4440    86.1870    22.7300     8.6510     7.9570     9.1130     2.1350 
  137.7500   -23.2930    85.8390    22.5690     8.5370     7.9850     9.2030     2.1510 
  137.8750   -23.0730    81.4160    22.4300     8.8800     8.2900     9.6290     2.1550 
  138.0000   -22.7650    74.4940    22.3250     9.3840     8.7190    10.2000     2.1430 
  138.1250   -22.3910    69.3550    22.2440     9.5310     8.9650    10.4760     2.1300 
  138.2500   -21.9750    68.5900    22.2030     9.3120     8.7810    10.1240     2.1290 
  138.3750   -21.5270    71.7190    22.1740     8.6940     8.1290     9.1430     2.1450 
  138.5000   -21.0630    77.5180    22.1190     7.6980     7.1860     7.8640     2.1790 
  138.6250   -20.6480    88.2930    22.0360     6.5270     6.2580     6.7580     2.2290 
