~V
VERS. 2.00: Ver 2.00
~W
STRT.M 60.0000:
STOP.M 258.0000:
STEP.M 0.1250:
NULL. -999.2500:
UWI. DF32100:
~C
DEPT.M :
SP.MV :
GR.API :
CALI.CM :
RXO.OHMM :
RI. :
RML.OHMM :
DEN.GM/CC :
~A
# ...
  228.7500   -17.2780    70.3570    20.6150    75.7310    84.8020    91.6740     2.2540 
  228.8750   -17.3280    71.8110    20.6130    68.5120    82.3180    88.4670     2.2830 
  229.0000   -17.3970    76.9440    20.5800    58.1740    77.7080    83.2910     2.3240 
  229.1250   -17.3860    80.7520    20.4880    53.1850    71.5100    76.4990     2.3590 
  229.2500   -17.3240    79.4560    20.3800    52.3490    64.6250    68.9300     2.3800 
  229.3750   -17.1970    76.2360    20.3340    51.2910    57.2730    60.9260     2.3930 
  229.5000   -16.9820    75.6960    20.3270    46.7100    49.7420    52.8770     2.4050 
  229.6250   -16.7230    77.6570    20.2560    38.0050    42.8170    45.6060     2.4130 
  229.7500   -16.4300    79.7850    20.0910    29.5440    37.1620    39.7190     2.4150 
  229.8750   -16.1240    80.8040    19.9180    22.8500    33.1990    35.6210     2.4210 
  230.0000   -15.7990    79.8130    19.8060    19.4070    31.0660    33.4570     2.4370 
  230.1250   -15.4680    77.6510    19.5350    20.2050    30.8650    33.3200     2.4540 
  230.2500   -15.1190    76.4340    19.2230    23.7630    31.9030    34.4270     2.4580 
  230.3750   -14.7880    78.7370    19.6530    27.7760    33.6560    36.1790     2.4460 
  230.5000   -14.4810    84.2500    21.1890    30.5220    35.3870    37.8100     2.4290 
  230.6250   -14.1660    87.7330    22.7550    28.9540    35.7210    37.9940     2.4200 
  230.7500   -13.8590    89.6150    23.4990    27.3590    34.0980    36.2310     2.4230 
  230.8750   -13.5530    91.1740    23.6840    28.3710    30.9920    32.9420     2.4340 
  231.0000   -13.2490    93.2750    23.6950    30.6090    27.5150    29.2050     2.4400 
  231.1250   -12.9590    95.1820    23.6780    28.3600    24.8070    26.1780     2.4290 
  231.2500   -12.7030    97.8290    23.6440    23.7030    23.2510    24.2990     2.4080 
  231.3750   -12.4740    98.3340    23.6160    22.9730    22.9630    23.6950     2.3950 
  231.5000   -12.2550    93.7920    23.6050    26.6580    23.9150    24.3290     2.3990 
  231.6250   -12.0730    89.1440    23.6050    29.3170    26.2370    26.2940     2.4130 
  231.7500   -11.8710    89.9670    23.6050    28.9870    29.3760    29.4770     2.4270 
  231.8750   -11.6860    95.8300    23.6050    28.3490    32.8500    33.6200     2.4410 
  232.0000   -11.4860   103.4430    23.6050    31.7330    36.3040    37.6500     2.4630 
  232.1250   -11.3460   107.5430    23.6060    39.2250    38.6810    40.2960     2.4870 
  232.2500   -11.2120   105.7330    23.6130    44.2110    39.6310    41.1550     2.5030 
  232.3750   -11.1000   100.7960    23.6360    43.6600    39.4210    40.6320     2.5110 
  232.5000   -10.9920    97.0740    23.6740    39.4070    38.9930    39.9060     2.5190 
  232.6250   -10.9130    94.4770    23.6870    33.6430    39.9130    40.7990     2.5350 
  232.7500   -10.8340    90.7040    23.6560    32.4320    42.9080    44.1660     2.5570 
  232.8750   -10.7630    85.6930    23.5730    42.2880    47.6250    49.8460     2.5820 
  233.0000   -10.7050    80.3480    23.5110    66.0940    51.5870    54.9660     2.6140 
  233.1250   -10.6570    75.0180    23.4900    82.3690    48.7870    51.3800     2.6490 
  233.2500   -10.5860    72.5640    23.4830    69.6170    39.1100    39.5550     2.6630 
  233.3750   -10.4840    75.2550    23.4600    40.7520    27.4240    26.6930     2.6380 
  233.5000   -10.3640    81.6710    23.4160    20.7370    18.0230    17.3140     2.5740 
  233.6250   -10.2430    85.7160    23.3720    11.2570    12.3680    12.0470     2.4950 
  233.7500   -10.1290    83.3250    23.3060     7.6140     9.0510     9.0860     2.4330 
  233.8750   -10.0190    77.1120    23.2320     6.6780     7.2330     7.6100     2.3990 
  234.0000    -9.9370    71.7490    23.1710     6.4680     6.3480     7.0870     2.3920 
  234.1250    -9.8500    70.5470    23.0890     6.4910     6.1090     7.1870     2.4070 
  234.2500    -9.7840    72.6930    22.9660     6.6790     6.1690     7.4810     2.4320 
  234.3750    -9.7280    76.4040    22.8280     6.9310     6.3590     7.7510     2.4550 
  234.5000    -9.6990    76.5200    22.7060     7.2310     6.5530     7.8990     2.4590 
  234.6250    -9.6300    70.2130    22.8090     7.4940     6.6860     7.9320     2.4450 
  234.7500    -9.5950    64.9020    23.1070     7.6770     6.7620     7.9200     2.4350 
  234.8750    -9.5690    65.1460    23.3710     7.9790     6.7870     7.9010     2.4320 
  235.0000    -9.5400    68.7720    23.4800     8.6600     6.7540     7.8860     2.4310 
  235.1250    -9.4530    70.3060    23.4900     9.2280     6.6310     7.8590     2.4340 
  235.2500    -9.3850    68.4510    23.4900     8.6330     6.4240     7.7860     2.4480 
  235.3750    -9.3210    65.2300    23.4890     7.3700     6.1610     7.6470     2.4570 
  235.5000    -9.2780    62.5010    23.4790     6.7100     5.8940     7.4460     2.4480 
  235.6250    -9.2310    60.7140    23.4490     6.6910     5.6740     7.2180     2.4270 
  235.7500    -9.1560    60.7720    23.4140     6.5140     5.5080     7.0260     2.4180 
  235.8750    -9.0860    64.1720    23.3930     6.1020     5.3980     6.9190     2.4230 
  236.0000    -8.9970    69.0010    23.3870     5.8210     5.3420     6.9140     2.4290 
  236.1250    -8.9880    69.9100    23.3870     5.8320     5.3270     7.0030     2.4300 
  236.2500    -8.9460    67.3080    23.3870     6.0600     5.3300     7.1160     2.4270 
  236.3750    -8.9390    65.3960    23.3870     6.4470     5.3330     7.2070     2.4190 
  236.5000    -8.8880    66.5090    23.3870     6.6430     5.3250     7.2440     2.4100 
  236.6250    -8.8540    67.7520    23.3870     6.4180     5.3000     7.2260     2.4130 
  236.7500    -8.8390    66.7550    23.3870     6.1910     5.2690     7.1930     2.4310 
  236.8750    -8.7870    64.8280    23.3870     6.1790     5.2300     7.1680     2.4540 
  237.0000    -8.7660    64.1720    23.3870     6.2730     5.1750     7.1500     2.4700 
  237.1250    -8.6340    65.6760    23.3870     6.3660     5.1120     7.1200     2.4690 
  237.2500    -8.5120    68.0780    23.3870     6.1470     5.0600     7.0730     2.4510 
  237.3750    -8.3770    70.7440    23.3870     5.7480     5.0240     7.0220     2.4250 
  237.5000    -8.2410    70.5630    23.3870     5.4450     5.0010     6.9880     2.4030 
  237.6250    -8.1450    68.2110    23.3870     5.4440     4.9850     6.9970     2.3920 
  237.7500    -8.0210    68.2350    23.3870     5.6490     4.9710     7.0380     2.3860 
  237.8750    -7.9480    71.0010    23.3870     5.8670     4.9630     7.0890     2.3810 
  238.0000    -7.8450    72.6260    23.3870     5.8610     4.9560     7.1230     2.3780 
  238.1250    -7.8230    70.9080    23.3870     5.7240     4.9360     7.1150     2.3770 
  238.2500    -7.7840    69.6340    23.3870     5.6600     4.8920     7.0690     2.3770 
  238.3750    -7.7530    70.2350    23.3870     5.6190     4.8360     7.0000     2.3780 
  238.5000    -7.7530    72.2880    23.3870     5.5190     4.7910     6.9410     2.3810 
  238.6250    -7.7350    73.7700    23.3870     5.4710     4.7910     6.9370     2.3810 
  238.7500    -7.8020    73.7440    23.3910     5.5660     4.8310     7.0000     2.3820 
  238.8750    -7.8410    73.1520    23.4240     5.6730     4.8920     7.1140     2.3880 
  239.0000    -7.8690    72.3320    23.5100     5.7260     4.9450     7.2430     2.3970 
  239.1250    -7.9270    71.3980    23.6180     5.7390     4.9730     7.3410     2.4050 
  239.2500    -7.9850    70.6050    23.6640     5.7240     4.9840     7.3920     2.4090 
  239.3750    -7.9920    70.0050    23.6740     5.5910     5.0040     7.4050     2.4100 
  239.5000    -8.0400    70.0930    23.6740     5.3430     5.0480     7.4000     2.4080 
  239.6250    -8.0780    71.0500    23.6740     5.1190     5.1170     7.4030     2.3990 
  239.7500    -8.0060    72.3930    23.6740     5.0480     5.1900     7.4270     2.3830 
  239.8750    -7.9530    71.9390    23.6740     5.0690     5.2540     7.4720     2.3660 
