~V
VERS. 2.00: Ver 2.00
~W
STRT.M 60.0000:
STOP.M 232.0000:
STEP.M 0.1250:
NULL. -999.2500:
UWI. DF323:
~C
DEPT.M :
GR.API :
RML.OHMM :
RI. :
RXO.OHMM :
CALI.CM :
SP.MV :
DEN.GM/CC :
AC.US/MT :
~A
# ...
   80.0000    69.2930    10.3240     8.9310    15.0920    23.3000   -18.9330     2.1660   453.0380 
   80.1250    71.0160    10.1430     8.7610    13.4070    23.3060   -18.7550     2.1790   448.1990 
   80.2500    72.7870    10.0120     8.6420    12.1930    23.3190   -18.5400     2.1840   444.7710 
   80.3750    73.8670     9.9550     8.5790    12.6040    23.3290   -18.3360     2.1770   444.0760 
   80.5000    73.9580     9.9590     8.5490    13.9770    23.3530   -18.1270     2.1630   446.3220 
   80.6250    73.4190     9.9960     8.5330    14.5300    23.4420   -17.9610     2.1500   449.9610 
   80.7500    73.6760    10.0400     8.5250    14.3620    23.5630   -17.8590     2.1440   452.4910 
   80.8750    74.2360    10.1000     8.5430    14.3700    23.6490   -17.8320     2.1460   453.4140 
   81.0000    72.6520    10.2080     8.6080    14.2810    23.6690   -17.8860     2.1520   453.4010 
   81.1250    69.3930    10.4070     8.7420    13.9800    23.6600   -18.0020     2.1540   452.7330 
   81.2500    68.7820    10.6650     8.9090    14.0620    23.6680   -18.1410     2.1470   451.4650 
   81.3750    70.2730    10.9130     9.0660    14.3800    23.7250   -18.2400     2.1330   449.6260 
   81.5000    70.7090    11.0750     9.1780    14.4550    23.8410   -18.2890     2.1140   447.6150 
   81.6250    69.2630    11.0470     9.1910    14.0630    23.9710   -18.2950     2.0970   446.0580 
   81.7500    68.0540    10.8190     9.0870    13.5790    24.0480   -18.3020     2.0880   445.1250 
   81.8750    68.6770    10.4320     8.8690    13.3560    24.0620   -18.3240     2.0890   445.0060 
   82.0000    70.3120     9.9680     8.5750    13.2160    24.0230   -18.3360     2.1010   446.1550 
   82.1250    70.8530     9.5520     8.2860    12.3700    23.9240   -18.3290     2.1180   449.2800 
   82.2500    70.2200     9.2990     8.0860    11.4150    23.8080   -18.3420     2.1330   453.7180 
   82.3750    69.1220     9.2840     8.0290    11.3910    23.7120   -18.4160     2.1390   458.3350 
   82.5000    68.1370     9.5150     8.1240    12.4600    23.6500   -18.5570     2.1380   461.9140 
   82.6250    68.1830     9.9210     8.3400    13.7350    23.6180   -18.7420     2.1310   463.7270 
   82.7500    69.5180    10.3290     8.5770    14.5300    23.6090   -18.9100     2.1230   464.6830 
   82.8750    70.8570    10.6160     8.7650    15.0200    23.6200   -19.0220     2.1180   465.1780 
   83.0000    69.4570    10.7240     8.8620    14.8980    23.6310   -19.1210     2.1180   464.3680 
   83.1250    66.5390    10.6810     8.8790    14.2270    23.6350   -19.2400     2.1210   460.2270 
   83.2500    66.1420    10.6140     8.8830    13.8920    23.6370   -19.3090     2.1240   453.5110 
   83.3750    68.7280    10.5930     8.9070    14.3270    23.6420   -19.3120     2.1240   446.5910 
   83.5000    71.5750    10.6520     8.9520    14.9590    23.6510   -19.2690     2.1200   441.7750 
   83.6250    71.7360    10.7760     9.0020    15.1050    23.6650   -19.2070     2.1170   439.5360 
   83.7500    69.9930    10.8780     9.0280    15.0790    23.6850   -19.1880     2.1180   437.9520 
   83.8750    68.2440    10.8950     9.0110    15.0120    23.6980   -19.2400     2.1250   436.3600 
   84.0000    67.8190    10.8150     8.9460    14.8730    23.6970   -19.3160     2.1350   435.4390 
   84.1250    68.2280    10.6850     8.8370    14.6650    23.6890   -19.3160     2.1440   436.6660 
   84.2500    67.3570    10.5620     8.7090    14.3730    23.6860   -19.2860     2.1490   439.7430 
   84.3750    67.5780    10.4690     8.5820    14.0930    23.6870   -19.2700     2.1510   443.5210 
   84.5000    70.3280    10.4290     8.4780    14.0190    23.6830   -19.2960     2.1510   446.6580 
   84.6250    72.8810    10.4510     8.4170    14.1610    23.6760   -19.3800     2.1500   448.2630 
   84.7500    71.2700    10.4980     8.3920    14.2170    23.6760   -19.4530     2.1470   448.8980 
   84.8750    67.6860    10.5380     8.3940    14.2090    23.6780   -19.4770     2.1430   449.0630 
   85.0000    66.9080    10.5470     8.4140    14.3390    23.6770   -19.4300     2.1390   449.0660 
   85.1250    68.6870    10.5070     8.4400    14.4680    23.6750   -19.3460     2.1350   449.2460 
   85.2500    68.9080    10.4550     8.4650    14.5020    23.6780   -19.2020     2.1330   449.8480 
   85.3750    67.5220    10.4360     8.4860    14.5170    23.6920   -18.9620     2.1340   450.6940 
   85.5000    66.6520    10.4550     8.4940    14.4530    23.7260   -18.5970     2.1360   450.9650 
   85.6250    69.0690    10.4610     8.4670    14.2920    23.7710   -18.1040     2.1380   449.6460 
   85.7500    71.7080    10.3820     8.3920    14.2230    23.7980   -17.5270     2.1390   447.6380 
   85.8750    70.6680    10.1760     8.2680    14.2540    23.8050   -16.9090     2.1380   446.4020 
   86.0000    68.5450     9.8210     8.0890    14.0690    23.8130   -16.3010     2.1360   447.0600 
   86.1250    72.0850     9.3610     7.8590    13.2940    23.8820   -15.6820     2.1390   449.4880 
   86.2500    78.3460     8.9720     7.6470    12.4390    24.0370   -15.0050     2.1550   450.7580 
   86.3750    80.1020     8.8080     7.5430    11.9410    24.2300   -14.2330     2.1950   447.0610 
   86.5000    77.2260     8.9320     7.6070    11.3650    24.3730   -13.3470     2.2590   434.1370 
   86.6250    79.9530     9.2960     7.8390    11.5350    24.4580   -12.2610     2.3310   408.9430 
   86.7500    88.8790     9.6490     8.1000    15.2690    24.5870   -11.0140     2.3840   381.5930 
   86.8750    97.7150     9.7300     8.2150    21.4080    24.7490    -9.6410     2.3990   366.8480 
   87.0000   102.5380     9.3460     8.0360    20.4690    24.8420    -8.1840     2.3750   375.7450 
   87.1250   103.7420     8.5020     7.5330    12.1590    24.8430    -6.7050     2.3290   405.4330 
   87.2500   103.1730     7.5770     6.9440     7.6090    24.8430    -5.2840     2.2880   433.8880 
   87.3750   100.3600     6.8340     6.4430     6.6890    24.8700    -3.9730     2.2610   449.4780 
   87.5000    97.2300     6.4200     6.1370     6.7290    24.8880    -2.8130     2.2470   452.7710 
   87.6250    97.8260     6.3760     6.0860     6.7950    24.8670    -1.9050     2.2440   451.2830 
   87.7500    99.7030     6.5100     6.1870     7.0100    24.8230    -1.2320     2.2450   450.9320 
   87.8750    99.7790     6.6750     6.3420     7.1110    24.7750    -0.7800     2.2470   452.0180 
   88.0000    97.9500     6.7920     6.4760     7.0150    24.7540    -0.5240     2.2460   453.5110 
   88.1250    96.9480     6.8820     6.5740     7.0420    24.7560    -0.4410     2.2420   453.7310 
   88.2500    97.8270     7.0190     6.6640     7.1500    24.7360    -0.5140     2.2350   452.0420 
   88.3750    99.7740     7.2140     6.7600     7.0880    24.6880    -0.7170     2.2300   448.9110 
   88.5000   102.4130     7.4070     6.8380     7.0810    24.6300    -1.0470     2.2300   445.3110 
   88.6250   103.5390     7.4050     6.7920     7.9510    24.5690    -1.4590     2.2320   442.9880 
   88.7500   102.3850     7.1380     6.5800     9.0600    24.5070    -1.8500     2.2310   443.8470 
   88.8750    99.8550     6.7550     6.2940     9.1040    24.4620    -2.1450     2.2340   448.0500 
   89.0000    99.2200     6.6090     6.1480     7.8550    24.5110    -2.3230     2.2500   451.0780 
   89.1250   101.5670     7.2240     6.4550     6.8200    24.6980    -2.5160     2.2910   440.0590 
   89.2500   101.7020     8.7380     7.3060     9.1210    24.8910    -2.8400     2.3380   409.7740 
   89.3750    94.3920    11.0910     8.7150    19.2880    24.9510    -3.3960     2.3640   369.5220 
   89.5000    82.9380    13.7370    10.4440    44.4730    24.8290    -4.2300     2.3440   342.5080 
   89.6250    75.9790    15.2010    11.6780    51.4490    24.5920    -5.3710     2.2780   354.8220 
   89.7500    73.8620    14.7000    11.7600    27.8180    24.3560    -6.6870     2.2030   393.3590 
   89.8750    71.8170    12.7480    10.8010    16.0370    24.1740    -8.0780     2.1490   432.8140 
