~V
VERS. 2.00: Ver 2.00
~W
STRT.M 55.0000:
STOP.M 256.0000:
STEP.M 0.1250:
NULL. -999.2500:
UWI. DF327:
~C
DEPT.M :
SP.MV :
DEN.GM/CC :
AC.US/MT :
GR.API :
RML.OHMM :
RI. :
RXO.OHMM :
CALI.CM :
~A
# ...
   85.0000   -16.0520     2.1500   469.2020    88.6850    10.3660     9.4220    14.2020    23.2510 
   85.1250   -17.1040     2.1500   467.0590    91.8570    10.3480     9.4050    14.1080    23.2510 
   85.2500   -18.0360     2.1570   464.5520    90.9360    10.2510     9.3180    14.3970    23.2300 
   85.3750   -18.8130     2.1660   460.8240    87.1240    10.0990     9.1800    14.4490    23.1840 
   85.5000   -19.4210     2.1750   456.3050    81.7780     9.8860     8.9890    13.9410    23.1160 
   85.6250   -19.8010     2.1820   451.9920    78.5130     9.5850     8.7180    13.1160    23.0560 
   85.7500   -20.0650     2.1880   448.4550    78.4330     9.2230     8.3920    12.2680    23.0930 
   85.8750   -20.2970     2.1920   444.8900    78.4060     8.8590     8.0650    11.7020    23.1590 
   86.0000   -20.5260     2.1890   438.8950    75.5770     8.6010     7.8320    11.5180    23.1680 
   86.1250   -20.7370     2.1770   428.9390    73.0150     8.6190     7.8490    11.8160    23.0430 
   86.2500   -20.9380     2.1650   419.5120    73.8140     8.9500     8.1470    12.6770    22.8860 
   86.3750   -21.1350     2.1610   414.2890    75.8390     9.5660     8.7010    14.0200    22.8220 
   86.5000   -21.3010     2.1700   413.7570    77.8890    10.3510     9.4070    15.6770    22.9290 
   86.6250   -21.3990     2.1870   418.7900    79.2150    11.0940    10.0770    17.1340    23.1630 
   86.7500   -21.4050     2.1980   429.6760    77.9670    11.6140    10.5450    17.8900    23.3820 
   86.8750   -21.3610     2.1940   442.8860    75.3800    11.8370    10.7460    17.9880    23.4900 
   87.0000   -21.3070     2.1760   450.7940    74.7860    11.7950    10.7080    17.8920    23.4650 
   87.1250   -21.2720     2.1530   450.0690    78.4970    11.5720    10.5070    17.6530    23.3090 
   87.2500   -21.2520     2.1340   449.0390    82.3220    11.2930    10.2560    17.2450    23.1500 
   87.3750   -21.2420     2.1210   453.4980    82.7220    10.9960     9.9880    16.9380    23.0600 
   87.5000   -21.2340     2.1130   460.7410    79.3420    10.6840     9.7070    16.6280    23.0090 
   87.6250   -21.2220     2.1100   466.7080    75.8970    10.3510     9.4080    16.1120    22.9260 
   87.7500   -21.2250     2.1110   472.5870    75.3480    10.0190     9.1090    15.8440    22.7960 
   87.8750   -21.2140     2.1160   477.3680    77.7440     9.7220     8.8420    16.1580    22.7180 
   88.0000   -21.1490     2.1230   474.5460    80.5560     9.4970     8.6390    16.8140    22.7340 
   88.1250   -21.0310     2.1290   462.5520    80.9420     9.3800     8.5340    17.1620    22.7710 
   88.2500   -20.9010     2.1320   453.1280    80.7680     9.3570     8.5130    17.1220    22.8120 
   88.3750   -20.7810     2.1330   451.2310    82.6690     9.4120     8.5630    16.9000    22.8580 
   88.5000   -20.6970     2.1320   453.4040    86.8650     9.5170     8.6570    16.7040    22.8860 
   88.6250   -20.7000     2.1290   455.9080    89.6860     9.6280     8.7570    16.9020    22.8660 
   88.7500   -20.7610     2.1250   458.8600    88.6590     9.7030     8.8240    17.1940    22.8380 
   88.8750   -20.8770     2.1220   461.9360    85.7160     9.7220     8.8410    17.3310    22.8350 
   89.0000   -21.0630     2.1210   463.9380    82.1340     9.6840     8.8070    17.1510    22.8300 
   89.1250   -21.3030     2.1230   465.3210    78.9780     9.5990     8.7310    16.5980    22.8190 
   89.2500   -21.5550     2.1280   467.0730    77.3650     9.5010     8.6430    16.0950    22.7950 
   89.3750   -21.7790     2.1330   468.9800    76.9240     9.4180     8.5680    15.8810    22.7650 
   89.5000   -21.9300     2.1370   469.9550    77.6430     9.3810     8.5340    15.7470    22.7260 
   89.6250   -22.0120     2.1370   468.2220    78.6160     9.4210     8.5700    15.5950    22.6770 
   89.7500   -22.0370     2.1350   462.7440    79.6490     9.5190     8.6590    15.6500    22.6830 
   89.8750   -21.9880     2.1360   453.7540    80.1880     9.6340     8.7620    16.0410    22.7580 
   90.0000   -21.8440     2.1420   444.3710    80.1250     9.7060     8.8270    16.5620    22.8650 
   90.1250   -21.6260     2.1550   440.5350    81.8880     9.6620     8.7880    16.7870    22.9320 
   90.2500   -21.3900     2.1690   442.9600    83.3480     9.5050     8.6460    16.4980    22.9480 
   90.3750   -21.1850     2.1800   448.7790    82.5200     9.2580     8.4240    16.0300    22.8690 
   90.5000   -21.0630     2.1850   456.0830    82.1130     8.9710     8.1650    15.7130    22.8220 
   90.6250   -21.0200     2.1790   468.0180    86.9050     8.7110     7.9310    15.8430    22.8810 
   90.7500   -21.0480     2.1690   484.0880    91.7030     8.5310     7.7690    16.1800    23.0550 
   90.8750   -21.1620     2.1600   498.1150    89.2970     8.4610     7.7060    16.4700    23.2750 
   91.0000   -21.3620     2.1560   501.6200    81.6500     8.4980     7.7390    16.5590    23.4400 
   91.1250   -21.6340     2.1600   493.4930    77.8190     8.5990     7.8310    16.4280    23.5280 
   91.2500   -21.9210     2.1660   485.7080    77.8070     8.6790     7.9020    16.2510    23.5370 
   91.3750   -22.1800     2.1660   484.6410    77.0380     8.6810     7.9040    16.3160    23.5320 
   91.5000   -22.3750     2.1560   487.3140    74.8760     8.5960     7.8280    16.1520    23.5120 
   91.6250   -22.4750     2.1390   481.5790    77.2840     8.4660     7.7110    15.5800    23.4460 
   91.7500   -22.4790     2.1290   464.0790    82.0670     8.3630     7.6180    15.0560    23.3460 
   91.8750   -22.3970     2.1370   443.8440    83.6260     8.3130     7.5730    14.8440    23.2270 
   92.0000   -22.2470     2.1620   434.1100    80.2080     8.3030     7.5640    14.5890    23.1710 
   92.1250   -21.9820     2.1960   447.5830    77.6430     8.2960     7.5580    13.9930    23.2130 
   92.2500   -21.6490     2.2190   478.1010    79.9390     8.2610     7.5260    13.5260    23.2860 
   92.3750   -21.2980     2.2250   515.3530    85.9020     8.1890     7.4620    13.3550    23.3190 
   92.5000   -20.9900     2.2150   546.7410    92.4360     8.0960     7.3780    13.3110    23.3250 
   92.6250   -20.7820     2.2000   558.9280    94.5910     8.0200     7.3090    13.4160    23.2700 
   92.7500   -20.6510     2.1880   552.9370    91.6530     7.9910     7.2840    13.4320    23.1950 
   92.8750   -20.5700     2.1820   533.4860    86.1080     8.0270     7.3150    13.4730    23.1350 
   93.0000   -20.5320     2.1830   506.4790    82.5610     8.1250     7.4040    13.6120    23.1030 
   93.1250   -20.5600     2.1890   478.6950    82.1020     8.2720     7.5360    13.9290    23.1000 
   93.2500   -20.6080     2.1980   455.9950    81.3200     8.4370     7.6850    14.2950    23.0550 
   93.3750   -20.6660     2.2070   441.9960    80.7320     8.6090     7.8400    14.4730    23.0000 
   93.5000   -20.7090     2.2120   435.7940    82.2790     8.7840     7.9980    14.4340    22.9570 
   93.6250   -20.7240     2.2070   438.2380    83.6440     8.9520     8.1480    14.4300    22.9430 
   93.7500   -20.7430     2.1940   444.5500    81.7740     9.0920     8.2740    14.5120    22.9180 
   93.8750   -20.7700     2.1780   449.8130    79.0100     9.1810     8.3560    14.5720    22.8220 
   94.0000   -20.8010     2.1640   452.0010    78.6810     9.2080     8.3840    14.4970    22.6910 
   94.1250   -20.8530     2.1550   453.2680    78.9830     9.1870     8.3540    14.3940    22.6000 
   94.2500   -20.9410     2.1510   455.4150    76.9680     9.1260     8.2910    14.3120    22.5880 
   94.3750   -21.0570     2.1490   457.6670    76.5430     9.0470     8.2090    14.2200    22.5870 
   94.5000   -21.1730     2.1470   458.3290    81.1870     8.9000     8.1140    14.0710    22.5740 
   94.6250   -21.2390     2.1480   457.2190    84.0440     8.7160     7.9930    13.7670    22.5600 
   94.7500   -21.2310     2.1520   455.9930    79.8630     8.4250     7.8410    13.4400    22.5120 
   94.8750   -21.1270     2.1640   454.7230    74.1690     8.0930     7.6740    13.1680    22.4510 
