~V
VERS. 2.00: Ver 2.00
~W
STRT.M 61.0000:
STOP.M 238.0000:
STEP.M 0.1250:
NULL. -999.2500:
UWI. DF32044:
~C
DEPT.M :
DEN.GM/CC :
SP.MV :
GR.API :
RML.OHMM :
RI. :
RXO.OHMM :
CALI.CM :
~A
# ...
  218.5000     2.4390   -13.7510    60.4030    12.2220     9.2690    10.8380    24.4210 
  218.6250     2.4490   -13.6210    63.9510    13.3260    10.2050    12.4240    24.4280 
  218.7500     2.4670   -13.4460    67.7360    14.4370    11.2080    13.7970    24.4630 
  218.8750     2.4900   -13.4120    67.2380    15.3390    12.1270    13.8490    24.5100 
  219.0000     2.5130   -13.3670    64.1850    15.8730    12.8310    12.7830    24.5340 
  219.1250     2.5300   -13.2030    62.3220    15.9540    13.2140    11.8410    24.5340 
  219.2500     2.5380   -13.0770    62.4310    15.7860    13.3600    11.3000    24.5340 
  219.3750     2.5390   -12.9680    63.6150    15.5390    13.3390    11.0860    24.5340 
  219.5000     2.5330   -12.8420    64.4860    15.3340    13.2160    11.9240    24.5340 
  219.6250     2.5240   -12.7360    63.6080    15.2120    13.0290    14.4230    24.5340 
  219.7500     2.5180   -12.5670    61.9840    15.1280    12.8220    16.8400    24.5340 
  219.8750     2.5150   -12.3290    61.3280    15.0600    12.6360    17.2520    24.5340 
  220.0000     2.5150   -12.1460    61.4990    15.0210    12.5210    15.6210    24.5330 
  220.1250     2.5150   -12.0480    59.6740    15.0620    12.5400    14.2070    24.5300 
  220.2500     2.5120   -11.9320    58.0810    15.2050    12.6890    14.5790    24.5260 
  220.3750     2.5070   -11.7570    58.3140    15.4470    12.9440    16.1370    24.5240 
  220.5000     2.5050   -11.6030    59.9880    15.7480    13.2570    16.7110    24.5240 
  220.6250     2.5120   -11.5830    61.4000    16.0360    13.5550    15.0350    24.5240 
  220.7500     2.5270   -11.6850    62.1110    16.2480    13.7790    13.5560    24.5240 
  220.8750     2.5450   -11.7320    62.1690    16.3510    13.9080    13.1980    24.5150 
  221.0000     2.5570   -11.6270    60.9770    16.3510    13.9510    13.2220    24.4910 
  221.1250     2.5510   -11.5460    59.7130    16.3010    13.9440    13.1020    24.4390 
  221.2500     2.5310   -11.6180    60.7690    16.2880    13.9540    13.0600    24.3970 
  221.3750     2.5060   -11.7630    62.5190    16.3540    14.0150    13.3030    24.3690 
  221.5000     2.4870   -11.8650    62.8810    16.4760    14.1150    13.9390    24.3720 
  221.6250     2.4870   -11.8960    62.0200    16.5680    14.1800    14.8720    24.4290 
  221.7500     2.5030   -11.8870    61.3040    16.5400    14.1210    15.1690    24.5300 
  221.8750     2.5230   -11.8640    60.8150    16.3460    13.8850    14.1310    24.6200 
  222.0000     2.5370   -11.8220    59.7240    16.0000    13.4790    12.4680    24.6840 
  222.1250     2.5380   -11.7570    58.7460    15.5570    12.9710    11.7470    24.7040 
  222.2500     2.5330   -11.6970    58.3280    15.1100    12.4810    12.3150    24.7100 
  222.3750     2.5250   -11.5740    57.8270    14.7020    12.0790    14.5420    24.7080 
  222.5000     2.5190   -11.3530    57.5880    14.3500    11.7960    18.0580    24.6960 
  222.6250     2.5120   -11.1920    58.0030    14.0950    11.6590    19.0780    24.6640 
  222.7500     2.5080   -11.0810    57.7810    13.9670    11.6520    16.0460    24.6240 
  222.8750     2.5050   -10.9700    57.0290    14.0240    11.7940    12.4820    24.5930 
  223.0000     2.5050   -10.9920    57.8470    14.3150    12.1070    10.9080    24.5540 
  223.1250     2.5060   -11.0260    60.9760    14.8560    12.6060    10.9290    24.5540 
  223.2500     2.5110   -11.0020    62.7970    15.4760    13.1860    11.0410    24.5800 
  223.3750     2.5210   -10.9680    62.5290    15.9930    13.7230    11.3410    24.6090 
  223.5000     2.5330   -11.0350    63.0740    16.2340    14.0740    12.0390    24.6190 
  223.6250     2.5420   -11.1140    65.2120    16.0550    14.0830    12.8030    24.6140 
  223.7500     2.5440   -11.1760    66.1080    15.5780    13.7980    13.0540    24.6130 
  223.8750     2.5420   -11.3100    65.3950    14.9480    13.3110    12.7440    24.6120 
  224.0000     2.5390   -11.3950    63.5130    14.3190    12.7520    12.2880    24.6120 
  224.1250     2.5400   -11.4940    63.6480    13.8250    12.2580    12.2790    24.6120 
  224.2500     2.5420   -11.5870    64.5440    13.5000    11.8940    13.1190    24.6120 
  224.3750     2.5420   -11.7080    62.9010    13.3530    11.6770    14.1990    24.6120 
  224.5000     2.5320   -11.7980    60.4260    13.3620    11.5930    14.0720    24.6120 
  224.6250     2.5110   -11.7890    60.5880    13.4940    11.6190    12.4350    24.6130 
  224.7500     2.4870   -11.7770    61.9980    13.6560    11.6960    10.9870    24.6180 
  224.8750     2.4720   -11.7640    63.1850    13.7890    11.7890    10.2950    24.6270 
  225.0000     2.4740   -11.7430    64.4960    13.8660    11.8770    10.0070    24.6240 
  225.1250     2.4950   -11.6760    64.8480    13.8910    11.9460     9.8080    24.6170 
  225.2500     2.5210   -11.5870    61.9470    13.9010    11.9950     9.7350    24.6130 
  225.3750     2.5440   -11.5260    58.7530    13.9090    12.0190     9.8720    24.6120 
  225.5000     2.5560   -11.5540    59.3650    13.8960    12.0110    10.4850    24.6120 
  225.6250     2.5580   -11.6960    61.1740    13.8280    11.9670    11.6300    24.6170 
  225.7500     2.5520   -11.8500    60.6190    13.7200    11.9140    12.8360    24.6240 
  225.8750     2.5400   -11.9900    59.3500    13.6270    11.8920    14.2830    24.6100 
  226.0000     2.5190   -12.1090    60.9140    13.6250    11.9440    16.5660    24.5570 
  226.1250     2.4920   -12.1810    64.3500    13.7930    12.1140    18.8260    24.4500 
  226.2500     2.4680   -12.2410    66.6020    14.0940    12.3700    18.6950    24.3920 
  226.3750     2.4560   -12.3180    67.1730    14.4550    12.6620    16.3960    24.4190 
  226.5000     2.4620   -12.3900    67.3070    14.7800    12.9210    14.1800    24.4840 
  226.6250     2.4870   -12.4310    67.2580    14.9640    13.0710    13.6660    24.4970 
  226.7500     2.5130   -12.4570    66.6110    15.0110    13.1160    14.3750    24.4690 
  226.8750     2.5260   -12.5010    66.3620    14.9610    13.0880    15.4580    24.4390 
  227.0000     2.5170   -12.5790    66.2200    14.8720    13.0320    16.1300    24.4260 
  227.1250     2.4880   -12.7180    63.7100    14.7920    12.9920    17.1810    24.4240 
  227.2500     2.4570   -12.8810    60.4190    14.7430    12.9810    19.1370    24.3970 
  227.3750     2.4350   -12.9710    60.0450    14.7230    12.9940    19.7010    24.3160 
  227.5000     2.4300   -12.9520    60.2830    14.7240    13.0160    17.0350    24.1990 
  227.6250     2.4460   -12.8630    60.2830    14.7300    13.0280    13.5300    24.0780 
  227.7500     2.4740   -12.7930    60.2830    14.7130    13.0050    11.7570    23.9470 
  227.8750     2.5020   -12.7500    60.2830    14.6410    12.9240    11.1890    23.7810 
  228.0000     2.5220   -12.7260    60.2830    14.4790    12.7630    10.6670    23.6270 
  228.1250     2.5280   -12.6800    60.2830    14.1940    12.5040    10.2610    23.5130 
  228.2500     2.5230   -12.6010    60.2830    13.8310    12.1830    10.1040    23.4400 
  228.3750     2.5140   -12.5670    60.2830    13.4490    11.8470    10.0480    23.4610 
  228.5000     2.5060   -12.6460    60.2830    13.1260    11.5510    10.0320    23.6090 
  228.6250     2.5050   -12.7880    60.2830    12.9440    11.3610     9.9890    23.8340 
  228.7500     2.5080   -12.9120    60.2830    12.8950    11.2820     9.7940    24.0140 
  228.8750     2.5140   -13.0040    60.2830    12.9440    11.2990     9.4780    24.1280 
  229.0000     2.5190   -13.0800    60.2830    13.0450    11.3850     9.1970    24.1760 
  229.1250     2.5220   -13.1710    60.2830    13.1540    11.5100     9.1040    24.1840 
  229.2500     2.5210   -13.2540    60.2830    13.2510    11.6430     9.1610    24.1830 
  229.3750     2.5170   -13.3000    60.2830    13.3380    11.7700     9.2490    24.1820 
  229.5000     2.5100   -13.2930    60.2830    13.4220    11.8870     9.2960    24.1820 
  229.6250     2.5040   -13.2100    60.2830    13.5100    11.9970     9.3970    24.1820 
