~V
VERS. 2.00: Ver 2.00
~W
STRT.M 55.0000:
STOP.M 256.0000:
STEP.M 0.1250:
NULL. -999.2500:
UWI. DF327:
~C
DEPT.M :
SP.MV :
DEN.GM/CC :
AC.US/MT :
GR.API :
RML.OHMM :
RI. :
RXO.OHMM :
CALI.CM :
~A
# ...
  185.0000   -16.0280     2.3610   410.7500    86.0590    19.5610    18.8270    22.6070    23.7470 
  185.1250   -16.2150     2.3440   409.5600    93.8070    19.5350    18.2970    18.8010    23.5860 
  185.2500   -16.5220     2.3180   408.5750    96.8780    21.2270    19.5400    20.9680    23.5430 
  185.3750   -16.9340     2.2910   407.0350    91.1320    24.7240    22.7440    28.6340    23.6310 
  185.5000   -17.4010     2.2690   405.1030    81.5400    30.1330    28.0470    41.3630    23.8160 
  185.6250   -17.8370     2.2550   403.6840    76.1340    37.8800    35.6760    57.4540    24.0500 
  185.7500   -18.2400     2.2470   403.2500    74.1810    47.2650    44.7640    73.1300    24.2420 
  185.8750   -18.6070     2.2420   403.9010    74.4330    57.5660    54.4720    86.4400    24.3370 
  186.0000   -18.9390     2.2410   405.3370    76.1500    67.5010    63.7980    96.8200    24.3520 
  186.1250   -19.2260     2.2450   406.7580    78.1700    75.6280    71.4550   107.1650    24.3270 
  186.2500   -19.4520     2.2510   407.5550    78.7900    80.9050    76.9960   117.5760    24.2860 
  186.3750   -19.6230     2.2560   407.7020    76.9130    83.1870    80.3090   124.0700    24.2580 
  186.5000   -19.7570     2.2570   407.4340    73.3480    84.2040    81.7510   125.4850    24.2710 
  186.6250   -19.9020     2.2530   407.0080    73.2740    84.6070    81.9330   121.9910    24.2680 
  186.7500   -20.0500     2.2450   406.5870    76.6250    84.7700    81.8070   115.9270    24.2490 
  186.8750   -20.2210     2.2380   406.1650    78.5920    84.6270    81.7350   110.1010    24.2420 
  187.0000   -20.4040     2.2360   405.7060    76.9270    84.6320    81.7240   108.1850    24.2540 
  187.1250   -20.5520     2.2390   405.4450    73.0380    84.6980    81.4590   112.8430    24.2800 
  187.2500   -20.6700     2.2450   405.6370    69.2880    84.9160    80.6710   113.9650    24.2050 
  187.3750   -20.7500     2.2480   406.2140    66.9800    85.1760    79.2360   110.8660    24.0340 
  187.5000   -20.7950     2.2470   406.8430    68.3670    85.3880    77.2380   105.5900    23.8560 
  187.6250   -20.8400     2.2430   407.2260    72.4130    85.1920    75.0680   100.2890    23.8810 
  187.7500   -20.9230     2.2380   407.4210    75.0500    84.4740    73.3350    94.7170    24.0440 
  187.8750   -21.0050     2.2340   407.4080    75.3830    83.6760    72.3890    89.5880    24.1380 
  188.0000   -21.0690     2.2340   406.9020    75.8890    82.6720    72.1200    86.1660    24.0140 
  188.1250   -21.1300     2.2410   405.2970    76.8790    80.8490    71.6950    84.5430    23.8160 
  188.2500   -21.1940     2.2560   402.3720    75.0240    77.5270    70.0080    81.6390    23.7450 
  188.3750   -21.2720     2.2770   398.0710    70.9370    71.8360    66.4730    77.1830    23.7120 
  188.5000   -21.3560     2.2970   392.6530    67.8100    64.6930    61.4500    70.8410    23.6140 
  188.6250   -21.3910     2.3060   387.0640    69.6880    58.5520    56.5900    62.2710    23.5740 
  188.7500   -21.3620     2.3030   382.8050    73.6770    55.3080    53.7660    55.1140    23.6720 
  188.8750   -21.2830     2.2940   380.5630    75.2670    55.4960    53.8340    54.4640    23.8700 
  189.0000   -21.1850     2.2850   379.8360    74.2510    58.4720    56.4830    61.1930    24.0970 
  189.1250   -21.0600     2.2870   379.3730    73.4910    62.3030    60.1500    73.1340    24.2510 
  189.2500   -20.9200     2.2980   378.0650    74.4150    64.0560    62.2980    85.6800    24.3050 
  189.3750   -20.7610     2.3170   376.0030    75.6180    61.8490    61.2830    92.6720    24.2840 
  189.5000   -20.5930     2.3330   374.6760    77.1240    55.9220    56.9830    86.0840    24.2620 
  189.6250   -20.4930     2.3330   376.7270    79.7830    50.0230    51.4340    72.2910    24.2470 
  189.7500   -20.4680     2.3150   381.7930    81.9590    47.5050    48.1300    63.5060    24.2190 
  189.8750   -20.4990     2.2850   387.3800    82.3050    49.4650    49.4510    63.9410    24.1920 
  190.0000   -20.5690     2.2530   390.8400    79.4150    56.0330    56.6200    85.2410    24.2230 
  190.1250   -20.6800     2.2330   391.0200    73.5210    67.8890    70.0350   138.5910    24.2860 
  190.2500   -20.8070     2.2260   389.7630    68.7640    83.5020    86.1750   208.8860    24.3220 
  190.3750   -20.9380     2.2270   388.7000    66.7570   100.5290   101.3330   271.4100    24.3100 
  190.5000   -21.1000     2.2290   388.4210    66.1800   113.5300   111.9410   278.5400    24.2870 
  190.6250   -21.2400     2.2270   388.9290    63.1400   119.6720   115.6020   217.6010    24.2170 
  190.7500   -21.3590     2.2220   389.1470    60.7330   119.4860   115.6890   157.2440    24.1660 
  190.8750   -21.4690     2.2160   387.6770    62.0210   120.9230   116.1370   125.5380    24.1650 
  191.0000   -21.5820     2.2100   383.3050    66.8480   127.1880   120.3100   132.1240    24.2110 
  191.1250   -21.7100     2.2100   374.2870    70.4930   140.3020   130.6750   163.2220    24.2360 
  191.2500   -21.8810     2.2200   362.3520    69.6800   157.5500   145.2460   196.3400    24.2320 
  191.3750   -22.0840     2.2400   352.6270    67.6250   174.7030   160.7100   220.2820    24.2150 
  191.5000   -22.2780     2.2650   351.3900    67.7660   185.7820   172.2650   231.8920    24.1920 
  191.6250   -22.4360     2.2830   362.1450    69.4970   183.0710   173.5070   239.3020    24.1150 
  191.7500   -22.5370     2.2880   376.1940    69.9650   168.6710   164.7330   229.7180    24.0120 
  191.8750   -22.5830     2.2830   386.0570    68.3410   148.6940   149.2940   196.5200    24.0490 
  192.0000   -22.5830     2.2730   389.6840    66.9110   129.7310   132.4120   155.8850    24.2090 
  192.1250   -22.5570     2.2640   389.7630    68.6770   116.4490   118.9640   132.3350    24.3020 
  192.2500   -22.5220     2.2590   390.3190    72.2420   108.0020   109.9500   123.8250    24.3060 
  192.3750   -22.5050     2.2560   391.4770    74.5420   104.2110   105.0600   124.0370    24.2920 
  192.5000   -22.5220     2.2560   392.6020    74.2020   103.2860   103.5510   124.7650    24.3130 
  192.6250   -22.6320     2.2590   393.0940    72.0700   106.5420   104.7870   129.0930    24.3260 
  192.7500   -22.8060     2.2650   392.6640    70.4880   110.0890   107.0180   132.0500    24.3240 
  192.8750   -23.0390     2.2730   391.4050    69.9040   110.8920   108.7610   136.3260    24.3140 
  193.0000   -23.3150     2.2820   389.5120    69.6580   110.8490   108.6630   139.0510    24.3100 
  193.1250   -23.6280     2.2880   387.1330    67.4140   108.2810   105.7660   136.8500    24.3140 
  193.2500   -23.9290     2.2870   384.8910    65.8240   104.1320   101.4410   129.0440    24.3210 
  193.3750   -24.2060     2.2790   383.3310    68.4840    99.6590    97.6340   117.4450    24.3210 
  193.5000   -24.4570     2.2640   382.5950    73.7130    98.5050    96.3910   108.9800    24.3060 
  193.6250   -24.6370     2.2460   382.5410    75.0260   102.1940    99.4700   115.8720    24.2940 
  193.7500   -24.7950     2.2320   382.9400    72.6480   108.9000   105.4940   136.5680    24.2890 
  193.8750   -24.9270     2.2240   383.6020    70.1070   116.0510   112.2630   162.6880    24.2900 
  194.0000   -25.0370     2.2260   383.9590    68.2580   120.3610   116.9600   186.6170    24.2880 
  194.1250   -25.1080     2.2380   382.9670    66.6890   118.1740   116.3710   182.9530    24.2860 
  194.2500   -25.1590     2.2530   380.4210    66.5110   110.7220   110.9190   150.5440    24.2740 
  194.3750   -25.1860     2.2660   376.4950    67.3670   100.7750   102.2470   114.6800    24.2330 
  194.5000   -25.1830     2.2750   371.6920    67.3430    91.2790    92.6710    94.8830    24.1870 
  194.6250   -25.1490     2.2810   366.9970    67.0370    84.3520    84.4840    89.0220    24.1830 
  194.7500   -25.0610     2.2860   363.8520    68.2070    79.9050    78.5590    88.6410    24.2470 
  194.8750   -24.9400     2.2910   363.7640    69.8870    77.5170    75.0860    87.9260    24.2880 
