~V
VERS. 2.00: Ver 2.00
~W
STRT.M 50.0000:
STOP.M 264.0000:
STEP.M 0.1250:
NULL. -999.2500:
UWI. DF32158:
~C
DEPT.M :
GR.API :
RML.OHMM :
RI. :
RXO.OHMM :
CALI.CM :
DEN.GM/CC :
SP.MV :
~A
# ...
  196.2500    68.7530    81.2990    79.9600    79.0650    25.2330     2.2630   -27.7760 
  196.3750    67.7420    81.6000    80.1840    83.8970    25.1470     2.2800   -27.8140 
  196.5000    68.9830    81.3980    79.5090    86.5750    25.1470     2.2920   -27.8880 
  196.6250    71.4740    80.6130    78.1480    82.4850    25.2060     2.2940   -27.9490 
  196.7500    74.3010    79.2620    76.4450    78.0160    25.1830     2.2880   -27.9730 
  196.8750    76.0840    77.4190    74.5890    75.2460    25.0740     2.2780   -28.0340 
  197.0000    74.8510    75.3170    72.6630    74.3900    24.9110     2.2690   -28.0960 
  197.1250    72.4030    73.3760    70.8500    70.2290    24.5750     2.2650   -28.0880 
  197.2500    71.9840    71.9440    69.4490    68.2900    24.1930     2.2660   -28.1270 
  197.3750    72.9350    71.2770    68.7220    64.9420    23.8550     2.2660   -28.2000 
  197.5000    72.8750    71.6020    68.8940    63.4510    23.5550     2.2620   -28.2530 
  197.6250    70.2310    73.2740    70.3180    64.4200    23.2320     2.2550   -28.3360 
  197.7500    68.7710    76.0910    72.7710    62.9340    23.0590     2.2490   -28.4440 
  197.8750    69.0420    79.9010    76.0640    57.2940    23.0050     2.2490   -28.5570 
  198.0000    68.3550    84.4880    80.0560    51.7290    22.9460     2.2520   -28.6580 
  198.1250    65.3970    89.6660    84.5900    51.2060    22.7580     2.2540   -28.7110 
  198.2500    62.6010    95.1470    89.3410    54.9890    22.5280     2.2520   -28.7110 
  198.3750    61.2640   100.8870    94.3320    63.0890    22.5820     2.2450   -28.6730 
  198.5000    61.4430   106.9660    99.6890    77.0240    23.1740     2.2370   -28.5960 
  198.6250    62.8410   113.6270   105.5440    91.2290    24.1670     2.2290   -28.4910 
  198.7500    64.4260   120.9440   111.9500   108.2000    24.9970     2.2210   -28.3680 
  198.8750    63.9890   128.9410   118.9720   120.6940    25.3730     2.2150   -28.1830 
  199.0000    61.0920   137.3050   126.3190   131.0670    25.4570     2.2120   -28.0060 
  199.1250    60.0090   144.6370   132.8900   143.3450    25.4580     2.2140   -27.9050 
  199.2500    62.4770   148.9860   137.1240   147.5980    25.4420     2.2200   -27.7960 
  199.3750    63.9670   148.7150   137.4260   146.0660    25.3690     2.2270   -27.7370 
  199.5000    62.1730   143.5340   133.1580   139.9280    25.2330     2.2360   -27.7090 
  199.6250    59.4190   134.4650   124.8000   129.9430    25.1090     2.2450   -27.6200 
  199.7500    59.6170   124.3770   115.0180   114.4830    25.0370     2.2550   -27.5820 
  199.8750    62.3300   114.9670   105.6390   102.8350    24.9500     2.2610   -27.6330 
  200.0000    65.3830   107.3800    98.0410    98.7880    24.7890     2.2600   -27.6530 
  200.1250    68.2070   102.8350    93.5480    98.3490    24.7100     2.2500   -27.6440 
  200.2500    70.5760   101.3040    91.9310    91.6920    24.6840     2.2340   -27.6810 
  200.3750    70.8980   102.8300    93.0980    86.7380    24.6840     2.2180   -27.6750 
  200.5000    68.9980   107.1170    96.8810    95.4710    24.6840     2.2070   -27.6860 
  200.6250    67.4830   113.4100   102.9050   116.6910    24.6840     2.2060   -27.7210 
  200.7500    68.2200   119.3740   109.3480   132.1920    24.6840     2.2120   -27.6860 
  200.8750    69.3540   122.4610   114.0570   132.7660    24.6840     2.2190   -27.6430 
  201.0000    69.3390   120.3760   114.6660   123.7840    24.6840     2.2260   -27.6080 
  201.1250    69.7610   111.7070   109.1180   116.8110    24.6670     2.2310   -27.5890 
  201.2500    71.4720    99.5850    99.4840   105.0180    24.6260     2.2360   -27.5370 
  201.3750    74.0580    86.8320    88.2220    87.4560    24.5860     2.2420   -27.4850 
  201.5000    76.7540    75.5700    77.6740    73.2240    24.5680     2.2520   -27.4500 
  201.6250    78.0980    67.3510    69.6030    65.6640    24.5350     2.2620   -27.3760 
  201.7500    78.1100    61.9710    64.0200    60.7110    24.4560     2.2660   -27.3160 
  201.8750    77.5420    59.2140    60.7830    59.0920    24.3740     2.2630   -27.2430 
  202.0000    75.5710    58.7140    59.6080    58.8300    24.3390     2.2520   -27.1420 
  202.1250    72.1380    60.4020    60.5920    60.6210    24.3790     2.2450   -26.9650 
  202.2500    71.2790    63.7790    63.3090    67.8490    24.4850     2.2540   -26.7650 
  202.3750    73.1560    68.9690    67.7970    76.9730    24.6090     2.2910   -26.5490 
  202.5000    73.9290    76.5590    74.4750    83.4370    24.6750     2.3550   -26.2150 
  202.6250    69.6600    88.6660    85.0680    92.4510    24.6840     2.4390   -25.8390 
  202.7500    63.8030   106.6130   100.7460   112.8290    24.6860     2.5210   -25.4400 
  202.8750    59.8130   131.5240   122.2860   155.5120    24.6880     2.5910   -24.9280 
  203.0000    57.7210   161.4030   147.2900   250.8610    24.6860     2.6430   -24.3840 
  203.1250    57.3120   182.7370   164.5840   378.2600    24.6850     2.6750   -23.8590 
  203.2500    58.5680   176.6850   160.3600   361.0540    24.6860     2.6860   -23.2730 
  203.3750    60.3330   140.7930   130.9520   229.2990    24.6940     2.6750   -22.6900 
  203.5000    62.4930    94.8040    89.7430   135.8610    24.7100     2.6410   -22.1500 
  203.6250    67.7550    59.5950    56.1020    95.9860    24.7380     2.5900   -21.6330 
  203.7500    76.0010    36.9120    34.5570    61.0780    24.7500     2.5390   -21.1330 
  203.8750    82.7240    22.4310    21.4970    35.9820    24.7510     2.4980   -20.6550 
  204.0000    86.4110    14.4080    15.3890    19.7690    24.7630     2.4750   -20.1900 
  204.1250    90.9900    12.9800    13.3520    15.0570    24.8160     2.4790   -19.7390 
  204.2500    96.2640    13.1600    13.0570    13.6210    24.8960     2.5070   -19.3050 
  204.3750    98.2790    14.2230    13.8610    13.6180    24.9120     2.5510   -18.8550 
  204.5000    96.2940    15.3680    15.0520    14.5560    24.8610     2.6000   -18.4100 
  204.6250    93.4940    15.4990    15.4730    16.0460    24.7560     2.6330   -17.9490 
  204.7500    90.2110    14.3310    14.5550    18.6810    24.6990     2.6400   -17.4750 
  204.8750    83.4990    12.2770    12.6040    18.5730    24.6600     2.6180   -16.9790 
  205.0000    74.4070    10.1070    10.4000    13.4630    24.6060     2.5720   -16.3940 
  205.1250    67.4150     8.5580     8.6970     8.4650    24.4780     2.5150   -15.7500 
  205.2500    65.2080     7.7390     7.6490     6.8600    24.2280     2.4610   -15.1050 
  205.3750    65.8510     7.5530     7.1990     6.9230    23.9570     2.4160   -14.4440 
  205.5000    66.5170     7.7890     7.1900     7.2470    23.6820     2.3810   -13.8170 
  205.6250    66.7480     8.1590     7.4020     7.2090    23.3690     2.3590   -13.2560 
  205.7500    65.9120     8.3850     7.5600     6.7240    23.0740     2.3510   -12.7220 
  205.8750    63.7820     8.4100     7.5800     6.3380    22.9510     2.3530   -12.3050 
  206.0000    61.6990     8.3300     7.5170     6.0350    22.9500     2.3600   -12.0530 
  206.1250    59.7360     8.3010     7.4930     6.2930    22.9950     2.3680   -11.8680 
  206.2500    58.1150     8.3830     7.5640     6.8870    23.0100     2.3750   -11.7330 
  206.3750    56.4140     8.5580     7.7180     7.4880    23.0090     2.3840   -11.6700 
  206.5000    54.3090     8.7740     7.9030     7.7250    22.9970     2.3950   -11.5930 
  206.6250    50.1130     8.9650     8.0480     7.6840    22.9610     2.4100   -11.5480 
  206.7500    45.8000     9.1050     8.1240     7.5720    22.8990     2.4240   -11.5420 
  206.8750    44.7630     9.2100     8.1430     7.5680    22.8650     2.4350   -11.5240 
  207.0000    46.7210     9.3160     8.1330     7.5170    22.8940     2.4430   -11.5310 
  207.1250    48.4340     9.4510     8.1240     7.6620    23.0670     2.4450   -11.5850 
  207.2500    49.2130     9.5990     8.1230     7.9680    23.3470     2.4420   -11.6910 
  207.3750    49.7380     9.7290     8.1210     8.2290    23.5970     2.4370   -11.8060 
