~V
VERS. 2.00: Ver 2.00
~W
STRT.M 62.0000:
STOP.M 272.0000:
STEP.M 0.1250:
NULL. -999.2500:
UWI. DF32143:
~C
DEPT.M :
SP.MV :
GR.API :
CALI.CM :
RXO.OHMM :
RI. :
RML.OHMM :
DEN.GM/CC :
~A
# ...
  118.2500   -15.9550    89.7870    22.7330     5.5290     4.3070     5.0340     2.3350 
  118.3750   -15.7220    91.7870    22.7360     4.9090     4.3750     5.1510     2.3270 
  118.5000   -15.4500    93.0490    22.8020     4.7080     4.4370     5.2440     2.3220 
  118.6250   -15.1380    94.0580    22.8660     4.7720     4.4490     5.2520     2.3090 
  118.7500   -14.7940    95.5640    22.8980     4.7120     4.3840     5.1240     2.2930 
  118.8750   -14.4570    96.4100    22.9090     4.4380     4.2350     4.8540     2.2860 
  119.0000   -14.1670    97.3920    22.9180     4.1020     4.0450     4.5360     2.2960 
  119.1250   -14.0080    99.6130    22.9360     3.8900     3.9220     4.3790     2.3220 
  119.2500   -14.0130   101.9620    22.9540     3.9050     3.9510     4.5110     2.3580 
  119.3750   -14.2230    99.1480    22.9490     4.4290     4.1740     4.9770     2.4000 
  119.5000   -14.6450    90.6080    22.9070     5.6480     4.5760     5.7180     2.4310 
  119.6250   -15.3180    82.9890    22.8210     6.8200     5.0660     6.5190     2.4190 
  119.7500   -16.1630    80.0770    22.6770     6.9230     5.4590     7.0510     2.3660 
  119.8750   -17.0870    80.3080    22.4770     6.1510     5.6360     7.1580     2.2990 
  120.0000   -18.0220    80.6440    22.2850     5.4610     5.6060     6.9470     2.2430 
  120.1250   -18.8590    81.2170    22.1450     5.3620     5.4840     6.7020     2.2130 
  120.2500   -19.5400    83.9230    21.9390     5.4620     5.4080     6.6160     2.1960 
  120.3750   -20.0260    88.9710    21.6090     5.5540     5.4090     6.6880     2.1890 
  120.5000   -20.3300    94.6880    21.2470     5.6410     5.4500     6.8000     2.1890 
  120.6250   -20.4080    96.4430    21.0220     5.7530     5.4420     6.7890     2.1990 
  120.7500   -20.3540    95.0190    20.9630     5.8070     5.3590     6.6470     2.2130 
  120.8750   -20.2310    93.4780    21.0960     5.7010     5.2300     6.4610     2.2240 
  121.0000   -20.0670    93.9350    21.4490     5.5280     5.1070     6.3250     2.2310 
  121.1250   -19.8450    93.7440    21.9140     5.6240     5.0430     6.3080     2.2320 
  121.2500   -19.5740    91.4010    22.2690     5.9210     5.0400     6.3800     2.2250 
  121.3750   -19.2740    89.7150    22.4730     6.0590     5.0770     6.4820     2.2120 
  121.5000   -18.9490    90.1500    22.6220     5.9160     5.1200     6.5490     2.2060 
  121.6250   -18.5480    90.7540    22.8830     5.7180     5.1330     6.5390     2.2210 
  121.7500   -18.0440    90.0920    23.3130     5.5860     5.1030     6.4620     2.2480 
  121.8750   -17.4450    89.8230    23.8440     5.4610     5.0270     6.3180     2.2690 
  122.0000   -16.7680    90.6260    24.2840     5.3360     4.9030     6.1040     2.2790 
  122.1250   -16.1040    90.7700    24.4310     5.1680     4.7290     5.8160     2.2900 
  122.2500   -15.5380    92.8640    24.4240     4.8710     4.5300     5.5010     2.3070 
  122.3750   -15.1070    97.2460    24.4490     4.4990     4.3390     5.2210     2.3290 
  122.5000   -14.8350   100.6670    24.5790     4.2440     4.1930     5.0400     2.3530 
  122.6250   -14.8630    99.3400    24.7300     4.3120     4.1350     5.0180     2.3680 
  122.7500   -15.2060    94.5550    24.8050     4.6030     4.1580     5.1220     2.3660 
  122.8750   -15.8450    87.9650    24.7710     4.9100     4.2440     5.3120     2.3530 
  123.0000   -16.7580    81.5190    24.7240     5.0810     4.3710     5.5440     2.3300 
  123.1250   -17.9350    81.5520    24.8460     5.1640     4.5290     5.8000     2.2960 
  123.2500   -19.2710    86.5030    24.9030     5.3280     4.7220     6.0970     2.2590 
  123.3750   -20.6660    87.2730    24.6660     5.7610     4.9720     6.4690     2.2290 
  123.5000   -22.0230    80.8310    24.2430     6.7160     5.2940     6.9380     2.2130 
  123.6250   -23.2030    72.8100    24.0000     8.1170     5.6850     7.4830     2.2020 
  123.7500   -24.1220    68.3110    23.9780     9.0710     6.0830     8.0100     2.1920 
  123.8750   -24.7400    65.8120    23.9840     9.1210     6.4320     8.4430     2.1850 
  124.0000   -25.0540    64.0390    24.0040     8.6630     6.6930     8.7330     2.1800 
  124.1250   -24.9580    63.2510    24.0650     8.3910     6.8160     8.8180     2.1690 
  124.2500   -24.5220    63.5290    24.1380     8.3360     6.7990     8.6980     2.1610 
  124.3750   -23.8450    65.1760    24.1990     8.2820     6.6360     8.3670     2.1670 
  124.5000   -23.0530    68.8180    24.2610     8.0110     6.3410     7.8590     2.1960 
  124.6250   -22.2250    76.6540    24.3760     7.2570     5.9580     7.2680     2.2430 
  124.7500   -21.4130    84.3890    24.5320     6.2920     5.5920     6.7480     2.2830 
  124.8750   -20.6310    85.2400    24.6690     5.6080     5.3160     6.3930     2.2960 
  125.0000   -19.8570    78.3830    24.7410     5.4600     5.1670     6.2250     2.2790 
  125.1250   -19.1210    74.8360    24.7490     5.6510     5.1410     6.2050     2.2490 
  125.2500   -18.3950    78.3140    24.7460     5.7780     5.1590     6.2030     2.2290 
  125.3750   -17.6770    82.5890    24.7660     5.7080     5.1500     6.1230     2.2250 
  125.5000   -16.9430    84.0680    24.8530     5.4220     5.0630     5.9200     2.2360 
  125.6250   -16.1810    84.1590    25.0360     4.9830     4.8840     5.6170     2.2560 
  125.7500   -15.4350    84.4710    25.2400     4.5820     4.6760     5.3150     2.2780 
  125.8750   -14.7740    85.7300    25.3800     4.3290     4.4810     5.0640     2.3040 
  126.0000   -14.2640    88.6710    25.4360     4.2640     4.3160     4.8770     2.3370 
  126.1250   -14.0170    88.5340    25.4640     4.3940     4.1810     4.7370     2.3750 
  126.2500   -14.0320    84.3260    25.4850     4.5360     4.0590     4.6010     2.3970 
  126.3750   -14.2610    80.1080    25.4640     4.5130     3.9390     4.4440     2.3920 
  126.5000   -14.6350    79.1860    25.3920     4.3350     3.8240     4.2720     2.3670 
  126.6250   -15.1410    81.3640    25.2950     4.3170     3.7700     4.1810     2.3340 
  126.7500   -15.6990    81.6930    25.1720     4.6340     3.8650     4.3400     2.3130 
  126.8750   -16.2600    77.6160    24.9800     5.2960     4.2330     4.9540     2.3240 
  127.0000   -16.8510    69.7620    24.7640     6.8460     5.0350     6.2580     2.3830 
  127.1250   -17.5050    63.1200    24.6980    11.7000     6.5930     8.6630     2.4740 
  127.2500   -18.2410    59.9180    24.7970    21.2650     8.8870    12.0430     2.5370 
  127.3750   -19.0550    58.0010    24.9380    33.0720    11.5780    15.7280     2.5430 
  127.5000   -19.9450    56.1330    25.0070    40.0970    13.7400    18.1520     2.5070 
  127.6250   -20.9060    56.0670    24.9540    35.5280    14.1490    17.6790     2.4700 
  127.7500   -21.9280    57.0220    24.7720    26.0360    13.3000    15.7140     2.4440 
  127.8750   -22.9950    57.5730    24.4820    19.7790    12.0550    13.7230     2.4350 
  128.0000   -24.0440    56.8860    24.2220    23.0720    11.0110    12.3910     2.4560 
  128.1250   -24.9670    57.2790    24.2000    41.1640    10.3700    11.7630     2.5010 
  128.2500   -25.7130    58.3780    24.4370    50.7810     9.9250    11.3700     2.5130 
  128.3750   -26.2640    59.2150    24.7470    39.3370     9.5190    10.9350     2.4490 
  128.5000   -26.6060    59.4950    24.8090    19.5290     9.0860    10.3870     2.3310 
  128.6250   -26.6400    59.2030    24.4350    11.6030     8.6920     9.9000     2.2280 
  128.7500   -26.3590    58.1100    23.9670     9.2440     8.4490     9.6820     2.1750 
  128.8750   -25.7680    56.9730    23.6810     8.7840     8.4040     9.7760     2.1590 
  129.0000   -24.8730    58.2180    23.5970     8.7920     8.4730    10.0060     2.1610 
  129.1250   -23.6500    64.0700    23.6140     8.8860     8.3820     9.9020     2.1750 
  129.2500   -22.2630    70.8300    23.6730     8.8310     7.8980     9.1500     2.2000 
  129.3750   -20.8500    75.6460    23.7620     8.1520     7.0060     7.8080     2.2310 
