~V
VERS. 2.00: Ver 2.00
~W
STRT.M 60.0000:
STOP.M 270.0000:
STEP.M 0.1250:
NULL. -999.2500:
UWI. DF32131:
~C
DEPT.M :
DEN.GM/CC :
GR.API :
CALI.CM :
RXO.OHMM :
RI. :
RML.OHMM :
SP.MV :
~A
# ...
   82.5000     2.1910    82.5890    23.9170     6.7160     5.3980     8.0560   -25.4760 
   82.6250     2.1930    83.6750    23.9090     6.7890     5.5350     8.2000   -25.2730 
   82.7500     2.1830    80.9820    23.8800     6.8660     5.7510     8.5210   -25.0430 
   82.8750     2.1800    77.3160    23.7810     7.0340     6.0320     8.9910   -24.7710 
   83.0000     2.2010    76.4830    23.5820     7.4400     6.3170     9.4900   -24.3530 
   83.1250     2.2380    78.8060    23.2720     7.9800     6.4900     9.7800   -23.8270 
   83.2500     2.2600    81.4500    23.0910     8.0800     6.4850     9.7400   -23.1910 
   83.3750     2.2620    82.3900    23.0330     7.4880     6.2960     9.3710   -22.4550 
   83.5000     2.2550    82.6270    23.0290     6.5910     5.9660     8.7820   -21.7120 
   83.6250     2.2510    84.9900    23.0260     5.9370     5.5540     8.1150   -20.9390 
   83.7500     2.2510    88.3600    23.0080     5.6700     5.1430     7.4960   -20.1720 
   83.8750     2.2580    90.6250    22.9670     5.3730     4.7870     6.9840   -19.4920 
   84.0000     2.2760    91.7690    22.9320     4.8770     4.5200     6.6160   -18.9610 
   84.1250     2.2950    93.8010    22.8920     4.5500     4.3730     6.4520   -18.5340 
   84.2500     2.2970    95.7230    22.7950     4.6040     4.3260     6.4680   -18.2960 
   84.3750     2.2770    94.4150    22.6240     4.8980     4.3680     6.6360   -18.1500 
   84.5000     2.2510    91.3050    22.4640     5.0970     4.4730     6.8810   -18.0150 
   84.6250     2.2420    91.0750    22.3250     5.1040     4.5750     7.0440   -17.9910 
   84.7500     2.2510    94.3030    22.0940     5.0030     4.6030     7.0110   -18.0400 
   84.8750     2.2660    97.1920    21.7030     4.9390     4.5320     6.7990   -18.0930 
   85.0000     2.2770    96.6200    21.0730     4.9230     4.3940     6.5160   -18.1500 
   85.1250     2.2820    95.8660    19.8360     4.9700     4.2650     6.2960   -18.2720 
   85.2500     2.2810    97.3670    17.9740     5.2240     4.2160     6.2240   -18.3720 
   85.3750     2.2760    98.5840    16.5320     5.6270     4.2970     6.3740   -18.5420 
   85.5000     2.2700    97.3510    16.2840     5.9410     4.5430     6.8030   -18.7230 
   85.6250     2.2770    95.6110    16.9010     6.2500     4.9700     7.5570   -18.9030 
   85.7500     2.2900    94.9070    17.9760     7.0860     5.4650     8.4470   -18.9760 
   85.8750     2.2940    92.3980    19.5930     8.3290     5.8450     9.1390   -18.9350 
   86.0000     2.2820    87.5590    21.4200     9.0410     5.8940     9.1940   -18.8210 
   86.1250     2.2710    84.1310    22.5990     8.2880     5.4680     8.3420   -18.5660 
   86.2500     2.2820    85.2390    23.1730     7.0290     4.8070     7.1180   -18.3420 
   86.3750     2.3160    91.5060    23.5060     5.8960     4.1440     5.9880   -18.1220 
   86.5000     2.3520   102.0700    23.6760     5.2270     3.6460     5.2320   -17.9850 
   86.6250     2.3620   110.3040    23.7190     5.1440     3.4270     5.0200   -17.9820 
   86.7500     2.3460   109.2220    23.7190     5.4040     3.4310     5.2230   -18.2200 
   86.8750     2.3200   102.8400    23.7190     5.7680     3.6150     5.7280   -18.8100 
   87.0000     2.2970    99.1620    23.7190     6.0740     3.9310     6.3840   -19.6200 
   87.1250     2.2780   100.2320    23.7190     6.3530     4.3420     7.0430   -20.6640 
   87.2500     2.2510    99.4670    23.7190     6.7660     4.7750     7.6320   -21.7880 
   87.3750     2.2160    94.1860    23.7190     7.4350     5.1810     8.1490   -22.8660 
   87.5000     2.1810    86.6400    23.7190     8.3290     5.5230     8.5920   -23.8840 
   87.6250     2.1590    79.6720    23.7190     8.9120     5.7580     8.8920   -24.8020 
   87.7500     2.1490    75.9920    23.7190     9.0740     5.8870     9.0040   -25.5240 
   87.8750     2.1540    75.5020    23.7190     8.9150     5.9330     8.9300   -26.0190 
   88.0000     2.1680    75.3450    23.7190     8.6480     5.9310     8.7460   -26.3300 
   88.1250     2.1770    75.7790    23.7190     8.4920     5.9280     8.5950   -26.3980 
   88.2500     2.1700    75.8550    23.7230     8.6760     5.9540     8.5670   -26.2900 
   88.3750     2.1550    74.1400    23.7420     9.1110     5.9940     8.6500   -26.0080 
   88.5000     2.1480    70.8220    23.7830     9.5520     6.0340     8.7860   -25.5060 
   88.6250     2.1530    67.5830    23.8090     9.8030     6.0740     8.9190   -24.6430 
   88.7500     2.1720    66.6400    23.8560     9.8730     6.1230     9.0100   -23.5660 
   88.8750     2.2120    68.9230    23.9570     9.7220     6.1550     9.0130   -22.3110 
   89.0000     2.2800    74.6120    24.0670     9.3820     6.1010     8.8660   -20.9860 
   89.1250     2.3550    81.9250    24.1130     9.4770     5.8700     8.4700   -19.7010 
   89.2500     2.4010    86.8490    24.1210     9.1160     5.4770     7.8560   -18.4420 
   89.3750     2.4050    88.6500    24.1210     7.8970     4.9920     7.1270   -17.3630 
   89.5000     2.3810    89.2960    24.1210     6.4230     4.5290     6.4440   -16.4970 
   89.6250     2.3520    91.8680    24.1210     5.7400     4.1860     5.9600   -16.0120 
   89.7500     2.3320    93.6040    24.1210     5.6240     3.9560     5.6710   -15.7710 
   89.8750     2.3180    92.2540    24.1210     5.7580     3.8110     5.5220   -15.7130 
   90.0000     2.3090    89.6870    24.1210     5.8550     3.7130     5.4250   -15.8250 
   90.1250     2.3080    89.5200    24.1210     5.6830     3.6240     5.2800   -16.0630 
   90.2500     2.3130    91.1090    24.1060     5.3820     3.5440     5.1000   -16.4350 
   90.3750     2.3210    91.6670    24.0360     5.3300     3.5240     4.9890   -16.9220 
   90.5000     2.3280    90.1650    23.8630     5.7090     3.6200     5.0730   -17.4790 
   90.6250     2.3260    87.7550    23.7150     6.1460     3.8850     5.4650   -18.0730 
   90.7500     2.3100    84.7290    23.6300     6.4470     4.2760     6.0780   -18.7230 
   90.8750     2.2760    81.2550    23.6060     6.9670     4.7360     6.7800   -19.2950 
   91.0000     2.2340    78.7290    23.6060     7.9250     5.1800     7.3950   -19.7480 
   91.1250     2.2090    80.5580    23.6180     8.5640     5.4980     7.7560   -20.0350 
   91.2500     2.2080    84.7100    23.6390     8.4160     5.6660     7.9070   -20.1720 
   91.3750     2.2260    87.0220    23.6560     8.0130     5.7040     7.9360   -20.1440 
   91.5000     2.2490    86.3320    23.6570     8.1370     5.6670     7.9220   -19.9920 
   91.6250     2.2690    84.3600    23.5590     8.4810     5.5970     7.8790   -19.7860 
   91.7500     2.2810    82.7210    23.3080     8.3060     5.4900     7.7860   -19.5190 
   91.8750     2.2790    81.6840    22.9960     7.5400     5.3150     7.6220   -19.2890 
   92.0000     2.2690    81.7110    22.8280     6.8280     5.0780     7.3970   -19.0890 
   92.1250     2.2610    82.2650    22.8040     6.7740     4.8320     7.1450   -18.9490 
   92.2500     2.2600    83.8920    22.8440     6.7880     4.6420     6.9050   -18.8820 
   92.3750     2.2580    85.6880    22.9400     6.7050     4.5480     6.7140   -18.8280 
   92.5000     2.2550    86.1800    23.0520     6.7210     4.5750     6.6380   -18.8080 
   92.6250     2.2650    83.9240    23.0990     7.0740     4.8050     6.8490   -18.6930 
   92.7500     2.3050    79.7640    23.1090     7.6740     5.3150     7.5010   -18.5770 
   92.8750     2.3810    75.5290    23.1080     8.8880     6.2430     8.7980   -18.4880 
   93.0000     2.4770    71.8910    23.1210    11.3700     7.7260    10.9370   -18.4910 
   93.1250     2.5670    69.9280    23.1810    15.0740     9.8590    14.1070   -18.6060 
   93.2500     2.6290    68.2830    23.2810    19.5370    12.2010    17.6370   -18.8110 
   93.3750     2.6550    65.4710    23.3340    23.7870    14.0420    20.2490   -19.1960 
   93.5000     2.6320    63.2990    23.3300    25.7930    14.6100    20.5220   -19.7290 
   93.6250     2.5430    63.9480    23.2370    23.4010    13.5250    18.1550   -20.5300 
