~V
VERS. 2.00: Ver 2.00
~W
STRT.M 59.0000:
STOP.M 261.0000:
STEP.M 0.1250:
NULL. -999.2500:
UWI. DF32116:
~C
DEPT.M :
SP.MV :
GR.API :
CALI.CM :
RXO.OHMM :
RI. :
RML.OHMM :
DEN.GM/CC :
~A
# ...
  239.0000    -6.9580    62.6560    24.4730     4.9460     4.8430     5.6360     2.3670 
  239.1250    -6.8170    62.0810    24.4740     4.9860     4.9110     5.7330     2.3650 
  239.2500    -6.7460    60.5250    24.4720     5.1110     5.0120     5.8860     2.3710 
  239.3750    -6.7370    59.5160    24.4610     5.2300     5.1500     6.0970     2.3830 
  239.5000    -6.7680    58.6440    24.4460     5.4640     5.3210     6.3540     2.3950 
  239.6250    -6.8230    58.2410    24.4470     6.4140     5.5090     6.6270     2.4050 
  239.7500    -6.8750    59.1930    24.4610     8.2360     5.6830     6.8700     2.4190 
  239.8750    -6.9170    60.6940    24.4730    10.2410     5.8130     7.0430     2.4380 
  240.0000    -6.9530    61.9350    24.4740    11.1990     5.8800     7.1230     2.4550 
  240.1250    -6.9900    62.1870    24.4730    10.3530     5.8700     7.1070     2.4590 
  240.2500    -7.0260    62.9440    24.4750     8.8700     5.8120     7.0440     2.4490 
  240.3750    -7.0700    64.4630    24.4690     7.7320     5.7280     6.9610     2.4300 
  240.5000    -7.1390    66.3450    24.4470     7.2610     5.6400     6.8780     2.4100 
  240.6250    -7.2340    66.2030    24.4160     7.2200     5.5680     6.8160     2.4000 
  240.7500    -7.3530    63.8030    24.3990     7.1660     5.5240     6.7880     2.4000 
  240.8750    -7.4950    61.7080    24.3960     7.0220     5.5170     6.8140     2.4070 
  241.0000    -7.6320    62.7430    24.3910     6.9260     5.5550     6.9070     2.4180 
  241.1250    -7.7470    64.8830    24.3870     7.0570     5.6480     7.0840     2.4350 
  241.2500    -7.8220    63.9780    24.4050     7.2820     5.7800     7.3140     2.4480 
  241.3750    -7.8630    63.5020    24.4420     7.3100     5.9290     7.5560     2.4470 
  241.5000    -7.8800    66.4690    24.4640     6.9740     6.0650     7.7510     2.4330 
  241.6250    -7.8800    69.3620    24.4470     6.4270     6.1410     7.8270     2.4160 
  241.7500    -7.8760    68.1280    24.4200     5.9650     6.1490     7.7860     2.4070 
  241.8750    -7.8670    66.0060    24.4030     5.6470     6.1020     7.6670     2.4070 
  242.0000    -7.8710    67.1100    24.4010     5.4710     6.0360     7.5440     2.4100 
  242.1250    -7.8940    67.3780    24.4170     5.5020     6.0000     7.5130     2.4080 
  242.2500    -7.9510    63.8800    24.4450     5.7520     6.0280     7.6100     2.4030 
  242.3750    -8.0410    60.7060    24.4650     6.3070     6.1320     7.8320     2.4070 
  242.5000    -8.1590    62.4730    24.4710     7.3130     6.3080     8.1470     2.4270 
  242.6250    -8.3000    67.9310    24.5190     8.6830     6.5440     8.5000     2.4540 
  242.7500    -8.4560    70.1020    24.6360    10.1180     6.7920     8.8200     2.4730 
  242.8750    -8.6380    67.5150    24.7720    11.6000     7.0180     9.0620     2.4760 
  243.0000    -8.8420    63.6200    24.8420    12.8190     7.1950     9.2010     2.4700 
  243.1250    -9.0480    62.3840    24.7930    12.5730     7.3000     9.2330     2.4620 
  243.2500    -9.2470    62.6520    24.7100    11.0520     7.3500     9.2020     2.4550 
  243.3750    -9.4310    62.9980    24.6630     9.4560     7.3590     9.1440     2.4510 
  243.5000    -9.5790    63.1470    24.6790     8.5630     7.3420     9.0820     2.4500 
  243.6250    -9.6770    63.7460    24.7430     7.9850     7.3030     9.0110     2.4560 
  243.7500    -9.7370    64.4220    24.8250     7.2730     7.2310     8.8940     2.4620 
  243.8750    -9.7380    63.5220    24.9140     6.6080     7.1030     8.6800     2.4560 
  244.0000    -9.6810    61.3840    24.9830     6.0940     6.8920     8.3270     2.4390 
  244.1250    -9.5710    59.0080    25.0090     5.6520     6.5770     7.8160     2.4190 
  244.2500    -9.4200    57.2790    25.0110     5.2890     6.2010     7.2310     2.4070 
  244.3750    -9.2250    57.1790    25.0150     5.1000     5.8140     6.6560     2.4030 
  244.5000    -9.0030    57.4710    25.0370     5.0530     5.4670     6.1710     2.4010 
  244.6250    -8.7710    56.9330    25.0640     5.0440     5.2200     5.8570     2.4010 
  244.7500    -8.5390    55.7350    25.0680     5.0750     5.0720     5.6960     2.4050 
  244.8750    -8.3070    55.5600    25.0480     5.1630     5.0120     5.6480     2.4130 
  245.0000    -8.0800    57.0760    25.0230     5.2190     5.0150     5.6580     2.4140 
  245.1250    -7.8850    57.6320    25.0120     5.1280     5.0490     5.6750     2.4020 
  245.2500    -7.7270    58.2900    25.0100     4.9480     5.0890     5.6770     2.3890 
  245.3750    -7.6050    60.1930    25.0090     4.7510     5.1290     5.6780     2.3870 
  245.5000    -7.5190    61.7350    25.0060     4.5640     5.1750     5.6990     2.3970 
  245.6250    -7.4600    60.1910    25.0010     4.4190     5.2390     5.7660     2.4040 
  245.7500    -7.4120    57.5250    24.9910     4.3590     5.3210     5.8790     2.4020 
  245.8750    -7.3940    56.8600    24.9720     4.4120     5.4180     6.0270     2.3950 
  246.0000    -7.4120    58.2650    24.9510     4.5960     5.5150     6.1840     2.3920 
  246.1250    -7.4590    59.5980    24.9390     4.9330     5.5800     6.2880     2.3960 
  246.2500    -7.5460    59.4200    24.9360     5.3220     5.5880     6.2870     2.4020 
  246.3750    -7.6990    58.2470    24.9370     5.6610     5.5280     6.1630     2.4070 
  246.5000    -7.9240    57.6700    24.9450     5.9630     5.4280     5.9740     2.4090 
  246.6250    -8.2420    57.8140    24.8980     6.9440     5.3770     5.8820     2.4180 
  246.7500    -8.6250    56.7480    24.7390     9.7760     5.4730     6.0450     2.4360 
  246.8750    -9.0480    54.9440    24.5090    15.1180     5.7990     6.5750     2.4600 
  247.0000    -9.4860    54.7550    24.3520    21.8160     6.4070     7.5210     2.4850 
  247.1250    -9.9230    56.8460    24.3350    26.5900     7.3260     8.8560     2.5070 
  247.2500   -10.3330    58.5410    24.2530    27.7950     8.3690    10.2490     2.5200 
  247.3750   -10.6840    58.5780    24.0270    25.9110     9.3010    11.3350     2.5230 
  247.5000   -10.9690    59.8150    23.7730    22.3990     9.8820    11.8170     2.5200 
  247.6250   -11.1650    63.3130    23.6490    18.8510     9.9480    11.5840     2.5120 
  247.7500   -11.2990    65.4970    23.6200    16.3690     9.7090    11.0270     2.4960 
  247.8750   -11.4070    63.9880    23.6070    15.0360     9.3640    10.4370     2.4760 
  248.0000   -11.5060    60.5200    23.6090    14.1140     9.0610     9.9900     2.4660 
  248.1250   -11.5950    58.7070    23.5990    12.5660     8.8820     9.7700     2.4750 
  248.2500   -11.6720    58.7920    23.5560    10.7660     8.8110     9.7150     2.4850 
  248.3750   -11.7450    60.7450    23.4730     9.6630     8.8210     9.7580     2.4780 
  248.5000   -11.8190    62.9130    23.3550     9.5580     8.8700     9.8190     2.4600 
  248.6250   -11.8910    63.7270    23.2330    10.0360     8.9160     9.8330     2.4520 
  248.7500   -11.9500    64.5940    23.1520    10.6580     8.9460     9.8020     2.4580 
  248.8750   -11.9840    64.8150    23.1410    11.3410     8.9660     9.7560     2.4690 
  249.0000   -11.9890    63.3260    23.1880    11.8610     8.9910     9.7240     2.4720 
  249.1250   -11.9640    61.5600    23.2430    11.8410     9.0330     9.7200     2.4600 
  249.2500   -11.9280    61.3990    23.2680    11.4290     9.0920     9.7360     2.4470 
  249.3750   -11.8710    61.3990    23.2440    11.0710     9.1650     9.7700     2.4490 
  249.5000   -11.7940    61.3990    23.1700    11.2670     9.2540     9.8320     2.4670 
  249.6250   -11.7190    61.3990    23.1000    12.2790     9.3820     9.9460     2.4940 
  249.7500   -11.6600    61.3990    23.1280    13.4180     9.5610    10.1230     2.5110 
  249.8750   -11.5980    61.3990    23.2680    14.0010     9.8020    10.3710     2.5140 
  250.0000   -11.5310    61.3990    23.4460    13.8910    10.0980    10.6830     2.5050 
  250.1250   -11.4820    61.3990    23.5860    13.6790    10.4310    11.0300     2.4980 
