~V
VERS. 2.00: Ver 2.00
~W
STRT.M 60.0000:
STOP.M 264.0000:
STEP.M 0.1250:
NULL. -999.2500:
UWI. DF32130:
~C
DEPT.M :
SP.MV :
GR.API :
CALI.CM :
RXO.OHMM :
RI. :
RML.OHMM :
DEN.GM/CC :
~A
# ...
   71.2500   -25.5740    72.2650    21.5710     8.5100     6.5910     8.5950     2.2010 
   71.3750   -24.9220    77.2070    21.5730     8.0640     5.9480     7.7240     2.2300 
   71.5000   -24.2960    84.1850    21.5770     6.9170     5.2430     6.7600     2.2730 
   71.6250   -23.7050    91.5290    21.7090     5.6300     4.6820     6.0500     2.3280 
   71.7500   -23.2620    98.0990    22.0350     5.0560     4.3650     5.7160     2.3770 
   71.8750   -22.9620   103.2860    22.3900     5.2710     4.3280     5.7810     2.4030 
   72.0000   -22.8380   106.5560    22.5290     5.8360     4.5380     6.1940     2.3980 
   72.1250   -22.8810   103.7570    22.4050     6.1950     4.9150     6.8210     2.3590 
   72.2500   -23.0120    96.6200    22.1810     6.6020     5.2880     7.3780     2.3090 
   72.3750   -23.2300    88.9210    22.0800     7.0530     5.5510     7.6730     2.2650 
   72.5000   -23.5220    84.6440    22.1780     7.1550     5.6730     7.6630     2.2380 
   72.6250   -23.8530    87.0290    22.4180     6.6060     5.6770     7.4630     2.2350 
   72.7500   -24.1770    90.8670    22.5400     6.0260     5.6440     7.2680     2.2400 
   72.8750   -24.4660    91.0290    22.5540     5.9590     5.5990     7.1320     2.2400 
   73.0000   -24.6440    87.4590    22.5120     6.3130     5.5550     7.0540     2.2330 
   73.1250   -24.7840    83.7380    22.5280     6.5500     5.5390     7.0480     2.2250 
   73.2500   -24.9580    81.8160    22.6330     6.4420     5.5800     7.1280     2.2270 
   73.3750   -25.1870    82.5750    22.7820     6.2210     5.7010     7.3280     2.2420 
   73.5000   -25.4490    86.1060    22.8140     6.3580     5.9150     7.6690     2.2680 
   73.6250   -25.7100    87.7230    22.5860     7.4190     6.2240     8.1460     2.2870 
   73.7500   -25.9520    83.5950    22.1530     8.4970     6.5530     8.6160     2.2820 
   73.8750   -26.1310    77.1140    21.7490     8.6560     6.8130     8.9480     2.2520 
   74.0000   -26.2540    73.9910    21.5090     7.9720     6.9250     9.0800     2.2100 
   74.1250   -26.2990    76.7010    21.4180     7.4000     6.8260     9.0150     2.1800 
   74.2500   -26.2600    81.2150    21.3940     7.0720     6.5750     8.8140     2.1730 
   74.3750   -26.0900    84.7360    21.3900     6.9110     6.2180     8.4540     2.1890 
   74.5000   -25.7730    85.3760    21.3940     6.9240     5.8060     7.9210     2.2160 
   74.6250   -25.3670    86.4140    21.4460     6.9590     5.4150     7.3210     2.2400 
   74.7500   -24.9430    89.8020    21.6670     6.7320     5.1780     6.9350     2.2670 
   74.8750   -24.6010    93.0050    22.1420     6.2440     5.2720     7.0380     2.3120 
   75.0000   -24.4000    93.1710    22.7130     6.0590     5.9000     7.8780     2.3770 
   75.1250   -24.3700    89.7040    23.0120     7.3240     7.3910     9.8920     2.4550 
   75.2500   -24.5100    84.3750    23.1010    10.6210     9.6700    13.0770     2.5350 
   75.3750   -24.8420    76.9690    23.1170    16.1450    12.3390    16.9460     2.6050 
   75.5000   -25.3580    69.1070    23.1160    21.2320    14.3510    19.6880     2.6440 
   75.6250   -26.0610    64.0820    22.9910    20.7320    14.2350    18.6870     2.6190 
   75.7500   -26.8060    63.4350    22.5940    15.6970    12.5810    15.5950     2.5310 
   75.8750   -27.5750    66.9020    22.0070    10.8160    10.4930    12.5420     2.4020 
   76.0000   -28.2860    71.1500    21.5050     8.4660     8.7350    10.4390     2.2740 
   76.1250   -28.9110    70.5550    21.3970     7.9560     7.6630     9.4520     2.1980 
   76.2500   -29.5060    66.1070    21.5250     8.0310     7.1280     9.1700     2.1750 
   76.3750   -30.0000    62.6520    21.7450     8.3020     6.9900     9.3440     2.1810 
   76.5000   -30.3600    61.5100    21.9340     8.6040     7.0800     9.7130     2.1890 
   76.6250   -30.6390    62.7810    22.0800     8.8540     7.2440    10.0380     2.1840 
   76.7500   -30.9090    65.5360    22.1570     9.0410     7.3900    10.2420     2.1750 
   76.8750   -31.0550    67.6750    22.1810     9.1870     7.5080    10.3540     2.1720 
   77.0000   -31.1100    67.6030    22.1840     9.2940     7.5940    10.4170     2.1750 
   77.1250   -31.1480    67.3970    22.1840     9.4140     7.6140    10.4370     2.1770 
   77.2500   -31.0890    69.9450    22.1840     9.4810     7.5660    10.4120     2.1780 
   77.3750   -30.9560    73.0140    22.1840     9.4210     7.4640    10.3360     2.1830 
   77.5000   -30.7680    73.8950    22.1840     9.2280     7.3340    10.2180     2.1910 
   77.6250   -30.4630    74.4450    22.1840     9.0230     7.1970    10.0780     2.1990 
   77.7500   -30.1460    75.9420    22.1840     8.9070     7.0600     9.9360     2.2010 
   77.8750   -29.8750    76.1810    22.1840     8.8970     6.9300     9.8070     2.1990 
   78.0000   -29.6030    73.3060    22.1840     8.8500     6.8150     9.7050     2.1940 
   78.1250   -29.3090    67.8390    22.1840     8.6510     6.7260     9.6560     2.1870 
   78.2500   -29.0360    65.5310    22.1840     8.3820     6.6590     9.6520     2.1800 
   78.3750   -28.7680    68.3150    22.1840     8.2250     6.5960     9.6650     2.1800 
   78.5000   -28.4870    72.0370    22.1840     8.2080     6.5280     9.6570     2.1880 
   78.6250   -28.2540    74.0270    22.1840     8.2420     6.4690     9.5830     2.1970 
   78.7500   -28.0110    75.9800    22.1840     8.1600     6.4190     9.4590     2.2020 
   78.8750   -27.7180    78.5180    22.1840     7.9080     6.3500     9.3210     2.2060 
   79.0000   -27.4260    80.4650    22.1840     7.5840     6.2420     9.2000     2.2140 
   79.1250   -27.1630    80.8450    22.1840     7.3740     6.1140     9.1180     2.2210 
   79.2500   -26.8920    80.7320    22.1840     7.3130     6.0170     9.0610     2.2250 
   79.3750   -26.6750    80.3870    22.1840     7.3670     5.9720     9.0230     2.2280 
   79.5000   -26.5410    81.1070    22.1840     7.4290     5.9740     9.0100     2.2310 
   79.6250   -26.3860    84.0420    22.1840     7.4210     6.0080     9.0340     2.2330 
   79.7500   -26.1660    86.2890    22.1840     7.4290     6.0530     9.1050     2.2310 
   79.8750   -25.9050    86.7070    22.1840     7.5150     6.1050     9.2080     2.2240 
   80.0000   -25.6690    85.2260    22.1840     7.6050     6.1460     9.2880     2.2120 
   80.1250   -25.3760    83.0520    22.1840     7.5620     6.1100     9.2270     2.1950 
   80.2500   -24.9700    82.6980    22.1900     7.3520     5.9520     8.9830     2.1790 
   80.3750   -24.4550    84.2990    22.2190     6.9980     5.6730     8.5890     2.1750 
   80.5000   -23.9060    86.6760    22.3020     6.4300     5.3290     8.1370     2.1920 
   80.6250   -23.4210    89.0680    22.4300     5.7390     5.0230     7.7490     2.2250 
   80.7500   -22.9970    90.5170    22.5660     5.4800     4.8320     7.5100     2.2530 
   80.8750   -22.6190    89.6280    22.6510     5.8800     4.7690     7.4440     2.2620 
   81.0000   -22.2530    87.0600    22.6780     6.5330     4.7830     7.4910     2.2580 
   81.1250   -21.9710    87.0760    22.6780     6.5230     4.7820     7.5040     2.2570 
   81.2500   -21.8170    87.6340    22.6780     6.1130     4.7280     7.3910     2.2670 
   81.3750   -21.7310    86.5680    22.6780     5.6940     4.6500     7.1930     2.2810 
   81.5000   -21.6310    87.1980    22.6780     5.3820     4.6090     7.0470     2.2940 
   81.6250   -21.4890    91.3960    22.6210     5.2760     4.6720     7.1260     2.2970 
   81.7500   -21.3290    93.0910    22.4550     5.4220     4.8150     7.3920     2.2830 
   81.8750   -21.1460    90.4460    22.2310     5.8100     4.9640     7.6810     2.2510 
   82.0000   -20.8620    87.9060    22.1420     6.1100     5.0140     7.7710     2.2210 
   82.1250   -20.4730    89.5080    22.3110     5.8760     4.8700     7.4980     2.2200 
   82.2500   -20.1030    92.8980    22.7000     5.3440     4.5980     7.0110     2.2510 
   82.3750   -19.7910    95.1370    23.1870     4.9210     4.2990     6.4970     2.2930 
