~V
VERS. 2.00: Ver 2.00
~W
STRT.M 60.0000:
STOP.M 266.0000:
STEP.M 0.1250:
NULL. -999.2500:
UWI. DF32129:
~C
DEPT.M :
SP.MV :
GR.API :
CALI.CM :
RXO.OHMM :
RI. :
RML.OHMM :
DEN.GM/CC :
~A
   60.0000     9.2540    46.9180    24.5730     2.7120    -0.1050     0.1920     2.0010 
   60.1250     2.3730    51.1640    24.5590     4.1140     0.0340     0.3990     2.0790 
   60.2500    -4.3370    56.0890    24.5010     5.9060     0.3680     0.8440     2.1230 
   60.3750   -10.5990    60.2490    24.4390     7.4080     1.0360     1.7480     2.1250 
   60.5000   -16.1950    65.5190    24.3350     8.2420     2.1300     3.3200     2.1130 
   60.6250   -20.6730    72.9750    24.0870     8.5410     3.5200     4.9970     2.1170 
   60.7500   -23.9970    77.8550    23.7830     8.7510     4.7790     5.8340     2.1340 
   60.8750   -26.1690    77.4360    23.6280     8.8780     5.7310     6.0850     2.1520 
   61.0000   -27.4560    75.6520    23.6230     8.9110     6.4140     6.2650     2.1630 
   61.1250   -28.2400    77.5290    23.7300     8.8620     6.8860     6.5550     2.1660 
   61.2500   -28.8830    80.7170    23.8730     8.7980     7.2110     6.8850     2.1640 
   61.3750   -29.5090    81.1240    24.0190     8.7630     7.4120     7.1830     2.1630 
   61.5000   -30.0670    78.2920    24.0990     8.7990     7.5190     7.3960     2.1610 
   61.6250   -30.5260    74.9280    24.1190     8.9200     7.5560     7.4900     2.1550 
   61.7500   -30.9030    73.9990    24.1190     9.0460     7.5610     7.5190     2.1480 
   61.8750   -31.2110    75.7920    24.1190     9.1030     7.5520     7.5170     2.1470 
   62.0000   -31.4390    78.2650    24.1310     9.0880     7.5440     7.5120     2.1510 
   62.1250   -31.6330    79.3300    24.1660     9.1230     7.5430     7.5330     2.1520 
   62.2500   -31.8390    79.1800    24.2080     9.2270     7.5560     7.5820     2.1450 
   62.3750   -32.0220    79.4570    24.2230     9.2640     7.5850     7.6580     2.1340 
   62.5000   -32.1900    81.0530    24.2220     9.1790     7.6300     7.7540     2.1260 
   62.6250   -32.3590    81.7960    24.2220     9.0760     7.6830     7.8800     2.1280 
   62.7500   -32.5280    78.9460    24.2220     9.0370     7.7250     8.0170     2.1350 
   62.8750   -32.7430    75.0460    24.2220     9.0580     7.7410     8.1420     2.1440 
   63.0000   -32.9950    73.3780    24.2220     9.0700     7.7190     8.2310     2.1540 
   63.1250   -33.2470    72.6110    24.2220     8.9930     7.6500     8.2610     2.1630 
   63.2500   -33.4310    71.0950    24.2220     8.8500     7.5510     8.2650     2.1640 
   63.3750   -33.5650    70.2090    24.2220     8.7190     7.4430     8.2640     2.1570 
   63.5000   -33.6780    71.1510    24.2220     8.6090     7.3380     8.2540     2.1490 
   63.6250   -33.8080    72.7170    24.2220     8.5160     7.2410     8.2110     2.1480 
   63.7500   -33.8980    75.5350    24.2220     8.4370     7.1740     8.1560     2.1500 
   63.8750   -33.9970    78.5400    24.2240     8.3830     7.1840     8.1610     2.1580 
   64.0000   -34.0930    77.8330    24.2290     8.3640     7.3080     8.2980     2.1840 
   64.1250   -34.1680    74.2090    24.2480     8.3950     7.5710     8.6190     2.2470 
   64.2500   -34.2450    71.5780    24.2710     8.4840     7.8920     9.0300     2.3260 
   64.3750   -34.3000    71.1790    24.2890     8.6020     8.1560     9.3680     2.3800 
   64.5000   -34.3060    71.3790    24.2970     8.6930     8.2390     9.4640     2.3720 
   64.6250   -34.2560    71.5250    24.2950     8.7230     8.0670     9.2500     2.3010 
   64.7500   -34.2520    72.3970    24.3000     8.7170     7.7640     8.9310     2.2220 
   64.8750   -34.2380    73.5420    24.3120     8.7180     7.4500     8.6590     2.1680 
   65.0000   -34.1970    74.2970    24.3250     8.7270     7.2150     8.5140     2.1420 
   65.1250   -34.1780    75.8640    24.3330     8.7090     7.1170     8.5250     2.1380 
   65.2500   -34.1690    78.4120    24.3320     8.6850     7.1320     8.6430     2.1420 
   65.3750   -34.2190    79.1330    24.3230     8.6700     7.2520     8.8470     2.1550 
   65.5000   -34.3490    77.5170    24.3170     8.6480     7.4740     9.1340     2.1850 
   65.6250   -34.5290    75.9650    24.3140     8.5580     7.7780     9.4870     2.2440 
   65.7500   -34.6660    75.1760    24.3140     8.4230     8.0640     9.8000     2.3210 
   65.8750   -34.7720    74.0380    24.3140     8.3240     8.2240     9.9360     2.3800 
   66.0000   -34.8610    72.1350    24.3140     8.3250     8.1790     9.8120     2.3810 
   66.1250   -34.9300    73.5320    24.3140     8.4220     7.9080     9.4580     2.3130 
   66.2500   -34.9740    77.7960    24.3140     8.4960     7.5500     9.0700     2.2320 
   66.3750   -35.0190    80.8670    24.3140     8.5490     7.2190     8.7680     2.1730 
   66.5000   -35.0630    79.6680    24.3140     8.6050     6.9920     8.6000     2.1460 
   66.6250   -35.1270    76.4520    24.3140     8.6700     6.9150     8.5610     2.1410 
   66.7500   -35.2120    77.9150    24.3140     8.6910     6.9270     8.5610     2.1470 
   66.8750   -35.3250    82.2610    24.3140     8.6770     6.9690     8.5530     2.1580 
   67.0000   -35.4290    83.3090    24.3140     8.6450     6.9950     8.5230     2.1660 
   67.1250   -35.5570    81.0460    24.3140     8.5660     6.9810     8.4890     2.1670 
   67.2500   -35.6910    80.9070    24.3140     8.4290     6.9460     8.4820     2.1650 
   67.3750   -35.8020    82.5600    24.3140     8.2890     6.9090     8.5210     2.1630 
   67.5000   -35.8440    82.2060    24.3140     8.1910     6.8780     8.6000     2.1640 
   67.6250   -35.7890    80.6030    24.3140     8.1390     6.8200     8.6500     2.1630 
   67.7500   -35.7890    81.6620    24.3140     8.1410     6.6800     8.5740     2.1650 
   67.8750   -35.7890    83.7170    24.3140     8.1630     6.4280     8.3260     2.1770 
   68.0000   -35.8620    85.8230    24.3140     8.1180     6.0880     7.9560     2.2040 
   68.1250   -35.9230    92.6880    24.3140     7.7740     5.7520     7.6120     2.2380 
   68.2500   -35.9110   102.8150    24.3140     7.2530     5.5250     7.4370     2.2610 
   68.3750   -35.8710   108.8300    24.3070     6.9590     5.4680     7.4990     2.2620 
   68.5000   -35.8310   105.3420    24.2740     7.1780     5.5960     7.7990     2.2410 
   68.6250   -35.8340    94.3840    24.2000     7.7380     5.8930     8.2810     2.2090 
   68.7500   -35.7890    85.3510    24.1420     8.1650     6.2460     8.7750     2.1810 
   68.8750   -35.6970    82.2230    24.1210     8.3250     6.5630     9.1460     2.1630 
   69.0000   -35.5450    81.7890    24.1190     8.3400     6.7730     9.3200     2.1570 
   69.1250   -35.3570    79.5770    24.1190     8.3810     6.8460     9.3160     2.1590 
   69.2500   -35.2310    77.8440    24.1190     8.4220     6.8440     9.2600     2.1600 
   69.3750   -35.0580    78.3290    24.1190     8.4280     6.8030     9.1920     2.1590 
   69.5000   -34.9160    79.2500    24.1190     8.4170     6.7240     9.0860     2.1620 
   69.6250   -34.7110    80.8480    24.1190     8.4070     6.5630     8.8670     2.1800 
   69.7500   -34.4040    84.7130    24.1190     8.2460     6.3000     8.5160     2.2090 
   69.8750   -34.0750    87.9550    24.1390     7.7370     5.9350     8.0490     2.2430 
   70.0000   -33.7270    89.6720    24.2370     6.9810     5.5020     7.5200     2.2740 
   70.1250   -33.2920    92.0290    24.5590     6.3930     5.0620     6.9980     2.2930 
   70.2500   -32.8180    96.0360    25.0530     6.1050     4.6710     6.5330     2.3020 
   70.3750   -32.4170   101.7410    25.5390     5.8970     4.3590     6.1600     2.3050 
   70.5000   -32.0680   108.4430    25.6640     5.6440     4.1450     5.9070     2.3060 
   70.6250   -31.7950   112.4880    25.4390     5.3770     4.0590     5.8230     2.3090 
   70.7500   -31.6250   111.3960    25.3040     5.2490     4.0860     5.8960     2.3090 
   70.8750   -31.5290   108.1160    25.2430     5.3600     4.2190     6.1240     2.3040 
   71.0000   -31.4520   107.3810    25.0860     5.6880     4.4300     6.4640     2.2910 
   71.1250   -31.3970   109.0510    25.1440     5.8750     4.6450     6.7870     2.2850 
