~V
VERS. 2.00: Ver 2.00
~W
STRT.M 62.0000:
STOP.M 235.0000:
STEP.M 0.1250:
NULL. -999.2500:
UWI. DF32059:
~C
DEPT.M :
SP.MV :
GR.API :
CALI.CM :
RXO.OHMM :
RI. :
RML.OHMM :
DEN.GM/CC :
~A
# ...
   73.2500   -27.4010   100.0770    23.5830     5.3860     4.7210     6.4620     2.2820 
   73.3750   -27.9380    98.2070    23.4380     6.1070     5.1170     7.1660     2.2430 
   73.5000   -28.4810    93.3770    23.3800     7.1150     5.6250     8.0070     2.2050 
   73.6250   -28.9280    86.7120    23.5280     8.0850     6.1400     8.7370     2.1760 
   73.7500   -29.2160    81.0580    23.8590     8.6010     6.5260     9.1500     2.1580 
   73.8750   -29.2940    77.1830    24.0500     8.6630     6.6780     9.1580     2.1570 
   74.0000   -29.1150    77.4470    24.1050     8.3750     6.5670     8.8280     2.1800 
   74.1250   -28.6940    82.0610    24.1420     7.9850     6.2290     8.3280     2.2250 
   74.2500   -28.1330    88.0170    24.2120     7.3790     5.8180     7.8580     2.2610 
   74.3750   -27.5260    92.9390    24.2410     6.6060     5.4360     7.5050     2.2700 
   74.5000   -26.9500    95.4310    24.1000     6.0150     5.1540     7.2930     2.2560 
   74.6250   -26.5050    97.5870    23.8390     5.8470     5.0050     7.1920     2.2420 
   74.7500   -26.2300    99.3080    23.7680     5.7930     4.9190     7.1050     2.2400 
   74.8750   -26.1710    98.8010    23.7630     5.7210     4.8370     6.9780     2.2480 
   75.0000   -26.3700    97.3530    23.7320     5.6240     4.7290     6.8090     2.2580 
   75.1250   -26.8460   100.4330    23.7450     5.5200     4.6150     6.6690     2.2650 
   75.2500   -27.5350   105.0900    23.7140     5.3910     4.5690     6.6600     2.2640 
   75.3750   -28.3670   104.3840    23.6820     5.4680     4.6600     6.8600     2.2480 
   75.5000   -29.2620    98.5010    23.4790     6.0070     4.9210     7.2880     2.2160 
   75.6250   -30.1580    91.5020    23.3850     6.8280     5.3350     7.8920     2.1810 
   75.7500   -30.9880    83.9190    23.5820     7.5560     5.7740     8.5040     2.1600 
   75.8750   -31.6990    77.2720    23.6560     8.0250     6.1300     8.9910     2.1530 
   76.0000   -32.2450    74.8050    23.4960     8.2300     6.3230     9.2580     2.1420 
   76.1250   -32.5420    75.5680    23.0590     8.1880     6.3270     9.2620     2.1180 
   76.2500   -32.6010    76.2740    22.8840     8.0470     6.2470     9.1260     2.0980 
   76.3750   -32.4230    77.6370    22.8190     7.8990     6.1620     8.9490     2.0950 
   76.5000   -32.0680    78.0820    22.8160     7.7160     6.1070     8.7890     2.1030 
   76.6250   -31.5520    76.0160    22.8520     7.4170     6.0670     8.6650     2.1120 
   76.7500   -30.9510    76.4470    22.9940     7.2830     5.9980     8.5510     2.1240 
   76.8750   -30.2640    81.2560    23.0220     7.3630     5.8840     8.4290     2.1440 
   77.0000   -29.5000    84.7880    22.9490     7.3580     5.7450     8.3060     2.1750 
   77.1250   -28.7110    83.5310    22.9090     6.9120     5.6420     8.2210     2.2120 
   77.2500   -27.9620    84.8220    22.9190     6.3840     5.6090     8.2020     2.2410 
   77.3750   -27.2730    89.7950    22.8700     6.1600     5.6370     8.2450     2.2490 
   77.5000   -26.6390    94.1260    22.6860     6.2670     5.6790     8.3100     2.2390 
   77.6250   -26.0270    96.7880    22.5950     6.4010     5.6560     8.3100     2.2330 
   77.7500   -25.4950   100.2280    22.7540     6.3360     5.5430     8.1890     2.2500 
   77.8750   -25.0680   101.9220    23.1660     5.9560     5.3750     7.9640     2.2800 
   78.0000   -24.7900   101.0760    23.6170     5.5150     5.2290     7.7280     2.3060 
   78.1250   -24.6740   102.6210    23.7130     5.4020     5.1970     7.6210     2.3180 
   78.2500   -24.6840   105.3360    23.4900     5.5610     5.2860     7.6930     2.3260 
   78.3750   -24.8160   103.0690    23.2360     5.9590     5.4610     7.9260     2.3380 
   78.5000   -25.0590    96.6140    23.0740     6.5490     5.6600     8.2460     2.3490 
   78.6250   -25.4770    94.0650    23.0210     6.8530     5.8040     8.5280     2.3420 
   78.7500   -25.9830    94.9380    22.9730     6.8840     5.8720     8.6990     2.3180 
   78.8750   -26.5620    95.2060    22.7550     6.9360     5.8850     8.7580     2.2870 
   79.0000   -27.1820    93.4470    22.2910     7.0770     5.8820     8.7440     2.2590 
   79.1250   -27.8210    92.1710    21.9860     7.0790     5.9160     8.7190     2.2370 
   79.2500   -28.4380    92.1760    21.5370     7.0220     6.0000     8.7250     2.2150 
   79.3750   -29.0190    91.2900    21.3430     7.0460     6.1190     8.7660     2.1910 
   79.5000   -29.5420    86.3210    21.2970     7.1770     6.2340     8.8240     2.1700 
   79.6250   -29.9630    77.8190    21.3230     7.3950     6.3080     8.8860     2.1580 
   79.7500   -30.3080    74.2690    21.2970     7.6080     6.3410     8.9480     2.1550 
   79.8750   -30.5790    76.5670    21.2450     7.7300     6.3590     9.0110     2.1530 
   80.0000   -30.7620    79.3390    21.2170     7.6730     6.3960     9.0870     2.1490 
   80.1250   -30.8610    78.0620    21.3560     7.4210     6.4850     9.2050     2.1480 
   80.2500   -30.8720    76.2810    21.7120     7.2240     6.5880     9.3420     2.1480 
   80.3750   -30.7870    76.0780    22.0330     7.2790     6.6280     9.4250     2.1480 
   80.5000   -30.6280    76.3280    22.2090     7.5740     6.5190     9.3350     2.1490 
   80.6250   -30.4180    77.2220    22.3870     7.7250     6.1840     8.9120     2.1640 
   80.7500   -30.1860    80.6360    22.6300     7.4380     5.7160     8.2380     2.2020 
   80.8750   -29.9910    86.9200    22.7900     6.7500     5.2560     7.5220     2.2510 
   81.0000   -29.8780    93.4810    22.7840     5.9980     4.9580     7.0270     2.2910 
   81.1250   -29.9300    96.5470    22.7880     5.5590     4.9830     7.0310     2.2990 
   81.2500   -30.1280    94.9840    22.7480     5.7330     5.3120     7.5240     2.2880 
   81.3750   -30.4910    88.9620    22.7000     6.6600     5.8900     8.4250     2.2760 
   81.5000   -30.9880    80.4060    22.7320     8.0100     6.5980     9.5150     2.2690 
   81.6250   -31.5980    72.4520    22.7580     9.1100     7.2970    10.4920     2.2580 
   81.7500   -32.2450    67.0390    22.8800     9.6310     7.9600    11.3010     2.2440 
   81.8750   -32.8500    64.7950    23.0670     9.8660     8.6660    12.1070     2.2440 
   82.0000   -33.4040    66.0810    23.5440    10.0390     9.4830    13.0910     2.2810 
   82.1250   -33.8170    69.3780    23.9450    10.6250    10.3570    14.2580     2.3550 
   82.2500   -34.1360    70.3060    24.0660    12.0230    11.0300    15.2030     2.4070 
   82.3750   -34.3540    68.0490    23.9540    13.1560    11.2140    15.4170     2.3930 
   82.5000   -34.5080    65.9070    23.8430    12.7640    10.7930    14.6790     2.3170 
   82.6250   -34.6220    66.3880    23.4450    11.0750     9.9430    13.3030     2.2310 
   82.7500   -34.7460    67.7890    23.1530    10.2540     9.0930    12.0010     2.1800 
   82.8750   -34.9060    68.7000    22.9160    10.0310     8.4450    11.0750     2.1620 
   83.0000   -35.0630    68.8030    22.7700     9.9500     8.0440    10.5760     2.1530 
   83.1250   -35.2180    68.3400    22.7060     9.8120     7.8450    10.4230     2.1410 
   83.2500   -35.3460    67.6030    22.7050     9.6540     7.7180    10.3890     2.1310 
   83.3750   -35.4430    69.0770    22.7390     9.5040     7.6200    10.3740     2.1310 
   83.5000   -35.5020    71.5030    22.8220     9.3960     7.5570    10.3530     2.1350 
   83.6250   -35.5260    71.6700    22.9050     9.3980     7.5350    10.3340     2.1340 
   83.7500   -35.4930    70.0790    22.9390     9.3900     7.5210    10.3140     2.1290 
   83.8750   -35.4090    68.8560    22.9520     9.2550     7.4880    10.2880     2.1270 
   84.0000   -35.2950    68.7820    22.9650     8.9970     7.4310    10.2580     2.1320 
   84.1250   -35.1570    68.9980    22.9440     8.8270     7.3820    10.2360     2.1410 
   84.2500   -35.0200    69.4290    22.8670     8.8450     7.3720    10.2310     2.1430 
   84.3750   -34.8780    70.2950    22.7510     8.9530     7.4020    10.2390     2.1370 
