~V
VERS. 2.00: Ver 2.00
~W
STRT.M 61.0000:
STOP.M 325.0000:
STEP.M 0.1250:
NULL. -999.2500:
UWI. DF320:
~C
DEPT.M :
GR.API :
RML.OHMM :
RI. :
RXO.OHMM :
CALI.CM :
SP.MV :
DEN.GM/CC :
AC.US/MT :
~A
# ...
  311.0000    76.2430     9.4040     8.1950     6.8040    24.0720   -15.2650     2.2380   351.9240 
  311.1250    76.5520     9.4270     8.0090     7.2630    24.0690   -14.9520     2.2290   359.6620 
  311.2500    78.2480     9.3840     7.8860     7.6290    24.0490   -14.5970     2.2330   361.9950 
  311.3750    80.4480     9.1270     7.6850     7.5790    24.0480   -14.2090     2.2460   362.0770 
  311.5000    82.0010     8.6300     7.3330     6.9760    24.0760   -13.8120     2.2650   365.9860 
  311.6250    82.3400     7.9900     6.8470     6.0990    24.1350   -13.4490     2.2840   379.0760 
  311.7500    82.6140     7.3830     6.3640     5.4950    24.2110   -13.1530     2.3020   396.6340 
  311.8750    82.9940     6.9070     5.9830     5.2860    24.2560   -12.9260     2.3170   410.7710 
  312.0000    82.3040     6.5790     5.7480     5.3750    24.2380   -12.7870     2.3270   414.4290 
  312.1250    81.3290     6.4210     5.6730     5.7370    24.2040   -12.7490     2.3330   406.2230 
  312.2500    81.1080     6.4270     5.7060     6.2310    24.1340   -12.8020     2.3420   395.8030 
  312.3750    81.2210     6.6260     5.8370     6.7740    24.0430   -12.9290     2.3540   389.8320 
  312.5000    81.6330     6.9910     6.0750     7.2840    23.9750   -13.0980     2.3660   388.7020 
  312.6250    82.4960     7.3850     6.4390     7.3290    23.9520   -13.2690     2.3700   385.6560 
  312.7500    82.8620     7.8450     6.8680     7.1710    23.9480   -13.4120     2.3610   375.5570 
  312.8750    81.4690     8.2790     7.2870     7.2840    23.9430   -13.5190     2.3410   359.8370 
  313.0000    79.5430     8.6120     7.6190     7.8220    23.9300   -13.5620     2.3170   345.0430 
  313.1250    80.0810     8.7680     7.7820     8.2900    23.8980   -13.5640     2.2970   339.3990 
  313.2500    80.8660     8.7490     7.7700     8.1980    23.8470   -13.5280     2.2880   341.8950 
  313.3750    80.2710     8.5630     7.5930     8.2720    23.7930   -13.4750     2.2920   347.2340 
  313.5000    79.1650     8.2610     7.2940     8.8860    23.7640   -13.4030     2.3050   350.6180 
  313.6250    80.0250     7.9660     6.9760     9.2250    23.7530   -13.3030     2.3240   351.6030 
  313.7500    82.3820     7.8280     6.7740     8.5130    23.7440   -13.1930     2.3420   353.0510 
  313.8750    84.6020     7.9290     6.7740     8.1890    23.7280   -13.0690     2.3550   354.6400 
  314.0000    84.9760     8.2730     7.0030     8.8440    23.7050   -12.9210     2.3650   353.8440 
  314.1250    84.9760     8.7970     7.4480     9.7220    23.7170   -12.7410     2.3760   349.2960 
  314.2500    84.9760     9.3440     7.9790    10.1050    23.7770   -12.5790     2.3880   343.2720 
  314.3750    84.9760     9.7950     8.4820    10.2440    23.8420   -12.4080     2.4020   336.4440 
  314.5000    84.9760    10.0590     8.8510    10.3020    23.8700   -12.2440     2.4150   328.5380 
  314.6250    84.9760    10.0890     8.9940    10.3120    23.8620   -12.1400     2.4240   321.4160 
  314.7500    84.9760    10.0050     8.9820     9.8690    23.8420   -12.0510     2.4270   318.1420 
  314.8750    84.9760     9.9210     8.9050     9.1920    23.8290   -11.9900     2.4240   318.3460 
  315.0000    84.9760     9.9140     8.8450     8.9720    23.8480   -11.9810     2.4120   318.3050 
  315.1250    84.9760     9.9910     8.8440     9.0610    23.8840   -12.0540     2.3910   314.4760 
  315.2500    84.9760    10.0700     8.8640     9.2190    23.9130   -12.1400     2.3650   308.3730 
  315.3750    84.9760    10.0730     8.8470     9.0650    23.9290   -12.2440     2.3440   301.9580 
  315.5000    84.9760     9.9580     8.7460     8.7650    23.9250   -12.3780     2.3370   296.2030 
  315.6250    84.9760     9.7120     8.5320     7.9050    23.9000   -12.5090     2.3490   292.8140 
  315.7500    84.9760     9.4010     8.2530     7.9850    23.8630   -12.6460     2.3670   294.2590 
  315.8750    84.9760     9.0770     7.9560     8.5090    23.8350   -12.7700     2.3760   302.0070 
  316.0000    84.9760     8.7890     7.6950     8.7820    23.8260   -12.9090     2.3650   314.3510 
  316.1250    84.9760     8.6160     7.5480     8.7140    23.8250   -13.0610     2.3320   326.3860 
  316.2500    84.9760     8.6060     7.5600     8.0300    23.8200   -13.2380     2.2950   334.6750 
  316.3750    84.9760     8.8160     7.7830     7.5170    23.8050   -13.4700     2.2700   338.2050 
  316.5000    84.9760     9.2810     8.2510     7.9680    23.7700   -13.7390     2.2630   336.1120 
  316.6250    84.9760    10.0590     9.0150     9.4140    23.7000   -14.0290     2.2710   327.5830 
  316.7500    84.9760    11.0790    10.0000    11.4440    23.5920   -14.3190     2.2820   316.2870 
  316.8750    84.9760    12.2880    11.1460    13.1880    23.4690   -14.6040     2.2870   306.7970 
  317.0000    84.9760    13.6020    12.3620    14.1190    23.3670   -14.8380     2.2850   302.6700 
  317.1250    84.9760    14.8770    13.5040    13.8810    23.2960   -14.9950     2.2770   306.0570 
  317.2500    84.9760    15.9640    14.4570    13.0640    23.2230   -15.0760     2.2700   314.2610 
  317.3750    84.9760    16.7670    15.1480    11.9070    23.1430   -15.0510     2.2670   325.7250 
  317.5000    84.9760    17.2580    15.5680    10.1740    23.0500   -14.8860     2.2700   340.0460 
  317.6250    84.9760    17.4600    15.7430     8.0140    23.0070   -14.5640     2.2820   357.6460 
  317.7500    84.9760    17.5250    15.8010     6.2650    22.9930   -14.1510     2.3010   376.1670 
  317.8750    84.9760    17.5360    15.8120     5.3870    22.9930   -13.6870     2.3200   392.5700 
  318.0000    84.9760    17.5350    15.8120     5.0250    22.9920   -13.2200     2.3360   404.8380 
  318.1250    84.9760    17.5310    15.8110     4.8460    22.9900   -12.7760     2.3460   412.9320 
  318.2500    84.9760    17.5260    15.8120     4.7310    22.9880   -12.3780     2.3540   419.7090 
  318.3750    84.9760    17.5210    15.8130     4.6580    22.9850   -12.0530     2.3640   426.2480 
  318.5000    84.9760    17.5170    15.8150     4.6330    22.9850   -11.8410     2.3750   432.2340 
  318.6250    84.9760    17.5150    15.8170     4.8570    22.9840   -11.7310     2.3760   435.8410 
  318.7500    84.9760    17.5140    15.8170     5.3950    22.9820   -11.7070     2.3630   434.7740 
  318.8750    84.9760    17.5120    15.8170     6.1910    22.9770   -11.7460     2.3390   427.2310 
  319.0000    84.9760    17.5100    15.8150     7.0740    22.9660   -11.7800     2.3140   415.0040 
  319.1250    84.9760    17.5090    15.8130     7.5640    22.9480   -11.8100     2.3040   405.3780 
  319.2500    84.9760    17.5100    15.8120     7.1980    22.9270   -11.8350     2.3140   403.2250 
  319.3750    84.9760    17.5130    15.8120     6.1240    22.9190   -11.8550     2.3430   406.6970 
  319.5000    84.9760    17.5190    15.8130     5.3880    22.9180   -11.8840     2.3800   410.0400 
  319.6250    84.9760    17.5230    15.8140     5.3280    22.9180   -11.9200     2.4120   407.9210 
  319.7500    84.9760    17.5250    15.8160     5.4640    22.9170   -11.9380     2.4300   401.8160 
  319.8750    84.9760    17.5250    15.8160     5.5490    22.9160   -11.9380     2.4310   394.8100 
  320.0000    84.9760    17.5250    15.8170     5.5070    22.9100   -11.9380     2.4210   389.4180 
  320.1250    84.9760    17.5250    15.8170     5.3410    22.8960   -11.9660     2.4080   387.5580 
  320.2500    84.9760    17.5250    15.8170     5.1640    22.8650   -12.0030     2.4010   389.2190 
  320.3750    84.9760    17.5250    15.8170     5.0950    22.8180   -12.0160     2.4010   393.3010 
  320.5000    84.9760    17.5250    15.8170     5.2790    22.7790   -12.0180     2.4030   396.4860 
  320.6250    84.9760    17.5250    15.8170     6.0690    22.7510   -12.0130     2.4010   392.6650 
  320.7500    84.9760    17.5250    15.8170     7.3590    22.7340   -12.0180     2.3880   380.5570 
  320.8750    84.9760    17.5250    15.8170     8.8930    22.7270   -12.0590     2.3660   363.2130 
