~V
VERS. 2.00: Ver 2.00
~W
STRT.M 60.0000:
STOP.M 271.0000:
STEP.M 0.1250:
NULL. -999.2500:
UWI. DF324:
~C
DEPT.M :
SP.MV :
AC.US/MT :
DEN.GM/CC :
GR.API :
CALI.CM :
RXO.OHMM :
RI. :
RML.OHMM :
~A
# ...
  250.0000   -16.6250   242.0270     2.4950    65.4380    23.7910    83.7930    26.8400    28.6360 
  250.1250   -16.2840   262.6700     2.4350    69.0740    23.8080    46.0600    20.0230    21.4640 
  250.2500   -15.9420   286.8060     2.3840    73.2770    23.7310    24.2960    15.6410    16.8540 
  250.3750   -15.6140   304.7020     2.3600    76.0800    23.6260    14.7510    13.0340    14.1120 
  250.5000   -15.3130   312.2790     2.3650    77.4820    23.5720    11.8260    11.6320    12.6370 
  250.6250   -15.0510   312.4870     2.3760    78.6940    23.5700    11.3360    11.0790    12.0550 
  250.7500   -14.8290   311.4770     2.3760    79.4660    23.5690    11.1450    10.9250    11.8930 
  250.8750   -14.6520   310.3740     2.3740    78.4570    23.5660    10.8210    10.9600    11.9300 
  251.0000   -14.5160   309.2810     2.3850    75.4640    23.5610    10.5190    11.0300    12.0040 
  251.1250   -14.4100   310.1510     2.4030    72.8680    23.5560    10.4380    11.0270    12.0000 
  251.2500   -14.3140   313.9700     2.4030    71.9910    23.5530    10.3690    10.9490    11.9190 
  251.3750   -14.2230   319.0720     2.3760    71.1290    23.5430    10.1520    10.8240    11.7870 
  251.5000   -14.1350   322.5890     2.3430    68.7570    23.5230     9.9540    10.6720    11.6270 
  251.6250   -14.0530   323.3780     2.3370    66.5030    23.5370    10.0060    10.5010    11.4470 
  251.7500   -13.9840   323.7460     2.3510    66.7140    23.5550    10.0110    10.3260    11.2630 
  251.8750   -13.9300   324.5070     2.3600    68.8820    23.5520     9.6280    10.1570    11.0860 
  252.0000   -13.8960   324.4250     2.3520    70.6730    23.5370     9.0640    10.0040    10.9240 
  252.1250   -13.8900   322.2240     2.3410    69.9230    23.5360     9.0090     9.8720    10.7850 
  252.2500   -13.9120   319.8540     2.3440    68.1550    23.5470     9.2450     9.7610    10.6690 
  252.3750   -13.9600   319.0480     2.3660    67.3630    23.5570     9.4500     9.6780    10.5810 
  252.5000   -14.0280   319.3030     2.3950    68.0180    23.5400     9.4590     9.6240    10.5250 
  252.6250   -14.1090   318.1590     2.4220    69.0430    23.4810     9.4810     9.6040    10.5030 
  252.7500   -14.1960   315.2310     2.4370    70.1660    23.3940     9.7470     9.6000    10.4990 
  252.8750   -14.2850   312.1910     2.4380    71.5610    23.3490    10.0980     9.6030    10.5020 
  253.0000   -14.3740   310.7150     2.4270    72.2870    23.3970    10.2000     9.6090    10.5080 
  253.1250   -14.4570   310.8800     2.4180    71.4110    23.4920     9.9760     9.6140    10.5140 
  253.2500   -14.5280   311.0450     2.4180    70.6050    23.5410     9.7370     9.6080    10.5080 
  253.3750   -14.5840   310.8040     2.4200    71.3650    23.5400     9.7350     9.5860    10.4840 
  253.5000   -14.6280   311.0740     2.4180    73.5280    23.5240     9.9450     9.5460    10.4420 
  253.6250   -14.6580   313.3050     2.4060    75.0770    23.5820    10.0170     9.4940    10.3870 
  253.7500   -14.6760   316.5890     2.3870    74.2700    23.6940     9.8100     9.4390    10.3300 
  253.8750   -14.6810   318.6130     2.3660    71.6770    23.7830     9.6130     9.3880    10.2760 
  254.0000   -14.6730   317.2170     2.3540    69.6870    23.8140     9.8070     9.3540    10.2410 
  254.1250   -14.6540   312.5710     2.3570    70.4250    23.8290    10.3000     9.3650    10.2520 
  254.2500   -14.6260   309.0660     2.3630    72.3950    23.8610    10.6350     9.4380    10.3290 
  254.3750   -14.5840   309.7760     2.3630    73.4170    23.8910    10.4810     9.5940    10.4930 
  254.5000   -14.5310   314.1370     2.3620    72.3480    23.9060     9.9610     9.8540    10.7670 
  254.6250   -14.4700   316.9400     2.3780    70.2750    23.9040     9.9920    10.2420    11.1750 
  254.7500   -14.4090   313.3610     2.4170    69.6360    23.8900    11.2230    10.7150    11.6720 
  254.8750   -14.3520   302.2890     2.4630    70.6610    23.8480    14.0390    11.2240    12.2080 
  255.0000   -14.3040   285.9910     2.4970    71.4860    23.8020    18.2280    11.7090    12.7180 
  255.1250   -14.2760   269.7900     2.5060    70.8530    23.7960    22.4610    12.0670    13.0950 
  255.2500   -14.2670   259.5860     2.4960    70.4790    23.8460    24.6950    12.2560    13.2940 
  255.3750   -14.2770   258.7280     2.4680    70.8510    23.8850    23.9310    12.2650    13.3030 
  255.5000   -14.3020   267.1970     2.4230    70.5020    23.9030    21.0020    12.1210    13.1510 
  255.6250   -14.3360   282.0190     2.3820    69.2690    23.8950    17.6090    11.8840    12.9020 
  255.7500   -14.3690   297.2330     2.3730    69.5410    23.8660    14.6330    11.6540    12.6600 
  255.8750   -14.3950   309.3430     2.3990    71.6040    23.7970    12.4140    11.4810    12.4780 
  256.0000   -14.4060   316.2110     2.4370    73.6470    23.6830    11.0960    11.3840    12.3760 
  256.1250   -14.3840   316.3400     2.4600    74.3900    23.6050    10.4190    11.3690    12.3600 
  256.2500   -14.3330   311.7850     2.4760    74.8950    23.5650    10.0280    11.4000    12.3930 
  256.3750   -14.2590   304.0720     2.5010    75.5710    23.5500    10.0770    11.4430    12.4380 
  256.5000   -14.1670   294.7220     2.5360    75.7100    23.5480    11.1600    11.4600    12.4560 
  256.6250   -14.0590   286.1540     2.5550    74.8320    23.5610    13.6280    11.4130    12.4070 
  256.7500   -13.9340   281.1400     2.5510    73.4670    23.6230    15.7920    11.3010    12.2880 
  256.8750   -13.7900   281.1920     2.5310    72.0230    23.7190    15.2750    11.1400    12.1190 
  257.0000   -13.6340   285.7790     2.4990    70.7970    23.7690    12.1910    10.9680    11.9380 
  257.1250   -13.4740   293.3160     2.4430    70.3820    23.8080     9.9100    10.8400    11.8040 
  257.2500   -13.3170   301.9940     2.3750    71.2650    23.8150     8.8650    10.7880    11.7490 
  257.3750   -13.1630   310.7240     2.3210    73.2840    23.7880     8.6590    10.8290    11.7920 
  257.5000   -13.0080   316.7330     2.3070    75.5620    23.7070     8.6670    10.9590    11.9290 
  257.6250   -12.8520   314.5980     2.3370    77.3180    23.6570     8.7940    11.1470    12.1270 
  257.7500   -12.7030   305.5570     2.3770    78.2990    23.6340     8.9160    11.3150    12.3040 
  257.8750   -12.5690   296.2060     2.4090    78.2550    23.5510     8.6860    11.4090    12.4020 
  258.0000   -12.4510   294.5410     2.4270    77.4980    23.4290     7.9950    11.3990    12.3920 
  258.1250   -12.3500   303.2410     2.4360    76.8170    23.4090     7.5030    11.2840    12.2710 
  258.2500   -12.2610   313.1720     2.4400    76.2590    23.4800     7.7790    11.1280    12.1070 
  258.3750   -12.1870   318.1900     2.4390    75.4720    23.5820     8.6200    10.9780    11.9490 
  258.5000   -12.1320   318.4300     2.4340    74.9020    23.6630     9.5870    10.8720    11.8380 
  258.6250   -12.0990   317.3290     2.4320    75.6780    23.6340    10.2800    10.8510    11.8150 
  258.7500   -12.0790   315.2870     2.4320    76.8210    23.6110    11.1890    10.9030    11.8690 
  258.8750   -12.0620   310.3570     2.4320    76.9220    23.5920    13.3370    10.9940    11.9660 
  259.0000   -12.0450   303.1400     2.4260    76.4450    23.5930    17.0060    11.0940    12.0710 
  259.1250   -12.0320   297.8810     2.4170    77.3060    23.5770    18.8680    11.1870    12.1680 
  259.2500   -12.0150   296.7570     2.4150    79.1070    23.5640    17.3950    11.2710    12.2580 
  259.3750   -11.9880   298.5420     2.4220    80.1710    23.5370    14.4760    11.3540    12.3450 
  259.5000   -11.9510   300.9180     2.4310    79.7100    23.4730    12.4480    11.4430    12.4380 
  259.6250   -11.9130   302.7290     2.4330    78.0520    23.3760    11.4990    11.5390    12.5390 
  259.7500   -11.8780   304.3640     2.4320    76.2020    23.3430    10.7630    11.6420    12.6470 
  259.8750   -11.8350   305.4260     2.4350    75.0200    23.4260    10.4520    11.7490    12.7600 
