~V
VERS. 2.00: Ver 2.00
~W
STRT.M 63.0000:
STOP.M 291.0000:
STEP.M 0.1250:
NULL. -999.2500:
UWI. DF325:
~C
DEPT.M :
DEN.GM/CC :
SP.MV :
AC.US/MT :
GR.API :
RML.OHMM :
RI. :
RXO.OHMM :
CALI.CM :
~A
# ...
   73.0000     2.4060   -19.8690   353.4400    78.7690     8.3270     7.4230     8.5790    24.6150 
   73.1250     2.3500   -20.7060   350.5720    67.2640     8.7500     7.9690     9.8420    24.6900 
   73.2500     2.2790   -21.6580   347.7070    62.8940     9.0730     8.4220    10.6560    24.6870 
   73.3750     2.2160   -22.6560   343.6430    64.4020     9.4170     8.8230    11.0770    24.6310 
   73.5000     2.1730   -23.5740   337.8340    65.7990     9.8930     9.2580    11.3890    24.6460 
   73.6250     2.1480   -24.3830   336.9600    62.0450    10.5390     9.7970    12.4270    24.8780 
   73.7500     2.1310   -25.0820   349.2210    58.6130    11.2150    10.3890    14.5900    25.2390 
   73.8750     2.1180   -25.6070   374.2570    58.5640    11.7540    10.9220    17.1950    25.4520 
   74.0000     2.1110   -25.9670   403.1240    58.8030    12.0120    11.2630    19.6330    25.4750 
   74.1250     2.1150   -26.2200   420.2790    58.0680    11.8980    11.2790    19.5330    25.3820 
   74.2500     2.1280   -26.3420   421.5120    59.9320    11.5770    11.0480    15.5390    25.1760 
   74.3750     2.1420   -26.3910   413.4590    64.6700    11.1940    10.6790    11.5590    24.9560 
   74.5000     2.1480   -26.4120   406.1680    67.5160    10.8600    10.2890    10.1940    24.8910 
   74.6250     2.1410   -26.3210   406.9010    66.5800    10.6260     9.9770    10.2000    25.0730 
   74.7500     2.1280   -26.1990   412.3680    66.0200    10.4610     9.7600    10.4410    25.1370 
   74.8750     2.1170   -26.0770   418.8830    67.6190    10.3480     9.6320    10.7220    25.0670 
   75.0000     2.1160   -25.9240   422.7650    70.6070    10.2820     9.5710    10.8750    25.0410 
   75.1250     2.1280   -25.7500   421.1320    71.5350    10.2800     9.5680    10.8220    25.0610 
   75.2500     2.1450   -25.6250   414.7340    70.1310    10.3280     9.5990    10.6410    25.2100 
   75.3750     2.1610   -25.5180   406.2880    70.5380    10.4050     9.6520    10.3580    25.4120 
   75.5000     2.1690   -25.4480   400.8880    74.0670    10.4760     9.7080    10.0520    25.4910 
   75.6250     2.1670   -25.4420   400.9320    74.4560    10.4990     9.7360     9.8370    25.3000 
   75.7500     2.1580   -25.4540   402.9140    68.0790    10.4690     9.7240     9.7150    24.9160 
   75.8750     2.1480   -25.5210   407.2700    61.1420    10.3980     9.6760     9.6430    24.4910 
   76.0000     2.1410   -25.6620   414.3230    59.6510    10.3150     9.6100     9.6120    24.2960 
   76.1250     2.1410   -25.8160   421.2080    61.9420    10.2590     9.5540     9.6120    24.3980 
   76.2500     2.1470   -25.9580   425.6880    63.9930    10.2550     9.5280     9.6860    24.6600 
   76.3750     2.1570   -26.1180   427.5960    65.7670    10.3060     9.5330     9.8460    24.7770 
   76.5000     2.1680   -26.2350   427.4020    66.4700    10.3920     9.5540    10.0470    24.7680 
   76.6250     2.1730   -26.3530   429.1880    64.2420    10.4730     9.5640    10.2560    24.6480 
   76.7500     2.1730   -26.4640   435.9850    62.8970    10.5100     9.5440    10.4290    24.5990 
   76.8750     2.1700   -26.5070   441.2900    65.2100    10.4890     9.4850    10.5610    24.6380 
   77.0000     2.1680   -26.4980   436.8540    67.1290    10.4120     9.3920    10.6750    24.6680 
   77.1250     2.1740   -26.4490   425.2270    65.7410    10.3000     9.2790    10.7620    24.5430 
   77.2500     2.1850   -26.3360   417.8030    66.9140    10.1850     9.1680    10.8150    24.2590 
   77.3750     2.1960   -26.2000   417.7570    71.7170    10.0830     9.0730    10.7640    23.9360 
   77.5000     2.2010   -26.0950   423.9860    74.3490    10.0030     9.0000    10.6400    23.7390 
   77.6250     2.1990   -25.9740   434.8490    71.3950     9.9560     8.9560    10.4670    23.7750 
   77.7500     2.1940   -25.8660   445.3180    68.1160     9.9460     8.9390    10.3690    23.9500 
   77.8750     2.1890   -25.7620   449.7550    66.0860     9.9780     8.9510    10.2750    24.2080 
   78.0000     2.1880   -25.6550   444.0280    64.5020    10.0490     8.9910    10.1870    24.4800 
   78.1250     2.1900   -25.5780   429.3750    64.6640    10.1380     9.0490    10.1340    24.6770 
   78.2500     2.1920   -25.5270   414.8890    64.6970    10.2080     9.1000    10.0780    24.7450 
   78.3750     2.1890   -25.4820   405.8700    62.7310    10.2360     9.1280    10.1300    24.7160 
   78.5000     2.1830   -25.4540   402.1820    60.6780    10.2210     9.1260    10.2580    24.6410 
   78.6250     2.1740   -25.4450   400.5830    62.0070    10.1820     9.1030    10.3370    24.5630 
   78.7500     2.1700   -25.3990   400.1930    65.1890    10.1640     9.0840    10.2520    24.6350 
   78.8750     2.1730   -25.3670   400.8610    66.6590    10.1910     9.0910    10.1510    24.9880 
   79.0000     2.1820   -25.3140   406.0880    66.7550    10.2690     9.1350    10.1050    25.4620 
   79.1250     2.1910   -25.2600   425.2230    66.8430    10.3790     9.2150    10.0820    25.7130 
   79.2500     2.1930   -25.2430   453.0990    69.0870    10.4810     9.3020    10.1030    25.7910 
   79.3750     2.1850   -25.2130   475.5880    72.9060    10.5510     9.3700    10.1640    25.8030 
   79.5000     2.1700   -25.1490   480.5260    73.9940    10.5840     9.4030    10.2520    25.7850 
   79.6250     2.1580   -25.0890   467.7000    70.6000    10.5910     9.3940    10.2220    25.6790 
   79.7500     2.1540   -25.0210   449.7220    67.3200    10.5900     9.3620    10.0220    25.4550 
   79.8750     2.1600   -24.9250   433.3790    68.3950    10.5880     9.3270     9.7960    25.1390 
   80.0000     2.1680   -24.8380   415.2360    71.9870    10.5890     9.3020     9.6420    24.9000 
   80.1250     2.1650   -24.7380   390.2000    72.7320    10.6180     9.3100     9.6390    24.8590 
   80.2500     2.1500   -24.6270   367.5810    71.6430    10.7100     9.3700     9.7820    24.9630 
   80.3750     2.1380   -24.4880   357.4770    70.1790    10.8840     9.4980     9.9480    25.1640 
   80.5000     2.1460   -24.3370   349.4300    67.0850    11.1210     9.6910    10.0460    25.3540 
   80.6250     2.1850   -24.1590   338.7910    62.4010    11.3690     9.9150     9.9900    25.3190 
   80.7500     2.2360   -23.9590   327.8610    60.1840    11.5710    10.1190     9.7910    25.1090 
   80.8750     2.2700   -23.7220   319.4580    60.8310    11.6990    10.2730     9.5250    24.9070 
   81.0000     2.2730   -23.4770   324.0300    62.0060    11.7390    10.3550     9.2830    24.7120 
   81.1250     2.2480   -23.1930   340.6330    64.4820    11.6600    10.3400     9.1790    24.5080 
   81.2500     2.2200   -22.8910   356.9040    68.5790    11.4710    10.2350     9.2400    24.4120 
   81.3750     2.2040   -22.6160   372.5530    71.4180    11.1910    10.0500     9.4100    24.4920 
   81.5000     2.2000   -22.3170   392.9490    71.5840    10.8850     9.8220     9.5860    24.5730 
   81.6250     2.2040   -22.0270   412.8590    70.4760    10.6770     9.6250     9.6250    24.5250 
   81.7500     2.2090   -21.7890   422.7990    68.8470    10.6290     9.5120     9.6770    24.3670 
   81.8750     2.2120   -21.5870   426.6390    67.3830    10.7290     9.4890     9.7270    24.2330 
   82.0000     2.2110   -21.3650   432.6600    67.1570    10.8850     9.5140     9.7480    24.2310 
   82.1250     2.2070   -21.1770   440.6860    68.4280    10.9020     9.4810     9.8360    24.2690 
   82.2500     2.2030   -20.9770   445.6450    69.7970    10.6390     9.2940     9.9440    24.2640 
   82.3750     2.2040   -20.7540   448.0630    70.5580    10.0920     8.9220    10.0410    24.1890 
   82.5000     2.2170   -20.5470   448.7840    70.8210     9.4630     8.4650     9.9980    24.1330 
   82.6250     2.2520   -20.2870   442.4950    74.7200     9.2340     8.2280     9.7030    24.1580 
   82.7500     2.3060   -20.0430   424.7740    81.0700     9.7010     8.4780     9.8790    24.3280 
   82.8750     2.3680   -19.8540   393.6800    84.2850    10.8800     9.3290    11.2550    24.6640 
