~V
VERS. 2.00: Ver 2.00
~W
STRT.M 60.0000:
STOP.M 276.0000:
STEP.M 0.1250:
NULL. -999.2500:
UWI. DF32145:
~C
DEPT.M :
SP.MV :
GR.API :
CALI.CM :
RXO.OHMM :
RI. :
RML.OHMM :
DEN.GM/CC :
~A
# ...
  262.5000   -10.9010    63.4170    23.4880     5.8000     4.3980     6.4970     2.4270 
  262.6250   -10.8930    63.9700    23.4900     5.8020     4.4420     6.4690     2.4300 
  262.7500   -10.8670    64.3780    23.4890     5.7590     4.5310     6.4440     2.4320 
  262.8750   -10.8780    63.5160    23.4870     5.6890     4.6000     6.4490     2.4280 
  263.0000   -10.8760    63.5630    23.4850     5.6180     4.6150     6.5040     2.4200 
  263.1250   -10.8340    64.9150    23.4840     5.5640     4.5970     6.6080     2.4120 
  263.2500   -10.7970    64.6860    23.4840     5.6510     4.6100     6.7230     2.4100 
  263.3750   -10.7510    63.0910    23.4840     5.9700     4.6810     6.8120     2.4130 
  263.5000   -10.6750    62.1200    23.4840     6.4410     4.7860     6.8540     2.4160 
  263.6250   -10.6120    62.8420    23.4840     6.9930     4.8560     6.8540     2.4180 
  263.7500   -10.5530    62.8870    23.4840     7.5380     4.8640     6.8620     2.4190 
  263.8750   -10.5300    62.1820    23.4840     8.0320     4.8470     6.9270     2.4220 
  264.0000   -10.5290    63.1290    23.4840     8.3050     4.8800     7.0880     2.4270 
  264.1250   -10.5610    66.3490    23.4840     8.2980     5.0500     7.3800     2.4360 
  264.2500   -10.6110    66.3300    23.4840     8.2780     5.3180     7.7410     2.4430 
  264.3750   -10.6890    61.4010    23.4840     8.4150     5.5850     8.0740     2.4430 
  264.5000   -10.7910    56.7940    23.4840     8.5020     5.7400     8.2730     2.4330 
  264.6250   -10.8750    58.8270    23.4840     7.9900     5.7050     8.2320     2.4160 
  264.7500   -10.9560    61.2630    23.4830     7.1130     5.5610     8.0110     2.4030 
  264.8750   -11.0000    61.2630    23.4800     6.3140     5.3820     7.6990     2.4010 
  265.0000   -11.0230    61.2630    23.4810     5.9070     5.2070     7.3900     2.4100 
  265.1250   -11.0040    61.2630    23.4790     5.8280     5.0280     7.1580     2.4200 
  265.2500   -10.9620    61.2630    23.4750     5.8630     4.8350     6.9960     2.4240 
  265.3750   -10.8920    61.2630    23.4730     5.9630     4.6580     6.8840     2.4240 
  265.5000   -10.8210    61.2630    23.4730     6.1330     4.5450     6.7920     2.4230 
  265.6250   -10.7510    61.2630    23.4730     6.4850     4.5300     6.6890     2.4210 
  265.7500   -10.7020    61.2630    23.4700     7.0520     4.5540     6.5730     2.4180 
  265.8750   -10.6630    61.2630    23.4580     7.3970     4.5560     6.4640     2.4200 
  266.0000   -10.6260    61.2630    23.4270     6.9540     4.4990     6.3860     2.4300 
  266.1250   -10.5930    61.2630    23.4020     6.1600     4.3940     6.3650     2.4430 
  266.2500   -10.5800    61.2630    23.3860     5.5110     4.3120     6.3940     2.4470 
  266.3750   -10.5680    61.2630    23.3810     5.2770     4.3020     6.4520     2.4380 
  266.5000   -10.5590    61.2630    23.3810     5.2880     4.3620     6.5040     2.4200 
  266.6250   -10.5360    61.2630    23.3820     5.4080     4.4220     6.5080     2.4010 
  266.7500   -10.5290    61.2630    23.3810     5.5010     4.4080     6.4560     2.3870 
  266.8750   -10.5530    61.2630    23.3570     5.5190     4.3120     6.3620     2.3780 
  267.0000   -10.5710    61.2630    23.2800     5.4960     4.1890     6.2550     2.3740 
  267.1250   -10.6600    61.2630    23.1820     5.4740     4.1290     6.1660     2.3760 
  267.2500   -10.7700    61.2630    23.1170     5.4180     4.1550     6.1040     2.3790 
  267.3750   -10.9110    61.2630    23.0960     5.3170     4.2250     6.0640     2.3790 
  267.5000   -11.0350    61.2630    23.0930     5.1820     4.2660     6.0380     2.3760 
  267.6250   -11.1660    61.2630    23.0930     5.0120     4.2170     6.0140     2.3700 
  267.7500   -11.2670    61.2630    23.0930     4.8460     4.1000     5.9870     2.3650 
  267.8750   -11.2760    61.2630    23.0930     4.7390     3.9600     5.9530     2.3640 
  268.0000   -11.2970    61.2630    23.0930     4.7050     3.8490     5.9140     2.3680 
  268.1250   -11.2620    61.2630    23.0930     4.7180     3.8050     5.8680     2.3700 
  268.2500   -11.2210    61.2630    23.0930     4.7530     3.8170     5.8240     2.3700 
  268.3750   -11.1610    61.2630    23.0930     4.8050     3.8690     5.7910     2.3670 
  268.5000   -11.1080    61.2630    23.0930     4.8580     3.9470     5.7740     2.3650 
  268.6250   -11.0810    61.2630    23.0930     4.8940     4.0190     5.7730     2.3670 
  268.7500   -11.0560    61.2630    23.0930     4.9200     4.0450     5.7770     2.3740 
  268.8750   -11.0680    61.2630    23.0930     4.9520     4.0120     5.7810     2.3870 
  269.0000   -11.0650    61.2630    23.0930     5.0060     3.9420     5.7820     2.4020 
  269.1250   -11.1160    61.2630    23.0930     5.0610     3.8890     5.7810     2.4120 
  269.2500   -11.1630    61.2630    23.0930     5.0940     3.8960     5.7840     2.4130 
  269.3750   -11.1830    61.2630    23.0930     5.1000     3.9550     5.7900     2.4120 
  269.5000   -11.2120    61.2630    23.0930     5.0850     4.0150     5.7960     2.4150 
  269.6250   -11.2380    61.2630    23.0930     5.0690     4.0220     5.7910     2.4200 
  269.7500   -11.2240    61.2630    23.0930     5.0590     3.9920     5.7710     2.4170 
  269.8750   -11.2150    61.2630    23.0930     5.0700     3.9650     5.7430     2.4020 
  270.0000   -11.2300    61.2630    23.0930     5.1080     3.9640     5.7220     2.3820 
  270.1250   -11.1490    61.2630    23.0930     5.1930     3.9710     5.7230     2.3680 
  270.2500   -11.0680    61.2630    23.0890     5.3310     3.9490     5.7420     2.3680 
  270.3750   -11.0240    61.2630    23.0650     5.4910     3.8880     5.7680     2.3780 
  270.5000   -10.9620    61.2630    23.0140     5.6390     3.8220     5.7850     2.3930 
  270.6250   -10.8950    61.2630    22.9200     5.7760     3.8220     5.7850     2.4060 
  270.7500   -10.8430    61.2630    22.8610     5.9280     3.8220     5.7850     2.4150 
  270.8750   -10.8230    61.2630    22.8130     6.0330     3.8220     5.7850     2.4220 
  271.0000   -10.8210    61.2630    22.7870     6.0430     3.8220     5.7850     2.4260 
  271.1250   -10.8580    61.2630    22.7640     5.9100     3.8220     5.7850     2.4260 
  271.2500   -10.8700    61.2630    22.7280     5.7190     3.8220     5.7850     2.4250 
  271.3750   -10.8730    61.2630    22.6930     5.5660     3.8220     5.7850     2.4270 
  271.5000   -10.8950    61.2630    22.6790     5.5080     3.8220     5.7850     2.4280 
  271.6250   -10.9220    61.2630    22.6780     5.5360     3.8220     5.7850     2.4240 
  271.7500   -10.9950    61.2630    22.6760     5.5890     3.8220     5.7850     2.4190 
  271.8750   -11.0270    61.2630    22.6760     5.6070     3.8220     5.7850     2.4160 
  272.0000   -11.0410    61.2630    22.6780     5.5550     3.8220     5.7850     2.4090 
  272.1250   -11.0120    61.2630    22.6790     5.4710     3.8220     5.7850     2.3880 
  272.2500   -10.9340    61.2630    22.6790     5.3700     3.8220     5.7850     2.3600 
  272.3750   -10.7790    61.2630    22.6720     5.2520     3.8220     5.7850     2.3370 
  272.5000   -10.6380    61.2630    22.6510     5.1400     3.8220     5.7850     2.3230 
  272.6250   -10.4890    61.2630    22.5720     5.0800     3.8220     5.7850     2.3000 
  272.7500   -10.2970    61.2630    22.4500     5.0890     3.8220     5.7850     2.2420 
  272.8750   -10.1000    61.2630    22.2590     5.1220     3.8220     5.7850     2.1540 
  273.0000    -9.8580    61.2630    21.8690     5.1390     3.8220     5.7850     2.0670 
  273.1250    -9.6360    61.2630    20.9470     5.1460     3.8220     5.7850     2.0230 
  273.2500    -9.5220    61.2630    19.7500     5.1560     3.8220     5.7850     2.0170 
  273.3750    -9.5220    61.2630    18.9520     5.1630     3.8220     5.7850     2.0240 
  273.5000    -9.5220    61.2630    18.6890     5.1660     3.8220     5.7850     2.0290 
  273.6250  -999.2500    61.2630    18.6860     5.1650     3.8220     5.7850     2.0310 
