~V
VERS. 2.00: Ver 2.00
~W
STRT.M 62.0000:
STOP.M 256.0000:
STEP.M 0.1250:
NULL. -999.2500:
UWI. DF32087:
~C
DEPT.M :
SP.MV :
GR.API :
RML.OHMM :
RI. :
RXO.OHMM :
CALI.CM :
DEN.GM/CC :
~A
# ...
  197.0000   -27.7180    59.8660   192.5290   178.6810   169.2430    25.1250     2.2220 
  197.1250   -27.4080    58.4750   186.5550   176.4740   161.3850    25.1250     2.2180 
  197.2500   -27.1100    56.7340   179.2530   172.8110   212.4400    25.1250     2.2140 
  197.3750   -26.7900    56.0630   169.1640   165.6030   242.2590    25.1170     2.2110 
  197.5000   -26.6010    56.1170   156.8090   153.6910   196.9370    25.0950     2.2080 
  197.6250   -26.3460    55.7720   140.9830   136.8220   139.3470    25.0510     2.2040 
  197.7500   -26.2620    54.9640   122.5810   117.7980   113.1250    25.0310     2.2030 
  197.8750   -26.1600    55.5670   101.9860    99.1930   102.9790    25.0190     2.2060 
  198.0000   -26.1610    58.7120    85.6040    83.2840    85.1050    24.9970     2.2130 
  198.1250   -26.1600    61.3790    74.7600    72.1060    65.1840    24.9590     2.2240 
  198.2500   -26.1950    61.5110    68.2680    65.1200    48.6700    24.9430     2.2360 
  198.3750   -26.2940    60.8940    65.5080    61.8450    45.6940    24.9390     2.2450 
  198.5000   -26.3690    61.5890    65.8500    61.6490    51.0130    24.9390     2.2510 
  198.6250   -26.5810    63.4220    69.0890    64.2830    56.7920    24.9390     2.2510 
  198.7500   -26.7900    63.5740    74.3480    68.8410    58.5460    24.9390     2.2490 
  198.8750   -27.0810    61.6860    81.3010    74.9490    60.5470    24.9380     2.2450 
  199.0000   -27.3510    58.5270    89.5360    82.1510    66.3270    24.9250     2.2430 
  199.1250   -27.6170    55.7890    98.3170    89.7090    76.7220    24.8930     2.2420 
  199.2500   -27.8670    54.9760   106.3340    96.4730    90.4080    24.8580     2.2430 
  199.3750   -28.0900    56.2260   112.3900   101.4030   104.8790    24.8430     2.2460 
  199.5000   -28.2670    58.2270   115.6950   103.8020   115.2460    24.8440     2.2500 
  199.6250   -28.4670    59.4670   116.0880   103.4410   105.9680    24.8630     2.2550 
  199.7500   -28.5720    59.8050   115.3690   101.8560    88.1370    24.8990     2.2590 
  199.8750   -28.7090    59.4910   115.1180   100.4270    80.0060    24.9350     2.2590 
  200.0000   -28.8220    58.4840   116.6510   100.3710    83.4130    24.9650     2.2530 
  200.1250   -28.9190    58.1090   121.2320   102.9060   100.5510    25.0050     2.2400 
  200.2500   -29.0060    58.1140   128.5340   107.8740   109.2620    25.0190     2.2240 
  200.3750   -29.0830    56.2980   138.1170   114.9760   105.1850    25.0150     2.2110 
  200.5000   -29.2010    52.7650   149.1720   123.5760   110.7440    25.0050     2.2020 
  200.6250   -29.2020    52.6810   160.4130   132.6750   143.8330    25.0180     2.2010 
  200.7500   -29.2710    57.1990   170.2300   140.8680   175.7870    25.0240     2.2020 
  200.8750   -29.2300    62.2070   177.2390   146.9540   188.1810    25.0270     2.2040 
  201.0000   -29.2500    63.0880   180.3940   149.9670   183.9990    25.0240     2.2050 
  201.1250   -29.2210    59.8820   178.6500   148.8860   178.8290    25.0060     2.2050 
  201.2500   -29.2680    57.1190   173.4030   144.7130   169.1260    24.9690     2.2040 
  201.3750   -29.2560    56.7420   166.0750   138.5410   158.2640    24.9160     2.2020 
  201.5000   -29.2190    58.0920   158.5430   131.9190   143.8930    24.8460     2.1990 
  201.6250   -29.1890    58.3380   153.5280   127.1760   130.9000    24.8260     2.1990 
  201.7500   -29.1090    57.6140   152.9120   126.0710   118.6550    24.8870     2.2000 
  201.8750   -29.0480    57.3770   158.0850   129.9440   112.5590    24.9750     2.2040 
  202.0000   -28.9440    57.7600   169.2850   139.2010   117.5590    25.0220     2.2070 
  202.1250   -28.8530    55.7580   185.1230   153.0670   154.9330    25.0260     2.2070 
  202.2500   -28.6940    51.7300   200.3550   167.3350   208.5140    25.0020     2.2050 
  202.3750   -28.6090    49.4390   210.0040   177.7390   242.7620    24.9770     2.2020 
  202.5000   -28.5230    51.2110   209.6050   180.4300   242.3730    25.0540     2.2000 
  202.6250   -28.4350    54.4440   195.9770   172.1950   217.0260    25.1250     2.1990 
  202.7500   -28.3770    55.6530   174.1970   156.6100   178.0120    25.1840     2.1990 
  202.8750   -28.3100    55.2730   149.2530   137.5430   136.8420    25.2060     2.2020 
  203.0000   -28.2980    55.0320   124.5910   118.8050   105.3600    25.2120     2.2050 
  203.1250   -28.2980    55.7270   104.7260   103.6620    88.4110    25.2130     2.2080 
  203.2500   -28.3280    56.2860    91.1830    92.6930    79.0400    25.2190     2.2080 
  203.3750   -28.3630    56.3820    85.3710    85.9960    73.2390    25.2330     2.2040 
  203.5000   -28.4260    56.5550    83.5350    83.3980    72.0850    25.2440     2.2010 
  203.6250   -28.6770    56.6610    85.9960    85.1930    77.7050    25.1800     2.2060 
  203.7500   -28.9570    56.9480    91.7390    90.1900    82.7130    25.1070     2.2200 
  203.8750   -29.3730    56.6100   100.0920    97.5490    87.3010    25.0300     2.2410 
  204.0000   -29.7560    55.4730   109.9330   106.0530   103.2900    24.9180     2.2610 
  204.1250   -30.2670    53.9900   119.3890   113.8850   149.5260    24.8280     2.2700 
  204.2500   -30.7690    53.8240   126.6400   119.5400   175.1640    24.9820     2.2690 
  204.3750   -31.1840    55.6130   130.6370   122.2270   161.3990    25.1460     2.2620 
  204.5000   -31.5140    57.1950   131.2080   121.9020   145.8090    25.2110     2.2550 
  204.6250   -31.6250    57.1820   128.5670   118.8180   134.6240    25.2090     2.2500 
  204.7500   -31.6480    56.2140   124.1230   114.2240   124.3540    25.1900     2.2440 
  204.8750   -31.4650    54.7900   118.5150   108.7090   116.6850    25.1510     2.2340 
  205.0000   -31.1540    53.6510   112.1310   102.6290   107.2890    25.1240     2.2200 
  205.1250   -30.6860    54.2170   105.3640    96.3040    98.6580    25.1280     2.2080 
  205.2500   -30.1320    57.3890    98.9970    90.3460    91.9380    25.1530     2.2040 
  205.3750   -29.5500    60.5390    93.8180    85.4250    85.0780    25.1620     2.2100 
  205.5000   -28.9200    61.0550    90.4700    82.1250    74.4660    25.1240     2.2220 
  205.6250   -28.2350    59.8060    89.4680    80.9760    66.6850    25.1130     2.2330 
  205.7500   -27.5280    58.8880    89.8680    81.2080    65.8600    25.1060     2.2360 
  205.8750   -26.8490    58.6280    90.5030    81.8330    74.3780    25.0890     2.2320 
  206.0000   -26.2040    59.0970    89.9940    81.6340    85.8180    25.0510     2.2230 
  206.1250   -25.5570    59.0330    86.9110    79.2860    93.4400    25.0310     2.2150 
  206.2500   -24.9890    57.5590    81.7340    75.0050    86.3950    25.0090     2.2110 
  206.3750   -24.4310    55.9350    75.6280    69.6250    68.5560    24.9740     2.2120 
  206.5000   -23.9460    57.3910    70.1210    64.4170    53.1090    24.9480     2.2190 
  206.6250   -23.4800    60.7850    66.8120    60.8730    50.8270    24.9390     2.2300 
  206.7500   -23.0850    60.8970    65.8240    59.3330    49.6380    24.9390     2.2420 
  206.8750   -22.6760    59.3670    66.9320    59.7080    51.4470    24.9390     2.2500 
  207.0000   -22.3530    58.1860    69.5970    61.5600    55.8410    24.9390     2.2550 
  207.1250   -22.0080    57.7710    73.1530    64.3210    63.8110    24.9390     2.2540 
  207.2500   -21.6720    60.1660    76.6990    67.1710    67.2840    24.9390     2.2520 
  207.3750   -21.3640    65.3870    79.7380    69.6640    67.2510    24.9390     2.2490 
  207.5000   -21.0650    69.8540    82.0480    71.5810    68.4790    24.9390     2.2460 
  207.6250   -20.8480    67.8890    83.7040    72.9720    74.0870    24.9240     2.2450 
  207.7500   -20.6040    64.0080    85.5830    74.5390    79.3480    24.8900     2.2440 
  207.8750   -20.4060    63.1750    89.1530    77.4080    79.5050    24.8410     2.2400 
  208.0000   -20.1430    63.9720    96.1240    83.0160    76.9980    24.7710     2.2350 
  208.1250   -19.9280    63.0670   107.5660    92.7360    79.6750    24.6570     2.2330 
