~V
VERS. 2.00: Ver 2.00
~W
STRT.M 60.0000:
STOP.M 258.0000:
STEP.M 0.1250:
NULL. -999.2500:
UWI. DF32100:
~C
DEPT.M :
SP.MV :
GR.API :
CALI.CM :
RXO.OHMM :
RI. :
RML.OHMM :
DEN.GM/CC :
~A
# ...
  138.7500   -20.2760   102.5430    21.9290     5.6920     5.5620     6.0550     2.2730 
  138.8750   -20.0000   113.1670    21.8510     5.3520     5.1660     5.7970     2.2870 
  139.0000   -19.8310   112.0610    21.8220     5.3780     5.0550     5.9140     2.2650 
  139.1250   -19.7550   101.0470    21.7960     5.5700     5.1740     6.2550     2.2260 
  139.2500   -19.7240    92.9640    21.6980     5.8020     5.3450     6.5300     2.2060 
  139.3750   -19.7350    92.1270    21.5120     5.9050     5.4390     6.5540     2.2130 
  139.5000   -19.7640    95.6100    21.3280     5.7170     5.3910     6.3040     2.2420 
  139.6250   -19.7880    98.7390    21.2360     5.3340     5.2350     5.9450     2.2760 
  139.7500   -19.8070   100.6930    21.1320     5.1280     5.0970     5.6980     2.2970 
  139.8750   -19.8020   100.6020    20.8760     5.2380     5.0620     5.6550     2.3030 
  140.0000   -19.7760    97.8440    20.4890     5.4920     5.1970     5.8510     2.2920 
  140.1250   -19.7170    92.9390    20.1280     5.7240     5.5940     6.3510     2.2630 
  140.2500   -19.6110    88.5510    19.9680     5.9970     6.2110     7.0880     2.2310 
  140.3750   -19.4380    85.4680    19.9370     6.4250     6.9520     7.9320     2.2130 
  140.5000   -19.2270    82.8740    19.9790     7.1180     7.6220     8.6310     2.2280 
  140.6250   -18.9190    81.9700    20.1040     7.9440     7.9070     8.7700     2.2760 
  140.7500   -18.5590    82.9710    20.3360     8.0650     7.7320     8.3040     2.3230 
  140.8750   -18.1720    85.4260    20.7770     7.2070     7.1830     7.4400     2.3380 
  141.0000   -17.7810    89.1310    21.4170     6.0130     6.4720     6.5360     2.3170 
  141.1250   -17.4310    92.7400    22.0120     5.5570     5.8440     5.8990     2.2930 
  141.2500   -17.1680    95.5960    22.5520     5.5200     5.4030     5.5310     2.2940 
  141.3750   -17.0160    97.1410    23.1180     5.5740     5.1550     5.3500     2.3130 
  141.5000   -16.9400    98.1540    23.5930     5.3670     5.0440     5.2510     2.3270 
  141.6250   -16.9620   100.2300    23.7650     4.9380     4.9910     5.1590     2.3230 
  141.7500   -17.0710   102.3460    23.8010     4.7390     4.9450     5.0820     2.3140 
  141.8750   -17.2480   102.4730    23.8010     4.7710     4.9150     5.0700     2.3060 
  142.0000   -17.4520    99.6660    23.7960     4.8860     4.9210     5.1370     2.3030 
  142.1250   -17.6720    95.8080    23.7330     4.9990     4.9440     5.2170     2.3070 
  142.2500   -17.8910    93.8170    23.6000     5.1100     4.9410     5.2200     2.3120 
  142.3750   -18.1060    93.7180    23.4790     5.3350     4.9480     5.1830     2.3040 
  142.5000   -18.3120    94.7470    23.4270     5.7180     5.1000     5.2880     2.2820 
  142.6250   -18.5060    94.8340    23.4150     6.3220     5.7020     5.9030     2.2710 
  142.7500   -18.6660    94.0080    23.3990     7.5960     6.9860     7.2750     2.3020 
  142.8750   -18.7890    91.6210    23.3880    11.1570     9.2370     9.7160     2.3780 
  143.0000   -18.9100    86.6180    23.3580    17.9380    12.6580    13.5110     2.4670 
  143.1250   -19.0520    79.8220    23.3650    23.7120    17.1290    18.6610     2.5100 
  143.2500   -19.2300    74.3740    23.4450    24.9620    21.3980    23.5920     2.4870 
  143.3750   -19.4540    72.5180    23.5860    23.3700    24.3040    26.6700     2.4120 
  143.5000   -19.6910    74.8580    23.7290    22.4960    25.5510    27.5480     2.3150 
  143.6250   -19.9260    78.0640    23.8890    23.5980    25.7800    27.2880     2.2310 
  143.7500   -20.1600    77.4740    24.0330    25.1570    25.9670    27.1740     2.1740 
  143.8750   -20.3910    73.9500    24.0920    26.1530    26.3410    27.4510     2.1420 
  144.0000   -20.6060    70.2440    24.1000    26.3720    26.8250    27.9880     2.1280 
  144.1250   -20.7920    65.2200    24.1000    26.2220    27.2780    28.6000     2.1250 
  144.2500   -20.9140    61.1640    24.1000    26.0640    27.6500    29.1600     2.1250 
  144.3750   -20.9900    61.4120    24.1000    26.0260    27.9520    29.6110     2.1270 
  144.5000   -21.0630    63.8350    24.1000    26.4810    28.2040    29.8960     2.1260 
  144.6250   -21.1810    64.9760    24.0970    27.4540    28.3510    29.8890     2.1240 
  144.7500   -21.3130    67.2090    24.0710    27.9890    28.3060    29.5980     2.1260 
  144.8750   -21.4410    70.6660    23.9950    27.6480    28.0120    29.0830     2.1310 
  145.0000   -21.5390    72.0980    23.8840    26.6970    27.5040    28.4500     2.1360 
  145.1250   -21.5800    71.4870    23.8210    25.4340    26.8990    27.8070     2.1370 
  145.2500   -21.6030    71.5980    23.8020    24.7590    26.3650    27.2190     2.1420 
  145.3750   -21.6260    72.5670    23.8010    24.4410    25.9610    26.7000     2.1520 
  145.5000   -21.6430    74.5580    23.8010    23.8620    25.6650    26.2550     2.1600 
  145.6250   -21.6150    76.9220    23.7980    23.1050    25.4390    25.9200     2.1560 
  145.7500   -21.5330    77.5400    23.7730    22.6180    25.2600    25.7060     2.1460 
  145.8750   -21.4410    76.5210    23.6970    22.4860    25.1570    25.6200     2.1400 
  146.0000   -21.3800    76.5930    23.5860    22.5000    25.1880    25.6690     2.1430 
  146.1250   -21.3870    76.9510    23.5160    22.5780    25.4680    25.9340     2.1510 
  146.2500   -21.4140    74.5560    23.4890    22.8040    26.0390    26.4700     2.1560 
  146.3750   -21.4230    71.1250    23.4660    23.4810    26.9420    27.3620     2.1570 
  146.5000   -21.3990    71.0070    23.4220    24.7490    28.1630    28.6430     2.1590 
  146.6250   -21.3530    74.8200    23.3780    25.9480    29.5690    30.2220     2.1630 
  146.7500   -21.3320    76.3780    23.2950    25.7890    30.8240    31.7100     2.1610 
  146.8750   -21.3190    74.2460    23.0520    23.4190    31.6700    32.7440     2.1520 
  147.0000   -21.3010    71.3520    22.2460    19.0730    32.0020    33.1150     2.1370 
  147.1250   -21.2570    70.7310    20.3050    14.5320    31.8600    32.8710     2.1200 
  147.2500   -21.1970    71.6920    18.0620    11.5890    31.5420    32.4920     2.1040 
  147.3750   -21.1150    71.7920    16.6710    10.3630    31.2320    32.2890     2.0990 
  147.5000   -21.0210    70.6290    16.1260    10.0600    31.0340    32.3790     2.1130 
  147.6250   -20.9410    70.1130    15.9940     9.8980    30.9800    32.6560     2.1360 
  147.7500   -20.8340    70.5770    15.9610     9.4940    30.9650    32.7980     2.1510 
  147.8750   -20.7050    70.8160    15.9500     9.0370    30.8690    32.5740     2.1580 
  148.0000   -20.5630    69.9040    16.0190     8.9470    30.5990    31.9320     2.1610 
  148.1250   -20.3910    68.9180    16.5140     9.6050    30.1270    31.0520     2.1610 
  148.2500   -20.1670    67.5610    17.7090    11.0240    29.6470    30.2980     2.1520 
  148.3750   -19.9190    66.2060    19.3870    13.2650    29.3910    29.9360     2.1330 
  148.5000   -19.6720    65.7290    21.0190    15.9220    29.5200    30.1050     2.1260 
  148.6250   -19.4120    66.8610    21.9040    17.9490    29.8820    30.5940     2.1700 
  148.7500   -19.1230    69.5580    22.1800    19.2960    29.6940    30.4660     2.2680 
  148.8750   -18.8170    72.7920    22.1910    20.4680    28.1060    28.7280     2.3850 
  149.0000   -18.4460    74.4280    22.1520    21.0230    24.8550    25.1510     2.4770 
  149.1250   -18.0910    73.8000    22.1580    18.3170    20.7150    20.7570     2.5180 
  149.2500   -17.8000    74.8490    22.1690    13.9380    17.0910    17.0590     2.5340 
  149.3750   -17.5630    81.0260    22.1820    10.6660    14.5960    14.6250     2.5400 
  149.5000   -17.3480    88.3710    22.1870     9.8970    13.3620    13.5200     2.5370 
  149.6250   -17.1270    87.8670    22.1860    11.3370    13.4580    13.7950     2.5290 
  149.7500   -16.9060    79.3120    22.1840    13.0170    14.4710    15.0430     2.5320 
  149.8750   -16.6940    69.9600    22.2030    14.0710    16.1000    16.9640     2.5480 
