~V
VERS. 2.00: Ver 2.00
~W
STRT.M 61.0000:
STOP.M 325.0000:
STEP.M 0.1250:
NULL. -999.2500:
UWI. DF320:
~C
DEPT.M :
GR.API :
RML.OHMM :
RI. :
RXO.OHMM :
CALI.CM :
SP.MV :
DEN.GM/CC :
AC.US/MT :
~A
# ...
  231.0000    72.5090    12.8600    11.8070    16.4560    24.0680   -30.0600     2.3150   391.7880 
  231.1250    70.4390    12.8270    11.7760    16.5250    24.1100   -30.2200     2.3060   392.5900 
  231.2500    66.1210    12.7690    11.7240    16.5950    24.1750   -30.4260     2.2980   393.5760 
  231.3750    61.8270    12.6910    11.6540    16.6260    24.2350   -30.6550     2.2910   394.7460 
  231.5000    59.9100    12.5960    11.5690    16.5970    24.3020   -30.8410     2.2850   396.1760 
  231.6250    61.7020    12.4830    11.4670    16.5600    24.2830   -30.9280     2.2810   397.6920 
  231.7500    64.7090    12.3590    11.3540    16.5010    24.2230   -30.9630     2.2770   398.8890 
  231.8750    65.8480    12.2360    11.2340    16.3690    24.1530   -31.0030     2.2750   399.7390 
  232.0000    63.7930    12.1280    11.1180    16.1300    24.0670   -31.0490     2.2730   400.6420 
  232.1250    59.4200    12.0620    11.0200    15.9380    24.0300   -31.0870     2.2730   402.0460 
  232.2500    57.8370    12.0410    10.9500    15.8470    23.9690   -31.0700     2.2750   403.6140 
  232.3750    59.6990    12.0640    10.9130    15.8400    23.9060   -31.0030     2.2800   404.7140 
  232.5000    61.5120    12.1250    10.9120    15.8730    23.8560   -30.9570     2.2860   405.0200 
  232.6250    63.4570    12.2080    10.9460    15.8520    23.7470   -30.9980     2.2910   404.4610 
  232.7500    67.5500    12.2840    10.9970    15.8220    23.6500   -31.0820     2.2930   403.3150 
  232.8750    71.2870    12.3250    11.0480    15.8130    23.5240   -31.1430     2.2900   401.8320 
  233.0000    70.8130    12.3090    11.0770    15.8390    23.4190   -31.1770     2.2840   400.6340 
  233.1250    66.7570    12.2210    11.0670    15.9160    23.4000   -31.2320     2.2770   400.8650 
  233.2500    64.2620    12.0920    11.0220    16.0100    23.3840   -31.3410     2.2720   402.6960 
  233.3750    62.1210    11.9540    10.9560    16.0450    23.3590   -31.4880     2.2680   405.7250 
  233.5000    58.8580    11.8340    10.8870    15.9430    23.3140   -31.6280     2.2660   409.1860 
  233.6250    56.0840    11.7460    10.8280    15.8020    23.2070   -31.7170     2.2660   412.0740 
  233.7500    54.8490    11.6780    10.7830    15.7350    23.1420   -31.7470     2.2660   413.8100 
  233.8750    55.0240    11.6170    10.7460    15.7720    23.1260   -31.7600     2.2630   414.3360 
  234.0000    56.2450    11.5580    10.7160    15.8650    23.1120   -31.7870     2.2570   414.0930 
  234.1250    59.2890    11.5110    10.6940    15.9960    23.1240   -31.8110     2.2480   413.7710 
  234.2500    61.2870    11.4850    10.6870    16.1250    23.1310   -31.8390     2.2410   413.6590 
  234.3750    60.5500    11.4900    10.7020    16.1920    23.1330   -31.8430     2.2380   413.5430 
  234.5000    59.3020    11.5240    10.7430    16.1880    23.1330   -31.8110     2.2390   413.0670 
  234.6250    59.9610    11.5760    10.8080    16.1670    23.1330   -31.7630     2.2450   411.7300 
  234.7500    63.0230    11.6230    10.8830    16.1390    23.1340   -31.7500     2.2520   409.5850 
  234.8750    65.2240    11.6590    10.9620    16.1380    23.1350   -31.7890     2.2580   407.0210 
  235.0000    63.5580    11.7010    11.0420    16.1590    23.1420   -31.8480     2.2650   404.6860 
  235.1250    61.4260    11.7930    11.1370    16.1770    23.1630   -31.8890     2.2700   403.2060 
  235.2500    61.5430    11.9620    11.2540    16.1700    23.2050   -31.8600     2.2740   402.4180 
  235.3750    61.2670    12.1940    11.3890    16.1340    23.3030   -31.8040     2.2760   402.0450 
  235.5000    58.6710    12.4340    11.5160    16.0610    23.4270   -31.7750     2.2760   401.8030 
  235.6250    58.8910    12.5480    11.5890    15.9060    23.5040   -31.7750     2.2730   401.4040 
  235.7500    61.6550    12.4700    11.5860    15.6880    23.6090   -31.7570     2.2680   400.9210 
  235.8750    61.3610    12.3170    11.5070    15.3930    23.6580   -31.6700     2.2620   400.9770 
  236.0000    56.6380    12.1460    11.3800    15.0910    23.6650   -31.5060     2.2570   402.4450 
  236.1250    54.4590    12.0520    11.2520    14.8800    23.6570   -31.2790     2.2540   405.6450 
  236.2500    56.4440    12.0660    11.1730    14.8650    23.6390   -31.0640     2.2520   409.0090 
  236.3750    57.5780    12.1380    11.1700    15.0070    23.5990   -30.8490     2.2530   411.1220 
  236.5000    55.1650    12.2830    11.2560    15.2140    23.5020   -30.6030     2.2550   411.3810 
  236.6250    52.8990    12.5220    11.4360    15.4460    23.4380   -30.3050     2.2590   410.0400 
  236.7500    54.8180    12.7730    11.6730    15.7260    23.3270   -29.9650     2.2650   408.0920 
  236.8750    61.1200    13.0510    11.9350    16.0460    23.2990   -29.5930     2.2720   405.9230 
  237.0000    68.3930    13.3210    12.1900    16.3690    23.3600   -29.2110     2.2800   403.8330 
  237.1250    70.0630    13.5350    12.3910    16.6490    23.3720   -28.8540     2.2850   402.3140 
  237.2500    66.8470    13.6580    12.5080    16.8540    23.3820   -28.5060     2.2900   401.5110 
  237.3750    63.7390    13.6490    12.4990    16.9740    23.3860   -28.1490     2.2920   401.1230 
  237.5000    63.6730    13.4610    12.3220    17.0210    23.3890   -27.7340     2.2930   400.6410 
  237.6250    65.5800    13.0310    11.9160    16.9790    23.3960   -27.2490     2.2920   400.0030 
  237.7500    67.0570    12.4300    11.3490    16.8680    23.4100   -26.7460     2.2860   399.8050 
  237.8750    67.3750    11.7780    10.7340    16.7730    23.4320   -26.2330     2.2750   400.3870 
  238.0000    66.4030    11.2750    10.2600    16.9920    23.4480   -25.6710     2.2610   400.8730 
  238.1250    65.6810    11.2620    10.2470    18.8300    23.4590   -24.9860     2.2550   397.4330 
  238.2500    64.9680    11.6330    10.5970    26.8620    23.4790   -24.1730     2.2690   385.3500 
  238.3750    60.1870    11.5620    10.5300    57.0740    23.5210   -23.2640     2.3120   359.4450 
  238.5000    51.2990    15.0150    13.7870   141.8290    23.6120   -22.3210     2.3870   318.2350 
  238.6250    43.9760    46.8170    43.7890   281.4740    23.7560   -21.3390     2.4840   268.2650 
  238.7500    41.7380   123.1950   115.8440   456.1030    23.8740   -20.2760     2.5760   225.4640 
  238.8750    43.7770   249.7240   235.2110   611.3880    23.9000   -19.1300     2.6450   199.4080 
  239.0000    47.6930   398.5120   375.5780   594.0560    23.8820   -17.9500     2.6850   190.3830 
  239.1250    51.6630   505.4840   476.4950   446.6450    23.8590   -16.7800     2.6950   192.4470 
  239.2500    53.7530   490.8690   462.7060   291.5350    23.8380   -15.6490     2.6900   197.7910 
  239.3750    54.0990   332.4870   313.2900   168.4660    23.8200   -14.5740     2.6760   206.1570 
  239.5000    55.9110   148.3030   139.5310    91.6120    23.7980   -13.5440     2.6560   220.5880 
  239.6250    57.0900    60.9840    57.1550    43.1290    23.7610   -12.5790     2.6320   247.6880 
  239.7500    53.9270    25.5890    23.7630    18.4020    23.6990   -11.7000     2.6050   287.5070 
  239.8750    48.0120    12.2200    11.1510     8.2480    23.6200   -10.9360     2.5780   334.2390 
  240.0000    45.6750     7.5030     6.7010     5.1580    23.5570   -10.2970     2.5520   375.9850 
  240.1250    49.2220     6.1920     5.4640     4.7220    23.5470    -9.8340     2.5280   398.6880 
  240.2500    51.7440     5.9270     5.2140     4.8550    23.5600    -9.5090     2.5050   405.1560 
  240.3750    50.6870     6.2260     5.4960     5.0910    23.5720    -9.2620     2.4840   402.7310 
  240.5000    48.1780     6.7930     6.0320     5.3480    23.5770    -9.0580     2.4660   397.7380 
  240.6250    46.3900     7.3400     6.5470     5.6490    23.6230    -8.9170     2.4550   392.9480 
  240.7500    46.9090     7.6700     6.8580     5.9990    23.7010    -8.8440     2.4510   389.2350 
  240.8750    51.1540     7.7330     6.9180     6.2560    23.7740    -8.8260     2.4520   387.4750 
