~V
VERS. 2.00: Ver 2.00
~W
STRT.M 61.0000:
STOP.M 262.0000:
STEP.M 0.1250:
NULL. -999.2500:
UWI. DF32115:
~C
DEPT.M :
GR.API :
CALI.CM :
RXO.OHMM :
RI. :
RML.OHMM :
DEN.GM/CC :
SP.MV :
~A
# ...
   83.5000    93.3300    24.8920     5.2830     4.3630     5.4830     2.2510   -19.6660 
   83.6250    95.4780    24.4920     5.6990     4.1530     5.4760     2.2310   -19.3000 
   83.7500   102.6930    24.5600     5.4800     4.0640     5.4980     2.2340   -18.9690 
   83.8750   113.1610    25.0730     4.8190     4.0000     5.4160     2.2550   -18.6660 
   84.0000   120.2140    25.5780     4.2570     3.9350     5.2650     2.2810   -18.4070 
   84.1250   116.9590    25.5950     4.1620     3.9010     5.1820     2.3020   -18.2240 
   84.2500   108.0080    25.3390     4.3420     3.9220     5.2140     2.3200   -18.1220 
   84.3750    99.8410    25.1230     4.5660     3.9920     5.3210     2.3330   -18.1440 
   84.5000    96.4870    25.0150     4.6860     4.0920     5.4520     2.3340   -18.3680 
   84.6250    96.1150    24.9030     4.6780     4.2140     5.6100     2.3190   -18.8560 
   84.7500    94.1270    24.7840     4.7030     4.3760     5.8630     2.2960   -19.5610 
   84.8750    89.5840    24.6410     4.9540     4.6110     6.2880     2.2720   -20.4530 
   85.0000    84.6980    24.4530     5.5630     4.9360     6.9170     2.2480   -21.4520 
   85.1250    82.0210    24.2770     6.4030     5.3310     7.6780     2.2260   -22.4630 
   85.2500    79.1470    24.1850     7.0450     5.6850     8.3120     2.2060   -23.3950 
   85.3750    74.4200    24.1640     7.3290     5.8770     8.5460     2.1900   -24.1550 
   85.5000    70.8200    24.1670     7.3760     5.8170     8.2280     2.1800   -24.6640 
   85.6250    73.2440    24.1670     7.2090     5.5240     7.5130     2.1840   -24.8580 
   85.7500    79.0120    24.1650     6.7300     5.2390     6.9640     2.2060   -24.7860 
   85.8750    83.2160    24.1600     6.0770     5.1800     7.0050     2.2490   -24.4680 
   86.0000    84.2640    24.1560     5.9020     5.5130     7.8860     2.3200   -23.9900 
   86.1250    82.2250    24.1650     7.6040     6.3820     9.7820     2.4170   -23.4200 
   86.2500    78.9000    24.1910    11.6640     7.5570    12.1220     2.4980   -22.8600 
   86.3750    77.2820    24.2230    16.2790     8.5870    13.8700     2.5220   -22.3850 
   86.5000    80.3040    24.2290    17.2730     8.8610    13.7790     2.4780   -22.0280 
   86.6250    84.9110    24.1890    12.9600     8.0340    11.5750     2.3960   -21.8050 
   86.7500    86.0230    24.1360     8.2730     6.7990     9.0390     2.3310   -21.7160 
   86.8750    83.2870    24.1040     5.7800     5.6910     7.1550     2.2990   -21.7840 
   87.0000    79.7810    24.0970     5.0450     4.9610     6.1700     2.2920   -21.9990 
   87.1250    78.5290    24.0980     5.0970     4.7080     6.0670     2.2930   -22.3430 
   87.2500    79.2550    24.0980     5.3260     4.7960     6.4970     2.2840   -22.7750 
   87.3750    78.8490    24.0970     5.7630     5.1370     7.2660     2.2560   -23.2870 
   87.5000    74.7300    24.0900     6.4140     5.6290     8.1850     2.2190   -23.8630 
   87.6250    71.0870    24.0710     7.0340     6.1540     9.0390     2.1920   -24.4880 
   87.7500    71.1880    24.0390     7.4110     6.5950     9.6650     2.1850   -25.1170 
   87.8750    71.4200    23.9890     7.5590     6.8750     9.9640     2.1890   -25.7100 
   88.0000    68.6030    23.9440     7.5760     6.9600     9.9210     2.1930   -26.2350 
   88.1250    66.8920    23.9450     7.5180     6.8550     9.6060     2.1960   -26.7180 
   88.2500    70.5090    23.9790     7.4190     6.6750     9.2410     2.1990   -27.1670 
   88.3750    74.3800    24.0090     7.2510     6.4980     8.9640     2.2030   -27.5760 
   88.5000    73.4080    24.0130     7.0460     6.3820     8.8550     2.2080   -27.9620 
   88.6250    70.0480    24.0100     7.0540     6.3680     8.9570     2.2150   -28.3310 
   88.7500    69.8400    24.0100     7.3720     6.4320     9.1830     2.2240   -28.6750 
   88.8750    70.7690    24.0100     7.7750     6.5360     9.4370     2.2260   -28.9860 
   89.0000    70.3340    24.0110     7.9790     6.6340     9.6290     2.2200   -29.2510 
   89.1250    70.3280    24.0090     7.9290     6.6820     9.6810     2.2110   -29.4120 
   89.2500    71.1940    24.0120     7.8340     6.6730     9.6190     2.2070   -29.4750 
   89.3750    71.4330    24.0470     7.7430     6.6180     9.4880     2.2090   -29.4290 
   89.5000    73.0040    24.1240     7.6180     6.5390     9.3370     2.2150   -29.2800 
   89.6250    76.5930    24.2040     7.4660     6.4520     9.1920     2.2190   -29.0750 
   89.7500    78.2000    24.2430     7.3730     6.3630     9.0480     2.2140   -28.8480 
   89.8750    78.3900    24.2470     7.3720     6.2780     8.9120     2.2010   -28.6030 
   90.0000    79.8930    24.2440     7.3920     6.2090     8.8000     2.1880   -28.3580 
   90.1250    80.3750    24.2450     7.3620     6.1760     8.7410     2.1860   -28.1520 
   90.2500    77.3030    24.2450     7.4010     6.1770     8.7310     2.1920   -27.9940 
   90.3750    73.6350    24.2480     7.6340     6.2060     8.7540     2.1950   -27.9170 
   90.5000    74.0100    24.2510     7.9680     6.2510     8.7960     2.1950   -27.9380 
   90.6250    76.7930    24.2510     8.0730     6.3110     8.8630     2.1960   -28.0310 
   90.7500    76.4960    24.2410     7.9390     6.3870     8.9660     2.1980   -28.1700 
   90.8750    73.5680    24.2130     8.0050     6.4750     9.1050     2.1970   -28.3670 
   91.0000    70.3370    24.1870     8.6840     6.5610     9.2490     2.1890   -28.6070 
   91.1250    70.4310    24.2730     9.5040     6.6040     9.3090     2.1730   -28.8400 
   91.2500    72.3780    24.4880     9.4540     6.5730     9.2180     2.1570   -29.0340 
   91.3750    73.7380    24.6800     8.5330     6.4550     8.9620     2.1450   -29.1510 
   91.5000    74.8810    24.6720     7.5420     6.2700     8.5940     2.1430   -29.1630 
   91.6250    76.4740    24.4650     7.1250     6.0640     8.2270     2.1550   -29.0490 
   91.7500    77.6040    24.2740     7.0410     5.8950     7.9580     2.1730   -28.8460 
   91.8750    78.0210    24.1690     7.0520     5.7860     7.8190     2.1810   -28.5690 
   92.0000    78.7880    24.1170     7.0800     5.7350     7.7860     2.1770   -28.2500 
   92.1250    80.8410    24.0920     7.1190     5.7210     7.7980     2.1730   -27.9320 
   92.2500    80.2090    24.0870     7.1640     5.7070     7.7800     2.1810   -27.6550 
   92.3750    76.8210    24.0890     7.1800     5.6770     7.7070     2.1970   -27.4550 
   92.5000    73.9710    24.0890     7.1720     5.6400     7.6100     2.2110   -27.3480 
   92.6250    73.5840    24.0880     7.2210     5.6300     7.5720     2.2170   -27.3730 
   92.7500    72.8470    24.0930     7.3750     5.6770     7.6580     2.2150   -27.5110 
   92.8750    69.8830    24.1130     7.6520     5.8010     7.8910     2.2090   -27.7370 
   93.0000    65.9630    24.1430     8.0450     5.9980     8.2490     2.1980   -28.0260 
   93.1250    65.2140    24.1630     8.4410     6.2440     8.6610     2.1820   -28.3640 
   93.2500    67.4300    24.1680     8.6720     6.4810     9.0200     2.1650   -28.7070 
   93.3750    68.2900    24.1670     8.6830     6.6660     9.2520     2.1530   -29.0240 
   93.5000    65.3080    24.1680     8.5630     6.7740     9.3320     2.1510   -29.3040 
   93.6250    61.7660    24.1680     8.4590     6.7950     9.2710     2.1540   -29.5200 
   93.7500    61.1230    24.1480     8.4120     6.7690     9.1580     2.1550   -29.6780 
   93.8750    61.8210    24.1000     8.3760     6.7280     9.0550     2.1570   -29.7730 
   94.0000    61.8630    24.0430     8.3210     6.6990     9.0040     2.1670   -29.8020 
   94.1250    62.1360    24.0140     8.2850     6.7060     9.0330     2.1780   -29.7730 
   94.2500    63.7800    24.0090     8.2990     6.7490     9.1230     2.1760   -29.7170 
   94.3750    65.2200    24.0030     8.3600     6.8230     9.2500     2.1570   -29.6390 
   94.5000    67.6770    24.0110     8.4540     6.9130     9.3890     2.1300   -29.5440 
   94.6250    73.0770    24.1270     8.5490     6.9940     9.5010     2.1190   -29.4540 
