~V
VERS. 2.00: Ver 2.00
~W
STRT.M 62.0000:
STOP.M 256.0000:
STEP.M 0.1250:
NULL. -999.2500:
UWI. DF32087:
~C
DEPT.M :
SP.MV :
GR.API :
RML.OHMM :
RI. :
RXO.OHMM :
CALI.CM :
DEN.GM/CC :
~A
   62.0000    66.8560    52.5540     0.7600     0.3050    -0.3200    24.2060     2.3790 
   62.1250    61.9270    49.8910     0.0300     0.1730    -0.3060    24.2580     2.4630 
   62.2500    55.4270    48.2000    -0.2730     0.1010    -0.3070    24.2570     2.5290 
   62.3750    47.2970    50.4020    -0.2020     0.1000    -0.2270    24.2030     2.5340 
   62.5000    37.9930    57.0000     0.2070     0.2050     0.2620    24.0680     2.4780 
   62.6250    28.1690    62.9810     1.1850     0.5040     2.4860    23.9550     2.3910 
   62.7500    18.3390    67.6870     2.5010     1.0260     5.9980    23.9430     2.3120 
   62.8750     8.7480    72.1910     3.7810     1.7720     6.5090    24.0120     2.2570 
   63.0000    -0.3070    76.9630     4.7890     2.6830     6.1660    24.0650     2.2290 
   63.1250    -8.1900    79.6820     5.3620     3.6370     6.1850    24.0820     2.2230 
   63.2500   -14.6290    80.9010     5.6250     4.5230     6.5270    24.1020     2.2210 
   63.3750   -19.5210    82.2620     5.8690     5.3220     7.0170    24.1570     2.2170 
   63.5000   -23.1950    82.7970     6.2550     6.0510     7.7860    24.2270     2.2090 
   63.6250   -26.0420    79.8630     6.7630     6.6920     8.7180    24.2720     2.1990 
   63.7500   -28.4590    74.2440     7.2490     7.2200     9.4450    24.3140     2.1870 
   63.8750   -30.4960    70.1820     7.6150     7.6050     9.7140    24.3470     2.1740 
   64.0000   -32.1790    68.6090     7.8310     7.8450     9.7600    24.3510     2.1590 
   64.1250   -33.5130    67.6840     7.9170     7.9400     9.9990    24.3250     2.1420 
   64.2500   -34.6180    67.2990     7.9470     7.9420    10.8000    24.3110     2.1280 
   64.3750   -35.5070    68.0650     7.9430     7.8760    11.7630    24.3270     2.1200 
   64.5000   -36.1890    68.6620     7.9200     7.7680    10.9770    24.3050     2.1180 
   64.6250   -36.7160    67.9790     7.9090     7.6640    10.3040    24.1610     2.1280 
   64.7500   -37.1350    67.8900     7.9530     7.6100     9.8250    24.0210     2.1470 
   64.8750   -37.4310    68.3930     8.0790     7.6360     9.5980    24.0190     2.1750 
   65.0000   -37.6660    68.4310     8.2770     7.7390     9.4810    24.0000     2.2040 
   65.1250   -37.8680    68.8440     8.4860     7.8760     9.5040    23.8630     2.2240 
   65.2500   -38.0450    70.0080     8.6120     7.9740     9.6390    23.7820     2.2250 
   65.3750   -38.2130    71.2630     8.5970     7.9810     9.7620    23.8420     2.2080 
   65.5000   -38.3930    72.1680     8.4310     7.8800     9.8470    23.8870     2.1750 
   65.6250   -38.5700    70.6730     8.1600     7.6890     9.7060    23.8600     2.1390 
   65.7500   -38.7620    66.3330     7.8880     7.4840     9.4900    23.8630     2.1110 
   65.8750   -38.9400    61.7250     7.6830     7.3220     9.2590    23.8850     2.0980 
   66.0000   -39.0400    59.8150     7.5850     7.2450     9.3260    23.8890     2.0990 
   66.1250   -39.0050    61.0700     7.6190     7.2790     9.3170    23.8500     2.1090 
   66.2500   -38.8020    62.7550     7.7330     7.3880     9.3060    23.7570     2.1210 
   66.3750   -38.4480    64.3700     7.8700     7.5270     9.3410    23.6250     2.1280 
   66.5000   -37.9530    65.0670     7.9530     7.6300     9.3300    23.5080     2.1330 
   66.6250   -37.2640    63.8600     7.8830     7.6040     9.1990    23.5970     2.1380 
   66.7500   -36.4000    63.1990     7.6440     7.4190     9.0910    23.8810     2.1510 
   66.8750   -35.4720    64.9370     7.2580     7.0810     8.6110    24.1700     2.1750 
   67.0000   -34.5350    70.8330     6.7880     6.6360     7.4660    24.3610     2.2060 
   67.1250   -33.6090    77.4350     6.3240     6.1660     6.1670    24.4910     2.2390 
   67.2500   -32.7200    81.6860     5.9550     5.7670     5.6920    24.5960     2.2660 
   67.3750   -31.8890    84.7480     5.7460     5.5130     5.8030    24.6670     2.2850 
   67.5000   -31.1720    88.0060     5.7520     5.4670     5.8260    24.7060     2.2970 
   67.6250   -30.6310    89.9990     6.0310     5.7040     5.5040    24.6970     2.3110 
   67.7500   -30.2200    88.0560     6.4900     6.1430     5.5750    24.6690     2.3280 
   67.8750   -29.9150    84.1230     6.9980     6.6710     6.4910    24.6570     2.3470 
   68.0000   -29.6770    82.1270     7.3780     7.1200     8.0980    24.6540     2.3630 
   68.1250   -29.4890    83.1400     7.4040     7.2670     8.9060    24.6630     2.3660 
   68.2500   -29.3530    85.7160     7.0950     7.0810     7.8930    24.6830     2.3570 
   68.3750   -29.2410    89.1510     6.5820     6.6380     6.2150    24.7130     2.3370 
   68.5000   -29.1280    92.9350     6.0620     6.0940     5.1290    24.7310     2.3150 
   68.6250   -28.9750    96.7360     5.7030     5.6280     4.7140    24.7030     2.3060 
   68.7500   -28.9320    98.0240     5.5040     5.3040     4.6980    24.6320     2.3100 
   68.8750   -28.9860    96.4560     5.4190     5.1100     4.7300    24.5540     2.3220 
   69.0000   -29.0910    94.3490     5.4040     5.0140     4.7290    24.4870     2.3300 
   69.1250   -29.1930    94.2910     5.4670     5.0120     4.7610    24.4740     2.3230 
   69.2500   -29.3320    95.9220     5.6340     5.1060     4.7920    24.5140     2.3100 
   69.3750   -29.6490    97.7630     5.9350     5.3170     4.9410    24.5670     2.3060 
   69.5000   -30.0370    97.2690     6.3540     5.6370     5.6790    24.5320     2.3220 
   69.6250   -30.5270    90.7700     6.8010     6.0050     6.9600    24.3220     2.3500 
   69.7500   -31.0780    83.0890     7.1470     6.3100     8.4150    24.2790     2.3680 
   69.8750   -31.5920    81.0290     7.3350     6.4910     9.4190    24.3400     2.3600 
   70.0000   -32.1310    84.8990     7.4100     6.5580     9.7200    24.4060     2.3280 
   70.1250   -32.8710    87.0640     7.5250     6.6070     7.8680    24.3860     2.2900 
   70.2500   -33.6260    84.0060     7.8110     6.7600     6.3910    24.2620     2.2630 
   70.3750   -34.3350    78.9800     8.2890     7.0620     6.6450    24.0220     2.2510 
   70.5000   -34.9930    75.1580     8.8710     7.4740     8.1620    23.7460     2.2490 
   70.6250   -35.6610    74.0310     9.3600     7.8640     9.3930    23.6010     2.2450 
   70.7500   -36.2440    74.1750     9.6160     8.1030     9.5250    23.5830     2.2330 
   70.8750   -36.8040    74.4540     9.6120     8.1430     8.9640    23.6070     2.2110 
   71.0000   -37.3060    73.9720     9.4360     8.0200     8.2330    23.6110     2.1840 
   71.1250   -37.5840    71.5170     9.2490     7.8360     7.8220    23.5680     2.1620 
   71.2500   -37.8010    68.9050     9.1640     7.6950     8.0340    23.4990     2.1470 
   71.3750   -37.9030    68.9560     9.1830     7.6230     8.3270    23.4510     2.1430 
   71.5000   -37.9840    71.9210     9.2550     7.5990     8.2310    23.4260     2.1480 
   71.6250   -38.0590    72.7620     9.3140     7.5810     7.8180    23.3860     2.1590 
   71.7500   -38.1150    72.1910     9.3360     7.5480     7.5190    23.3180     2.1690 
   71.8750   -38.1350    73.3020     9.3350     7.5080     7.4590    23.2750     2.1750 
   72.0000   -38.2280    76.2300     9.3470     7.4850     7.5260    23.2640     2.1760 
   72.1250   -38.3500    75.9950     9.4190     7.5140     7.6230    23.2640     2.1740 
   72.2500   -38.5270    72.5960     9.5580     7.6000     7.6800    23.2510     2.1730 
   72.3750   -38.6770    69.3410     9.7410     7.7280     7.7770    23.2310     2.1720 
   72.5000   -38.8440    68.9360     9.9250     7.8660     8.1580    23.2300     2.1720 
   72.6250   -39.0000    69.7890    10.0410     7.9630     8.8300    23.3430     2.1720 
   72.7500   -39.0730    68.0740    10.0530     7.9870     9.4600    23.5090     2.1710 
   72.8750   -39.1600    64.9350     9.9540     7.9240     9.8510    23.6630     2.1690 
   73.0000   -39.1310    63.3440     9.7760     7.7900     9.9460    23.7300     2.1630 
   73.1250   -39.1270    62.7890     9.5850     7.6280     9.7940    23.8900     2.1500 
