~V
VERS. 2.00: Ver 2.00
~W
STRT.M 50.0000:
STOP.M 264.0000:
STEP.M 0.1250:
NULL. -999.2500:
UWI. DF32158:
~C
DEPT.M :
GR.API :
RML.OHMM :
RI. :
RXO.OHMM :
CALI.CM :
DEN.GM/CC :
SP.MV :
~A
# ...
  117.5000   114.9690     6.8160     5.6350     6.4340    23.1920     2.2490   -12.2670 
  117.6250   117.1440     6.9220     5.7280     6.4950    22.8480     2.2710   -12.0100 
  117.7500   119.8850     7.0130     5.8530     6.1950    22.6070     2.2930   -11.8600 
  117.8750   119.2410     7.2310     6.0880     6.0910    22.5880     2.3130   -11.8190 
  118.0000   114.9000     7.7050     6.5290     6.2900    22.7870     2.3330   -11.8230 
  118.1250   108.0680     8.4640     7.2220     7.0520    23.0010     2.3660   -11.8580 
  118.2500   101.9030     9.2550     7.9900     9.0090    23.2310     2.4070   -11.8960 
  118.3750    98.8520     9.7850     8.5860    12.5050    23.4940     2.4420   -11.9890 
  118.5000   100.6310     9.8270     8.7730    12.8860    23.6190     2.4520   -12.1540 
  118.6250   104.1580     9.3470     8.4440    11.0640    23.4440     2.4200   -12.4000 
  118.7500   103.9570     8.7070     7.8910     8.3500    23.0710     2.3610   -12.6650 
  118.8750   100.5660     8.1620     7.3500     7.6530    22.7340     2.2950   -12.9220 
  119.0000    98.0740     7.8330     6.9650     7.6340    22.5690     2.2400   -13.1540 
  119.1250    98.2430     7.7430     6.7890     7.4460    22.5540     2.2070   -13.3320 
  119.2500    97.7460     7.7830     6.7400     6.9560    22.6810     2.1920   -13.4820 
  119.3750    96.0300     7.8960     6.7680     6.6850    23.0020     2.1910   -13.5950 
  119.5000    95.8120     8.0400     6.8310     6.7270    23.4350     2.1950   -13.6480 
  119.6250    98.3140     8.1640     6.8960     6.7770    23.6710     2.1990   -13.6660 
  119.7500   100.8620     8.2130     6.9300     6.8610    23.7420     2.1990   -13.6870 
  119.8750   101.5160     8.1620     6.9190     7.2730    23.7480     2.1930   -13.6620 
  120.0000    99.7080     8.0820     6.9070     7.5530    23.7450     2.1860   -13.6370 
  120.1250    98.0710     8.1760     7.0330     7.1140    23.7470     2.1890   -13.5890 
  120.2500    97.8670     8.5520     7.3710     6.8540    23.7810     2.2120   -13.5500 
  120.3750    98.0450     9.1710     7.8980     7.4480    23.8460     2.2610   -13.4770 
  120.5000    99.6540     9.8290     8.4650     9.1620    23.8950     2.3240   -13.3620 
  120.6250   102.8170    10.1060     8.7390    12.4130    24.0370     2.3770   -13.2050 
  120.7500   104.3570     9.8210     8.5440    14.1720    24.2610     2.4000   -13.0250 
  120.8750   103.8870     9.1070     7.9590    10.7250    24.3320     2.3870   -12.8830 
  121.0000   103.9300     8.3090     7.2490     7.8470    24.0960     2.3500   -12.7330 
  121.1250   103.9470     7.7620     6.7040     6.7860    23.9630     2.3010   -12.6070 
  121.2500   103.1120     7.4960     6.4010     6.5470    24.1440     2.2530   -12.4770 
  121.3750   103.9320     7.4160     6.2980     6.6340    24.4970     2.2090   -12.3480 
  121.5000   105.9250     7.3860     6.2890     6.5930    24.7690     2.1800   -12.2390 
  121.6250   105.1750     7.3080     6.2650     6.3530    24.7230     2.1790   -12.1420 
  121.7500   103.0730     7.2190     6.2140     6.2510    24.3330     2.2010   -12.0530 
  121.8750   103.4900     7.1910     6.1870     6.1290    23.8510     2.2340   -11.9780 
  122.0000   105.2010     7.2780     6.2350     5.7870    23.5020     2.2590   -11.9580 
  122.1250   106.4830     7.5070     6.3910     5.4950    23.4540     2.2660   -12.0170 
  122.2500   106.7220     7.8020     6.6010     5.7490    23.5960     2.2620   -12.0900 
  122.3750   104.5190     8.0710     6.7940     6.4780    23.5840     2.2570   -12.2010 
  122.5000   100.6290     8.2270     6.9030     7.0380    23.3410     2.2570   -12.3170 
  122.6250    98.3850     8.1950     6.8760     7.1810    23.2240     2.2620   -12.4270 
  122.7500    99.8590     8.0230     6.7550     6.8380    23.2950     2.2640   -12.5250 
  122.8750   102.5850     7.7760     6.5870     6.4690    23.5150     2.2560   -12.5640 
  123.0000   102.2610     7.5320     6.4240     6.2850    23.7830     2.2380   -12.5590 
  123.1250    99.5390     7.3700     6.3160     6.2440    24.1210     2.2170   -12.4620 
  123.2500    99.1270     7.3000     6.2750     5.9930    24.4990     2.2020   -12.3680 
  123.3750   101.6240     7.3190     6.3020     5.9500    24.8350     2.2000   -12.2610 
  123.5000   103.0230     7.4160     6.3970     6.1080    24.9550     2.2090   -12.2110 
  123.6250   103.8950     7.5970     6.5680     6.2120    24.7290     2.2270   -12.1830 
  123.7500   106.1480     7.8600     6.8010     6.0650    24.2670     2.2510   -12.1740 
  123.8750   105.6550     8.1860     7.0770     5.9840    23.9060     2.2830   -12.1780 
  124.0000   101.0700     8.4940     7.3370     6.3360    23.7620     2.3140   -12.1710 
  124.1250    99.5190     8.6030     7.4340     7.3090    23.9200     2.3310   -12.1780 
  124.2500   105.1380     8.4170     7.2850     8.9340    24.2160     2.3270   -12.1630 
  124.3750   112.9690     7.9280     6.8720    10.0610    24.2850     2.3050   -12.1470 
  124.5000   117.5330     7.2490     6.2840     8.5600    23.9830     2.2760   -12.0930 
  124.6250   116.1500     6.6400     5.7280     6.8050    23.6380     2.2550   -12.0590 
  124.7500   112.0210     6.3390     5.4080     5.9790    23.3080     2.2490   -12.0510 
  124.8750   106.5410     6.4560     5.4290     5.7180    23.1210     2.2620   -12.1180 
  125.0000    98.2980     6.9860     5.8070     5.5710    23.1650     2.3000   -12.2610 
  125.1250    88.0460     7.8000     6.4870     5.5990    23.4920     2.3550   -12.5360 
  125.2500    81.9110     8.5360     7.1890     6.0390    23.8540     2.4060   -12.9410 
  125.3750    81.6670     8.9090     7.6550     7.8460    24.1390     2.4260   -13.4670 
  125.5000    84.7660     8.8490     7.7590    10.9320    24.4110     2.4010   -14.1420 
  125.6250    85.7950     8.5830     7.6130    11.4030    24.4920     2.3330   -14.9640 
  125.7500    83.7840     8.4940     7.5370     9.6890    24.3570     2.2550   -15.8630 
  125.8750    80.5550     8.7670     7.7240     9.4610    24.0430     2.1910   -16.8310 
  126.0000    78.7260     9.4150     8.2480    10.0760    23.8210     2.1550   -17.8030 
  126.1250    78.4690    10.2950     9.0590    10.0390    23.7850     2.1440   -18.7090 
  126.2500    76.6630    11.0760     9.8790    10.6850    23.8290     2.1400   -19.5330 
  126.3750    74.1360    11.5040    10.4550    12.1960    23.8510     2.1330   -20.2010 
  126.5000    73.8420    11.4660    10.6340    12.9250    23.8400     2.1220   -20.7060 
  126.6250    76.7000    11.0760    10.4460    11.7480    23.7010     2.1140   -20.9610 
  126.7500    79.0750    10.7420    10.2270    10.5260    23.3350     2.1170   -21.0550 
  126.8750    78.0760    10.7450    10.2260     9.7700    22.8000     2.1390   -20.9760 
  127.0000    75.4980    11.1870    10.5720     9.6390    22.2920     2.1800   -20.7960 
  127.1250    74.9900    11.8780    11.1780    10.2370    22.1070     2.2350   -20.5310 
  127.2500    76.3350    12.2400    11.5540    10.7640    22.0960     2.2860   -20.1650 
  127.3750    76.9980    11.7890    11.2020    10.6580    22.3090     2.3170   -19.7140 
  127.5000    77.7120    10.4580     9.9910    10.1130    22.9250     2.3260   -19.1740 
  127.6250    83.0650     8.7390     8.3410     8.4840    23.7840     2.3190   -18.5590 
  127.7500    92.0700     7.3420     6.9180     6.4110    24.3630     2.3150   -17.9440 
  127.8750    99.1950     6.5590     5.9920     4.9900    24.5130     2.3180   -17.4170 
  128.0000    99.3150     6.4140     5.6100     4.7740    24.4410     2.3200   -17.0340 
  128.1250    93.7050     6.7930     5.7470     5.4910    24.3500     2.3080   -16.8210 
  128.2500    88.4590     7.3010     6.1260     6.6480    24.2110     2.2820   -16.7700 
  128.3750    84.5600     7.6530     6.5290     7.8020    24.0740     2.2480   -16.8750 
  128.5000    81.7880     7.7380     6.8130     8.5680    24.0750     2.2170   -17.0680 
  128.6250    81.7660     7.8080     7.0680     8.3660    24.2750     2.2080   -17.3820 
