~V
VERS. 2.00: Ver 2.00
~W
STRT.M 62.0000:
STOP.M 256.0000:
STEP.M 0.1250:
NULL. -999.2500:
UWI. DF32087:
~C
DEPT.M :
SP.MV :
GR.API :
RML.OHMM :
RI. :
RXO.OHMM :
CALI.CM :
DEN.GM/CC :
~A
# ...
   84.5000   -30.3850    61.9750     8.0670     6.5580     7.9260    24.2130     2.1680 
   84.6250   -29.7330    67.3530     7.5720     6.1690     6.8500    24.3370     2.2000 
   84.7500   -29.0970    72.1680     7.2050     5.8380     5.7980    24.4660     2.2300 
   84.8750   -28.5020    74.9150     7.0110     5.6210     5.5890    24.5330     2.2510 
   85.0000   -27.9740    76.8050     6.9670     5.5230     5.7990    24.5580     2.2600 
   85.1250   -27.4920    80.4700     6.9990     5.5110     6.1480    24.5860     2.2620 
   85.2500   -27.1960    81.9930     6.9960     5.5040     6.2030    24.6300     2.2610 
   85.3750   -26.9910    78.5910     6.8990     5.4480     5.8570    24.6560     2.2630 
   85.5000   -26.9610    75.1230     6.7050     5.3210     5.5640    24.6080     2.2700 
   85.6250   -26.9260    76.3610     6.4730     5.1430     5.6460    24.5260     2.2820 
   85.7500   -26.9390    78.6500     6.3020     4.9810     5.5340    24.4940     2.2960 
   85.8750   -27.0450    80.8590     6.2570     4.8890     5.1790    24.4740     2.3070 
   86.0000   -27.2360    83.9650     6.3560     4.8950     5.2520    24.4080     2.3080 
   86.1250   -27.5560    85.2280     6.5730     5.0070     5.5810    24.2780     2.2960 
   86.2500   -27.8150    80.7090     6.7970     5.1580     5.9580    24.1100     2.2730 
   86.3750   -28.1070    72.9630     6.9440     5.2960     6.6240    23.9120     2.2450 
   86.5000   -28.2850    68.9450     6.9910     5.3980     7.3360    23.7390     2.2200 
   86.6250   -28.5140    68.6160     7.0750     5.5520     7.6310    23.6390     2.2110 
   86.7500   -28.6910    68.4100     7.5030     5.9640     7.6640    23.5990     2.2300 
   86.8750   -28.8450    69.4910     8.5770     6.8680     7.6750    23.6590     2.2860 
   87.0000   -28.9990    71.8970    10.4330     8.3980     8.4310    23.9040     2.3740 
   87.1250   -29.1700    71.3750    12.8840    10.4760    13.3890    24.2710     2.4680 
   87.2500   -29.4450    64.7770    15.1170    12.4920    23.9850    24.5270     2.5240 
   87.3750   -29.7700    57.0450    16.3000    13.7890    34.8870    24.5870     2.5190 
   87.5000   -30.1710    53.7730    15.8660    13.8530    32.8390    24.4880     2.4560 
   87.6250   -30.5760    57.0270    13.9270    12.5690    18.9360    24.2430     2.3680 
   87.7500   -30.9530    61.9480    11.8020    10.8490    11.6960    24.0040     2.2910 
   87.8750   -31.3340    63.7490    10.2410     9.3410     9.6920    23.8690     2.2420 
   88.0000   -31.6240    62.1130     9.4330     8.3470     9.6530    23.8430     2.2200 
   88.1250   -31.8790    62.1950     9.3170     7.9530     9.6040    23.8790     2.2180 
   88.2500   -32.0300    64.7990     9.5510     7.9340     9.7130    23.9220     2.2240 
   88.3750   -32.1530    67.1140     9.9390     8.1410     9.8010    23.9530     2.2310 
   88.5000   -32.2340    66.3360    10.3240     8.4290     9.6390    23.9670     2.2370 
   88.6250   -32.2530    64.2510    10.5670     8.6680     9.5980    23.9730     2.2410 
   88.7500   -32.3230    65.2700    10.6290     8.7880    10.1770    23.9720     2.2400 
   88.8750   -32.3010    68.9370    10.5060     8.7670    11.0800    23.9720     2.2320 
   89.0000   -32.3440    70.8570    10.2380     8.6190    10.4560    23.9720     2.2180 
   89.1250   -32.2910    67.1400     9.9110     8.3930     9.3150    23.9660     2.2020 
   89.2500   -32.3110    63.9600     9.6380     8.1720     8.7880    23.9400     2.1900 
   89.3750   -32.2800    66.2490     9.4780     8.0080     8.9560    23.8780     2.1810 
   89.5000   -32.2950    70.0840     9.4460     7.9270     9.2410    23.7910     2.1750 
   89.6250   -32.3090    69.8920     9.5190     7.9330     9.3240    23.7320     2.1730 
   89.7500   -32.3040    66.9580     9.6140     7.9730     9.2940    23.7160     2.1750 
   89.8750   -32.3410    64.8930     9.6660     7.9990     9.3830    23.7340     2.1820 
   90.0000   -32.3620    63.6170     9.6240     7.9680     9.8150    23.7810     2.1910 
   90.1250   -32.4460    62.3760     9.4560     7.8450    10.2250    23.8500     2.1980 
   90.2500   -32.5120    62.1670     9.2110     7.6570     9.8510    23.9380     2.2000 
   90.3750   -32.5960    62.4740     8.9440     7.4410     8.8710    23.9940     2.1980 
   90.5000   -32.6490    61.8910     8.7150     7.2420     8.0790    24.0490     2.1950 
   90.6250   -32.7180    61.8350     8.5950     7.1150     8.0330    24.1850     2.1940 
   90.7500   -32.8260    63.8880     8.5880     7.0720     8.1730    24.2830     2.1930 
   90.8750   -32.9210    65.8620     8.6800     7.1120     8.2280    24.2830     2.1910 
   91.0000   -33.0280    65.4460     8.8390     7.2130     8.4880    24.2560     2.1850 
   91.1250   -33.0720    62.7750     9.0130     7.3430     8.7350    24.2460     2.1740 
   91.2500   -33.0950    58.8100     9.1520     7.4610     8.8220    24.2290     2.1620 
   91.3750   -33.0630    54.2330     9.2290     7.5430     8.8270    24.1700     2.1530 
   91.5000   -33.0160    50.9230     9.2380     7.5800     8.7140    24.0780     2.1510 
   91.6250   -33.0090    52.2990     9.1910     7.5690     8.5310    23.9630     2.1550 
   91.7500   -32.8900    56.7370     9.1260     7.5360     8.4560    23.9170     2.1620 
   91.8750   -32.7900    61.6850     9.0670     7.4950     8.5330    23.9510     2.1680 
   92.0000   -32.6130    64.6780     9.0310     7.4580     8.6260    24.0090     2.1740 
   92.1250   -32.5380    64.8000     9.0250     7.4330     8.7090    23.9660     2.1800 
   92.2500   -32.4360    64.2790     9.0400     7.4190     8.6440    23.9830     2.1870 
   92.3750   -32.4430    64.6460     9.0700     7.4180     8.5420    24.0540     2.1930 
   92.5000   -32.4420    64.0360     9.1100     7.4290     8.8450    24.1250     2.1990 
   92.6250   -32.4020    61.2900     9.1560     7.4550     9.0550    24.1290     2.2010 
   92.7500   -32.4170    60.1030     9.2050     7.4910     9.1920    24.0810     2.1990 
   92.8750   -32.4190    62.0880     9.2560     7.5340     9.2450    24.0170     2.1940 
   93.0000   -32.4600    64.0370     9.3070     7.5810     9.2650    23.9810     2.1880 
   93.1250   -32.4070    61.5230     9.3630     7.6320     9.1970    23.9660     2.1830 
   93.2500   -32.3690    58.2390     9.4210     7.6840     9.1360    23.9460     2.1810 
   93.3750   -32.2750    58.4610     9.4800     7.7350     9.1090    23.9120     2.1810 
   93.5000   -32.2040    62.1050     9.5320     7.7800     9.0660    23.8900     2.1830 
   93.6250   -32.1410    63.9630     9.5620     7.8100     8.8940    23.8810     2.1850 
   93.7500   -32.1120    62.7280     9.5660     7.8230     8.6080    23.8490     2.1860 
   93.8750   -32.0970    60.3770     9.5440     7.8170     8.4750    23.7470     2.1870 
   94.0000   -32.1310    59.1420     9.5080     7.7980     8.6320    23.5830     2.1880 
   94.1250   -32.1700    60.2720     9.4780     7.7830     8.8490    23.4700     2.1880 
   94.2500   -32.2620    63.1100     9.4770     7.7870     8.8920    23.4310     2.1880 
   94.3750   -32.2980    65.8060     9.5190     7.8230     8.7690    23.4260     2.1870 
   94.5000   -32.3500    66.3510     9.6040     7.8910     8.6990    23.4360     2.1850 
   94.6250   -32.4190    63.5190     9.7240     7.9880     8.8810    23.4640     2.1830 
   94.7500   -32.4780    59.7060     9.8480     8.0890     8.9840    23.4970     2.1840 
   94.8750   -32.5520    56.7220     9.9510     8.1760     9.0570    23.5110     2.1880 
   95.0000   -32.5580    56.9680    10.0200     8.2350     9.1410    23.5120     2.1950 
   95.1250   -32.6340    61.1490    10.0450     8.2510     9.0930    23.4980     2.2020 
   95.2500   -32.6000    65.6020    10.0380     8.2340     9.0320    23.4660     2.2060 
   95.3750   -32.6680    66.0780    10.0090     8.1900     9.1650    23.4370     2.2060 
   95.5000   -32.6740    61.3600     9.9660     8.1300     9.3120    23.4290     2.2020 
   95.6250   -32.6910    56.7290     9.9110     8.0630     9.2870    23.4500     2.1950 
