~V
VERS. 2.00: Ver 2.00
~W
STRT.M 62.0000:
STOP.M 272.0000:
STEP.M 0.1250:
NULL. -999.2500:
UWI. DF32143:
~C
DEPT.M :
SP.MV :
GR.API :
CALI.CM :
RXO.OHMM :
RI. :
RML.OHMM :
DEN.GM/CC :
~A
# ...
  264.5000   -12.1710    75.3400    25.2650    11.6250     7.3040     7.9710     2.3440 
  264.6250   -12.0280    75.3400    25.2670    12.1600     7.3680     8.0810     2.3510 
  264.7500   -11.8930    75.3400    25.2680    11.5610     7.3890     8.1160     2.3480 
  264.8750   -11.7020    75.3400    25.2750    10.7620     7.3910     8.1160     2.3380 
  265.0000   -11.4340    75.3400    25.2960    10.0460     7.3880     8.1050     2.3240 
  265.1250   -11.1140    75.3400    25.3240     8.9980     7.3840     8.0940     2.3120 
  265.2500   -10.7920    75.3400    25.3410     7.7120     7.3810     8.0870     2.3090 
  265.3750   -10.5210    75.3400    25.3450     6.6520     7.3790     8.0870     2.3170 
  265.5000   -10.3210    75.3400    25.3360     6.1650     7.3790     8.0910     2.3310 
  265.6250   -10.1700    75.3400    25.3100     6.5360     7.3800     8.0980     2.3380 
  265.7500   -10.0630    75.3400    25.2800     7.5720     7.3800     8.1040     2.3320 
  265.8750   -10.0030    75.3400    25.2640     8.6710     7.3790     8.1070     2.3170 
  266.0000    -9.9990    75.3400    25.2640     8.9400     7.3780     8.1060     2.3000 
  266.1250   -10.0420    75.3400    25.2670     8.2120     7.3780     8.1050     2.2930 
  266.2500   -10.0800    75.3400    25.2670     7.8040     7.3790     8.1060     2.2970 
  266.3750   -10.0880    75.3400    25.2660     8.4260     7.3820     8.1100     2.3090 
  266.5000   -10.0670    75.3400    25.2600     9.7330     7.3840     8.1150     2.3230 
  266.6250   -10.0610    75.3400    25.2420    10.9240     7.3860     8.1190     2.3340 
  266.7500   -10.0550    75.3400    25.2130    11.9640     7.3870     8.1190     2.3400 
  266.8750   -10.0530    75.3400    25.1840    13.1190     7.3880     8.1160     2.3440 
  267.0000   -10.0530    75.3400    25.1710    13.8690     7.3870     8.1130     2.3480 
  267.1250   -10.0540    75.3400    25.1780    13.0310     7.3850     8.1080     2.3510 
  267.2500   -10.0630    75.3400    25.1860    11.1690     7.3840     8.1050     2.3500 
  267.3750   -10.0710    75.3400    25.1550     9.5730     7.3850     8.1040     2.3500 
  267.5000   -10.0630    75.3400    25.0390     8.9220     7.3880     8.1060     2.3580 
  267.6250   -10.0250    75.3400    24.8840     8.7120     7.3880     8.1060     2.3760 
  267.7500    -9.9840    75.3400    24.8440     7.9510     7.3880     8.1060     2.3960 
  267.8750    -9.9520    75.3400    24.9450     6.5860     7.3880     8.1060     2.4120 
  268.0000    -9.9260    75.3400    25.0750     5.2450     7.3880     8.1060     2.4190 
  268.1250    -9.9060    75.3400    25.1160     4.6230     7.3880     8.1060     2.4130 
  268.2500    -9.8770    75.3400    25.0910     4.5410     7.3880     8.1060     2.4000 
  268.3750    -9.8410    75.3400    25.0430     4.6290     7.3880     8.1060     2.3840 
  268.5000    -9.8140    75.3400    24.9800     4.6320     7.3880     8.1060     2.3710 
  268.6250    -9.8010    75.3400    24.9120     4.5120     7.3880     8.1060     2.3660 
  268.7500    -9.7870    75.3400    24.8310     4.3980     7.3880     8.1060     2.3610 
  268.8750    -9.7650    75.3400    24.7940     4.3450     7.3880     8.1060     2.3520 
  269.0000    -9.7210    75.3400    24.6830     4.3200     7.3880     8.1060     2.3350 
  269.1250    -9.6330    75.3400    23.7230     4.2830     7.3880     8.1060     2.3020 
  269.2500    -9.5330    75.3400    22.0030     4.2470     7.3880     8.1060     2.2420 
  269.3750    -9.4290    75.3400    20.4220     4.2300     7.3880     8.1060     2.1680 
  269.5000    -9.4090    75.3400    19.7420     4.2270     7.3880     8.1060     2.1090 
  269.6250    -9.2330    75.3400    19.7990     4.2260     7.3880     8.1060     2.0960 
  269.7500    -9.1380    75.3400    19.8490     4.2260     7.3880     8.1060     2.1050 
  269.8750    -9.0570    75.3400    19.8340     4.2270     7.3880     8.1060     2.1110 
  270.0000    -8.9950    75.3400    19.8340     4.2260     7.3880     8.1060     2.1040 
  270.1250    -8.9840    75.3400    19.8340     4.2260     7.3880     8.1060     2.0910 
  270.2500    -8.9840    75.3400    19.8340     4.2260     7.3880     8.1060     2.0870 
  270.3750  -999.2500    75.3400    19.8340     4.2260     7.3880     8.1060     2.0930 
  270.5000  -999.2500    75.3400    19.8350     4.2260     7.3880     8.1060     2.1000 
  270.6250  -999.2500    75.3400    19.8320     4.2260     7.3880     8.1060     2.1010 
  270.7500  -999.2500    75.3400    19.8220     4.2250     7.3880     8.1060     2.0970 
  270.8750  -999.2500    75.3400    19.8060     4.2250     7.3880     8.1060     2.0950 
  271.0000  -999.2500    75.3400    19.7920     4.2250     7.3880     8.1060     2.0930 
  271.1250  -999.2500    75.3400    19.7820     4.2260     7.3880     8.1060     2.0900 
  271.2500  -999.2500    75.3400    19.7740     4.2260     7.3880     8.1060     2.0900 
  271.3750  -999.2500    75.3400    19.7670     4.2270     7.3880     8.1060     2.1060 
  271.5000  -999.2500    75.3400    19.7630     4.2270     7.3880     8.1060     2.1470 
  271.6250  -999.2500    75.3400    19.7610     4.2270     7.3880     8.1060     2.1910 
  271.7500  -999.2500    75.3400    19.7590     4.2270     7.3880     8.1060     2.2070 
  271.8750  -999.2500    75.3400    19.7570     4.2270     7.3880     8.1060     2.1950 
  272.0000  -999.2500    75.3400    19.7560     4.2270     7.3880     8.1060     2.1840 
