~V
VERS. 2.00: Ver 2.00
~W
STRT.M 59.0000:
STOP.M 261.0000:
STEP.M 0.1250:
NULL. -999.2500:
UWI. DF32116:
~C
DEPT.M :
SP.MV :
GR.API :
CALI.CM :
RXO.OHMM :
RI. :
RML.OHMM :
DEN.GM/CC :
~A
# ...
   81.5000   -21.7150    88.9000    24.1210     4.1680     4.4260     6.1610     2.3560 
   81.6250   -21.2850    90.4600    24.2150     4.2260     4.2510     6.0200     2.3660 
   81.7500   -21.0780    91.8290    24.3450     4.3260     4.1670     5.9560     2.3660 
   81.8750   -21.0660    92.8340    24.4890     4.4350     4.1370     5.9060     2.3580 
   82.0000   -21.2420    91.8670    24.5680     4.5480     4.1520     5.8980     2.3470 
   82.1250   -21.5760    88.4390    24.5760     4.6130     4.2600     6.0880     2.3350 
   82.2500   -21.9620    84.3110    24.5720     4.7130     4.5010     6.5790     2.3160 
   82.3750   -22.3470    79.5370    24.5770     5.1020     4.8930     7.3940     2.2880 
   82.5000   -22.6570    75.0490    24.5640     5.9160     5.3920     8.3890     2.2550 
   82.6250   -22.7850    74.1260    24.4950     6.8650     5.8180     9.1140     2.2310 
   82.7500   -22.7350    79.2280    24.3900     7.3460     5.9570     9.1360     2.2300 
   82.8750   -22.5170    88.9440    24.3130     7.0070     5.7130     8.3680     2.2580 
   83.0000   -22.1300    99.1130    24.4020     5.9270     5.1880     7.1660     2.3070 
   83.1250   -21.6020   104.5120    24.7810     4.7300     4.6220     6.1290     2.3530 
   83.2500   -21.0300   103.7990    25.2550     4.0650     4.2090     5.5660     2.3770 
   83.3750   -20.4650    98.1580    25.5830     4.0330     3.9990     5.4870     2.3770 
   83.5000   -19.9680    91.7880    25.6550     4.3510     3.9660     5.7500     2.3660 
   83.6250   -19.6310    90.4580    25.5640     4.6500     4.0270     6.0700     2.3540 
   83.7500   -19.4700    92.7740    25.4760     4.7410     4.0430     6.1230     2.3430 
   83.8750   -19.5030    94.6500    25.4560     4.6160     3.9440     5.7940     2.3340 
   84.0000   -19.7580    94.7030    25.5320     4.3750     3.7550     5.2420     2.3340 
   84.1250   -20.2410    93.5790    25.6200     4.1150     3.6000     4.8510     2.3410 
   84.2500   -20.8640    90.2750    25.5850     4.0690     3.5990     4.8770     2.3380 
   84.3750   -21.5770    84.0260    25.3870     4.8320     3.8260     5.4360     2.3140 
   84.5000   -22.3250    75.9380    25.0910     6.9650     4.3200     6.5550     2.2770 
   84.6250   -23.0040    68.6970    24.8320     9.5540     5.1020     8.1830     2.2420 
   84.7500   -23.5310    64.1270    24.6860    10.4630     5.9880     9.8550     2.2180 
   84.8750   -23.8560    63.2300    24.6470     9.5950     6.7230    10.9890     2.2040 
   85.0000   -23.9210    64.5300    24.6570     8.6070     7.0370    11.0950     2.2000 
   85.1250   -23.6860    67.4470    24.6580     8.2580     6.7690    10.0990     2.2080 
   85.2500   -23.2650    72.4900    24.6510     7.5240     6.2070     8.7780     2.2330 
   85.3750   -22.7190    79.4830    24.6530     6.3490     5.6000     7.6450     2.2750 
   85.5000   -22.1200    85.2840    24.6770     5.5430     5.1100     6.9320     2.3180 
   85.6250   -21.5770    84.8130    24.6980     5.5330     4.8260     6.7000     2.3310 
   85.7500   -21.1520    81.3380    24.6910     5.6120     4.6960     6.7470     2.3140 
   85.8750   -20.8650    78.8930    24.6360     5.4410     4.6720     6.9140     2.2940 
   86.0000   -20.7340    80.9180    24.5250     5.1990     4.6850     7.0270     2.2970 
   86.1250   -20.7510    86.4030    24.3910     5.1300     4.6620     6.9020     2.3260 
   86.2500   -20.8200    90.0770    24.3020     5.1080     4.5810     6.5700     2.3450 
   86.3750   -20.9030    90.6260    24.2690     5.0580     4.4840     6.2050     2.3360 
   86.5000   -20.9880    89.3430    24.2390     4.9820     4.4660     6.0650     2.3090 
   86.6250   -21.0410    86.9810    24.1890     4.9400     4.6800     6.4730     2.3000 
   86.7500   -21.0470    81.6570    24.1710     5.4670     5.1590     7.4330     2.3260 
   86.8750   -21.0120    73.6320    24.1840     7.8530     5.8750     8.8110     2.3800 
   87.0000   -20.9390    67.0020    24.1740    12.6210     6.6560    10.1880     2.4400 
   87.1250   -20.8500    66.6090    24.0820    14.9390     7.0840    10.6600     2.4690 
   87.2500   -20.7810    70.4910    23.9450    12.1560     6.9400     9.9650     2.4530 
   87.3750   -20.7330    75.4600    23.8120     7.5100     6.3390     8.5700     2.3990 
   87.5000   -20.6950    78.9080    23.7120     5.0570     5.5980     7.2050     2.3340 
   87.6250   -20.6840    79.0220    23.6560     4.7570     5.0150     6.3790     2.2880 
   87.7500   -20.7170    77.8790    23.6320     4.8140     4.6520     6.0130     2.2670 
   87.8750   -20.8090    78.6530    23.6450     4.7600     4.4710     5.9190     2.2600 
   88.0000   -20.9880    81.7130    23.7060     4.6340     4.3920     5.8990     2.2570 
   88.1250   -21.2800    82.8220    23.7720     4.5290     4.3660     5.8740     2.2560 
   88.2500   -21.6690    80.5650    23.8220     4.4690     4.3910     5.9280     2.2620 
   88.3750   -22.1420    77.1100    23.8960     4.5670     4.5010     6.1560     2.2730 
   88.5000   -22.6860    73.7180    23.9780     5.0530     4.7230     6.6010     2.2810 
   88.6250   -23.2670    69.4150    23.9560     6.0360     5.0780     7.2700     2.2720 
   88.7500   -23.8450    66.1500    23.8430     6.9830     5.5140     8.0440     2.2520 
   88.8750   -24.3940    65.5120    23.7370     7.4990     5.9800     8.8250     2.2320 
   89.0000   -24.8970    66.8980    23.6950     7.6960     6.4140     9.5170     2.2210 
   89.1250   -25.3120    67.8530    23.6870     7.9960     6.7420    10.0150     2.2180 
   89.2500   -25.6190    68.1360    23.6830     8.4380     6.9520    10.3280     2.2180 
   89.3750   -25.8460    68.1080    23.6790     8.7960     7.0540    10.4820     2.2170 
   89.5000   -26.0140    67.2860    23.6680     8.9270     7.0760    10.5270     2.2160 
   89.6250   -26.1250    64.3040    23.6640     8.8490     7.0410    10.4930     2.2160 
   89.7500   -26.2150    61.6890    23.6660     8.7670     6.9870    10.4340     2.2140 
   89.8750   -26.3000    60.7360    23.6800     8.8070     6.9400    10.3910     2.2060 
   90.0000   -26.3850    61.8000    23.7190     8.9730     6.9170    10.3910     2.1960 
   90.1250   -26.4790    64.8380    23.7710     9.0980     6.9340    10.4570     2.1900 
   90.2500   -26.5850    67.3760    23.8060     9.1020     7.0060    10.6160     2.1870 
   90.3750   -26.6950    66.9990    23.8020     9.0970     7.1590    10.9170     2.1910 
   90.5000   -26.8100    62.7340    23.7680     9.4000     7.4130    11.3930     2.2200 
   90.6250   -26.9330    59.0720    23.7320    10.8260     7.7650    12.0220     2.2910 
   90.7500   -27.0610    58.4970    23.7830    13.2020     8.1310    12.6190     2.3750 
   90.8750   -27.1780    60.0930    24.1040    14.9260     8.4050    12.9570     2.4240 
   91.0000   -27.2690    61.8880    24.5220    14.4150     8.4820    12.8450     2.4050 
   91.1250   -27.3150    61.7770    24.5010    12.1500     8.2950    12.2440     2.3310 
   91.2500   -27.3100    61.8710    24.0810    10.3530     7.9720    11.4920     2.2650 
   91.3750   -27.2430    63.9100    23.6990     9.4650     7.6410    10.8640     2.2330 
   91.5000   -27.0930    66.4740    23.6260     9.1110     7.4110    10.5360     2.2280 
   91.6250   -26.8500    65.6700    23.6560     9.0600     7.3490    10.5650     2.2220 
   91.7500   -26.5100    62.8830    23.5850     9.1860     7.3740    10.7170     2.2070 
   91.8750   -26.1000    61.2560    23.4230     9.3400     7.3760    10.7370     2.1920 
   92.0000   -25.6580    61.6450    23.1850     9.3410     7.2370    10.4100     2.1910 
   92.1250   -25.2280    63.4240    22.9330     8.9160     6.8750     9.6380     2.2040 
   92.2500   -24.8600    67.7480    22.7150     8.1010     6.3880     8.6950     2.2180 
   92.3750   -24.5960    72.5940    22.5480     7.1460     5.8950     7.8470     2.2250 
   92.5000   -24.4680    73.2220    22.4500     6.3800     5.5010     7.2720     2.2230 
   92.6250   -24.5240    70.6960    22.4230     6.0630     5.2890     7.0670     2.2120 
