~V
VERS. 2.00: Ver 2.00
~W
STRT.M 63.0000:
STOP.M 291.0000:
STEP.M 0.1250:
NULL. -999.2500:
UWI. DF325:
~C
DEPT.M :
DEN.GM/CC :
SP.MV :
AC.US/MT :
GR.API :
RML.OHMM :
RI. :
RXO.OHMM :
CALI.CM :
~A
# ...
  183.0000     2.2560   -28.7930   393.1710    59.4800   169.4310   156.5880    66.7430    24.5290 
  183.1250     2.2690   -28.4340   390.8370    62.8330   154.7780   142.9390    63.1840    24.4730 
  183.2500     2.2800   -28.0360   389.8300    67.7730   144.4290   133.7760    63.0770    24.4080 
  183.3750     2.2860   -27.6380   389.4590    69.1950   137.8100   128.5450    64.8230    24.3420 
  183.5000     2.2860   -27.2730   389.5900    66.0670   134.6320   126.7420    68.7640    24.3100 
  183.6250     2.2780   -26.9540   390.7840    63.8240   135.4070   128.4290    74.8290    24.3120 
  183.7500     2.2670   -26.6380   393.0540    65.4120   141.1630   133.9290    79.8580    24.3680 
  183.8750     2.2550   -26.3130   396.0000    67.1340   155.2300   145.9180    81.9440    24.4350 
  184.0000     2.2440   -25.9850   398.8150    65.9110   179.9100   167.1590    82.3520    24.5090 
  184.1250     2.2340   -25.6660   400.1760    63.0290   213.4230   198.1240    81.0150    24.5660 
  184.2500     2.2240   -25.3590   399.6450    60.4670   242.4010   228.5900    80.4760    24.6120 
  184.3750     2.2180   -25.0660   397.6070    59.8550   250.8550   244.2650    81.7990    24.6550 
  184.5000     2.2230   -24.7770   395.1190    62.9770   224.2150   230.3350    82.1120    24.6830 
  184.6250     2.2480   -24.5060   393.6020    67.9010   161.5400   179.1490    75.9870    24.6610 
  184.7500     2.2870   -24.2610   393.6290    70.2890   100.0430   118.5220    61.4970    24.5860 
  184.8750     2.3240   -24.0380   395.0560    72.8350    60.9660    72.1790    41.1640    24.4460 
  185.0000     2.3430   -23.8670   397.2340    77.7770    42.5190    46.3990    24.6640    24.2250 
  185.1250     2.3310   -23.8150   399.1160    80.6630    38.1160    37.8780    19.6430    23.9430 
  185.2500     2.2990   -23.8460   399.9220    78.4090    40.8570    38.4380    22.8800    23.7870 
  185.3750     2.2630   -23.9080   399.4120    73.2460    48.9260    45.4220    32.3930    23.7870 
  185.5000     2.2370   -24.0200   397.8220    67.5340    60.9850    57.1470    47.7010    23.9580 
  185.6250     2.2300   -24.2300   395.6520    62.7330    74.9530    71.5600    64.8930    24.3820 
  185.7500     2.2370   -24.5020   393.6210    61.5640    87.0620    84.6500    80.9640    24.8680 
  185.8750     2.2510   -24.7830   392.5280    63.6750    94.1960    93.0630    91.9250    25.2880 
  186.0000     2.2640   -25.0270   393.2330    65.9320    94.8490    94.9380    90.6210    25.5170 
  186.1250     2.2700   -25.2310   395.8370    68.9080    89.8890    90.5330    82.9910    25.5850 
  186.2500     2.2710   -25.4200   398.5680    72.0640    83.9850    84.2810    76.6800    25.5830 
  186.3750     2.2700   -25.5870   399.7550    73.1890    80.3330    79.3820    72.2940    25.5590 
  186.5000     2.2690   -25.7410   398.3100    72.2760    80.8570    77.9040    68.4880    25.5310 
  186.6250     2.2700   -25.8870   393.9530    72.5480    86.5040    80.9870    67.7890    25.4990 
  186.7500     2.2710   -26.0400   388.8180    72.1790    94.7080    86.6310    70.6420    25.4830 
  186.8750     2.2720   -26.2060   385.0670    68.2400   102.3100    92.3290    75.9810    25.4810 
  187.0000     2.2740   -26.4120   384.0390    63.9030   105.5980    95.0370    81.9670    25.4710 
  187.1250     2.2790   -26.6500   385.9860    63.6350   100.6150    91.3290    83.1720    25.4020 
  187.2500     2.2910   -26.9040   388.8600    65.5920    89.3710    82.2610    73.0150    25.2200 
  187.3750     2.3080   -27.1940   390.9320    67.3790    75.5870    70.4330    54.0960    24.9210 
  187.5000     2.3300   -27.5230   391.0780    67.3670    63.3330    59.2080    41.4100    24.5690 
  187.6250     2.3510   -27.8880   389.0700    64.8920    56.1550    51.9560    35.2940    24.2540 
  187.7500     2.3640   -28.2950   386.0980    63.4870    54.4340    49.4770    35.1520    24.0040 
  187.8750     2.3630   -28.7390   383.0260    64.0630    58.6040    52.3630    41.4600    23.8270 
  188.0000     2.3460   -29.1890   380.9290    64.8360    69.1250    61.1340    54.4200    23.7460 
  188.1250     2.3180   -29.6810   381.2200    63.1040    87.1790    76.9600    73.4130    23.8030 
  188.2500     2.2880   -30.2240   383.5580    60.5320   110.2970    97.6280    93.8500    24.0060 
  188.3750     2.2630   -30.7530   386.7140    59.3230   135.3310   120.2960   108.0220    24.2690 
  188.5000     2.2470   -31.2040   389.3320    61.3280   158.2390   140.8620   108.3480    24.4040 
  188.6250     2.2420   -31.5820   390.6940    64.5890   172.5320   153.7740    98.7560    24.3820 
  188.7500     2.2450   -31.9390   391.2160    64.0620   177.2260   158.1450    91.4750    24.3020 
  188.8750     2.2550   -32.2460   391.2310    60.2060   172.7080   155.3620    86.5930    24.1830 
  189.0000     2.2660   -32.4670   391.1190    57.5640   163.5960   148.7460    82.2700    24.0870 
  189.1250     2.2730   -32.6040   391.4940    58.1980   151.6100   142.2930    80.7210    24.0910 
  189.2500     2.2710   -32.6990   392.6050    60.8680   142.2360   138.5420    82.2000    24.2030 
  189.3750     2.2600   -32.7570   394.3250    64.0860   140.5760   138.2200    87.3860    24.3780 
  189.5000     2.2460   -32.7780   396.4470    66.0110   145.3050   141.0090    94.0020    24.4580 
  189.6250     2.2330   -32.7770   398.8290    65.3390   151.8300   146.0920    97.4860    24.3120 
  189.7500     2.2240   -32.7540   401.1300    64.6610   158.5940   151.8500    96.8470    24.0730 
  189.8750     2.2210   -32.6850   403.0450    64.8270   165.1730   157.6780    95.9540    23.9450 
  190.0000     2.2220   -32.5710   404.4330    64.6150   172.2190   163.8960    99.9700    23.9650 
  190.1250     2.2220   -32.3890   405.3120    63.3600   182.0900   172.3370   111.8320    24.1070 
  190.2500     2.2170   -32.1830   406.5220    61.4440   196.8460   184.8090   129.2520    24.2810 
  190.3750     2.2090   -31.9770   408.4440    59.1200   218.4690   203.1180   150.1200    24.4240 
  190.5000     2.2000   -31.7410   410.4310    55.8480   248.3760   228.5560   172.6740    24.4910 
  190.6250     2.1990   -31.4280   410.5350    52.2690   288.3260   262.5790   193.7040    24.4690 
  190.7500     2.2070   -31.0970   407.7390    49.2810   335.4830   302.6210   207.9260    24.4110 
  190.8750     2.2210   -30.8210   402.1090    49.7960   387.7620   346.5670   214.1540    24.3210 
  191.0000     2.2360   -30.5810   394.9980    54.0710   444.3970   392.7580   216.0310    24.2440 
  191.1250     2.2390   -30.3280   390.0720    56.3590   507.1980   441.4190   218.8480    24.2710 
  191.2500     2.2300   -30.0710   390.9860    53.5730   572.9630   491.7370   224.5350    24.3330 
  191.3750     2.2110   -29.8380   399.3310    49.9020   630.6250   538.6490   230.0340    24.3240 
  191.5000     2.1900   -29.6290   413.4140    49.7330   658.8560   569.4880   234.3090    24.3000 
  191.6250     2.1790   -29.4460   428.0510    52.1950   619.5930   557.3760   237.0570    24.2940 
  191.7500     2.1820   -29.2900   438.0270    55.1060   511.4100   494.5320   230.3800    24.2740 
  191.8750     2.1970   -29.1120   441.6980    58.1260   363.1470   389.5470   208.6760    24.2880 
  192.0000     2.2190   -28.9210   439.9690    60.7440   231.1830   272.5320   173.0330    24.3860 
  192.1250     2.2400   -28.7500   435.1810    63.8590   154.0720   182.1770   129.4720    24.4790 
  192.2500     2.2520   -28.6030   431.2980    67.3050   112.3160   125.0880    93.1340    24.5150 
  192.3750     2.2530   -28.4480   430.6190    69.7410    89.6100    94.5730    70.2960    24.5210 
  192.5000     2.2440   -28.2860   433.1450    70.0560    81.5730    82.2150    59.6970    24.5200 
  192.6250     2.2280   -28.1640   436.9080    69.4020    84.2750    83.3420    60.3150    24.5100 
  192.7500     2.2130   -28.0570   440.0290    66.9560    92.8030    91.6260    66.9020    24.5230 
  192.8750     2.2040   -28.0050   442.2100    62.7930   103.7980   103.3550    78.4790    24.5740 
