~V
VERS. 2.00: Ver 2.00
~W
STRT.M 60.0000:
STOP.M 270.0000:
STEP.M 0.1250:
NULL. -999.2500:
UWI. DF32131:
~C
DEPT.M :
DEN.GM/CC :
GR.API :
CALI.CM :
RXO.OHMM :
RI. :
RML.OHMM :
SP.MV :
~A
# ...
  172.5000     2.3150    74.4110    23.5780    52.8860    72.6630    74.3390   -28.6720 
  172.6250     2.3140    70.4130    23.4020    52.8030    80.4650    82.9710   -28.6140 
  172.7500     2.3060    68.1380    23.3340    54.5410    88.4020    91.7640   -28.5620 
  172.8750     2.2900    69.6650    23.4070    56.8300    94.9210    98.9380   -28.5330 
  173.0000     2.2740    72.5570    23.5880    58.3050    99.2330   103.6250   -28.4770 
  173.1250     2.2630    74.2640    23.7230    60.2790   100.6760   105.1980   -28.4280 
  173.2500     2.2550    74.4520    23.8190    63.5100    99.5320   104.0600   -28.3340 
  173.3750     2.2480    73.0350    23.8520    66.0040    96.0090   100.5420   -28.2120 
  173.5000     2.2440    70.2090    23.8570    63.4330    90.7170    95.3550   -28.0620 
  173.6250     2.2490    68.8450    23.8540    53.3420    84.4980    89.3400   -27.9320 
  173.7500     2.2630    70.2550    23.8380    42.7870    78.5200    83.5960   -27.7880 
  173.8750     2.2800    71.7070    23.8020    40.6980    73.4850    78.8080   -27.5970 
  174.0000     2.2910    71.3530    23.7740    46.7980    69.6620    75.2110   -27.3790 
  174.1250     2.2880    70.7810    23.7650    50.3840    67.0180    72.6980   -27.1430 
  174.2500     2.2810    72.7560    23.7650    48.9260    65.0760    70.7770   -26.9700 
  174.3750     2.2780    76.6600    23.7650    46.9110    63.7880    69.4080   -26.8070 
  174.5000     2.2830    79.4840    23.7650    46.2630    63.3740    68.8660   -26.6650 
  174.6250     2.2900    78.6580    23.7630    45.4250    64.5670    70.0370   -26.5100 
  174.7500     2.2930    75.8930    23.7510    45.0190    67.6510    73.3530   -26.3660 
  174.8750     2.2900    74.8490    23.7190    47.0550    72.7850    79.0880   -26.2320 
  175.0000     2.2830    76.5630    23.6810    52.8210    79.6770    87.0330   -26.1220 
  175.1250     2.2800    77.7980    23.6570    60.1780    87.1920    96.0860   -26.0370 
  175.2500     2.2820    75.7510    23.5900    64.6020    92.8720   103.2030   -25.9480 
  175.3750     2.2830    73.2600    23.4280    63.8730    94.3120   105.1240   -25.8370 
  175.5000     2.2790    72.7120    23.2130    59.6190    90.5730   100.6550   -25.7080 
  175.6250     2.2760    73.4750    23.0040    53.0370    83.1200    92.0620   -25.5550 
  175.7500     2.2810    73.8950    22.7600    44.0380    75.8090    84.0230   -25.3930 
  175.8750     2.2930    74.1000    22.5400    35.2380    70.7560    78.7400   -25.2410 
  176.0000     2.3010    73.4640    22.3550    29.6210    68.9900    77.1440   -25.0430 
  176.1250     2.2930    70.8380    22.1960    29.7360    71.2490    79.9910   -24.8350 
  176.2500     2.2780    67.6020    22.0600    31.2280    76.4150    86.1170   -24.5910 
  176.3750     2.2650    65.8720    21.9890    30.8130    83.5410    94.5050   -24.3660 
  176.5000     2.2590    67.2400    21.9710    28.4200    91.3930   103.6630   -24.1460 
  176.6250     2.2590    71.5670    21.9690    26.4280    98.5580   111.7380   -23.9630 
  176.7500     2.2560    76.0210    21.9540    26.1300   104.1850   117.6990   -23.7890 
  176.8750     2.2460    77.3600    21.8770    27.2770   107.0060   119.9240   -23.5880 
  177.0000     2.2370    75.4630    21.6950    28.9050   104.7090   115.3880   -23.4320 
  177.1250     2.2370    73.4230    21.6380    29.5390    94.3650   101.2190   -23.2710 
  177.2500     2.2470    72.0390    21.8990    28.4380    79.3740    83.0500   -23.1610 
  177.3750     2.2640    70.6950    22.2230    25.0170    64.2120    66.3290   -23.0830 
  177.5000     2.2840    71.7410    22.3710    20.1460    52.2870    53.9630   -23.0720 
  177.6250     2.3020    76.8110    22.3720    17.6200    45.3740    47.0380   -23.0650 
  177.7500     2.3110    80.5880    22.3730    18.1400    42.0600    43.8390   -23.0970 
  177.8750     2.3080    81.1340    22.3730    20.1250    41.3310    43.3670   -23.1790 
  178.0000     2.2970    82.3880    22.3730    21.5720    42.3050    44.6610   -23.2920 
  178.1250     2.2880    84.1830    22.3720    21.7460    44.1510    46.6720   -23.4340 
  178.2500     2.2910    82.2310    22.3700    21.9390    45.8020    48.2370   -23.5690 
  178.3750     2.3030    78.2740    22.3700    22.5860    46.8670    49.0340   -23.7050 
  178.5000     2.3140    77.3630    22.3720    23.2920    47.6410    49.5410   -23.8160 
  178.6250     2.3180    80.4120    22.3730    23.3650    49.0230    50.8500   -23.9290 
  178.7500     2.3200    80.9980    22.3730    23.1150    51.5870    53.5680   -24.0090 
  178.8750     2.3250    78.9110    22.3730    23.5370    55.5330    57.9030   -24.0970 
  179.0000     2.3280    78.1600    22.3730    25.3790    60.5610    63.5310   -24.1760 
  179.1250     2.3200    79.4520    22.3730    27.3960    65.4700    69.1270   -24.2530 
  179.2500     2.3060    80.2550    22.3730    27.6320    68.6670    72.7750   -24.3470 
  179.3750     2.2980    79.9980    22.3730    25.9580    69.2980    73.4040   -24.4370 
  179.5000     2.3000    80.7500    22.3730    23.8390    67.6880    71.4930   -24.5670 
  179.6250     2.3010    82.8060    22.3730    23.0260    65.2540    68.9260   -24.6580 
  179.7500     2.2960    83.8400    22.3890    24.1040    63.6220    67.5730   -24.7920 
  179.8750     2.2950    83.0010    22.4790    26.9100    63.2610    67.8740   -24.9270 
  180.0000     2.3000    80.1770    22.7020    30.1820    63.7270    69.2000   -25.1100 
  180.1250     2.2990    78.4860    22.9370    32.2130    63.9520    70.1450   -25.3230 
  180.2500     2.2890    80.3500    23.0450    32.2470    63.4530    70.0260   -25.5640 
  180.3750     2.2820    82.4360    23.0720    30.2580    62.7910    69.5340   -25.8510 
  180.5000     2.2920    81.3130    23.0750    27.4600    63.3360    70.3230   -26.1470 
  180.6250     2.3110    77.1190    23.0750    26.7350    67.8570    75.2790   -26.5480 
  180.7500     2.3190    74.2850    23.0750    30.1850    78.5610    86.3270   -26.9700 
  180.8750     2.3050    73.5780    23.0770    39.4940    98.1810   106.1980   -27.4290 
  181.0000     2.2740    71.5900    23.1320    55.5670   128.8760   138.2370   -27.8850 
  181.1250     2.2500    68.0410    23.3600    80.4430   171.6250   187.7090   -28.3210 
  181.2500     2.2440    67.0850    23.8000   117.9720   218.2650   248.0670   -28.7210 
  181.3750     2.2470    68.8320    24.3160   172.9070   258.8480   304.8400   -29.0610 
  181.5000     2.2440    69.4120    24.7700   235.2640   284.4510   340.5160   -29.3490 
  181.6250     2.2330    67.1130    24.9840   276.5540   289.7470   345.7140   -29.5140 
  181.7500     2.2250    65.8070    25.0460   285.6410   282.2950   334.0020   -29.6150 
  181.8750     2.2260    66.9920    25.0530   270.4570   267.8910   314.5390   -29.6240 
  182.0000     2.2340    67.2630    25.0530   238.3840   251.1970   293.3280   -29.5810 
  182.1250     2.2400    63.5510    25.0530   200.0170   235.0670   273.1710   -29.5230 
  182.2500     2.2410    60.1410    25.0530   178.3880   219.5660   253.2840   -29.4710 
  182.3750     2.2390    60.2090    25.0530   173.7880   203.7130   232.4070   -29.4280 
  182.5000     2.2360    64.0170    25.0530   169.8300   187.1970   210.7010   -29.3920 
  182.6250     2.2370    66.6340    25.0370   156.9370   171.5710   190.7790   -29.3800 
  182.7500     2.2420    66.3550    25.0010   137.5910   159.1440   175.3030   -29.4160 
  182.8750     2.2510    64.9930    24.9650   130.0560   151.6910   165.8340   -29.4990 
  183.0000     2.2610    65.3640    24.9490   141.2460   149.8210   162.6170   -29.6110 
  183.1250     2.2660    67.0090    24.9490   159.2560   153.3260   165.3410   -29.7050 
  183.2500     2.2650    68.0040    24.9490   169.5930   159.3310   170.9720   -29.7980 
  183.3750     2.2540    67.6090    24.9490   173.5160   165.7640   177.2190   -29.8770 
  183.5000     2.2380    67.2280    24.9490   165.4360   171.1830   182.3530   -29.9350 
  183.6250     2.2330    67.0870    24.9490   153.1960   175.4340   186.1690   -29.9870 
