~V
VERS. 2.00: Ver 2.00
~W
STRT.M 62.0000:
STOP.M 243.0000:
STEP.M 0.1250:
NULL. -999.2500:
UWI. DF32072:
~C
DEPT.M :
SP.MV :
GR.API :
CALI.CM :
RXO.OHMM :
RI. :
RML.OHMM :
DEN.GM/CC :
~A
# ...
  185.7500   -15.6530    53.3190    23.2470     5.0210     4.9390     6.3440     2.4070 
  185.8750   -15.6770    56.5310    23.2690     5.2460     5.1700     6.5700     2.4190 
  186.0000   -15.7200    64.1200    23.3030     5.4480     5.3870     6.7860     2.4250 
  186.1250   -15.7700    73.2370    23.5080     5.6100     5.5970     7.0070     2.4320 
  186.2500   -15.8450    80.5050    23.7650     5.7090     5.7810     7.2110     2.4350 
  186.3750   -15.9150    84.7080    24.0290     5.7780     5.9170     7.3620     2.4300 
  186.5000   -15.9820    86.3410    24.0920     5.8360     5.9870     7.4320     2.4250 
  186.6250   -16.0580    87.5440    24.1100     5.8380     5.9750     7.4030     2.4270 
  186.7500   -16.1500    88.4160    24.0280     5.7800     5.9010     7.3100     2.4270 
  186.8750   -16.2780    87.9480    24.0090     5.6810     5.7810     7.1810     2.4200 
  187.0000   -16.4330    86.2500    24.0360     5.6030     5.6370     7.0450     2.4100 
  187.1250   -16.6300    84.7790    24.1480     5.6090     5.4900     6.9250     2.4100 
  187.2500   -16.8790    84.2120    24.2160     5.5400     5.3430     6.8170     2.4150 
  187.3750   -17.1870    82.9480    24.2600     5.3880     5.1940     6.7090     2.4140 
  187.5000   -17.5010    82.2530    24.2810     5.2460     5.0530     6.6080     2.4040 
  187.6250   -17.9130    84.3690    24.2870     5.1500     4.9550     6.5410     2.3850 
  187.7500   -18.3610    88.1820    24.2800     5.1020     4.9240     6.5270     2.3670 
  187.8750   -18.7730    91.4900    24.2530     5.2150     4.9830     6.5900     2.3600 
  188.0000   -19.2390    92.3080    24.1900     5.6470     5.1610     6.7740     2.3670 
  188.1250   -19.7030    91.6280    24.1490     6.3350     5.5540     7.2100     2.3740 
  188.2500   -20.1600    91.7330    24.1320     7.1400     6.2400     8.0050     2.3680 
  188.3750   -20.6270    92.1630    24.1360     8.3780     7.3540     9.3190     2.3490 
  188.5000   -21.1180    89.9480    24.1450    10.8670     9.0500    11.3210     2.3260 
  188.6250   -21.5300    84.4840    24.1500    14.4710    11.5570    14.2630     2.3080 
  188.7500   -21.9420    79.9300    24.1540    18.2040    14.6660    17.8880     2.2960 
  188.8750   -22.3760    78.2180    24.1640    21.3490    17.9790    21.7030     2.2910 
  189.0000   -22.7410    78.3050    24.1780    23.9870    20.8480    24.8760     2.2880 
  189.1250   -23.1460    79.6420    24.2140    25.5220    22.4650    26.4060     2.2790 
  189.2500   -23.5400    83.7080    24.2340    25.3930    23.0010    26.6380     2.2680 
  189.3750   -23.8970    87.4820    24.2540    24.6050    22.9350    26.2860     2.2560 
  189.5000   -24.2720    86.9040    24.2750    24.5090    22.8120    26.0580     2.2460 
  189.6250   -24.7310    83.8140    24.2870    25.1610    23.2370    26.6420     2.2400 
  189.7500   -25.1780    82.1430    24.3150    26.0870    24.6340    28.4080     2.2420 
  189.8750   -25.6430    81.5400    24.3840    28.2800    27.4780    31.8040     2.2560 
  190.0000   -26.1990    80.3910    24.4610    32.2650    32.3420    37.3790     2.2800 
  190.1250   -26.7330    76.9120    24.4860    40.0850    40.5190    46.4980     2.3090 
  190.2500   -27.3010    70.6690    24.4740    57.1820    52.1730    59.4800     2.3270 
  190.3750   -27.9230    63.4550    24.4470    79.5290    66.8380    76.0850     2.3240 
  190.5000   -28.4810    59.2590    24.4280    92.2210    82.4550    94.0950     2.2950 
  190.6250   -29.0020    59.3280    24.4330    94.4520    95.2060   108.6270     2.2490 
  190.7500   -29.5240    61.6870    24.4910    94.3680   103.2770   117.0730     2.2060 
  190.8750   -30.0040    66.2080    24.6060    92.5720   107.0010   120.0390     2.1760 
  191.0000   -30.4760    70.1170    24.6770    85.9750   108.4630   120.5830     2.1620 
  191.1250   -30.9060    71.8790    24.6740    80.1330   110.6140   122.4060     2.1620 
  191.2500   -31.2840    73.5280    24.6420    83.3220   115.4300   127.3700     2.1610 
  191.3750   -31.6620    74.2770    24.6440    92.5600   124.0260   136.4310     2.1530 
  191.5000   -32.0430    72.4890    24.6840   104.1140   136.8170   150.1110     2.1390 
  191.6250   -32.4310    69.5110    24.7080   120.6080   152.9110   167.9090     2.1260 
  191.7500   -32.8150    68.0790    24.7220   137.1300   168.1010   184.8580     2.1180 
  191.8750   -33.2080    66.7950    24.7430   148.9260   178.1880   195.0870     2.1160 
  192.0000   -33.5440    65.3660    24.7960   151.6990   180.2920   194.6390     2.1190 
  192.1250   -33.8670    66.4400    24.9030   144.1250   173.4630   183.5470     2.1210 
  192.2500   -34.2030    68.3660    25.0160   135.4030   162.2980   168.7500     2.1170 
  192.3750   -34.4600    68.4350    25.1030   129.5080   150.1850   154.3060     2.1170 
  192.5000   -34.7210    66.8830    25.1490   123.1950   139.2360   141.9820     2.1260 
  192.6250   -34.8890    65.5360    25.1590   114.7550   130.8720   131.7030     2.1420 
  192.7500   -35.0080    66.0010    25.1790   106.9100   122.7490   124.3910     2.1490 
  192.8750   -35.1180    66.7230    25.2200   102.9070   115.8520   118.3500     2.1390 
  193.0000   -35.1670    67.4420    25.2580    99.8450   110.1550   113.4270     2.1180 
  193.1250   -35.1950    68.0620    25.2720    95.2880   106.1980   110.0480     2.1020 
  193.2500   -35.1670    66.5330    25.2630    90.9600   104.0970   108.4240     2.1010 
  193.3750   -35.0830    65.1530    25.2210    89.6540   104.0400   108.8740     2.1130 
  193.5000   -34.9530    66.3040    25.1410    92.5880   106.0600   111.4780     2.1320 
  193.6250   -34.8480    69.3010    25.0490   100.4480   110.2330   116.2310     2.1480 
  193.7500   -34.6970    69.7020    25.0160   111.8840   115.6720   122.1420     2.1570 
  193.8750   -34.4360    67.8600    25.0630   120.6280   121.6430   128.4540     2.1590 
  194.0000   -34.1970    67.4910    25.1680   121.8790   127.4560   134.5190     2.1600 
  194.1250   -33.9050    68.0280    25.2230   117.6320   132.6660   139.8640     2.1630 
  194.2500   -33.6110    68.8550    25.2440   118.7170   137.5020   144.7040     2.1660 
  194.3750   -33.3810    69.9930    25.2440   126.3820   142.3430   149.4680     2.1660 
  194.5000   -33.1230    69.8240    25.2460   137.7040   147.6480   154.6990     2.1580 
  194.6250   -32.8450    65.7340    25.2930   150.3810   153.8450   160.9010     2.1430 
  194.7500   -32.5830    62.0980    25.3610   158.2950   160.5000   167.5850     2.1360 
  194.8750   -32.3850    62.6330    25.3940   153.9180   166.7250   173.8000     2.1550 
  195.0000   -32.1590    65.3290    25.3470   137.0000   171.3940   178.4360     2.2050 
  195.1250   -32.0230    66.2960    25.2050   131.4930   173.1750   180.3560     2.2540 
  195.2500   -31.8850    67.1720    24.9380   131.4930   172.2530   179.9640     2.2620 
  195.3750   -31.7090    68.9680    24.6850   127.3590   168.8590   177.6010     2.2290 
  195.5000   -31.6160    68.8880    24.7810   121.6750   163.1410   173.3720     2.1840 
  195.6250   -31.4760    64.9470    24.9980   126.0610   154.4850   166.5970     2.1600 
  195.7500   -31.3450    63.9050    25.1120   135.8130   143.3270   157.4030     2.1540 
  195.8750   -31.2550    67.8280    25.1280   138.7430   130.6120   146.3220     2.1550 
  196.0000   -31.1530    70.6660    25.1160   127.1990   118.0480   134.6960     2.1550 
  196.1250   -30.9850    68.3660    25.0710   110.5640   107.7080   124.5780     2.1540 
  196.2500   -30.8200    66.7430    24.9980   100.8180    99.9090   116.8770     2.1540 
  196.3750   -30.6330    69.3740    24.9440   100.3390    94.1260   111.4010     2.1560 
  196.5000   -30.4090    71.6170    24.9190   102.4500    89.1990   106.9990     2.1600 
  196.6250   -30.1800    69.7190    24.9190    99.1360    83.5830   101.8580     2.1670 
  196.7500   -29.9420    69.3450    24.9170    89.1780    76.6760    95.0100     2.1760 
  196.8750   -29.6810    72.0070    24.9130    77.2070    68.9180    86.6680     2.1850 
