~V
VERS. 2.00: Ver 2.00
~W
STRT.M 62.0000:
STOP.M 272.0000:
STEP.M 0.1250:
NULL. -999.2500:
UWI. DF32144:
~C
DEPT.M :
SP.MV :
DEN.GM/CC :
GR.API :
RML.OHMM :
RI. :
RXO.OHMM :
CALI.CM :
~A
# ...
  152.0000   -15.4800     2.1940    83.3190    10.9000     9.6010     9.2350    27.1580 
  152.1250   -15.2430     2.2640    80.8000    11.4740    10.1340     9.5570    27.0920 
  152.2500   -15.0030     2.3550    78.5560    12.2190    10.8170    10.7660    27.0230 
  152.3750   -14.7670     2.4460    78.1240    13.0980    11.6140    13.2650    26.9490 
  152.5000   -14.5520     2.5200    79.4380    14.0660    12.4740    16.1650    26.8740 
  152.6250   -14.3370     2.5670    79.5230    15.1080    13.3610    17.2290    26.8430 
  152.7500   -14.1320     2.5890    77.9330    16.0990    14.2020    18.0360    26.8330 
  152.8750   -14.0290     2.5830    76.3730    16.7030    14.7650    18.4260    26.8280 
  153.0000   -13.9630     2.5480    74.6760    16.4560    14.6880    17.7550    26.7890 
  153.1250   -13.8860     2.4860    73.9040    14.9960    13.6610    16.2290    26.7320 
  153.2500   -13.9520     2.4180    75.0690    12.9460    12.1540    15.3120    26.7020 
  153.3750   -14.0390     2.3580    78.5310    11.0450    10.7070    14.1320    26.6600 
  153.5000   -14.0300     2.3100    82.3250     9.9650     9.7850    10.9460    26.4310 
  153.6250   -13.9950     2.2700    81.8890    10.3230     9.8240    11.4500    26.2060 
  153.7500   -13.9120     2.2310    77.6590    11.8980    10.7870    15.3260    26.3350 
  153.8750   -13.7120     2.1940    73.6150    14.2400    12.5250    15.9020    26.6830 
  154.0000   -13.4950     2.1630    72.2560    16.3770    14.4340    14.8460    26.9040 
  154.1250   -13.3240     2.1480    72.5960    16.5260    14.9440    13.3760    26.9190 
  154.2500   -13.0790     2.1470    73.5120    14.4020    13.4410    12.7550    26.8160 
  154.3750   -12.8080     2.1570    76.0060    11.0470    10.7390    11.2500    26.6410 
  154.5000   -12.6210     2.1760    78.8000     7.9150     8.1110     8.0670    26.5250 
  154.6250   -12.4700     2.2050    79.3110     6.0130     6.3960     5.2140    26.4870 
  154.7500   -12.3540     2.2510    79.9580     5.2550     5.5570     4.5730    26.4630 
  154.8750   -12.3640     2.3170    83.2520     5.5300     5.5370     4.9170    26.3650 
  155.0000   -12.5130     2.3910    84.5470     6.7030     6.2970     6.1380    26.0990 
  155.1250   -12.6840     2.4420    77.5480     8.5400     7.8130     9.7390    25.5080 
  155.2500   -12.8720     2.4460    68.4060    10.2770     9.5190    13.1170    25.0290 
  155.3750   -13.0500     2.4010    65.4790    11.2110    10.7220    11.6650    24.9820 
  155.5000   -13.1970     2.3320    70.3950    11.0310    10.9560     9.6540    25.2050 
  155.6250   -13.3430     2.2750    75.4180     9.9940    10.2910     8.3800    25.1120 
  155.7500   -13.4480     2.2510    78.7990     8.8470     9.3820     7.4430    24.7180 
  155.8750   -13.4920     2.2540    84.1860     7.9180     8.5470     6.6830    24.3170 
  156.0000   -13.4480     2.2670    89.7370     7.2780     7.8950     6.1790    24.0810 
  156.1250   -13.3160     2.2750    89.6390     6.9120     7.4460     5.7990    24.0600 
  156.2500   -13.1970     2.2760    88.1830     6.7310     7.1440     5.5930    24.4010 
  156.3750   -13.1750     2.2740    90.5610     6.6990     6.9650     5.5870    24.9470 
  156.5000   -13.1770     2.2720    94.8790     6.7480     6.8690     5.7690    25.2560 
  156.6250   -13.1560     2.2750    94.7210     6.8070     6.8160     6.0880    25.5640 
  156.7500   -13.1840     2.2780    89.5910     6.8620     6.7950     6.2400    25.9920 
  156.8750   -13.2820     2.2770    83.6050     6.9630     6.8430     6.0070    26.3290 
  157.0000   -13.4210     2.2670    80.6540     7.1990     7.0210     5.8970    26.5480 
  157.1250   -13.5680     2.2500    81.9890     7.7130     7.4400     6.5800    26.7330 
  157.2500   -13.6850     2.2330    83.3130     8.5680     8.1490     7.9350    26.8120 
  157.3750   -13.7760     2.2200    81.2210     9.8590     9.2290     9.5460    26.8290 
  157.5000   -13.8610     2.2110    76.3980    11.6970    10.7670    10.7440    26.8370 
  157.6250   -14.0200     2.2030    72.9660    14.2590    12.9380    11.8430    26.9360 
  157.7500   -14.1860     2.1940    72.5030    17.2080    15.5440    13.4670    27.1470 
  157.8750   -14.2960     2.1830    71.8210    19.8180    18.0540    15.6980    27.3430 
  158.0000   -14.3830     2.1710    68.1670    20.9570    19.4470    17.9920    27.4250 
  158.1250   -14.4880     2.1630    66.4110    19.4030    18.4190    19.0880    27.4430 
  158.2500   -14.5990     2.1620    69.3410    16.1310    15.7130    15.6700    27.5760 
  158.3750   -14.6810     2.1740    73.7940    12.5020    12.5520     9.8830    27.9080 
  158.5000   -14.7010     2.1970    77.3570     9.5920     9.8950     6.0420    28.2320 
  158.6250   -14.6690     2.2250    79.8040     7.9780     8.2460     5.8520    27.9760 
  158.7500   -14.7080     2.2440    79.6720     7.3960     7.4390     6.7740    27.4730 
  158.8750   -14.7720     2.2480    77.3130     7.7240     7.4170     7.6550    27.1530 
  159.0000   -14.7890     2.2340    75.1400     8.9230     8.1860     7.9860    27.0630 
  159.1250   -14.9010     2.2080    72.8200    11.2370     9.9970     9.2600    27.1050 
  159.2500   -15.0700     2.1790    70.0230    14.6370    12.8640    12.5550    27.2410 
  159.3750   -15.2040     2.1540    69.0240    19.1110    16.8670    17.5090    27.4610 
  159.5000   -15.4060     2.1370    69.3250    24.3690    21.8600    21.6470    27.5960 
  159.6250   -15.6530     2.1300    65.5960    29.5920    27.2140    22.3640    27.6160 
  159.7500   -15.8120     2.1280    60.1230    33.6810    31.7400    23.0390    27.6100 
  159.8750   -15.9610     2.1310    59.2420    35.9680    34.5710    24.2290    27.6100 
  160.0000   -16.1510     2.1360    63.2510    36.4600    35.4780    25.1910    27.6060 
  160.1250   -16.2310     2.1390    64.9820    35.5340    34.6660    25.5660    27.5740 
  160.2500   -16.2150     2.1390    62.5200    33.9710    32.9910    24.6980    27.5040 
  160.3750   -16.2000     2.1410    60.7740    32.1110    30.8920    22.3000    27.4090 
  160.5000   -16.1640     2.1620    64.1380    30.1870    28.7030    19.3150    27.3230 
  160.6250   -16.0290     2.2230    70.4790    28.3050    26.6150    19.3590    27.1130 
  160.7500   -15.8730     2.3180    73.8870    26.4590    24.6460    18.5790    26.7360 
  160.8750   -15.7270     2.4260    73.3120    24.6540    22.8050    18.7610    26.1790 
  161.0000   -15.5410     2.5180    69.9130    22.9360    21.1260    18.8210    25.6350 
  161.1250   -15.4040     2.5620    65.4240    21.5070    19.7650    16.3910    25.3050 
  161.2500   -15.3140     2.5690    63.2260    20.5640    18.8380    14.4490    25.2020 
  161.3750   -15.1690     2.5550    65.2930    20.2710    18.4600    15.0430    25.4390 
  161.5000   -14.9920     2.5390    67.0920    20.6730    18.6680    15.2280    25.8600 
  161.6250   -14.8080     2.5310    63.9980    21.7600    19.4840    15.6840    26.2710 
  161.7500   -14.6300     2.5320    59.6720    23.1690    20.6420    16.8230    26.4280 
  161.8750   -14.4270     2.5380    57.5730    24.5850    21.8920    19.3440    26.4400 
  162.0000   -14.1860     2.5460    59.1580    25.7160    22.9690    21.5550    26.4070 
  162.1250   -13.9100     2.5530    63.1610    26.2700    23.5730    22.0730    26.4690 
  162.2500   -13.6540     2.5590    64.1020    26.2620    23.6530    21.0030    26.5920 
  162.3750   -13.5050     2.5610    60.9180    25.7610    23.2170    20.2140    26.6060 
  162.5000   -13.3730     2.5620    57.7420    24.9320    22.3810    19.5030    26.3900 
  162.6250   -13.3120     2.5600    58.5020    23.9840    21.3200    18.3000    26.0980 
  162.7500   -13.3220     2.5560    58.9800    23.1110    20.2650    17.4350    25.8600 
  162.8750   -13.3780     2.5490    58.5010    22.3970    19.3310    17.2720    25.7080 
  163.0000   -13.4880     2.5350    60.4950    21.8870    18.5920    17.2310    25.6090 
  163.1250   -13.5980     2.5110    65.1800    21.6260    18.1180    16.2900    25.4590 
