~V
VERS. 2.00: Ver 2.00
~W
STRT.M 62.0000:
STOP.M 235.0000:
STEP.M 0.1250:
NULL. -999.2500:
UWI. DF32059:
~C
DEPT.M :
SP.MV :
GR.API :
CALI.CM :
RXO.OHMM :
RI. :
RML.OHMM :
DEN.GM/CC :
~A
# ...
  208.2500   -15.9760   110.8430    23.9480     8.8590     9.5480     9.4250     2.4330 
  208.3750   -16.1940   113.7920    23.9440     8.9410     9.0610     8.9130     2.4410 
  208.5000   -16.4150   115.2480    23.9430     9.0390     8.6540     8.4860     2.4430 
  208.6250   -16.6040   113.1680    23.9430     9.1400     8.5600     8.3880     2.4300 
  208.7500   -16.8850   110.8990    23.9430     9.4210     8.9670     8.8140     2.4080 
  208.8750   -17.2110   110.3820    23.9410    10.6560    10.0840    10.2420     2.3840 
  209.0000   -17.4950   107.5610    23.9390    14.2920    12.1220    12.8360     2.3640 
  209.1250   -17.8560    97.5070    23.9410    21.4350    15.4540    16.8900     2.3490 
  209.2500   -18.2820    85.7220    23.9430    29.4890    19.9010    22.1710     2.3320 
  209.3750   -18.6430    81.1780    23.9430    35.9210    25.1100    28.2220     2.3180 
  209.5000   -18.9650    85.8840    23.9430    40.4420    30.3270    34.1630     2.3130 
  209.6250   -19.3550    88.5090    23.9430    43.5460    34.3360    38.6790     2.3120 
  209.7500   -19.7060    81.8920    23.9430    46.8560    36.6590    41.3450     2.3050 
  209.8750   -19.9290    72.9780    23.9430    48.7400    37.2890    42.1970     2.2930 
  210.0000   -20.1240    70.5310    23.9430    47.4760    36.6360    41.6500     2.2850 
  210.1250   -20.3340    73.6270    23.9430    43.5820    35.4510    40.4760     2.2860 
  210.2500   -20.4750    75.1260    23.9430    38.7160    34.7550    39.8530     2.2910 
  210.3750   -20.5870    75.8530    23.9430    35.2630    35.2460    40.6600     2.2980 
  210.5000   -20.7520    77.2120    23.9430    36.6410    37.4590    43.5570     2.3050 
  210.6250   -20.8650    77.3350    23.9420    46.1960    42.2010    49.4430     2.3070 
  210.7500   -20.9200    75.5500    23.9400    62.3500    49.3100    57.9990     2.3090 
  210.8750   -21.0430    73.3810    23.9380    79.5480    58.4200    68.7090     2.3120 
  211.0000   -21.1910    72.2630    23.9320    89.7520    68.2040    79.9840     2.3110 
  211.1250   -21.2280    71.2850    23.9160    91.1450    75.3950    87.7810     2.2960 
  211.2500   -21.2950    69.0280    23.9050    91.5100    77.4210    88.9760     2.2770 
  211.3750   -21.4030    66.6260    23.9000    93.4580    73.6300    83.1670     2.2690 
  211.5000   -21.4050    67.0990    23.9010    88.7140    65.6930    72.9910     2.2760 
  211.6250   -21.3840    71.1850    23.9110    70.8180    56.6100    62.3390     2.2900 
  211.7500   -21.4350    73.7910    23.9250    51.2670    48.9270    53.7360     2.2980 
  211.8750   -21.4460    73.8910    23.9350    40.1540    43.3830    47.7430     2.3010 
  212.0000   -21.3870    75.3950    23.9360    37.6070    39.9550    44.1870     2.3050 
  212.1250   -21.3670    79.8930    23.9410    38.0220    38.7100    43.0330     2.3090 
  212.2500   -21.3500    81.4790    23.9800    38.7410    39.1810    43.6630     2.3090 
  212.3750   -21.3420    78.1680    24.1440    40.6220    41.2780    45.9340     2.3080 
  212.5000   -21.3990    74.2100    24.5260    43.9600    44.8800    49.7490     2.3050 
  212.6250   -21.3990    73.4630    24.9190    52.3520    49.9000    55.1170     2.3040 
  212.7500   -21.2860    73.1110    25.1020    62.4030    55.5110    61.2110     2.3040 
  212.8750   -21.1640    71.1500    25.1690    70.1520    60.8070    67.0170     2.3060 
  213.0000   -21.1180    69.8530    25.1940    72.0730    64.7280    71.2830     2.3070 
  213.1250   -21.0920    71.3140    25.2030    69.0550    65.8360    72.3550     2.3030 
  213.2500   -20.9840    72.7120    25.1360    64.9140    64.0960    70.2840     2.2990 
  213.3750   -20.7660    73.1520    24.9000    62.6680    59.9850    65.7110     2.2990 
  213.5000   -20.4960    73.8130    24.4670    60.4970    54.6250    59.8970     2.3020 
  213.6250   -20.3100    75.6930    24.2100    53.3820    49.4680    54.3780     2.3040 
  213.7500   -20.2180    77.6720    24.0710    42.8400    45.5460    50.2300     2.3080 
  213.8750   -20.1220    79.5160    24.0080    34.9140    43.3230    47.9930     2.3130 
  214.0000   -19.9410    80.8080    23.9250    34.2240    42.8650    47.8040     2.3170 
  214.1250   -19.7290    80.5590    23.8270    40.3210    44.0610    49.5900     2.3180 
  214.2500   -19.5870    79.3480    23.8090    47.2250    46.0240    52.2660     2.3240 
  214.3750   -19.5320    77.5010    23.8900    53.7330    48.1070    54.9610     2.3310 
  214.5000   -19.5020    74.7370    24.0500    59.0680    49.8650    57.0420     2.3300 
  214.6250   -19.3860    72.1200    23.8980    56.4880    51.2820    58.4720     2.3170 
  214.7500   -19.1780    72.1730    23.7490    48.3510    52.9050    60.0460     2.3030 
  214.8750   -18.9340    73.9340    23.6530    45.7450    55.1810    62.3600     2.2910 
  215.0000   -18.7210    73.4240    23.6250    54.9740    58.1900    65.5030     2.2740 
  215.1250   -18.5230    71.0020    23.6210    67.7210    61.4440    68.8260     2.2590 
  215.2500   -18.2700    70.3690    23.6210    73.3360    63.9400    71.1390     2.2630 
  215.3750   -17.9660    70.5920    23.6220    72.1690    64.7510    71.4000     2.2920 
  215.5000   -17.6470    68.5030    23.6270    68.5980    63.2850    69.0390     2.3360 
  215.6250   -17.3640    66.2010    23.6200    65.4310    59.3420    64.0180     2.3700 
  215.7500   -17.1070    67.3500    23.5870    61.9810    54.0810    57.7070     2.3840 
  215.8750   -16.8510    69.4940    23.5480    56.3850    48.2950    50.9590     2.3830 
  216.0000   -16.5800    69.8360    23.5290    47.9050    42.5740    44.3790     2.3710 
  216.1250   -16.2750    68.8420    23.5290    39.8300    37.4260    38.5180     2.3430 
  216.2500   -15.9820    68.7640    23.5290    33.7440    33.0200    33.5520     2.3080 
  216.3750   -15.7170    69.9630    23.5290    29.9270    29.5010    29.6560     2.2860 
  216.5000   -15.4700    71.7340    23.5290    27.0630    26.9600    26.9270     2.3000 
  216.6250   -15.2240    72.0360    23.5290    24.3650    25.5040    25.4560     2.3570 
  216.7500   -14.9850    70.9210    23.5250    22.5750    24.7470    24.7540     2.4260 
  216.8750   -14.7820    70.4640    23.5150    22.8530    24.3800    24.4280     2.4760 
  217.0000   -14.6030    71.9560    23.5050    25.6180    24.0700    24.0830     2.4870 
  217.1250   -14.4590    73.6760    23.4980    27.3880    23.5050    23.3540     2.4490 
  217.2500   -14.3080    73.4930    23.4950    25.2170    22.6730    22.2870     2.3890 
  217.3750   -14.1520    73.5470    23.4950    21.4660    21.7540    21.1440     2.3310 
  217.5000   -14.0300    75.0430    23.4950    19.7050    21.0210    20.2730     2.2910 
  217.6250   -13.9540    74.5940    23.4950    19.6750    20.8330    20.1100     2.2720 
  217.7500   -13.9140    72.6030    23.4950    20.1960    21.2760    20.7250     2.2710 
  217.8750   -13.8930    71.2520    23.4950    21.4490    22.3290    22.0690     2.2880 
  218.0000   -13.8780    71.1690    23.4950    24.1310    23.7750    23.8660     2.3190 
  218.1250   -13.8330    69.0240    23.4950    28.4110    25.1440    25.5590     2.3450 
  218.2500   -13.8070    65.0060    23.4950    31.5270    25.9880    26.6160     2.3520 
  218.3750   -13.8090    63.1060    23.4950    30.7870    26.1470    26.8380     2.3410 
  218.5000   -13.8350    64.8950    23.4950    26.7810    25.7980    26.4390     2.3200 
  218.6250   -13.8810    67.7000    23.4930    23.8640    25.4670    26.0790     2.3010 
  218.7500   -13.8930    69.1810    23.4870    23.7810    25.6970    26.4390     2.2910 
  218.8750   -13.9280    69.7500    23.5320    25.9880    26.7630    27.8440     2.2870 
  219.0000   -13.9990    69.8990    23.7340    29.3760    28.6880    30.2830     2.2800 
  219.1250   -14.0970    67.9320    24.0630    33.9040    31.2020    33.3770     2.2680 
  219.2500   -14.2280    66.5180    24.1400    39.1210    33.4450    36.0810     2.2580 
  219.3750   -14.3690    67.7530    23.9590    41.9530    34.6180    37.4650     2.2580 
