~V
VERS. 2.00: Ver 2.00
~W
STRT.M 60.0000:
STOP.M 229.0000:
STEP.M 0.1250:
NULL. -999.2500:
UWI. DF32026:
~C
DEPT.M :
SP.MV :
GR.API :
CALI.CM :
RXO.OHMM :
RI. :
RML.OHMM :
DEN.GM/CC :
~A
# ...
   82.5000    69.3510    76.5580    23.8290     9.4180     6.3550     9.3840     2.1800 
   82.6250    69.4930    76.7470    23.8530     9.1500     6.3930     9.2670     2.1790 
   82.7500    69.6440    77.5930    23.8380     8.9270     6.4100     9.0960     2.1780 
   82.8750    69.8400    76.3180    23.8210     8.8980     6.4510     8.9950     2.1750 
   83.0000    70.0590    73.2960    23.8680     9.0880     6.5420     9.0340     2.1690 
   83.1250    70.3280    71.5680    24.0160     9.3390     6.6810     9.2300     2.1630 
   83.2500    70.6140    71.7440    24.1670     9.4690     6.8150     9.4820     2.1570 
   83.3750    70.9670    72.4580    24.1570     9.4390     6.8850     9.6800     2.1490 
   83.5000    71.3760    73.9940    23.9110     9.2970     6.8310     9.7040     2.1430 
   83.6250    71.8200    76.1040    23.8520     9.0640     6.5730     9.4090     2.1470 
   83.7500    72.3090    77.4660    23.9070     8.6060     6.1330     8.8250     2.1650 
   83.8750    72.8130    79.0600    24.0540     7.7870     5.5590     8.0200     2.1950 
   84.0000    73.2490    83.3880    24.3130     6.7590     4.9380     7.1330     2.2220 
   84.1250    73.5640    88.7720    24.5890     5.8750     4.4130     6.3910     2.2370 
   84.2500    73.7580    93.4230    24.9300     5.4040     4.0890     5.9590     2.2380 
   84.3750    73.8190    98.7890    24.9670     5.2520     4.0410     5.9500     2.2340 
   84.5000    73.7550   102.7700    24.8880     5.4160     4.3120     6.4310     2.2350 
   84.6250    73.4970   100.4460    24.7520     6.3200     4.9570     7.4910     2.2380 
   84.7500    73.1570    93.7900    24.5070     8.0510     5.8440     8.9070     2.2350 
   84.8750    72.7210    86.8740    24.1960     9.7920     6.7970    10.3560     2.2180 
   85.0000    72.3220    81.1790    24.0270    10.5830     7.5850    11.4130     2.1950 
   85.1250    71.9630    76.0920    23.9490    10.4170     7.9570    11.6750     2.1780 
   85.2500    71.6660    73.9090    23.9080    10.0840     7.9900    11.3990     2.1700 
   85.3750    71.4280    74.2620    23.8520     9.8500     7.8360    10.9460     2.1660 
   85.5000    71.2540    76.0170    23.8070     9.8370     7.6460    10.6030     2.1600 
   85.6250    71.1870    78.9950    23.8270     9.9190     7.5010    10.4900     2.1500 
   85.7500    71.1410    79.3510    23.8610     9.9530     7.3980    10.4990     2.1420 
   85.8750    71.1550    75.8560    23.8810     9.8380     7.3350    10.5580     2.1390 
   86.0000    71.1810    70.8350    23.8920     9.6530     7.3270    10.6570     2.1380 
   86.1250    71.2590    69.4300    23.9030     9.5210     7.4050    10.8480     2.1380 
   86.2500    71.3520    70.8500    23.9500     9.9310     7.5550    11.1510     2.1400 
   86.3750    71.4490    72.2940    24.0100    12.2140     7.7470    11.5320     2.1470 
   86.5000    71.5530    72.4440    23.9880    17.5080     7.9290    11.8890     2.1550 
   86.6250    71.6640    72.0180    23.7710    20.4440     8.0300    12.0490     2.1600 
   86.7500    71.7940    73.2760    23.8200    17.5110     8.0300    11.9690     2.1640 
   86.8750    71.9100    77.2270    23.9180    12.2190     7.9410    11.7040     2.1690 
   87.0000    72.0040    81.6300    23.8720     9.5170     7.8170    11.3930     2.1710 
   87.1250    72.0670    83.7520    23.7930     8.9710     7.7490    11.2310     2.1680 
   87.2500    72.1260    84.1370    23.7720     8.9510     7.7930    11.2880     2.1670 
   87.3750    72.1770    82.8820    23.7700     9.0500     7.9610    11.5370     2.1700 
   87.5000    72.2360    80.7470    23.7730     9.3600     8.2130    11.8750     2.1730 
   87.6250    72.3090    79.7060    23.8180     9.8760     8.4690    12.1460     2.1700 
   87.7500    72.3770    80.9410    23.9160    10.1510     8.6570    12.2630     2.1670 
   87.8750    72.4440    82.2930    24.0100     9.9820     8.7480    12.2370     2.1740 
   88.0000    72.5410    80.5910    24.0440     9.6320     8.7510    12.1370     2.1900 
   88.1250    72.6540    78.5880    24.0310     9.5140     8.6480    11.9860     2.2040 
   88.2500    72.8100    79.2480    24.0290     9.4580     8.3950    11.6900     2.2090 
   88.3750    72.9880    81.1240    24.0420     9.2820     7.9160    11.0820     2.2050 
   88.5000    73.1630    81.4710    24.0880     8.9150     7.1830    10.0700     2.2010 
   88.6250    73.3340    81.8810    24.2420     8.1690     6.2730     8.7500     2.2080 
   88.7500    73.4810    87.9210    24.5590     6.9480     5.4080     7.5040     2.2300 
   88.8750    73.6040    96.9910    24.9450     5.6800     4.7520     6.6170     2.2620 
   89.0000    73.6450   101.3970    25.2110     5.0350     4.4040     6.2480     2.2870 
   89.1250    73.6100    99.8330    25.0830     5.3160     4.4480     6.5190     2.2920 
   89.2500    73.4750    97.1880    24.8220     6.1230     4.7830     7.2470     2.2750 
   89.3750    73.2880    93.6780    24.5420     7.0630     5.3040     8.2290     2.2440 
   89.5000    73.0780    88.6580    24.1230     7.8680     5.8380     9.1380     2.2130 
   89.6250    72.8420    86.9950    24.1860     8.1980     6.1650     9.5500     2.1930 
   89.7500    72.6050    88.3050    24.2100     8.1120     6.2600     9.4860     2.1830 
   89.8750    72.3870    87.4640    24.2670     7.8090     6.2150     9.1900     2.1810 
   90.0000    72.2300    85.3060    24.2070     7.5880     6.1660     8.9520     2.1780 
   90.1250    72.0990    86.1500    23.9380     7.7550     6.2320     9.0080     2.1730 
   90.2500    72.0290    85.1880    23.5490     8.3340     6.4220     9.3370     2.1700 
   90.3750    72.0000    80.5190    23.4380     9.0600     6.7070     9.8440     2.1720 
   90.5000    72.0040    76.5200    23.4740     9.5700     7.0270    10.3820     2.1710 
   90.6250    72.0580    78.2980    23.7130     9.8620     7.2950    10.7690     2.1620 
   90.7500    72.1690    80.9400    23.9850    10.1460     7.4510    10.9240     2.1510 
   90.8750    72.3080    80.6320    24.0820    10.4640     7.4670    10.8440     2.1440 
   91.0000    72.5110    78.0380    24.0980    10.5130     7.3650    10.5970     2.1380 
   91.1250    72.7710    74.8520    24.1490    10.0760     7.2110    10.3040     2.1300 
   91.2500    73.0810    73.3230    24.2090     9.4880     7.1080    10.1140     2.1220 
   91.3750    73.4270    73.6070    24.2390     8.9990     7.1130    10.1230     2.1190 
   91.5000    73.8160    74.1790    24.2600     8.7350     7.2330    10.3370     2.1250 
   91.6250    74.2400    75.0090    24.3190     8.8820     7.3850    10.6150     2.1390 
   91.7500    74.6700    76.8750    24.4170     9.3480     7.4180    10.6760     2.1610 
   91.8750    75.1180    80.9410    24.5470     9.6120     7.2150    10.3110     2.1870 
   92.0000    75.5060    85.2900    24.7180     9.1580     6.7480     9.5040     2.2180 
   92.1250    75.9340    87.6600    24.9450     7.8200     6.1060     8.4710     2.2500 
   92.2500    76.2900    90.4390    25.1490     6.6220     5.4880     7.5580     2.2750 
   92.3750    76.5850    96.7240    25.1760     5.9540     5.0130     6.9290     2.2890 
   92.5000    76.7990   105.1660    24.9700     5.7900     4.7340     6.6190     2.2950 
   92.6250    76.9640   111.4840    24.9180     5.7640     4.6550     6.5850     2.2960 
   92.7500    77.0610   115.5360    24.9040     5.7280     4.6710     6.6380     2.2950 
   92.8750    77.0900   116.7600    24.8450     5.7680     4.6960     6.6540     2.2920 
   93.0000    77.1100   112.2340    24.9770     5.8760     4.6840     6.5700     2.2850 
   93.1250    77.0430   107.0030    25.1220     5.7830     4.6360     6.4150     2.2750 
   93.2500    76.9790   107.0030    24.9280     5.5900     4.6120     6.3110     2.2570 
   93.3750    76.9010   107.3670    24.7350     5.4440     4.6630     6.3510     2.2110 
   93.5000    76.8170   101.9270    24.6660     5.4540     4.8140     6.5670     2.1370 
   93.6250    76.6860    95.6260    24.6560     5.6650     5.0390     6.9050     2.0600 
