~V
VERS. 2.00: Ver 2.00
~W
STRT.M 60.0000:
STOP.M 276.0000:
STEP.M 0.1250:
NULL. -999.2500:
UWI. DF32145:
~C
DEPT.M :
SP.MV :
GR.API :
CALI.CM :
RXO.OHMM :
RI. :
RML.OHMM :
DEN.GM/CC :
~A
   60.0000    64.7700    52.4350    24.5920     1.0140     0.0260    -0.6670     2.1380 
   60.1250    62.2440    52.9140    24.4490     1.0390     0.0580    -0.8760     2.0950 
   60.2500    58.3310    52.3290    24.3410     1.1130     0.0900    -0.9380     2.0910 
   60.3750    52.7940    51.0090    24.2560     1.4450     0.1480    -0.8800     2.1560 
   60.5000    45.5670    52.3900    24.0830     2.6350     0.2790    -0.6800     2.2440 
   60.6250    36.7950    58.5220    23.7450     4.8830     0.6070    -0.1640     2.2650 
   60.7500    27.4160    64.1730    23.5070     7.0770     1.2360     0.9000     2.2250 
   60.8750    17.9050    66.2840    23.4240     8.2910     2.2310     2.7520     2.1730 
   61.0000     8.6380    66.5040    23.4300     8.7470     3.4590     4.8690     2.1440 
   61.1250     0.1490    67.9560    23.4750     9.0960     4.5160     5.7280     2.1480 
   61.2500    -7.1190    68.7640    23.5360     9.3010     5.1870     5.6840     2.1630 
   61.3750   -12.8080    68.4750    23.5660     9.3530     5.5240     5.4980     2.1820 
   61.5000   -16.7810    69.9790    23.5760     9.0800     5.6490     5.4260     2.2030 
   61.6250   -19.1540    74.4090    23.5730     8.2260     5.6570     5.4860     2.2220 
   61.7500   -20.8380    77.6990    23.5690     7.4790     5.6660     5.6360     2.2270 
   61.8750   -22.1920    78.0550    23.5710     7.5550     5.7350     5.8720     2.2110 
   62.0000   -23.3390    76.4200    23.5810     8.3320     5.8720     6.1670     2.1850 
   62.1250   -24.2720    73.9070    23.5860     8.8680     6.0230     6.4620     2.1660 
   62.2500   -25.1260    70.9050    23.5880     8.7860     6.1260     6.7050     2.1550 
   62.3750   -25.8470    68.6800    23.5890     8.4330     6.1550     6.8790     2.1440 
   62.5000   -26.4370    68.6040    23.5910     8.1410     6.1170     6.9980     2.1340 
   62.6250   -26.8710    69.0890    23.5960     8.0440     6.0390     7.0640     2.1360 
   62.7500   -27.0230    68.3110    23.5990     8.0740     5.9350     7.0630     2.1480 
   62.8750   -26.7640    69.0510    23.6060     7.9670     5.7790     6.9470     2.1690 
   63.0000   -26.1260    74.2900    23.6270     7.3490     5.5440     6.6920     2.1970 
   63.1250   -25.2970    83.3990    23.6500     6.4200     5.2330     6.3360     2.2310 
   63.2500   -24.4670    92.6920    23.5470     5.7900     4.9090     5.9890     2.2600 
   63.3750   -23.7060    99.8560    23.2780     5.5710     4.6290     5.7320     2.2780 
   63.5000   -22.9850   103.2300    23.0710     5.5000     4.4460     5.6080     2.2900 
   63.6250   -22.4430   102.1320    23.0020     5.6010     4.4060     5.6410     2.2990 
   63.7500   -22.1950   100.7790    23.0010     5.8620     4.4770     5.7860     2.3020 
   63.8750   -22.3210   100.0220    23.0010     6.4680     4.6380     6.0260     2.2920 
   64.0000   -22.8080    96.6890    23.0000     7.2370     4.8740     6.3630     2.2680 
   64.1250   -23.5990    90.3060    22.9980     7.6770     5.1920     6.8250     2.2330 
   64.2500   -24.5130    84.9650    22.9980     8.1030     5.5530     7.3500     2.1970 
   64.3750   -25.4350    81.7370    23.0000     9.1800     5.8950     7.8140     2.1750 
   64.5000   -26.3280    78.2480    23.0010    11.3540     6.1420     8.0570     2.1750 
   64.6250   -27.1010    74.9660    23.0010    13.0760     6.2290     7.9770     2.1900 
   64.7500   -27.7640    74.2550    23.0010    12.0980     6.2260     7.7660     2.2030 
   64.8750   -28.2860    76.3570    23.0190     9.4700     6.2200     7.6320     2.2130 
   65.0000   -28.6030    79.3770    23.0780     7.9080     6.2910     7.7280     2.2320 
   65.1250   -28.7070    80.4150    23.2290     7.9200     6.4770     8.1080     2.2560 
   65.2500   -28.6400    78.7980    23.3640     8.4260     6.6790     8.5380     2.2670 
   65.3750   -28.5220    76.1970    23.4590     8.5770     6.7720     8.7190     2.2580 
   65.5000   -28.4500    76.2530    23.4990     8.1440     6.6620     8.4460     2.2360 
   65.6250   -28.4240    82.3900    23.5220     7.3120     6.3540     7.8070     2.2310 
   65.7500   -28.4260    91.3430    23.5530     6.6310     6.0310     7.2180     2.2480 
   65.8750   -28.4870    97.3550    23.5740     6.4470     5.8390     6.9250     2.2690 
   66.0000   -28.7070    96.4780    23.5730     6.7830     5.8620     7.0130     2.2670 
   66.1250   -29.1000    89.6130    23.5560     7.8140     6.1250     7.4800     2.2300 
   66.2500   -29.5850    81.6980    23.5460     8.8160     6.5000     8.0940     2.1840 
   66.3750   -30.0470    74.6660    23.5550     9.3650     6.8670     8.6310     2.1510 
   66.5000   -30.4150    71.0020    23.5980     9.4600     7.1120     8.8970     2.1400 
   66.6250   -30.6220    74.1760    23.6520     9.4770     7.1260     8.7910     2.1530 
   66.7500   -30.5850    79.9720    23.6750     9.6090     6.9570     8.4870     2.1760 
   66.8750   -30.2790    84.4540    23.6780     9.5510     6.6650     8.1170     2.1990 
   67.0000   -29.7560    87.4920    23.6730     8.8610     6.3180     7.7800     2.2110 
   67.1250   -29.0860    90.1470    23.6630     8.0070     5.9870     7.5510     2.2110 
   67.2500   -28.3440    92.5170    23.6580     7.5450     5.7170     7.4260     2.2050 
   67.3750   -27.5920    93.3960    23.6570     7.3230     5.5260     7.3900     2.2040 
   67.5000   -26.9070    93.6380    23.6570     7.0640     5.4160     7.4170     2.2140 
   67.6250   -26.3810    95.4600    23.6570     6.9260     5.3720     7.4650     2.2310 
   67.7500   -26.0440   100.0510    23.6580     6.8870     5.3550     7.4800     2.2400 
   67.8750   -25.8810   105.3430    23.6750     6.9070     5.3470     7.4360     2.2350 
   68.0000   -25.8090   106.9070    23.7210     6.8000     5.3370     7.3280     2.2230 
   68.1250   -25.8050   103.4640    23.8240     6.5560     5.3220     7.1870     2.2200 
   68.2500   -25.8640    99.9500    23.8730     6.3300     5.3060     7.0870     2.2310 
   68.3750   -25.9880    98.2240    23.8860     6.3090     5.2930     7.0740     2.2450 
   68.5000   -26.1690    97.5240    23.8870     6.4480     5.2810     7.1570     2.2490 
   68.6250   -26.3840    95.4960    23.8870     6.6580     5.2640     7.3200     2.2430 
   68.7500   -26.6170    92.8880    23.8870     6.8510     5.2350     7.4970     2.2370 
   68.8750   -26.9190    90.8240    23.8870     6.8550     5.1870     7.6390     2.2370 
   69.0000   -27.3220    90.4330    23.8870     6.6700     5.1240     7.7320     2.2360 
   69.1250   -27.7660    91.5950    23.8870     6.6750     5.0690     7.8080     2.2240 
   69.2500   -28.2830    91.3620    23.8870     6.9270     5.0460     7.8960     2.2110 
   69.3750   -28.9000    89.2630    23.8870     7.1820     5.0780     7.9920     2.2040 
   69.5000   -29.5850    87.4310    23.8870     7.3220     5.1620     8.0630     2.1990 
   69.6250   -30.2590    85.8980    23.8920     7.5160     5.2570     8.0620     2.1870 
   69.7500   -30.9390    83.6570    23.9560     7.7400     5.3420     8.0580     2.1640 
   69.8750   -31.6610    80.7210    24.2100     7.9550     5.4640     8.2170     2.1360 
   70.0000   -32.3180    79.1190    24.7010     8.0780     5.7090     8.7100     2.1140 
   70.1250   -32.9000    79.7190    25.2330     8.4770     6.1820     9.6690     2.1240 
   70.2500   -33.3520    79.0730    25.3820     9.4830     6.8120    10.8720     2.1800 
   70.3750   -33.7120    75.2630    25.1290    10.5080     7.4440    11.9460     2.2760 
   70.5000   -34.0750    69.9890    24.4930    10.6340     7.8360    12.3960     2.3620 
   70.6250   -34.3800    66.2080    23.9370     9.4580     7.7480    11.8610     2.3580 
   70.7500   -34.6390    65.8580    23.6960     8.8360     7.3270    10.8640     2.2830 
   70.8750   -34.8160    67.4750    23.6480     8.5890     6.7770     9.8800     2.1960 
   71.0000   -34.9100    68.6740    23.6520     8.4480     6.2770     9.1790     2.1470 
   71.1250   -34.9300    67.9980    23.7070     8.3160     5.9570     8.8740     2.1420 
