~V
VERS. 2.00: Ver 2.00
~W
STRT.M 59.0000:
STOP.M 261.0000:
STEP.M 0.1250:
NULL. -999.2500:
UWI. DF32116:
~C
DEPT.M :
SP.MV :
GR.API :
CALI.CM :
RXO.OHMM :
RI. :
RML.OHMM :
DEN.GM/CC :
~A
# ...
  160.2500   -34.7550    73.3100    24.7470    79.0850    74.7690    83.1470     2.2470 
  160.3750   -35.0060    69.8410    24.6230    75.0370    75.4650    83.7050     2.2510 
  160.5000   -35.2720    66.5380    24.4680    67.8330    76.3400    84.8700     2.2710 
  160.6250   -35.5560    66.6090    24.3450    61.6920    79.4160    88.8960     2.2870 
  160.7500   -35.8720    68.5330    24.3150    63.6810    86.0700    96.9900     2.2810 
  160.8750   -36.2390    67.3770    24.3830    77.4860    97.4250   110.1810     2.2580 
  161.0000   -36.6330    62.9370    24.4800   100.2770   113.9640   128.9950     2.2340 
  161.1250   -37.0620    60.7650    24.5370   124.0320   135.7670   153.7620     2.2180 
  161.2500   -37.5240    60.7400    24.6320   146.3090   159.9040   181.2790     2.2060 
  161.3750   -37.9900    59.0680    24.8600   172.2390   183.4500   207.8900     2.1910 
  161.5000   -38.4680    55.2420    25.1980   206.0090   203.5570   229.8800     2.1750 
  161.6250   -39.0000    56.0730    25.5030   238.7950   216.6360   242.7310     2.1650 
  161.7500   -39.5640    60.4980    25.6970   254.6150   221.1540   244.7140     2.1610 
  161.8750   -40.1380    63.9460    25.7870   251.6950   215.6520   234.7190     2.1640 
  162.0000   -40.7570    64.8070    25.8110   234.8960   201.6850   216.1980     2.1820 
  162.1250   -41.4150    64.4540    25.8080   197.2110   184.6790   197.0030     2.2150 
  162.2500   -42.0720    63.0520    25.8080   151.2970   171.5430   183.7600     2.2450 
  162.3750   -42.7370    60.1960    25.8080   123.5640   165.8210   178.9550     2.2530 
  162.5000   -43.3580    58.5150    25.8060   135.1340   168.6630   182.8580     2.2390 
  162.6250   -43.8750    59.8790    25.8140   197.6740   180.0360   194.9450     2.2210 
  162.7500   -44.3100    60.1790    25.8260   258.9710   195.2370   210.2320     2.2130 
  162.8750   -44.6520    57.5130    25.8260   269.6330   209.5960   223.4810     2.2130 
  163.0000   -44.8900    55.3450    25.8050   237.0430   218.0770   229.1820     2.2170 
  163.1250   -45.0140    56.3400    25.7740   213.3040   215.9410   223.0220     2.2240 
  163.2500   -45.0710    58.9870    25.7570   204.1580   205.8590   209.2620     2.2320 
  163.3750   -45.0730    61.9350    25.7560   196.1710   191.3210   192.1380     2.2380 
  163.5000   -45.0610    64.4000    25.7500   183.3010   175.8070   175.2320     2.2430 
  163.6250   -45.0460    63.7820    25.7250   168.2310   162.4860   161.7610     2.2480 
  163.7500   -45.0370    61.5900    25.6990   155.0490   152.9470   152.9150     2.2500 
  163.8750   -45.0750    60.8470    25.6840   146.3730   148.1870   149.4000     2.2460 
  164.0000   -45.1440    61.8030    25.6810   146.4190   148.5490   151.2750     2.2410 
  164.1250   -45.2260    63.1350    25.6820   159.0020   154.1960   158.5300     2.2420 
  164.2500   -45.3170    64.7640    25.6840   176.0170   162.8420   168.7920     2.2440 
  164.3750   -45.4090    65.5560    25.6800   188.5540   172.6840   180.1790     2.2340 
  164.5000   -45.5050    65.0810    25.6590   192.9650   182.0390   190.8910     2.2130 
  164.6250   -45.5930    62.3340    25.6160   188.8020   189.5190   199.4230     2.1930 
  164.7500   -45.6420    57.9830    25.5490   174.2860   195.4000   206.2000     2.1850 
  164.8750   -45.6140    54.4070    25.4190   151.1570   200.5240   212.2260     2.1880 
  165.0000   -45.5250    54.1680    25.2170   130.0430   205.8880   218.6000     2.1990 
  165.1250   -45.3480    55.0650    25.0140   120.8010   211.8970   225.6340     2.2100 
  165.2500   -45.0730    54.1230    24.8950   118.5570   216.9260   231.2050     2.2140 
  165.3750   -44.7260    54.1460    24.8620   121.8240   217.5930   231.0390     2.2070 
  165.5000   -44.2750    56.4990    24.8790   138.6270   209.9580   220.5400     2.1980 
  165.6250   -43.6940    57.8680    24.9730   172.3780   191.3240   197.9750     2.2010 
  165.7500   -43.0290    59.1130    25.1490   184.1930   167.5620   171.5920     2.2160 
  165.8750   -42.3010    62.3440    25.3300   156.6500   144.6370   148.0740     2.2320 
  166.0000   -41.5280    64.9850    25.4100   116.9920   127.0050   131.1960     2.2450 
  166.1250   -40.7860    62.7310    25.3680   105.0730   117.4590   122.7010     2.2530 
  166.2500   -40.1100    60.2010    25.3110   115.3360   113.6350   119.5950     2.2570 
  166.3750   -39.4380    62.1690    25.2670   131.4670   113.0630   119.2780     2.2570 
  166.5000   -38.7850    67.0390    25.2180   137.7460   113.0340   119.0190     2.2620 
  166.6250   -38.1750    67.9470    25.1890   127.4440   111.1390   116.4890     2.2820 
  166.7500   -37.5830    64.0390    25.1790   112.2380   107.3020   112.0540     2.3100 
  166.8750   -37.0480    59.4930    25.1430   101.7090   102.6950   107.2550     2.3300 
  167.0000   -36.5700    58.3800    25.0620   101.7100    99.0330   103.9610     2.3270 
  167.1250   -36.1160    60.9850    24.9960   111.8730    98.4770   104.3310     2.3040 
  167.2500   -35.6570    62.5820    24.9780   126.7880   101.7140   108.8570     2.2720 
  167.3750   -35.2350    61.3690    24.9770   152.9580   109.3800   118.1450     2.2360 
  167.5000   -34.8620    58.3770    24.9690   211.2350   121.8230   132.4680     2.2020 
  167.6250   -34.5350    57.6770    24.9620   326.1110   138.1710   150.4920     2.1800 
  167.7500   -34.2320    59.5840    24.9640   451.9640   152.0860   164.5040     2.1730 
  167.8750   -33.8860    60.2350    24.9720   520.0170   155.1110   164.2700     2.1760 
  168.0000   -33.5000    57.9010    24.9810   472.3920   141.8820   145.1430     2.1890 
  168.1250   -33.0640    56.7440    24.9950   326.4340   115.9510   115.2680     2.2140 
  168.2500   -32.5850    60.0640    25.0340   194.4110    90.4600    89.1720     2.2400 
  168.3750   -32.1000    65.5530    25.1030   129.6970    71.5600    71.3280     2.2590 
  168.5000   -31.6020    69.1390    25.1750   115.3390    60.2480    61.1630     2.2710 
  168.6250   -31.1300    71.4230    25.2100   118.5820    55.1180    56.6890     2.2850 
  168.7500   -30.7330    74.2300    25.2230   112.4990    52.4300    54.3130     2.2990 
  168.8750   -30.4540    76.8130    25.2430    90.7930    50.4030    52.2950     2.3050 
  169.0000   -30.2800    77.8480    25.2720    63.2060    48.1040    49.7340     2.3010 
  169.1250   -30.2340    78.6180    25.2910    45.5940    45.4040    46.6710     2.2920 
  169.2500   -30.3060    80.3980    25.2950    39.9880    42.9860    44.0380     2.2850 
  169.3750   -30.4700    80.6970    25.2850    42.4520    41.4700    42.5480     2.2840 
  169.5000   -30.7290    78.2360    25.2610    47.5040    41.1600    42.4650     2.2930 
  169.6250   -31.0420    75.7240    25.2330    49.7390    42.1840    43.8220     2.3050 
  169.7500   -31.3730    75.9380    25.2170    49.6160    44.1320    46.1310     2.3080 
  169.8750   -31.7140    76.6250    25.2150    50.6510    46.8530    49.2470     2.2980 
  170.0000   -32.0460    76.4060    25.2160    55.1060    50.2560    53.1110     2.2810 
  170.1250   -32.3550    77.2480    25.2160    62.1780    54.2790    57.6420     2.2710 
  170.2500   -32.6460    77.6270    25.2140    68.6440    58.3880    62.1840     2.2650 
  170.3750   -32.9090    75.5260    25.2200    72.3860    61.8330    65.8390     2.2560 
  170.5000   -33.1390    72.6370    25.2420    73.0010    63.7360    67.6340     2.2490 
  170.6250   -33.3690    71.3810    25.2720    71.7610    63.1180    66.5840     2.2510 
  170.7500   -33.6050    71.1620    25.2910    69.4900    60.4180    63.3470     2.2650 
  170.8750   -33.8270    72.2320    25.2940    64.5120    56.2420    58.6730     2.2820 
  171.0000   -34.0620    75.2880    25.2920    56.6460    51.4340    53.5050     2.2960 
  171.1250   -34.3040    77.6650    25.3050    49.1180    47.0900    49.0510     2.3010 
  171.2500   -34.5520    78.0240    25.3330    44.2500    44.0210    46.1670     2.3000 
  171.3750   -34.8290    77.5300    25.3660    41.5280    42.7320    45.4250     2.2990 
