~V
VERS. 2.00: Ver 2.00
~W
STRT.M 62.0000:
STOP.M 256.0000:
STEP.M 0.1250:
NULL. -999.2500:
UWI. DF32087:
~C
DEPT.M :
SP.MV :
GR.API :
RML.OHMM :
RI. :
RXO.OHMM :
CALI.CM :
DEN.GM/CC :
~A
# ...
   73.2500   -38.9760    60.2580     9.4600     7.5020     9.7010    23.9510     2.1350 
   73.3750   -38.8150    57.7560     9.4490     7.4570     9.6380    23.9330     2.1230 
   73.5000   -38.5700    58.1740     9.5700     7.5160     9.5230    23.8350     2.1200 
   73.6250   -38.2480    59.9830     9.8090     7.6830     9.7440    23.7560     2.1280 
   73.7500   -37.8770    60.9200    10.0760     7.8920    10.1430    23.7180     2.1420 
   73.8750   -37.3780    61.1490    10.2770     8.0730    10.3620    23.7090     2.1560 
   74.0000   -36.8120    60.5580    10.3220     8.1500    10.4420    23.7090     2.1690 
   74.1250   -36.0980    59.8550    10.1120     8.0330    10.7920    23.7380     2.1830 
   74.2500   -35.4200    60.4650     9.7040     7.7440    10.9540    23.8170     2.1990 
   74.3750   -34.7570    63.3860     9.1790     7.3330     9.7030    23.9400     2.2150 
   74.5000   -34.1390    67.6640     8.6420     6.8780     7.7020    24.1040     2.2280 
   74.6250   -33.5560    72.1220     8.2070     6.4740     6.7730    24.3310     2.2340 
   74.7500   -33.0800    76.1900     7.9000     6.1670     6.5700    24.4630     2.2320 
   74.8750   -32.7410    78.4880     7.7140     5.9700     6.4150    24.4520     2.2260 
   75.0000   -32.4480    78.1670     7.6200     5.8720     6.2130    24.3920     2.2210 
   75.1250   -32.2560    76.9010     7.6040     5.8660     6.4240    24.3710     2.2240 
   75.2500   -32.1240    77.0180     7.6410     5.9200     6.7210    24.3700     2.2370 
   75.3750   -32.0070    79.0800     7.7290     6.0190     6.6260    24.3690     2.2550 
   75.5000   -31.9110    81.1760     7.8590     6.1480     6.5540    24.3600     2.2750 
   75.6250   -31.7050    82.1960     7.9970     6.2800     7.1570    24.3240     2.2850 
   75.7500   -31.4930    81.1320     8.0750     6.3680     7.3590    24.2750     2.2850 
   75.8750   -31.1800    77.8060     8.0340     6.3660     6.6520    24.2280     2.2800 
   76.0000   -30.8430    73.8350     7.8370     6.2420     6.3160    24.1860     2.2790 
   76.1250   -30.4110    73.7130     7.4750     5.9760     6.3060    24.1770     2.2900 
   76.2500   -29.9420    77.8140     7.0410     5.6310     6.0850    24.2270     2.3080 
   76.3750   -29.4740    82.5960     6.6200     5.2670     5.3660    24.3590     2.3270 
   76.5000   -28.9690    83.3290     6.2840     4.9460     4.8830    24.5590     2.3430 
   76.6250   -28.5860    81.2770     6.0930     4.7260     4.7600    24.7220     2.3510 
   76.7500   -28.2060    82.2550     6.0190     4.6030     4.7850    24.8000     2.3520 
   76.8750   -27.9400    86.6810     6.0270     4.5630     4.8260    24.8200     2.3470 
   77.0000   -27.7480    90.0870     6.0760     4.5780     4.8570    24.8220     2.3360 
   77.1250   -27.7530    89.3930     6.1360     4.6290     4.9470    24.8180     2.3250 
   77.2500   -27.8030    87.2360     6.2040     4.6980     4.9860    24.7990     2.3200 
   77.3750   -27.8860    86.6600     6.2950     4.7880     5.0530    24.7510     2.3220 
   77.5000   -28.0660    87.9910     6.4240     4.9050     5.3080    24.6960     2.3290 
   77.6250   -28.3220    89.4180     6.5910     5.0480     5.4600    24.6530     2.3320 
   77.7500   -28.5510    88.8770     6.7620     5.1930     5.4440    24.5880     2.3250 
   77.8750   -28.7610    85.8580     6.8980     5.3090     5.4600    24.4470     2.3100 
   78.0000   -28.9990    82.3760     6.9620     5.3680     5.6990    24.2750     2.2940 
   78.1250   -29.1830    81.6420     6.9170     5.3370     5.7080    24.2450     2.2850 
   78.2500   -29.4020    84.2100     6.7950     5.2380     5.4770    24.3180     2.2850 
   78.3750   -29.7090    87.8860     6.6460     5.1050     5.3490    24.4310     2.2880 
   78.5000   -30.0130    88.2510     6.5330     4.9850     5.2880    24.5590     2.2890 
   78.6250   -30.3800    84.4240     6.5390     4.9470     5.3260    24.6080     2.2810 
   78.7500   -30.8340    81.5410     6.6860     5.0210     5.2790    24.4940     2.2650 
   78.8750   -31.4010    80.7440     6.9820     5.2210     5.5540    24.2450     2.2440 
   79.0000   -31.9660    78.7000     7.4080     5.5420     6.2460    24.0480     2.2190 
   79.1250   -32.4980    71.7380     7.9140     5.9550     6.6890    23.9720     2.1910 
   79.2500   -32.9330    64.7810     8.4000     6.3810     6.8090    23.9220     2.1640 
   79.3750   -33.2030    62.8310     8.7750     6.7480     7.0740    23.8420     2.1420 
   79.5000   -33.3700    64.8260     8.9690     6.9940     7.4770    23.7030     2.1320 
   79.6250   -33.2020    65.3910     8.9330     7.0600     7.7160    23.5520     2.1360 
   79.7500   -32.9180    64.7310     8.7550     6.9910     7.6890    23.4540     2.1470 
   79.8750   -32.4330    65.2300     8.5110     6.8340     7.3620    23.3880     2.1590 
   80.0000   -31.8680    68.4950     8.2600     6.6320     6.7920    23.3010     2.1650 
   80.1250   -31.1620    74.5780     8.0100     6.4040     6.8250    23.2590     2.1650 
   80.2500   -30.4800    81.8960     7.7290     6.1480     7.1890    23.3340     2.1690 
   80.3750   -29.7520    85.2390     7.3950     5.8560     7.4800    23.4990     2.1870 
   80.5000   -29.0670    83.5680     7.0240     5.5380     7.2830    23.7190     2.2220 
   80.6250   -28.5800    84.5630     6.7060     5.2500     6.0700    23.9920     2.2710 
   80.7500   -28.1970    89.7880     6.5370     5.0550     5.0760    24.3880     2.3160 
   80.8750   -27.9420    94.9680     6.5660     4.9940     4.7680    24.8320     2.3440 
   81.0000   -27.8030    96.1220     6.7690     5.0640     5.0020    25.0430     2.3490 
   81.1250   -27.7920    92.7100     7.0370     5.2120     5.2770    24.9930     2.3340 
   81.2500   -27.8460    86.3760     7.1920     5.3220     5.6250    24.9320     2.3120 
   81.3750   -27.9820    81.6390     7.1230     5.3120     5.7360    24.9270     2.2920 
   81.5000   -28.2120    82.1950     6.8140     5.1520     5.8340    24.9760     2.2760 
   81.6250   -28.4420    86.6440     6.3990     4.9020     5.6710    25.0790     2.2690 
   81.7500   -28.7060    90.1110     6.1570     4.7360     5.3410    25.1790     2.2750 
   81.8750   -29.0710    90.0160     6.2990     4.8060     4.9670    25.2110     2.2980 
   82.0000   -29.4940    85.2820     6.9290     5.2050     4.8640    25.1890     2.3390 
   82.1250   -30.1180    77.5630     8.0320     5.9580     6.7450    25.1160     2.3850 
   82.2500   -30.7450    70.7740     9.2570     6.8490    11.6650    24.9560     2.4090 
   82.3750   -31.4680    65.3790    10.2470     7.6480    15.1060    24.7000     2.3950 
   82.5000   -32.1120    62.2120    10.6970     8.1340    11.5680    24.4050     2.3450 
   82.6250   -32.7910    61.3750    10.4530     8.1510     9.0830    24.1970     2.2790 
   82.7500   -33.3570    59.6920     9.9040     7.8880     8.4190    24.0930     2.2230 
   82.8750   -33.7950    57.3210     9.3810     7.5480     8.3570    24.0520     2.1850 
   83.0000   -34.0900    57.4560     9.0620     7.2810     8.2320    24.0580     2.1640 
   83.1250   -34.1630    61.1630     8.9680     7.1510     8.2830    24.0670     2.1550 
   83.2500   -34.1750    62.2090     8.9540     7.0910     8.4600    24.0740     2.1540 
   83.3750   -34.0910    59.2990     8.9360     7.0470     8.4080    24.0740     2.1600 
   83.5000   -33.9490    57.3300     8.8920     6.9960     8.1060    24.0720     2.1690 
   83.6250   -33.6870    60.4210     8.8610     6.9610     7.8450    24.0720     2.1750 
   83.7500   -33.4400    64.5560     8.8880     6.9730     7.8460    24.0790     2.1750 
   83.8750   -33.1280    64.9750     8.9780     7.0400     8.0320    24.0980     2.1660 
   84.0000   -32.7650    62.3970     9.0850     7.1370     8.2270    24.1340     2.1530 
   84.1250   -32.3300    59.9670     9.0950     7.1870     8.4080    24.1520     2.1400 
   84.2500   -31.7670    59.1920     8.9280     7.1190     8.4770    24.1580     2.1360 
   84.3750   -31.0990    59.5770     8.5640     6.9020     8.4300    24.1660     2.1460 
