~V
VERS. 2.00: Ver 2.00
~W
STRT.M 62.0000:
STOP.M 243.0000:
STEP.M 0.1250:
NULL. -999.2500:
UWI. DF32072:
~C
DEPT.M :
SP.MV :
GR.API :
CALI.CM :
RXO.OHMM :
RI. :
RML.OHMM :
DEN.GM/CC :
~A
# ...
  129.5000   -26.4430   106.4170    25.3430     4.5200     3.8210     4.8660     2.3650 
  129.6250   -26.5210   103.7030    25.2580     4.9690     3.9670     5.0680     2.3560 
  129.7500   -26.6420   101.7590    25.1520     5.1190     4.1250     5.2410     2.3330 
  129.8750   -26.7160   102.1420    25.0570     4.9580     4.2590     5.3570     2.3000 
  130.0000   -26.7300   103.5720    24.9300     4.8640     4.3500     5.4210     2.2660 
  130.1250   -26.7940   101.5620    24.7270     4.9930     4.4100     5.4580     2.2470 
  130.2500   -26.8000    97.9200    24.5400     5.0020     4.4680     5.5020     2.2460 
  130.3750   -26.7420    96.8800    24.5200     4.9190     4.5430     5.5750     2.2510 
  130.5000   -26.6810    99.5830    24.5410     5.0790     4.6430     5.6850     2.2500 
  130.6250   -26.5380   100.8750    24.4590     5.3580     4.7450     5.8080     2.2490 
  130.7500   -26.3830    99.3490    24.4000     5.3730     4.8190     5.8980     2.2530 
  130.8750   -26.2410    98.2110    24.5490     5.2050     4.8400     5.9240     2.2570 
  131.0000   -26.0530    99.3810    24.7260     5.1430     4.7890     5.8660     2.2660 
  131.1250   -25.8730   100.6780    24.7940     5.1210     4.6460     5.7050     2.2860 
  131.2500   -25.7300   100.3250    24.8220     4.9790     4.4380     5.4780     2.3040 
  131.3750   -25.5680   100.2710    24.8860     4.7350     4.1940     5.2140     2.3060 
  131.5000   -25.4550   102.8470    25.0170     4.4560     3.9370     4.9350     2.3040 
  131.6250   -25.3910   107.3010    25.1240     4.1660     3.6930     4.6680     2.3190 
  131.7500   -25.3240   111.2800    25.2340     3.9500     3.4990     4.4530     2.3410 
  131.8750   -25.2940   112.7120    25.2750     3.8350     3.4020     4.3440     2.3530 
  132.0000   -25.3210   111.1890    25.1830     3.8280     3.4460     4.3990     2.3580 
  132.1250   -25.3610   108.7660    25.1770     3.9330     3.6810     4.6920     2.3760 
  132.2500   -25.4030   108.9000    25.2270     4.3890     4.0550     5.1790     2.3970 
  132.3750   -25.5150   108.9790    25.2120     5.4050     4.5050     5.7800     2.4020 
  132.5000   -25.5900   105.4810    25.1600     6.8190     4.9240     6.3310     2.3880 
  132.6250   -25.6750    97.6310    25.0260     7.0460     5.1510     6.5760     2.3680 
  132.7500   -25.7790    91.5720    24.8940     6.3500     5.1650     6.5120     2.3540 
  132.8750   -25.8500    92.7760    24.7900     5.7080     5.0390     6.2830     2.3420 
  133.0000   -25.9310   100.0000    24.7130     5.6340     4.8920     6.0730     2.3320 
  133.1250   -26.0120   102.8400    24.7170     5.6580     4.8300     6.0140     2.3350 
  133.2500   -26.0560    97.4290    24.7750     5.7870     4.8460     6.0670     2.3520 
  133.3750   -26.0590    90.5880    24.8070     6.2740     4.8880     6.1460     2.3760 
  133.5000   -26.1140    90.3830    24.8060     7.0040     4.9010     6.1670     2.3930 
  133.6250   -26.1450    95.5610    24.8220     6.7170     4.9030     6.1480     2.3950 
  133.7500   -26.1350    99.5330    24.8140     5.9260     4.9890     6.2290     2.3870 
  133.8750   -26.1900   101.7700    24.7890     5.6350     5.2330     6.5120     2.3780 
  134.0000   -26.2060   102.4190    24.7260     6.2220     5.6420     7.0050     2.3760 
  134.1250   -26.1750    99.5660    24.5810     7.2120     6.1100     7.5740     2.3910 
  134.2500   -26.2150    94.4450    24.4160     7.9840     6.4400     7.9410     2.4080 
  134.3750   -26.2270    91.4100    24.2940     8.0350     6.4800     7.9070     2.4080 
  134.5000   -26.2180    92.9820    24.2850     7.1230     6.2140     7.4910     2.3810 
  134.6250   -26.2570    96.5130    24.3860     5.9940     5.7800     6.9370     2.3390 
  134.7500   -26.3060    97.7840    24.4880     5.4100     5.3960     6.5060     2.3030 
  134.8750   -26.3600    96.2000    24.5140     5.3720     5.1620     6.2770     2.2770 
  135.0000   -26.4190    93.7800    24.4850     5.4770     5.1060     6.2550     2.2590 
  135.1250   -26.4970    93.5480    24.4410     5.4930     5.2160     6.4170     2.2470 
  135.2500   -26.5380    95.4390    24.3340     5.5000     5.3870     6.6340     2.2340 
  135.3750   -26.5750    96.2380    24.0900     5.6120     5.5470     6.8230     2.2180 
  135.5000   -26.5900    95.5210    23.7260     5.8660     5.6650     6.9580     2.2070 
  135.6250   -26.5230    95.6320    23.5850     6.3550     5.7490     7.0550     2.2180 
  135.7500   -26.4220    96.8240    23.7830     6.7400     5.8280     7.1560     2.2450 
  135.8750   -26.3080    95.9610    24.0830     6.9760     5.9210     7.2860     2.2790 
  136.0000   -26.1870    92.1800    24.2740     7.4860     6.0190     7.4170     2.3120 
  136.1250   -26.0500    87.8280    24.4610     7.8650     6.0420     7.4070     2.3250 
  136.2500   -25.9620    84.7490    24.7010     7.7470     5.9350     7.1670     2.3100 
  136.3750   -25.8910    85.5850    24.9200     7.6680     5.7120     6.7380     2.2790 
  136.5000   -25.8460    89.7030    25.0650     7.5390     5.4790     6.3000     2.2540 
  136.6250   -25.8820    93.3110    25.2500     6.8760     5.4730     6.2000     2.2550 
  136.7500   -25.9430    93.4900    25.3120     6.4540     5.8590     6.6360     2.2780 
  136.8750   -26.0040    89.2560    25.1180     7.4530     6.7060     7.6760     2.3240 
  137.0000   -26.0770    83.6440    24.6770     9.6190     7.9100     9.1780     2.3890 
  137.1250   -26.1200    79.4880    24.4110    12.3900     9.0600    10.5640     2.4450 
  137.2500   -26.1690    76.1570    24.3070    13.3870     9.5840    11.0500     2.4610 
  137.3750   -26.2270    72.2960    24.2210    11.3300     9.2260    10.3470     2.4360 
  137.5000   -26.2120    71.2870    24.0670     8.0320     8.2180     8.9060     2.3950 
  137.6250   -26.2330    77.1960    23.9160     6.6110     7.1010     7.5460     2.3650 
  137.7500   -26.2480    84.4150    23.8630     6.4460     6.2880     6.6960     2.3480 
  137.8750   -26.2180    89.4340    24.1530     6.5060     5.8980     6.4070     2.3450 
  138.0000   -26.2480    91.6940    24.8280     6.6120     5.9080     6.5800     2.3650 
  138.1250   -26.2770    90.1880    25.5230     7.4200     6.2080     7.0250     2.4110 
  138.2500   -26.2670    85.6120    25.8210     9.3410     6.5360     7.4040     2.4460 
  138.3750   -26.2700    81.0070    25.7980    10.2030     6.7590     7.5490     2.4440 
  138.5000   -26.3210    79.4810    25.5360     8.8600     6.9170     7.5400     2.4100 
  138.6250   -26.3230    82.4290    25.0590     7.0950     7.2560     7.7390     2.3820 
  138.7500   -26.3370    86.9220    24.7940     7.1420     7.9540     8.3960     2.3920 
  138.8750   -26.4010    88.8210    24.6240     9.3530     9.0460     9.5660     2.4350 
  139.0000   -26.3950    85.1190    24.5070    14.6350    10.3270    11.0120     2.4840 
  139.1250   -26.4270    77.4360    24.4070    19.1020    11.0920    11.8520     2.4950 
  139.2500   -26.4740    72.7170    24.3530    17.1690    10.7820    11.3570     2.4650 
  139.3750   -26.4890    74.4050    24.3260    11.0040     9.5040     9.7500     2.4150 
  139.5000   -26.5170    82.2350    24.2750     6.6270     7.8890     7.9120     2.3670 
  139.6250   -26.5410    90.8270    24.1490     5.5390     6.5810     6.6050     2.3380 
  139.7500   -26.5170    96.7270    23.9910     5.3340     5.7810     5.9350     2.3220 
  139.8750   -26.4690   100.6800    23.9320     5.4210     5.5100     5.8530     2.3150 
  140.0000   -26.4560   103.9830    24.1660     5.7290     5.7010     6.2400     2.3120 
  140.1250   -26.3820   102.8450    24.5090     6.5680     6.2920     6.9840     2.3170 
  140.2500   -26.3120    96.5670    24.5430     8.4340     7.0890     7.8710     2.3330 
  140.3750   -26.2560    88.9050    24.3860    11.0330     7.9590     8.7520     2.3540 
  140.5000   -26.1450    82.5310    24.5070    12.4890     8.8040     9.5280     2.3730 
  140.6250   -26.0700    78.9640    24.4030    11.8140     9.6590    10.2710     2.3960 
