~V
VERS. 2.00: Ver 2.00
~W
STRT.M 60.0000:
STOP.M 270.0000:
STEP.M 0.1250:
NULL. -999.2500:
UWI. DF32131:
~C
DEPT.M :
DEN.GM/CC :
GR.API :
CALI.CM :
RXO.OHMM :
RI. :
RML.OHMM :
SP.MV :
~A
   60.0000     1.9580    57.6500    25.3540     0.8360    -0.0760     2.3950    18.6460 
   60.1250     1.9580    56.6620    25.3350     0.8380    -0.0670     2.3650    18.1680 
   60.2500     1.9520    54.8770    25.3260     0.8360    -0.0530     2.3430    17.7670 
   60.3750     1.9440    54.1060    25.3220     0.8320    -0.0400     2.3330    17.3300 
   60.5000     1.9370    54.7130    25.3180     0.8280    -0.0310     2.3280    16.7550 
   60.6250     1.9310    55.9450    25.3170     0.8270    -0.0240     2.3250    16.0550 
   60.7500     1.9270    57.5330    25.3170     0.8270    -0.0190     2.3330    15.2240 
   60.8750     1.9280    59.3100    25.3170     0.8270    -0.0210     2.3750    14.3100 
   61.0000     1.9380    60.9890    25.3170     0.8280    -0.0350     2.4770    13.2470 
   61.1250     1.9630    61.8370    25.3170     0.8330    -0.0580     2.5700    12.1830 
   61.2500     1.9980    60.6080    25.3170     0.8370    -0.0840     2.2980    11.1000 
   61.3750     2.0360    57.9740    25.3170     0.8390    -0.1050     1.3240    10.1000 
   61.5000     2.0670    56.0990    25.3090     0.8380    -0.1180     0.0850     9.2090 
   61.6250     2.0870    56.0230    25.2850     0.8360    -0.1220    -0.6850     8.3230 
   61.7500     2.0870    56.1530    25.2510     0.8370    -0.1200    -1.0640     7.1930 
   61.8750     2.0640    56.3560    25.2320     0.8410    -0.1170    -1.2200     5.5820 
   62.0000     2.0620    57.5810    25.2060     0.9280    -0.1150    -1.2440     3.4320 
   62.1250     2.1370    59.8490    25.0490     1.4040    -0.0850    -1.1440     0.6110 
   62.2500     2.2390    63.1310    24.6420     2.7130     0.0320    -0.8920    -2.6430 
   62.3750     2.2830    69.2500    24.0340     4.7240     0.3330    -0.3580    -6.2000 
   62.5000     2.2470    76.6970    23.4470     6.6600     0.9270     0.7030    -9.8470 
   62.6250     2.1850    79.8030    23.1650     7.8320     1.9060     2.5400   -13.4360 
   62.7500     2.1530    77.9070    23.0820     8.0530     3.0200     4.1970   -16.6580 
   62.8750     2.1500    74.7890    23.0530     7.6840     4.0050     4.8390   -19.3090 
   63.0000     2.1560    73.9200    22.9890     7.1830     4.7470     4.8700   -21.3090 
   63.1250     2.1560    74.6110    22.8470     6.9040     5.2630     4.9020   -22.6070 
   63.2500     2.1580    73.8700    22.7530     6.7130     5.6390     5.0570   -23.4660 
   63.3750     2.1650    71.9420    22.7210     6.4990     5.8840     5.2660   -24.0500 
   63.5000     2.1730    71.5780    22.7180     6.3380     6.0070     5.4550   -24.4870 
   63.6250     2.1720    74.1530    22.7180     6.2520     6.0300     5.5720   -24.8870 
   63.7500     2.1630    75.7410    22.7180     6.2480     6.0100     5.6410   -25.2410 
   63.8750     2.1530    75.1090    22.7200     6.3800     5.9780     5.6850   -25.5670 
   64.0000     2.1450    73.6030    22.7440     6.7860     5.9420     5.7220   -25.9090 
   64.1250     2.1410    73.9440    22.8250     7.3960     5.8950     5.7500   -26.2170 
   64.2500     2.1390    76.3640    22.9560     7.7740     5.8480     5.7760   -26.5400 
   64.3750     2.1370    79.1910    23.1270     7.8220     5.8290     5.8280   -26.8450 
   64.5000     2.1360    79.7640    23.4000     7.8890     5.8710     5.9460   -27.0920 
   64.6250     2.1380    78.0250    23.6930     8.3530     6.0010     6.1870   -27.1460 
   64.7500     2.1420    76.0150    23.8880     8.6620     6.1770     6.5050   -27.0920 
   64.8750     2.1460    73.8930    24.0950     8.5400     6.3250     6.7900   -26.9380 
   65.0000     2.1530    71.6640    24.2540     8.2430     6.3700     6.9010   -26.6410 
   65.1250     2.1750    72.2910    24.2740     7.9910     6.2730     6.7440   -26.2960 
   65.2500     2.2120    78.4970    24.1440     7.4050     6.1040     6.4590   -25.9790 
   65.3750     2.2510    87.7480    23.9160     6.5500     5.9380     6.1970   -25.6980 
   65.5000     2.2700    94.7860    23.7620     5.9790     5.8420     6.0840   -25.5000 
   65.6250     2.2540    95.1710    23.6650     6.4640     5.8680     6.2080   -25.4030 
   65.7500     2.2240    91.4100    23.4780     7.2370     5.9750     6.4930   -25.3930 
   65.8750     2.1970    87.4980    23.1600     7.6260     6.1120     6.8310   -25.4480 
   66.0000     2.1830    85.3960    22.8320     7.4260     6.2230     7.0880   -25.6280 
   66.1250     2.1840    85.7770    22.5600     7.0620     6.2600     7.1560   -25.9150 
   66.2500     2.1920    86.6340    22.2570     6.8420     6.2600     7.1260   -26.2050 
   66.3750     2.1980    86.6240    22.0480     6.8430     6.2880     7.1350   -26.5170 
   66.5000     2.2000    85.5430    21.9790     7.0110     6.3870     7.2700   -26.8300 
   66.6250     2.2130    82.2010    21.9930     7.2230     6.5730     7.5610   -27.1870 
   66.7500     2.2380    79.0630    22.0930     7.5740     6.8090     7.9270   -27.5920 
   66.8750     2.2540    76.9460    22.3910     7.9540     7.0810     8.3210   -28.0530 
   67.0000     2.2500    73.7560    22.8990     8.1330     7.4050     8.7440   -28.4950 
   67.1250     2.2480    70.7120    23.3590     7.9650     7.8480     9.2960   -28.9330 
   67.2500     2.2810    71.6850    23.6240     7.8430     8.4150    10.0250   -29.3250 
   67.3750     2.3460    74.1150    23.6640     7.8140     9.0320    10.8520   -29.7260 
   67.5000     2.4090    73.3600    23.5300     7.8790     9.5420    11.5300   -30.1790 
   67.6250     2.4210    70.7330    23.2480     8.0460     9.7150    11.6700   -30.6350 
   67.7500     2.3800    70.0970    23.0250     8.1840     9.5410    11.2820   -31.0970 
   67.8750     2.3050    69.7700    22.8710     8.2190     9.1200    10.6060   -31.5310 
   68.0000     2.2230    68.0950    22.7060     8.3000     8.6260     9.9470   -31.9970 
   68.1250     2.1620    66.9840    22.5830     8.8430     8.2260     9.5270   -32.4560 
   68.2500     2.1290    67.7110    22.4410     9.5680     7.9450     9.2910   -32.9360 
   68.3750     2.1220    70.2200    22.3560     9.8540     7.7450     9.1290   -33.3840 
   68.5000     2.1340    73.8140    22.5080     9.5870     7.5770     8.9610   -33.7660 
   68.6250     2.1510    75.0240    22.9150     9.5100     7.4160     8.7820   -34.1420 
   68.7500     2.1620    74.1000    23.1940     9.6760     7.2790     8.6470   -34.4370 
   68.8750     2.1600    72.6550    23.2910     9.8630     7.1960     8.5910   -34.7260 
   69.0000     2.1480    71.8460    23.3090     9.9340     7.1770     8.6010   -34.9610 
   69.1250     2.1340    71.2250    23.3150     9.8920     7.1930     8.6200   -35.1430 
   69.2500     2.1300    70.0140    23.3200     9.7810     7.1920     8.6160   -35.2880 
   69.3750     2.1340    68.3130    23.3360     9.5730     7.1620     8.6070   -35.4600 
   69.5000     2.1400    66.7360    23.3660     9.3520     7.1120     8.6230   -35.6440 
   69.6250     2.1390    66.3250    23.3630     9.4500     7.0680     8.6930   -35.8380 
   69.7500     2.1360    67.5750    23.3420     9.7610     7.0480     8.8040   -36.0500 
   69.8750     2.1360    70.0450    23.3300     9.9580     7.0560     8.9350   -36.2350 
   70.0000     2.1410    72.6000    23.3280     9.9790     7.0800     9.0630   -36.4370 
   70.1250     2.1450    72.9020    23.3280    10.0380     7.1030     9.1710   -36.6130 
   70.2500     2.1450    71.8910    23.3280    10.2480     7.1130     9.2620   -36.7970 
   70.3750     2.1460    71.8340    23.3280    10.4260     7.1090     9.3410   -36.9450 
   70.5000     2.1480    72.3860    23.3280    10.5180     7.1050     9.4140   -37.0720 
   70.6250     2.1510    71.8410    23.3280    10.5850     7.1110     9.4850   -37.1040 
   70.7500     2.1530    71.3050    23.3280    10.6740     7.1240     9.5460   -37.1750 
   70.8750     2.1530    71.8290    23.3280    10.7630     7.1420     9.5930   -37.2980 
   71.0000     2.1480    72.6580    23.3280    10.8560     7.1660     9.6300   -37.3950 
   71.1250     2.1390    71.5480    23.3230    10.9040     7.1940     9.6670   -37.4740 
