~V
VERS. 2.00: Ver 2.00
~W
STRT.M 62.0000:
STOP.M 235.0000:
STEP.M 0.1250:
NULL. -999.2500:
UWI. DF32059:
~C
DEPT.M :
SP.MV :
GR.API :
CALI.CM :
RXO.OHMM :
RI. :
RML.OHMM :
DEN.GM/CC :
~A
# ...
  152.0000   -30.7870    70.3810    23.4000   115.0980   144.6540   151.3550     2.2110 
  152.1250   -31.0460    69.2410    23.3810   117.8570   146.0010   152.7690     2.2100 
  152.2500   -31.2620    72.5960    23.3370   122.7410   147.6810   154.5350     2.2030 
  152.3750   -31.4790    78.6220    23.2890   126.9960   150.1060   157.0820     2.1950 
  152.5000   -31.6410    79.7420    23.2580   131.3790   153.2250   160.3580     2.1920 
  152.6250   -31.7830    74.0020    23.2390   138.5710   156.2700   163.5580     2.1950 
  152.7500   -31.8760    70.1640    23.2370   151.6470   158.7870   166.2020     2.2000 
  152.8750   -31.9410    70.0280    23.2470   166.3010   161.1680   168.7030     2.2010 
  153.0000   -31.9940    69.2840    23.2450   168.0610   164.2570   171.9480     2.2010 
  153.1250   -32.0510    67.5560    23.1640   151.6330   169.2650   177.2090     2.2030 
  153.2500   -32.1290    67.2580    23.0540   141.8750   176.3080   184.6070     2.2100 
  153.3750   -32.1930    67.6930    23.1320   156.9370   184.8100   193.5390     2.2210 
  153.5000   -32.2750    67.7070    23.5840   185.4670   193.4430   202.6080     2.2340 
  153.6250   -32.3570    67.0390    23.8490   194.0460   200.3460   209.8590     2.2450 
  153.7500   -32.4670    66.7930    23.9420   181.9980   205.0980   214.8520     2.2520 
  153.8750   -32.6040    65.9700    23.9430   169.4600   208.7520   218.6900     2.2530 
  154.0000   -32.7630    64.4920    23.9430   170.0280   214.0320   224.2370     2.2480 
  154.1250   -32.9060    62.7650    23.9500   176.7960   226.0470   236.8590     2.2340 
  154.2500   -33.0500    61.7600    23.9660   186.1490   247.2220   259.1030     2.2160 
  154.3750   -33.1930    62.1350    23.9820   212.0170   278.6660   292.1350     2.1990 
  154.5000   -33.3490    63.1300    23.9890   252.5460   319.1920   334.7080     2.1880 
  154.6250   -33.5060    64.0650    23.9910   288.5800   364.4640   382.2660     2.1870 
  154.7500   -33.6450    64.0720    24.0090   316.0270   405.2830   425.1470     2.1880 
  154.8750   -33.7420    63.1790    24.0600   334.7510   433.6880   454.9870     2.1880 
  155.0000   -33.8060    63.4840    24.1490   338.6560   445.8770   467.7910     2.1880 
  155.1250   -33.8090    64.6290    24.1910   316.9850   443.2380   465.0190     2.1910 
  155.2500   -33.7670    63.4950    24.2740   285.2100   432.4670   453.7030     2.1970 
  155.3750   -33.6870    61.1690    24.3590   263.0600   411.4490   431.6240     2.2040 
  155.5000   -33.5440    60.7440    24.1450   267.5080   374.9860   393.3190     2.2070 
  155.6250   -33.3430    62.5150    24.0040   295.4500   320.8830   336.4840     2.2060 
  155.7500   -33.0860    63.1150    23.9250   298.2570   261.6000   274.2070     2.2070 
  155.8750   -32.8030    63.1890    23.9080   251.3560   208.3220   218.2380     2.2180 
  156.0000   -32.4890    64.4200    23.9550   174.8450   168.0230   175.9040     2.2390 
  156.1250   -32.1940    65.4160    24.0210   128.4950   144.4290   151.1180     2.2660 
  156.2500   -31.9000    67.0310    24.0250   106.2320   132.8350   138.9390     2.2890 
  156.3750   -31.5920    70.6650    23.9110    98.0400   130.6920   136.6880     2.3020 
  156.5000   -31.3050    73.8930    23.8710   106.1420   135.7050   141.9540     2.2970 
  156.6250   -31.0460    74.0700    23.9290   125.4920   145.5470   152.2930     2.2750 
  156.7500   -30.8290    73.9940    24.0150   138.3460   156.1550   163.4370     2.2530 
  156.8750   -30.6400    74.4520    24.1470   141.5940   165.1420   172.8780     2.2390 
  157.0000   -30.4570    73.3230    24.1280   141.7310   171.3580   179.4070     2.2360 
  157.1250   -30.2650    70.0990    24.0880   143.6660   174.7570   182.9780     2.2400 
  157.2500   -30.0940    69.6500    24.0510   146.0890   177.0130   185.3490     2.2420 
  157.3750   -29.9600    71.3280    24.0380   148.7000   179.0680   187.5070     2.2430 
  157.5000   -29.8350    71.2210    24.0330   153.3620   181.1190   189.6620     2.2400 
  157.6250   -29.7220    68.7300    24.0440   158.8190   182.7100   191.3320     2.2350 
  157.7500   -29.6120    66.5010    24.0740   163.0870   183.4640   192.1250     2.2310 
  157.8750   -29.4940    66.3090    24.0710   163.7920   183.1870   191.8340     2.2300 
  158.0000   -29.3840    68.0670    24.0240   162.4990   181.9160   190.4980     2.2340 
  158.1250   -29.3060    71.8020    23.9980   162.4910   179.8720   188.3510     2.2440 
  158.2500   -29.2370    74.4220    23.9920   163.7320   177.6610   186.0290     2.2540 
  158.3750   -29.1730    73.4000    23.9960   163.3660   175.6980   183.9670     2.2590 
  158.5000   -29.1210    70.1710    24.0000   159.7310   174.2200   182.4140     2.2540 
  158.6250   -29.0710    68.8140    24.0200   158.2600   173.0120   181.1440     2.2460 
  158.7500   -29.0240    69.7000    24.0650   162.6550   170.7770   178.7970     2.2440 
  158.8750   -28.9770    70.4670    24.1180   166.8240   165.6940   173.4570     2.2470 
  159.0000   -28.9200    68.9070    24.1610   161.1950   156.5750   163.8780     2.2510 
  159.1250   -28.8880    66.7230    24.1890   146.1310   143.8960   150.5590     2.2540 
  159.2500   -28.8290    66.9710    24.1920   133.3040   131.0490   137.0630     2.2580 
  159.3750   -28.7550    69.0370    24.1780   121.7930   120.6910   126.1820     2.2610 
  159.5000   -28.6760    70.8430    24.1960   114.0820   114.5370   119.7160     2.2580 
  159.6250   -28.5820    70.4290    24.2050   116.3800   113.6510   118.7860     2.2470 
  159.7500   -28.4900    68.0420    24.1960   124.0390   116.2540   121.5200     2.2350 
  159.8750   -28.4170    65.5470    24.1590   123.3220   120.9290   126.4320     2.2290 
  160.0000   -28.3590    65.4820    24.1160   117.9420   126.3180   132.0930     2.2300 
  160.1250   -28.2750    67.4890    24.0970   117.2470   131.2290   137.2520     2.2320 
  160.2500   -28.2190    67.8150    24.0930   120.0570   135.2630   141.4900     2.2350 
  160.3750   -28.1800    68.0410    24.0860   120.4990   138.3340   144.7150     2.2410 
  160.5000   -28.1390    71.1100    24.0740   120.8490   140.0950   146.5660     2.2440 
  160.6250   -28.1330    73.7170    24.0610   123.7180   139.3880   145.8230     2.2380 
  160.7500   -28.1300    72.3110    24.0790   127.8410   136.2330   142.5080     2.2270 
  160.8750   -28.1320    70.9450    24.0900   126.6240   131.2960   137.3220     2.2180 
  161.0000   -28.1580    72.4790    24.0930   117.8570   125.8320   131.5820     2.2180 
  161.1250   -28.2220    74.0860    24.0920   106.9860   121.5060   127.0380     2.2230 
  161.2500   -28.3160    73.6300    24.0910   101.4280   119.2790   124.6980     2.2260 
  161.3750   -28.4340    72.7910    24.0860   103.4080   119.6480   125.0860     2.2240 
  161.5000   -28.5850    71.9220    24.0800   109.9180   122.6960   128.2880     2.2160 
  161.6250   -28.7450    69.8080    24.0560   117.4200   128.4310   134.3130     2.2070 
  161.7500   -28.9350    68.7950    24.0250   124.7290   135.6680   141.9150     2.2030 
  161.8750   -29.1490    69.6030    24.0000   131.9010   143.4980   150.1400     2.2080 
  162.0000   -29.3530    70.6610    23.9890   138.5450   151.1250   158.1520     2.2140 
  162.1250   -29.5540    69.7740    23.9880   142.6460   157.8600   165.2280     2.2140 
  162.2500   -29.7310    67.6760    23.9780   144.2740   163.3890   171.0360     2.2060 
  162.3750   -29.9040    67.8050    23.9530   146.5030   167.1120   174.9470     2.1970 
  162.5000   -30.0610    71.2050    23.9270   152.5650   168.1990   176.0890     2.1940 
  162.6250   -30.2560    74.7360    23.8630   159.2610   165.3960   173.1450     2.2010 
  162.7500   -30.4210    75.9700    23.7140   159.8300   159.6000   167.0550     2.2080 
  162.8750   -30.5810    75.8900    23.5390   148.6710   152.3350   159.4240     2.2090 
  163.0000   -30.7560    75.7400    23.4550   130.5680   145.7890   152.5470     2.2080 
  163.1250   -30.9820    74.2010    23.5630   118.3150   142.8780   149.4890     2.2110 
