~V
VERS. 2.00: Ver 2.00
~W
STRT.M 61.0000:
STOP.M 262.0000:
STEP.M 0.1250:
NULL. -999.2500:
UWI. DF32115:
~C
DEPT.M :
GR.API :
CALI.CM :
RXO.OHMM :
RI. :
RML.OHMM :
DEN.GM/CC :
SP.MV :
~A
# ...
  241.0000    59.9430    24.0740     6.9070     5.5510     6.2490     2.3790   -11.0630 
  241.1250    60.0970    24.0400     6.5180     5.5120     6.2130     2.3810   -11.0450 
  241.2500    60.9940    23.9800     6.2360     5.4750     6.1740     2.3720   -11.0210 
  241.3750    61.0050    23.9130     6.1070     5.4400     6.1400     2.3630   -10.9870 
  241.5000    59.6250    23.8970     6.0750     5.4120     6.1150     2.3620   -10.9600 
  241.6250    57.9030    23.9900     6.0800     5.3910     6.1010     2.3640   -10.9290 
  241.7500    57.9300    24.1240     6.0830     5.3740     6.0950     2.3580   -10.8970 
  241.8750    58.9270    24.2140     6.0610     5.3590     6.0940     2.3500   -10.8760 
  242.0000    59.5480    24.2350     6.0070     5.3480     6.0970     2.3510   -10.8580 
  242.1250    61.6050    24.2320     5.9540     5.3440     6.1060     2.3640   -10.8530 
  242.2500    64.3780    24.2330     5.9500     5.3500     6.1240     2.3790   -10.8580 
  242.3750    65.0950    24.2290     6.0070     5.3660     6.1530     2.3870   -10.8810 
  242.5000    62.4510    24.2270     6.0930     5.3900     6.1970     2.3870   -10.9170 
  242.6250    60.3570    24.2310     6.1530     5.4210     6.2560     2.3870   -10.9680 
  242.7500    61.4350    24.2340     6.1640     5.4530     6.3180     2.3930   -11.0340 
  242.8750    64.0090    24.2320     6.1700     5.4800     6.3700     2.4070   -11.1110 
  243.0000    66.0690    24.2270     6.2520     5.4970     6.4000     2.4200   -11.1850 
  243.1250    65.2680    24.2250     6.4030     5.4970     6.3980     2.4190   -11.2500 
  243.2500    62.6480    24.2270     6.4650     5.4790     6.3720     2.3990   -11.2970 
  243.3750    61.6190    24.2310     6.3380     5.4450     6.3310     2.3730   -11.3260 
  243.5000    63.3550    24.2400     6.0610     5.4010     6.2860     2.3540   -11.3410 
  243.6250    64.1000    24.2550     5.7810     5.3550     6.2510     2.3470   -11.3200 
  243.7500    61.5870    24.2680     5.6240     5.3190     6.2350     2.3430   -11.2850 
  243.8750    59.3810    24.2740     5.5990     5.3040     6.2470     2.3430   -11.2390 
  244.0000    60.3150    24.2740     5.6320     5.3120     6.2850     2.3500   -11.1950 
  244.1250    62.5610    24.2740     5.6480     5.3370     6.3380     2.3640   -11.1540 
  244.2500    61.9470    24.2730     5.6980     5.3610     6.3820     2.3740   -11.1310 
  244.3750    59.3040    24.2700     5.8370     5.3760     6.4040     2.3700   -11.1260 
  244.5000    57.2660    24.2670     6.0240     5.3790     6.4090     2.3550   -11.1360 
  244.6250    57.3080    24.2740     6.1260     5.3870     6.4240     2.3500   -11.1840 
  244.7500    59.0950    24.2810     6.1970     5.4090     6.4660     2.3650   -11.2650 
  244.8750    62.1090    24.2730     6.5600     5.4490     6.5370     2.3880   -11.3910 
  245.0000    64.2010    24.2570     7.5380     5.4970     6.6170     2.4070   -11.5560 
  245.1250    64.3200    24.2690     8.6250     5.5340     6.6690     2.4190   -11.7620 
  245.2500    64.5540    24.2840     8.6650     5.5480     6.6790     2.4300   -11.9950 
  245.3750    65.3660    24.2250     7.6080     5.5400     6.6520     2.4360   -12.2390 
  245.5000    64.9300    24.0630     6.5200     5.5170     6.6090     2.4400   -12.4830 
  245.6250    63.1830    23.9110     6.4480     5.4850     6.5700     2.4480   -12.6970 
  245.7500    63.5380    23.8670     7.0040     5.4510     6.5380     2.4560   -12.8690 
  245.8750    64.7760    23.9050     7.5640     5.4130     6.5040     2.4520   -12.9820 
  246.0000    63.9060    23.9550     7.7100     5.3680     6.4550     2.4340   -13.0390 
  246.1250    61.1670    23.9890     7.3960     5.3110     6.3860     2.4170   -13.0440 
  246.2500    58.6180    24.0050     6.9760     5.2470     6.3080     2.4170   -13.0030 
  246.3750    57.6700    23.9840     6.6090     5.1800     6.2260     2.4300   -12.9210 
  246.5000    58.9910    23.9270     6.3070     5.1130     6.1440     2.4370   -12.8250 
  246.6250    61.6780    23.9260     6.0690     5.0470     6.0580     2.4250   -12.7170 
  246.7500    62.9300    24.0470     5.8870     4.9850     5.9750     2.4010   -12.5930 
  246.8750    61.9350    24.2330     5.7350     4.9310     5.9020     2.3790   -12.4680 
  247.0000    61.5000    24.3650     5.5970     4.8900     5.8520     2.3670   -12.3460 
  247.1250    63.4950    24.3890     5.5140     4.8760     5.8460     2.3670   -12.2240 
  247.2500    64.0340    24.3890     5.5010     4.8950     5.8940     2.3750   -12.1070 
  247.3750    61.1280    24.4060     5.5440     4.9530     6.0030     2.3890   -12.0010 
  247.5000    57.0470    24.4310     5.6320     5.0490     6.1640     2.4030   -11.8880 
  247.6250    57.5810    24.4470     5.7880     5.1730     6.3580     2.4130   -11.7820 
  247.7500    60.6030    24.4190     5.9490     5.3040     6.5470     2.4220   -11.6900 
  247.8750    61.9630    24.3570     5.9710     5.4210     6.7030     2.4310   -11.5990 
  248.0000    60.7580    24.3150     5.7730     5.5100     6.8110     2.4410   -11.5120 
  248.1250    60.0990    24.3320     5.5000     5.5620     6.8680     2.4430   -11.4280 
  248.2500    61.4890    24.3500     5.4030     5.5810     6.8880     2.4290   -11.3480 
  248.3750    63.0860    24.3340     5.5440     5.5640     6.8590     2.4030   -11.2690 
  248.5000    64.2340    24.3090     5.8240     5.5010     6.7630     2.3790   -11.2000 
  248.6250    65.6050    24.3020     6.0420     5.3780     6.5780     2.3760   -11.1310 
  248.7500    65.3370    24.3030     6.0580     5.2110     6.3360     2.3850   -11.0580 
  248.8750    62.3970    24.3010     5.8750     5.0210     6.0780     2.3950   -10.9850 
  249.0000    58.9520    24.2970     5.5950     4.8400     5.8530     2.3940   -10.9120 
  249.1250    58.8300    24.2940     5.3350     4.6960     5.7000     2.3880   -10.8210 
  249.2500    60.0570    24.2930     5.1510     4.5950     5.6080     2.3860   -10.7040 
  249.3750    60.8460    24.2970     5.0500     4.5340     5.5620     2.3910   -10.5690 
  249.5000    62.9430    24.3110     4.9910     4.5010     5.5390     2.4000   -10.4090 
  249.6250    66.6850    24.3420     4.9210     4.4850     5.5160     2.4070   -10.2280 
  249.7500    68.3420    24.3840     4.8600     4.4750     5.4870     2.4100   -10.0190 
  249.8750    66.2260    24.4230     4.8360     4.4720     5.4630     2.4110    -9.7690 
  250.0000    62.6490    24.4490     4.8450     4.4790     5.4620     2.4110    -9.4870 
  250.1250    60.5860    24.4560     4.9000     4.5040     5.5010     2.4170    -9.2040 
  250.2500    59.7800    24.4540     5.0140     4.5440     5.5690     2.4270    -8.9450 
  250.3750    59.9750    24.4550     5.1670     4.5930     5.6520     2.4360    -8.7190 
  250.5000    61.5200    24.4590     5.3720     4.6390     5.7270     2.4380    -8.5300 
  250.6250    62.8750    24.4410     5.7630     4.6670     5.7650     2.4360    -8.3730 
  250.7500    62.1230    24.3690     6.3100     4.6690     5.7590     2.4390    -8.2620 
  250.8750    60.0950    24.2470     6.6990     4.6400     5.7090     2.4430    -8.1840 
  251.0000    59.3400    24.1290     6.5770     4.5880     5.6290     2.4400    -8.1150 
  251.1250    62.0490    24.0750     5.9450     4.5230     5.5400     2.4310    -8.0430 
  251.2500    65.4080    24.0620     5.3230     4.4630     5.4630     2.4230    -7.9400 
  251.3750    66.5690    24.0430     4.9460     4.4160     5.4120     2.4180    -7.7990 
  251.5000    66.5690    24.0010     4.7770     4.3890     5.3900     2.4090    -7.6370 
  251.6250    66.5690    23.9590     4.7070     4.3820     5.3930     2.3900    -7.4760 
  251.7500    66.5690    23.9300     4.6820     4.3850     5.4050     2.3710    -7.3030 
  251.8750    66.5690    23.9010     4.7170     4.3940     5.4220     2.3630    -7.1330 
  252.0000    66.5690    23.8690     4.8010     4.4060     5.4430     2.3670    -6.9830 
  252.1250    66.5690    23.8480     4.8940     4.4240     5.4760     2.3740    -6.8530 
