~V
VERS. 2.00: Ver 2.00
~W
STRT.M 62.0000:
STOP.M 318.0000:
STEP.M 0.1250:
NULL. -999.2500:
UWI. DF321:
~C
DEPT.M :
DEN.GM/CC :
SP.MV :
AC.US/MT :
GR.API :
CALI.CM :
RXO.OHMM :
RI. :
RML.OHMM :
~A
# ...
  212.0000     2.2490   -33.5070   406.2960    74.4070    22.9290    17.5380    15.7450    16.9270 
  212.1250     2.2600   -33.5650   406.2970    77.1690    22.9050    14.8980    13.7080    14.6950 
  212.2500     2.2730   -33.6510   406.5860    76.7680    22.8970    14.0860    12.4390    13.3980 
  212.3750     2.2860   -33.7270   407.0100    76.0890    22.8970    13.9280    11.8000    12.8190 
  212.5000     2.2920   -33.7570   407.3430    77.6220    22.8970    13.9470    11.6020    12.7000 
  212.6250     2.2840   -33.8280   407.5150    77.2880    22.8970    14.0410    11.6520    12.7880 
  212.7500     2.2710   -33.8920   407.7280    74.3750    22.8970    14.1960    11.7290    12.8460 
  212.8750     2.2610   -33.9420   408.0940    72.1340    22.8960    14.2960    11.7490    12.8020 
  213.0000     2.2600   -33.9830   408.5420    72.2200    22.8610    14.1810    11.6930    12.6620 
  213.1250     2.2620   -34.0030   408.8640    72.7760    22.7520    13.9140    11.5700    12.4680 
  213.2500     2.2580   -34.0410   408.9660    74.9970    22.6270    13.9130    11.4140    12.2710 
  213.3750     2.2550   -34.0700   408.8530    78.9820    22.6040    14.0870    11.2440    12.0920 
  213.5000     2.2630   -34.1110   408.6030    82.8710    22.5760    14.1590    11.0750    11.9350 
  213.6250     2.2760   -34.1390   408.4560    83.0790    22.4260    14.1780    10.9160    11.8050 
  213.7500     2.2790   -34.1600   408.7300    80.8200    22.2440    14.2430    10.7760    11.7050 
  213.8750     2.2740   -34.1950   409.6330    77.5480    22.1730    14.1310    10.6570    11.6430 
  214.0000     2.2730   -34.2390   411.1140    74.4640    22.3070    13.7660    10.5630    11.6250 
  214.1250     2.2760   -34.2640   412.7990    74.6020    22.6060    13.4810    10.5000    11.6450 
  214.2500     2.2700   -34.2640   414.1560    76.5860    22.8210    13.4800    10.4580    11.6780 
  214.3750     2.2560   -34.2550   414.8580    77.4250    22.9350    13.6300    10.4330    11.7070 
  214.5000     2.2450   -34.1910   414.6960    76.1820    22.9290    13.7040    10.4170    11.7310 
  214.6250     2.2520   -34.1340   413.4300    73.6300    22.8080    13.6170    10.4120    11.7720 
  214.7500     2.2690   -34.0620   411.4910    71.6110    22.7040    13.5360    10.4190    11.8390 
  214.8750     2.2840   -33.9220   409.5950    71.3870    22.7530    13.5740    10.4310    11.9220 
  215.0000     2.2960   -33.8180   408.6910    73.4950    22.8990    13.6430    10.4410    11.9930 
  215.1250     2.3080   -33.6720   409.7390    76.0090    22.9720    13.5700    10.4310    12.0210 
  215.2500     2.3170   -33.4770   412.1930    76.9720    22.9870    13.4100    10.3940    12.0100 
  215.3750     2.3180   -33.3550   415.0790    77.6100    22.9800    13.1970    10.3290    11.9690 
  215.5000     2.3130   -33.2330   417.2820    80.3310    22.9690    12.9670    10.2430    11.9150 
  215.6250     2.3140   -33.0920   417.7840    83.9960    22.9770    12.8320    10.1460    11.8520 
  215.7500     2.3230   -33.0070   416.8150    84.4700    22.9950    12.7750    10.0540    11.7870 
  215.8750     2.3320   -32.9400   414.8920    81.3960    23.0020    12.8620     9.9830    11.7350 
  216.0000     2.3310   -32.9160   412.7350    78.3280    23.0010    13.0960     9.9540    11.7190 
  216.1250     2.3250   -32.9430   411.1840    78.7860    23.0020    13.3070     9.9930    11.7700 
  216.2500     2.3210   -33.0310   410.5440    79.8390    23.0010    13.3450    10.0920    11.8770 
  216.3750     2.3220   -33.1250   410.7250    77.7010    22.9950    13.3250    10.2290    12.0160 
  216.5000     2.3200   -33.2330   411.3340    72.7320    22.9900    13.4350    10.3640    12.1470 
  216.6250     2.3050   -33.3820   411.8850    69.1740    23.0270    13.6860    10.4400    12.2180 
  216.7500     2.2820   -33.5190   412.2430    66.5600    23.0760    13.9180    10.4460    12.2200 
  216.8750     2.2630   -33.6480   412.6680    64.3240    23.1070    14.0150    10.3940    12.1710 
  217.0000     2.2610   -33.7760   413.5490    64.6840    23.1150    13.8350    10.3130    12.1130 
  217.1250     2.2820   -33.9660   415.1860    68.7150    23.0870    13.5210    10.2320    12.0830 
  217.2500     2.3080   -34.1080   417.2470    71.0200    23.0020    13.4390    10.1610    12.0780 
  217.3750     2.3180   -34.2680   419.3380    69.6930    22.8970    13.5610    10.0970    12.0690 
  217.5000     2.2960   -34.4650   421.1420    65.9560    22.9300    13.5940    10.0280    12.0220 
  217.6250     2.2550   -34.5990   422.4520    61.4190    22.9770    13.5040     9.9450    11.9070 
  217.7500     2.2230   -34.7610   423.3340    57.9190    23.0030    13.3440     9.8530    11.7510 
  217.8750     2.2090   -34.9000   423.7620    58.2290    23.0020    13.2160     9.7600    11.5950 
  218.0000     2.2100   -34.9770   423.6690    61.4060    23.0000    13.1400     9.6790    11.4850 
  218.1250     2.2140   -35.0410   422.8550    62.2540    22.9990    13.0200     9.6420    11.4720 
  218.2500     2.2120   -35.0480   421.2630    60.5430    22.9880    12.9220     9.6550    11.5360 
  218.3750     2.2070   -34.9480   418.6530    59.3490    22.9550    12.9290     9.7100    11.6470 
  218.5000     2.2060   -34.8610   414.8060    61.7470    22.9110    13.0860     9.7860    11.7690 
  218.6250     2.2210   -34.7490   409.7700    67.0140    22.8900    13.3620     9.8560    11.8840 
  218.7500     2.2480   -34.5780   404.7010    71.5140    22.8850    13.5980     9.9090    11.9850 
  218.8750     2.2750   -34.5210   400.9300    73.9420    22.8780    13.7050     9.9400    12.0670 
  219.0000     2.2910   -34.4650   399.5830    75.4390    22.8500    13.7560     9.9500    12.1320 
  219.1250     2.2940   -34.3580   401.3470    74.9940    22.7880    13.7720     9.9430    12.1840 
  219.2500     2.2980   -34.3800   404.8420    71.7190    22.7650    13.8290     9.9250    12.2270 
  219.3750     2.3030   -34.4560   408.7980    67.5740    22.8130    13.8110     9.8990    12.2510 
  219.5000     2.3000   -34.5320   412.2880    65.8360    22.8710    13.7410     9.8690    12.2240 
  219.6250     2.2800   -34.6540   415.0860    68.2870    22.8940    13.7000     9.8220    12.1040 
  219.7500     2.2530   -34.8340   417.8960    69.3750    22.8940    13.6680     9.7580    11.9270 
  219.8750     2.2310   -34.9590   421.3410    66.3060    22.8900    13.5910     9.6800    11.7490 
  220.0000     2.2180   -35.0870   425.6950    61.6040    22.8860    13.4560     9.5950    11.6120 
  220.1250     2.2110   -35.2900   430.7650    59.5480    22.8940    13.4100     9.5200    11.5170 
  220.2500     2.2050   -35.4320   435.7860    59.5440    22.9360    13.4410     9.4560    11.4230 
  220.3750     2.1970   -35.5550   440.2050    59.4200    23.0220    13.2550     9.4030    11.3160 
  220.5000     2.1860   -35.7030   443.7380    59.4400    23.0840    12.6790     9.3570    11.2090 
  220.6250     2.1750   -35.8560   446.3230    58.5000    23.1020    12.1220     9.3180    11.1400 
  220.7500     2.1680   -35.9350   448.3200    56.8300    23.0870    11.9160     9.2880    11.1220 
  220.8750     2.1690   -36.0420   449.7520    56.4680    23.0490    11.9700     9.2680    11.1460 
  221.0000     2.1800   -36.1430   450.3920    58.0350    23.0150    12.0830     9.2480    11.1860 
  221.1250     2.1910   -36.1320   449.7760    60.0710    23.0190    12.2370     9.2140    11.2010 
  221.2500     2.1920   -36.1610   448.2110    62.4390    23.0570    12.3610     9.1570    11.1630 
  221.3750     2.1820   -36.1900   446.2830    64.6590    23.0990    12.2950     9.0750    11.0650 
  221.5000     2.1720   -36.1610   444.6650    64.9400    23.1360    12.0680     8.9840    10.9310 
  221.6250     2.1720   -36.1460   443.5490    62.8610    23.1660    11.9410     8.9260    10.8410 
  221.7500     2.1800   -36.1120   441.9230    61.1570    23.1260    11.9420     8.9420    10.8580 
  221.8750     2.1900   -36.0330   438.5040    59.9160    23.0190    12.0310     9.0490    10.9920 
