~V
VERS. 2.00: Ver 2.00
~W
STRT.M 50.0000:
STOP.M 264.0000:
STEP.M 0.1250:
NULL. -999.2500:
UWI. DF32158:
~C
DEPT.M :
GR.API :
RML.OHMM :
RI. :
RXO.OHMM :
CALI.CM :
DEN.GM/CC :
SP.MV :
~A
# ...
   95.0000    72.8860    11.2980     9.8500    19.9720    23.9110     2.1860   -18.5730 
   95.1250    68.2230    11.7210    10.0400    25.5710    23.8560     2.1630   -19.0570 
   95.2500    67.5190    11.9760    10.2250    19.4030    23.7870     2.1460   -19.5240 
   95.3750    68.5820    11.9300    10.2180    13.2230    23.7490     2.1320   -19.9160 
   95.5000    68.0640    11.6710    10.0190    10.9940    23.8550     2.1170   -20.2350 
   95.6250    67.1510    11.3470     9.7290    10.6710    24.0550     2.0980   -20.3950 
   95.7500    70.2080    11.0460     9.4620    10.1780    24.0070     2.0810   -20.4450 
   95.8750    75.3910    10.7920     9.2560     9.4420    23.5810     2.0710   -20.4120 
   96.0000    76.7530    10.6110     9.1130     8.6500    23.0690     2.0700   -20.3020 
   96.1250    74.9680    10.5720     9.0490     8.2600    22.9300     2.0720   -20.1730 
   96.2500    74.6230    10.6780     9.0650     8.5090    22.9110     2.0740   -20.0050 
   96.3750    74.9530    10.8910     9.1560     8.8980    22.9160     2.0770   -19.8400 
   96.5000    74.3740    11.1210     9.2940     9.2600    22.8920     2.0810   -19.6680 
   96.6250    74.7650    11.2550     9.4120     9.4680    22.8610     2.0910   -19.5620 
   96.7500    76.7970    11.2690     9.4580     9.6640    22.8790     2.1060   -19.5050 
   96.8750    78.1180    11.1990     9.4220     9.6790    22.9580     2.1200   -19.5020 
   97.0000    78.5050    11.1200     9.3400     9.4290    22.9990     2.1270   -19.4940 
   97.1250    78.5490    11.1060     9.2770     9.0900    22.9200     2.1250   -19.4490 
   97.2500    79.0380    11.1530     9.2620     8.9430    22.7840     2.1170   -19.3840 
   97.3750    79.9960    11.2120     9.2760     9.0750    22.7360     2.1110   -19.2860 
   97.5000    81.0470    11.2040     9.2610     9.3760    22.8280     2.1070   -19.1680 
   97.6250    80.4650    11.0320     9.1240     9.4920    22.9430     2.1060   -18.9950 
   97.7500    80.2370    10.7020     8.8550     9.2640    22.9120     2.1070   -18.7640 
   97.8750    83.0740    10.2720     8.4910     8.9480    22.6990     2.1080   -18.4900 
   98.0000    87.9130     9.8480     8.1120     8.3590    22.4380     2.1080   -18.1960 
   98.1250    89.7340     9.5750     7.8400     7.9690    22.3770     2.1110   -17.9700 
   98.2500    89.3400     9.5080     7.7360     7.8520    22.4020     2.1150   -17.8370 
   98.3750    88.8110     9.6520     7.8180     7.9240    22.4080     2.1240   -17.7670 
   98.5000    87.8690     9.9730     8.0740     8.2480    22.5140     2.1350   -17.8030 
   98.6250    85.2660    10.3960     8.4590     8.9360    22.7910     2.1480   -17.9680 
   98.7500    81.1300    10.7740     8.8400     9.6650    22.9750     2.1580   -18.2330 
   98.8750    78.4640    10.9860     9.0990     9.6910    23.0480     2.1640   -18.4770 
   99.0000    79.2950    10.9520     9.1480     9.4210    23.0120     2.1640   -18.6790 
   99.1250    83.2060    10.6140     8.9120     9.0220    22.9920     2.1550   -18.7170 
   99.2500    86.8590    10.0940     8.4810     8.6890    22.9090     2.1400   -18.5870 
   99.3750    88.7000     9.5200     7.9590     8.2120    22.7540     2.1240   -18.3300 
   99.5000    90.3850     9.0160     7.4650     7.7260    22.6300     2.1150   -17.9660 
   99.6250    94.1800     8.7130     7.1310     7.4950    22.5490     2.1210   -17.5470 
   99.7500    98.3630     8.6390     7.0020     7.3020    22.3720     2.1390   -17.1720 
   99.8750    99.1780     8.8070     7.0970     7.4730    22.1770     2.1610   -16.9610 
  100.0000    93.1560     9.1640     7.3830     8.0040    22.2420     2.1790   -16.9840 
  100.1250    85.1950     9.2500     7.4590     8.1650    22.3290     2.1820   -17.2350 
  100.2500    81.0810     9.6550     7.8300     8.8660    22.8130     2.1710   -17.5870 
  100.3750    80.3330     9.9220     8.1130     9.3880    23.3380     2.1510   -17.9560 
  100.5000    81.0310     9.9430     8.2040     9.7230    23.6600     2.1300   -18.2080 
  100.6250    84.6530     9.6810     8.0420     9.5610    23.7990     2.1190   -18.2530 
  100.7500    91.6430     9.3250     7.7560     8.8740    23.9340     2.1230   -18.0730 
  100.8750    98.6530     9.0500     7.4820     8.0710    24.1300     2.1420   -17.7120 
  101.0000   103.0870     8.9730     7.3270     7.9190    24.3300     2.1700   -17.1520 
  101.1250   103.5410     9.1420     7.3620     7.7450    24.5250     2.1930   -16.4590 
  101.2500    99.6070     9.4300     7.5240     7.4100    24.5320     2.1970   -15.7540 
  101.3750    93.1700     9.6740     7.6980     7.7770    24.4550     2.1830   -15.1380 
  101.5000    89.7070     9.6790     7.7180     8.4330    24.6050     2.1600   -14.6080 
  101.6250    92.3290     9.2640     7.4160     8.3120    24.8610     2.1540   -14.1760 
  101.7500    96.9720     8.5890     6.9000     7.8200    25.0270     2.1740   -13.8620 
  101.8750    99.7870     7.8940     6.3490     7.1750    25.0900     2.2150   -13.6360 
  102.0000   100.3810     7.4340     5.9490     6.2550    25.1300     2.2590   -13.5470 
  102.1250    99.1130     7.4700     5.8910     5.7370    25.0630     2.2810   -13.6260 
  102.2500    95.3110     7.9650     6.1750     6.2700    24.7440     2.2750   -13.9060 
  102.3750    90.6880     8.8060     6.7620     7.7210    24.1110     2.2520   -14.3140 
  102.5000    88.5640     9.7730     7.5390     9.0610    23.4640     2.2280   -14.8780 
  102.6250    88.1950    10.5280     8.2810     9.6830    23.1960     2.2150   -15.6010 
  102.7500    86.0660    10.9110     8.7840     9.8330    23.1140     2.2110   -16.4080 
  102.8750    82.4110    10.9720     9.0090     9.8220    23.0700     2.2060   -17.2400 
  103.0000    79.6750    10.8990     9.0550     9.8540    23.1040     2.1940   -18.0390 
  103.1250    76.7310    10.8780     9.0660     9.6480    23.3220     2.1740   -18.7360 
  103.2500    72.1350    10.9440     9.1120     9.5710    23.7340     2.1550   -19.2770 
  103.3750    69.4270    11.0320     9.1670     9.8710    24.2080     2.1390   -19.7100 
  103.5000    70.2710    11.0440     9.1630    10.3100    24.5780     2.1250   -20.0940 
  103.6250    72.1000    10.9000     9.0280    10.2760    24.8580     2.1120   -20.4260 
  103.7500    72.1500    10.6680     8.8050     9.8010    25.0170     2.1010   -20.7180 
  103.8750    70.9240    10.4410     8.5640     9.5840    24.8520     2.0950   -20.9680 
  104.0000    70.3260    10.2960     8.3710     9.4760    24.3370     2.0990   -21.1840 
  104.1250    73.9050    10.2860     8.2880     9.3510    24.0710     2.1100   -21.3380 
  104.2500    79.5050    10.3630     8.3000     9.3600    23.9830     2.1200   -21.4310 
  104.3750    82.3140    10.4590     8.3690     9.5190    23.9460     2.1230   -21.5070 
  104.5000    80.0780    10.5230     8.4510     9.5710    23.8570     2.1170   -21.5040 
  104.6250    74.6460    10.5350     8.5120     9.5500    23.7730     2.1070   -21.4900 
  104.7500    70.8620    10.5110     8.5450     9.5830    23.7430     2.0990   -21.4590 
  104.8750    69.8090    10.4590     8.5470     9.7180    23.7370     2.0960   -21.3990 
  105.0000    72.0370    10.3850     8.5220     9.8090    23.7220     2.0980   -21.2850 
  105.1250    76.9780    10.3030     8.4750     9.7540    23.6780     2.1060   -21.1280 
  105.2500    79.6810    10.2210     8.4190     9.6580    23.5670     2.1160   -20.9620 
  105.3750    79.2200    10.1550     8.3650     9.4500    23.3800     2.1280   -20.7420 
  105.5000    76.3980    10.1240     8.3290     9.4200    23.2140     2.1370   -20.5380 
  105.6250    74.7420    10.1290     8.3190     9.3520    23.1500     2.1440   -20.3080 
  105.7500    76.2160    10.1260     8.3050     9.2100    23.1410     2.1480   -20.0520 
  105.8750    80.2070    10.0690     8.2510     9.2060    23.1430     2.1500   -19.7930 
  106.0000    84.1770     9.9150     8.1230     9.3870    23.1670     2.1530   -19.5610 
  106.1250    86.6080     9.6360     7.9020     9.4920    23.2860     2.1570   -19.3270 
