~V
VERS. 2.00: Ver 2.00
~W
STRT.M 61.0000:
STOP.M 325.0000:
STEP.M 0.1250:
NULL. -999.2500:
UWI. DF320:
~C
DEPT.M :
GR.API :
RML.OHMM :
RI. :
RXO.OHMM :
CALI.CM :
SP.MV :
DEN.GM/CC :
AC.US/MT :
~A
# ...
  291.0000    49.2370     7.4900     6.7370     5.8880    23.8480    -9.7960     2.3670   398.2970 
  291.1250    53.4510     7.9390     7.3030     6.9080    23.9540    -9.8800     2.3900   382.8180 
  291.2500    57.2900     8.5800     8.0090     7.8150    24.0510    -9.9580     2.4110   367.7250 
  291.3750    60.4880     9.3730     8.7930     8.5970    24.0410   -10.0040     2.4220   355.4050 
  291.5000    62.2820    10.2250     9.5570     9.2430    23.9240    -9.9910     2.4190   345.8330 
  291.6250    63.1770    10.9480    10.1130     9.3740    23.7470    -9.8920     2.4020   338.3010 
  291.7500    64.6380    11.3800    10.3200     8.9970    23.6130    -9.6950     2.3810   333.0640 
  291.8750    64.7200    11.3720    10.0850     8.1980    23.5810    -9.3930     2.3640   331.7740 
  292.0000    62.0030    10.9110     9.4150     7.0960    23.6200    -9.0150     2.3570   336.1230 
  292.1250    55.0890     9.9310     8.4090     6.1090    23.6950    -8.5830     2.3580   349.0990 
  292.2500    45.0170     8.7520     7.3350     5.3770    23.7500    -8.1360     2.3630   370.3460 
  292.3750    35.0880     7.5030     6.3710     4.7370    23.7650    -7.7210     2.3670   397.4160 
  292.5000    27.3060     6.3370     5.6230     4.1990    23.7350    -7.3670     2.3690   424.2120 
  292.6250    21.5790     5.8060     5.1620     3.8040    23.7050    -7.0980     2.3710   442.4510 
  292.7500    16.7380     5.4980     4.9160     3.6240    23.6740    -6.9060     2.3720   451.6440 
  292.8750    14.0600     5.3810     4.8250     3.5800    23.6320    -6.7730     2.3760   455.0950 
  293.0000    14.2820     5.3920     4.8290     3.6180    23.5930    -6.6960     2.3810   456.2190 
  293.1250    15.6420     5.4650     4.8680     3.6840    23.6090    -6.6350     2.3880   455.7680 
  293.2500    17.4070     5.5180     4.8940     3.7590    23.6540    -6.5770     2.3940   453.5160 
  293.3750    19.7850     5.5380     4.8870     3.7960    23.6790    -6.5190     2.3990   449.7410 
  293.5000    21.2420     5.5230     4.8430     3.7870    23.6690    -6.4580     2.4000   445.7660 
  293.6250    19.8300     5.4420     4.7660     3.7380    23.6570    -6.3980     2.3980   443.1280 
  293.7500    17.2960     5.3520     4.6810     3.6530    23.6420    -6.3600     2.3920   442.5170 
  293.8750    15.9670     5.2630     4.6020     3.5770    23.6120    -6.3670     2.3840   443.9530 
  294.0000    15.9400     5.1860     4.5410     3.5990    23.5320    -6.3960     2.3740   446.5290 
  294.1250    16.8730     5.1040     4.4930     3.6900    23.4900    -6.4640     2.3670   450.7820 
  294.2500    17.6360     5.0120     4.4380     3.7810    23.4240    -6.5550     2.3660   456.6000 
  294.3750    17.5140     4.9130     4.3570     3.8190    23.3590    -6.6420     2.3730   462.5700 
  294.5000    17.2280     4.8040     4.2430     3.7740    23.2820    -6.7200     2.3840   469.5840 
  294.6250    17.8740     4.6890     4.1090     3.7380    23.2700    -6.7950     2.3930   479.2820 
  294.7500    20.0110     4.6210     4.0010     3.7440    23.2670    -6.8540     2.3940   486.6580 
  294.8750    23.1980     4.6160     3.9690     3.8750    23.2670    -6.9000     2.3870   483.3600 
  295.0000    26.3510     4.7050     4.0550     4.1210    23.2680    -6.9580     2.3790   464.5930 
  295.1250    29.8960     4.9760     4.2870     4.5320    23.2770    -7.0390     2.3810   430.1690 
  295.2500    35.0530     5.3340     4.6110     5.0300    23.2950    -7.1440     2.3920   390.3900 
  295.3750    39.7000     5.6900     4.9590     5.5120    23.3280    -7.2770     2.4080   361.3560 
  295.5000    40.4600     5.9700     5.2550     5.8540    23.4170    -7.4400     2.4230   358.3040 
  295.6250    36.8390     6.0960     5.4090     5.7430    23.4760    -7.5900     2.4280   381.6420 
  295.7500    33.0340     6.0840     5.4180     5.3850    23.5530    -7.7300     2.4220   406.6580 
  295.8750    30.5490     5.9600     5.3060     5.1200    23.5980    -7.8660     2.4110   420.2010 
  296.0000    31.5320     5.7710     5.1180     5.1290    23.7220    -7.9830     2.4020   423.1390 
  296.1250    37.2940     5.6010     4.9300     5.3150    23.8320    -8.0960     2.4030   422.4450 
  296.2500    41.8590     5.5440     4.8240     5.5920    23.9120    -8.2030     2.4120   421.6220 
  296.3750    43.6140     5.6770     4.8640     5.8870    23.9930    -8.3190     2.4230   417.2800 
  296.5000    46.5350     6.0320     5.0930     6.0490    24.0980    -8.4660     2.4290   406.5240 
  296.6250    55.0310     6.5890     5.5300     6.7970    24.1700    -8.6720     2.4260   389.0580 
  296.7500    64.1720     7.1840     6.0660     7.8350    24.2760    -8.9050     2.4190   369.0380 
  296.8750    67.5190     7.6700     6.5880     8.5800    24.3250    -9.1340     2.4130   349.4370 
  297.0000    65.1760     7.9410     6.9790     8.6210    24.3330    -9.3690     2.4090   333.8260 
  297.1250    63.7840     7.9490     7.1390     8.0600    24.3330    -9.5600     2.4050   327.6750 
  297.2500    65.0920     7.8470     7.1350     7.6350    24.3330    -9.7110     2.4020   330.0380 
  297.3750    65.7670     7.7850     7.0710     7.3520    24.3320    -9.8250     2.4020   337.9500 
  297.5000    62.9350     7.8820     7.0600     7.2640    24.3260    -9.8940     2.4080   347.2400 
  297.6250    60.0410     8.1830     7.1940     7.4890    24.3140    -9.9230     2.4160   352.3920 
  297.7500    59.6900     8.5400     7.4170     7.7460    24.2860    -9.9490     2.4200   351.6790 
  297.8750    61.2420     8.7850     7.6200     7.9050    24.2130    -9.9750     2.4130   346.5940 
  298.0000    63.0730     8.7710     7.6800     7.9400    24.1560   -10.0040     2.3980   340.5330 
  298.1250    64.6980     8.4190     7.4860     7.5810    24.0890   -10.0880     2.3860   338.3920 
  298.2500    64.6940     7.8980     7.1200     7.0220    23.9680   -10.2170     2.3860   343.2790 
  298.3750    61.8820     7.3910     6.7060     6.5280    23.8680   -10.3930     2.3960   355.5330 
  298.5000    56.1480     7.0530     6.3810     6.4030    23.8260   -10.6020     2.4100   371.3670 
  298.6250    51.7190     6.9980     6.2750     6.9530    23.7800   -10.8410     2.4130   382.1510 
  298.7500    53.3180     7.1540     6.3720     7.5020    23.7350   -11.1050     2.4010   382.1000 
  298.8750    59.2430     7.4280     6.6280     7.8020    23.7170   -11.4010     2.3790   370.5930 
  299.0000    66.9040     7.7050     6.9590     8.2150    23.7310   -11.7130     2.3570   352.1230 
  299.1250    72.2610     7.8720     7.2530     8.5990    23.7800   -12.0150     2.3470   335.2800 
  299.2500    71.6750     7.9280     7.4460     8.7510    23.8580   -12.3050     2.3490   326.3280 
  299.3750    65.8130     7.9800     7.5440     8.7680    23.9620   -12.5990     2.3610   326.1310 
  299.5000    61.8430     8.1110     7.6110     8.9610    24.0710   -12.9090     2.3760   331.3540 
  299.6250    68.3450     8.5940     7.7740     9.5870    24.1460   -13.2640     2.3890   336.2200 
  299.7500    76.6420     9.3100     8.1250    10.7850    24.1790   -13.6350     2.3950   336.5850 
  299.8750    80.2320    10.2040     8.7050    12.0030    24.1820   -14.0060     2.3920   331.6930 
  300.0000    79.9330    11.2630     9.4790    13.0470    24.1680   -14.3680     2.3820   322.8240 
  300.1250    79.7740    12.1260    10.3280    13.9720    24.1820   -14.6910     2.3670   311.9100 
  300.2500    80.9120    12.8220    11.0580    14.4860    24.2170   -14.9810     2.3530   302.4730 
  300.3750    82.6930    13.1710    11.5200    14.3960    24.2280   -15.2160     2.3370   298.2070 
  300.5000    83.8610    13.1400    11.6360    13.7500    24.2400   -15.3870     2.3180   301.7720 
  300.6250    83.1850    12.7660    11.3870    13.1820    24.2690   -15.4770     2.2990   312.0680 
  300.7500    81.5600    12.2390    10.9380    12.4320    24.3120   -15.5180     2.2880   321.4670 
  300.8750    79.6810    11.6830    10.4110    11.8190    24.3230   -15.5270     2.2910   325.5220 
