~V
VERS. 2.00: Ver 2.00
~W
STRT.M 60.0000:
STOP.M 276.0000:
STEP.M 0.1250:
NULL. -999.2500:
UWI. DF32145:
~C
DEPT.M :
SP.MV :
GR.API :
CALI.CM :
RXO.OHMM :
RI. :
RML.OHMM :
DEN.GM/CC :
~A
# ...
  183.7500   -33.7790    67.1720    23.6450    86.7920   148.2360   169.6310     2.2320 
  183.8750   -34.2700    72.7790    23.6450    86.8830   157.2610   179.7850     2.2410 
  184.0000   -34.7460    74.7140    23.6450    87.9580   165.2850   188.8930     2.2460 
  184.1250   -35.1680    72.4380    23.6450    96.8680   170.2890   194.3530     2.2450 
  184.2500   -35.5290    68.6170    23.6450   106.8160   171.7070   195.2810     2.2430 
  184.3750   -35.8410    65.4800    23.6450   106.4730   169.5890   191.7920     2.2410 
  184.5000   -36.0810    64.5380    23.6450    93.5260   164.8770   185.2980     2.2420 
  184.6250   -36.2260    65.6570    23.6450    77.0610   159.2500   178.1350     2.2490 
  184.7500   -36.2980    66.2030    23.6450    68.4380   154.7490   172.6390     2.2580 
  184.8750   -36.3240    66.1300    23.6620    69.3250   152.5420   169.9350     2.2600 
  185.0000   -36.3130    67.4320    23.7290    79.8230   152.9470   170.1090     2.2520 
  185.1250   -36.3070    70.5250    23.9240    98.0350   155.6150   172.5210     2.2350 
  185.2500   -36.2250    71.6080    24.1810   116.1970   159.0560   175.4460     2.2210 
  185.3750   -36.0880    69.6920    24.4460   127.8950   162.3790   177.8570     2.2190 
  185.5000   -35.8990    66.7330    24.5950   131.1200   165.0810   179.2910     2.2280 
  185.6250   -35.6830    64.7530    24.6330   129.4110   166.5710   179.3220     2.2350 
  185.7500   -35.4530    63.6550    24.6340   125.1260   166.0690   177.2350     2.2290 
  185.8750   -35.2370    63.5740    24.6340   120.0800   162.2360   171.5020     2.2190 
  186.0000   -35.0750    63.8890    24.6340   115.2970   154.0310   161.0090     2.2180 
  186.1250   -34.9680    64.4880    24.6340   108.9730   141.0630   145.7740     2.2300 
  186.2500   -34.9770    66.7240    24.6340    97.8700   125.9150   129.0430     2.2440 
  186.3750   -35.0780    71.2170    24.6340    82.5420   110.9850   113.4820     2.2540 
  186.5000   -35.2760    75.0580    24.6340    68.4990    98.2840   100.9060     2.2600 
  186.6250   -35.5100    75.5060    24.6340    61.8940    89.6170    92.7380     2.2670 
  186.7500   -35.7090    75.0670    24.6340    58.6780    85.0220    88.6120     2.2730 
  186.8750   -35.8450    74.5420    24.6340    57.7100    85.0390    88.8700     2.2760 
  187.0000   -35.9470    73.1180    24.6340    58.5090    90.4640    94.1880     2.2710 
  187.1250   -36.0560    71.5430    24.6340    62.4130   103.8000   107.0570     2.2590 
  187.2500   -36.1580    71.4510    24.6340    73.2320   125.3960   128.5880     2.2440 
  187.3750   -36.2510    71.0750    24.6340    92.9790   155.2390   160.8450     2.2300 
  187.5000   -36.2770    68.1480    24.6340   114.2890   190.1730   203.7520     2.2200 
  187.6250   -36.3300    63.8930    24.6340   127.6360   221.1580   249.4980     2.2150 
  187.7500   -36.4110    61.2110    24.6340   135.2710   239.0400   281.0020     2.2100 
  187.8750   -36.5190    59.9060    24.6340   136.7420   240.3090   288.1360     2.2040 
  188.0000   -36.4960    59.2240    24.6340   131.3680   228.3690   274.7060     2.2010 
  188.1250   -36.2770    59.6950    24.6340   125.2900   210.0820   251.8470     2.2090 
  188.2500   -35.8860    60.9360    24.6340   121.9210   192.0830   229.3090     2.2240 
  188.3750   -35.3910    60.9220    24.6340   117.0020   176.3230   209.6160     2.2380 
  188.5000   -34.8740    59.1700    24.6340   108.6320   163.3350   193.4220     2.2450 
  188.6250   -34.3110    58.7180    24.6340   101.3230   153.0200   180.4100     2.2460 
  188.7500   -33.7510    60.3080    24.6340    97.1610   143.1490   167.3400     2.2420 
  188.8750   -33.2190    62.8100    24.6340    98.5230   131.6260   151.3630     2.2370 
  189.0000   -32.8360    64.3830    24.6240   103.4270   117.5240   131.9770     2.2340 
  189.1250   -32.6440    64.7870    24.5930   104.0690   102.0420   112.1050     2.2390 
  189.2500   -32.6530    64.8900    24.5510    90.5680    88.0020    95.2880     2.2460 
  189.3750   -32.7860    65.0610    24.5320    69.3840    77.1830    82.9870     2.2490 
  189.5000   -32.9830    65.7330    24.5150    54.0920    70.2750    75.3500     2.2470 
  189.6250   -33.2100    65.6770    24.4400    52.1210    67.4870    72.3370     2.2470 
  189.7500   -33.4680    64.8640    24.2870    55.3220    67.3760    72.3240     2.2540 
  189.8750   -33.7250    64.3470    24.1060    54.9330    69.4270    74.6750     2.2590 
  190.0000   -33.9280    64.7670    23.9790    50.9300    73.5830    79.1800     2.2590 
  190.1250   -34.0260    65.4810    23.9460    47.3140    80.0150    86.0550     2.2620 
  190.2500   -33.9740    65.8680    23.9650    47.6510    86.7490    93.3950     2.2630 
  190.3750   -33.8030    64.4260    24.0560    55.1650    90.3570    96.9970     2.2470 
  190.5000   -33.5680    61.9670    24.2350    73.9250    87.1370    91.9220     2.2150 
  190.6250   -33.2830    61.3900    24.4330    82.8510    76.0680    78.1870     2.1960 
  190.7500   -32.9580    63.4430    24.4920    65.5250    63.4430    64.2930     2.2020 
  190.8750   -32.6330    66.1120    24.4050    37.4330    53.8640    54.6320     2.2170 
  191.0000   -32.3000    68.3750    24.1740    22.4060    49.3440    50.3240     2.2260 
  191.1250   -32.0370    71.3700    24.0100    24.7450    50.5050    51.8070     2.2500 
  191.2500   -31.7630    71.3440    24.0950    36.4600    55.1000    57.3350     2.3140 
  191.3750   -31.4840    66.6110    24.2230    53.5580    60.7900    64.8450     2.4150 
  191.5000   -31.1220    61.5270    24.1900    65.7430    63.7230    69.5400     2.5220 
  191.6250   -30.7100    61.9720    24.0030    63.1400    58.2080    63.2680     2.5960 
  191.7500   -30.2410    65.2240    23.8510    50.1930    45.9630    48.7380     2.6410 
  191.8750   -29.7250    66.7430    23.7640    38.2300    32.1660    33.2390     2.6730 
  192.0000   -29.2010    66.0110    23.7060    28.6330    20.9210    21.2400     2.7000 
  192.1250   -28.6590    63.2320    23.6320    19.0160    13.7180    13.7650     2.7110 
  192.2500   -28.2060    59.5950    23.5620    10.2920     9.1810     9.1010     2.7070 
  192.3750   -27.8310    57.5250    23.5290     6.2790     6.4750     6.3760     2.6950 
  192.5000   -27.5840    58.8780    23.4790     5.1220     4.9720     4.9470     2.6760 
  192.6250   -27.4550    61.6860    23.3530     4.6920     4.3450     4.4710     2.6390 
  192.7500   -27.4530    63.0890    23.2110     4.3870     4.1920     4.4880     2.5780 
  192.8750   -27.5110    62.0530    23.1490     4.2610     4.3380     4.7750     2.5020 
  193.0000   -27.5660    58.9830    23.1390     4.3420     4.6360     5.1410     2.4350 
  193.1250   -27.6800    56.1370    23.1390     4.5440     4.9670     5.4550     2.4030 
  193.2500   -27.7920    56.5410    23.1390     4.7220     5.2490     5.6950     2.3930 
  193.3750   -27.9350    59.7560    23.1390     4.8210     5.4470     5.8610     2.3860 
  193.5000   -28.0840    60.9920    23.1390     4.9090     5.5350     5.9460     2.3790 
  193.6250   -28.2380    58.1170    23.1390     5.0590     5.5000     5.9400     2.3840 
  193.7500   -28.3990    54.0260    23.1390     5.2380     5.4050     5.8930     2.3960 
  193.8750   -28.5950    51.0820    23.1390     5.3820     5.3010     5.8610     2.4060 
  194.0000   -28.8220    51.4820    23.1390     5.4340     5.2360     5.9050     2.4110 
  194.1250   -29.0360    54.9100    23.1390     5.4190     5.2500     6.1010     2.4140 
  194.2500   -29.2530    57.0110    23.1390     5.4890     5.3350     6.4510     2.4160 
  194.3750   -29.4690    56.3060    23.1390     5.7900     5.4710     6.9240     2.4170 
  194.5000   -29.6830    58.0300    23.1390     6.2680     5.6220     7.4310     2.4190 
  194.6250   -29.9100    69.1700    23.1400     6.6950     5.7400     7.8160     2.4170 
  194.7500   -30.0910    84.0670    23.1540     6.8370     5.8010     8.0160     2.4060 
  194.8750   -30.2820    94.4440    23.2110     6.6550     5.8210     8.0720     2.3910 
