~V
VERS. 2.00: Ver 2.00
~W
STRT.M 53.0000:
STOP.M 258.0000:
STEP.M 0.1250:
NULL. -999.2500:
UWI. DF32102:
~C
DEPT.M :
SP.MV :
GR.API :
RML.OHMM :
RI. :
RXO.OHMM :
CALI.CM :
DEN.GM/CC :
~A
# ...
  176.7500   -35.5650    59.7500   113.5610   112.5050    90.4760    24.6610     2.2580 
  176.8750   -35.7330    62.9050   102.8760   101.4550    68.0630    24.6120     2.2680 
  177.0000   -35.8610    63.9110    98.1140    95.9380    59.8320    24.5960     2.2770 
  177.1250   -35.9720    63.6460    99.2130    96.0620    64.3560    24.6220     2.2870 
  177.2500   -36.1230    64.3060   103.7400    99.4240    76.4880    24.6790     2.2960 
  177.3750   -36.2930    64.6450   110.2110   104.5170    94.5750    24.7130     2.3020 
  177.5000   -36.3670    62.1210   117.5970   110.4050   116.4790    24.6500     2.3030 
  177.6250   -36.3350    56.6530   126.3070   117.7300   104.7300    24.5350     2.2980 
  177.7500   -36.2550    52.4260   138.4890   128.5740    80.3000    24.4960     2.2870 
  177.8750   -36.1280    52.3180   157.8900   145.9650    81.9460    24.5220     2.2720 
  178.0000   -35.9040    54.0120   188.2930   172.3300   121.4890    24.5700     2.2580 
  178.1250   -35.4550    53.8570   232.9560   208.6630   170.7620    24.5900     2.2470 
  178.2500   -34.8820    52.4430   285.0880   248.4470   187.4090    24.5980     2.2420 
  178.3750   -34.2160    51.1300   334.7230   283.7110   218.0390    24.6030     2.2420 
  178.5000   -33.5240    49.6240   369.4400   306.1050   271.1250    24.5890     2.2440 
  178.6250   -32.7520    48.9660   377.0310   308.4970   310.1380    24.4570     2.2430 
  178.7500   -31.8630    50.8410   367.0440   298.3870   329.4670    24.2280     2.2380 
  178.8750   -30.8930    53.9390   353.3280   285.3090   279.5300    24.0730     2.2290 
  179.0000   -29.8980    55.4280   347.6820   278.1540   195.1230    24.1210     2.2160 
  179.1250   -29.0800    53.3850   356.4640   282.9210   172.6570    24.3570     2.2000 
  179.2500   -28.3450    50.3620   372.5030   294.9050   214.7010    24.5990     2.1850 
  179.3750   -27.5640    48.8900   385.3830   306.3650   279.7870    24.7320     2.1740 
  179.5000   -26.8950    49.5160   383.5890   308.2840   318.1850    24.7670     2.1680 
  179.6250   -26.3580    50.3100   357.0440   291.9770   308.7970    24.7550     2.1690 
  179.7500   -25.7080    49.6990   314.8260   262.1680   274.4960    24.7220     2.1770 
  179.8750   -25.1910    50.8480   268.1180   226.2400   199.9290    24.6800     2.1910 
  180.0000   -24.7350    54.4210   225.1570   191.3030   129.8950    24.6220     2.2090 
  180.1250   -24.1800    56.3250   190.1740   162.0690    98.5590    24.5900     2.2260 
  180.2500   -23.6760    55.9880   162.4250   138.5270   103.6060    24.5850     2.2370 
  180.3750   -23.0900    56.0520   142.0020   120.7560   121.7500    24.6420     2.2360 
  180.5000   -22.4280    58.9330   129.1090   109.0880   110.7920    24.7560     2.2190 
  180.6250   -21.7430    61.4760   124.9640   104.9200    80.1700    24.9010     2.1940 
  180.7500   -21.1010    59.9990   127.0080   106.4740    72.5880    24.9640     2.1800 
  180.8750   -20.3530    55.0440   132.0860   111.3960    92.7300    24.9970     2.2020 
  181.0000   -19.4740    49.8000   135.2910   115.6800   118.3580    24.9900     2.2760 
  181.1250   -18.6230    48.8190   129.0700   113.0100   116.2900    24.8030     2.4010 
  181.2500   -17.6890    49.7760   111.6420   100.9970   110.5670    24.4550     2.5360 
  181.3750   -16.8240    50.4800    85.8180    80.7530    92.4900    24.1990     2.6380 
  181.5000   -16.0070    53.4710    58.8170    57.2010    58.6410    24.1540     2.6830 
  181.6250   -15.1580    59.8510    37.4210    37.3350    35.0390    24.2460     2.6660 
  181.7500   -14.3600    63.6950    22.5110    23.5090    23.5330    24.3460     2.6200 
  181.8750   -13.7310    62.3920    13.4650    14.9550    14.2140    24.4110     2.5640 
  182.0000   -13.2300    60.7370     8.7690    10.0140     7.8040    24.4520     2.5110 
  182.1250   -12.7640    60.7590     7.0410     7.5410     6.0070    24.4610     2.4720 
  182.2500   -12.4980    58.8120     6.2820     6.2900     5.4310    24.3880     2.4470 
  182.3750   -12.3010    55.5090     6.1170     5.8130     5.4040    24.2740     2.4330 
  182.5000   -12.1260    53.5110     6.2810     5.8130     5.3220    24.1660     2.4220 
  182.6250   -12.1720    50.8770     6.5790     6.0860     5.2110    23.9620     2.4080 
  182.7500   -12.2360    47.2310     6.8440     6.4080     5.2110    23.7060     2.3880 
  182.8750   -12.2680    47.1970     6.9920     6.6530     5.3600    23.6590     2.3670 
  183.0000   -12.3820    51.3020     6.9790     6.7330     5.5530    23.8950     2.3530 
  183.1250   -12.4720    53.8810     6.7800     6.5850     5.5890    24.1550     2.3520 
  183.2500   -12.5620    52.3380     6.4720     6.2790     5.5040    24.2560     2.3600 
  183.3750   -12.6530    49.9490     6.1420     5.8970     5.1650    24.2500     2.3680 
  183.5000   -12.7180    48.4350     5.8880     5.5390     4.6290    24.2380     2.3690 
  183.6250   -12.8310    45.7270     5.8300     5.3180     4.1710    24.2600     2.3620 
  183.7500   -12.9680    43.5790     5.9760     5.2620     4.3730    24.2770     2.3570 
  183.8750   -13.1470    44.7830     6.3000     5.3670     4.9010    24.2420     2.3620 
  184.0000   -13.4020    49.7510     6.7330     5.5920     5.3820    24.1770     2.3760 
  184.1250   -13.7540    54.8500     7.1760     5.8740     5.6300    24.1560     2.3840 
  184.2500   -14.1920    58.5210     7.5540     6.1430     5.8800    24.1730     2.3740 
  184.3750   -14.7360    63.6930     7.8620     6.3760     6.1920    24.1890     2.3470 
  184.5000   -15.3860    70.9120     8.1520     6.5940     6.5840    24.2600     2.3130 
  184.6250   -15.9960    79.6420     8.5230     6.8580     6.9000    24.3540     2.2920 
  184.7500   -16.6920    87.0940     9.0050     7.1910     7.1260    24.4010     2.2870 
  184.8750   -17.4840    90.8910     9.5660     7.5770     7.6970    24.4500     2.2950 
  185.0000   -18.2240    91.5680    10.1190     7.9600     8.8630    24.5770     2.3080 
  185.1250   -18.9640    91.1810    10.5320     8.2440     9.8840    24.7780     2.3220 
  185.2500   -19.6830    92.4970    10.7610     8.3910     9.7000    24.9920     2.3340 
  185.3750   -20.3240    93.8170    10.8280     8.4090     9.3100    25.1400     2.3460 
  185.5000   -20.8670    93.2590    10.8160     8.3520     9.1350    25.2010     2.3570 
  185.6250   -21.4440    92.0000    10.8450     8.3040     9.0780    25.1900     2.3650 
  185.7500   -21.9170    90.3930    10.9770     8.3250     9.2130    25.1590     2.3710 
  185.8750   -22.2200    87.0960    11.2200     8.4370     9.5260    25.1450     2.3740 
  186.0000   -22.5520    80.9400    11.5440     8.6340    10.3580    25.1430     2.3790 
  186.1250   -22.7130    75.5640    11.9080     8.9030    10.7680    25.1320     2.3870 
  186.2500   -22.7160    73.6190    12.2780     9.2150    11.0340    25.1050     2.3970 
  186.3750   -22.6920    75.7100    12.6520     9.5630    11.4560    25.0760     2.4080 
  186.5000   -22.5760    80.0480    13.0340     9.9390    12.1140    25.0730     2.4160 
  186.6250   -22.3380    82.2970    13.4130    10.3270    12.4360    25.0990     2.4160 
  186.7500   -22.0210    82.0720    13.7490    10.6840    12.3680    25.1290     2.4060 
  186.8750   -21.6580    80.3540    13.9860    10.9620    12.8590    25.1410     2.3880 
  187.0000   -21.1050    79.6660    14.0650    11.1090    13.7550    25.1430     2.3670 
  187.1250   -20.4690    81.1100    13.9160    11.0550    12.9390    25.1430     2.3550 
  187.2500   -19.7870    83.8200    13.5820    10.8250    12.3090    25.1410     2.3540 
  187.3750   -18.9810    85.7280    13.0930    10.4400    11.5490    25.1180     2.3600 
  187.5000   -18.1330    84.6930    12.4730     9.9210    10.7620    25.0340     2.3620 
  187.6250   -17.1260    81.2600    11.7290     9.2820     9.9210    24.8700     2.3520 
  187.7500   -16.1190    78.3360    10.9280     8.5910     9.5160    24.7360     2.3380 
  187.8750   -15.1760    75.7930    10.1480     7.9120     8.6260    24.6820     2.3300 
