~V
VERS. 2.00: Ver 2.00
~W
STRT.M 53.0000:
STOP.M 258.0000:
STEP.M 0.1250:
NULL. -999.2500:
UWI. DF32102:
~C
DEPT.M :
SP.MV :
GR.API :
RML.OHMM :
RI. :
RXO.OHMM :
CALI.CM :
DEN.GM/CC :
~A
# ...
   75.5000   -37.6700    70.2420    10.5660     8.3960    12.0440    23.2840     2.2120 
   75.6250   -37.7680    70.6780    10.6040     8.4670    12.8850    23.6070     2.2050 
   75.7500   -37.7590    69.8680    10.6490     8.5480    13.0870    23.9650     2.1870 
   75.8750   -37.5890    66.6530    10.7150     8.6390    12.5680    24.2460     2.1650 
   76.0000   -37.1570    63.0630    10.8040     8.7350    12.1590    24.3450     2.1460 
   76.1250   -36.3900    60.6060    10.8860     8.8140    12.1790    24.3170     2.1340 
   76.2500   -35.3390    59.4560    10.8940     8.8280    12.1510    24.3020     2.1290 
   76.3750   -34.1000    58.5850    10.7560     8.7220    12.2400    24.3530     2.1280 
   76.5000   -32.7450    59.3020    10.4350     8.4590    12.5610    24.5400     2.1340 
   76.6250   -31.4100    64.1050     9.9270     8.0250    12.2890    24.8780     2.1510 
   76.7500   -30.2000    69.9550     9.3440     7.5080    10.6150    25.0760     2.1780 
   76.8750   -29.1680    72.9340     8.7730     6.9850     8.4660    25.0050     2.2140 
   77.0000   -28.4600    72.3320     8.2800     6.5210     7.4720    24.7750     2.2530 
   77.1250   -28.0220    74.0810     7.9100     6.1780     7.4000    24.6040     2.2840 
   77.2500   -27.9080    80.6400     7.6490     5.9560     7.2930    24.6200     2.3040 
   77.3750   -28.0450    85.4650     7.5150     5.8650     6.9950    24.6710     2.3100 
   77.5000   -28.2710    82.0880     7.5400     5.9220     6.8370    24.7250     2.3050 
   77.6250   -28.6180    73.2500     7.8020     6.1730     7.1690    24.7960     2.2850 
   77.7500   -28.8790    69.6280     8.2750     6.5920     7.4290    24.8530     2.2570 
   77.8750   -28.9750    71.0700     8.9020     7.1390     8.0800    24.8330     2.2220 
   78.0000   -28.9060    72.3560     9.5420     7.7170     9.1500    24.8140     2.1900 
   78.1250   -28.6100    70.9110     9.9360     8.1340     9.5050    24.8200     2.1700 
   78.2500   -28.0700    69.9240     9.9300     8.2500     9.6400    24.8400     2.1690 
   78.3750   -27.3380    70.8280     9.4890     8.0040     9.9720    24.9250     2.1890 
   78.5000   -26.5560    72.3790     8.7270     7.4440     9.4990    25.0680     2.2240 
   78.6250   -25.6640    76.1220     7.8730     6.7140     7.6300    25.2200     2.2640 
   78.7500   -24.8870    82.1880     7.1640     6.0230     5.8260    25.3490     2.2940 
   78.8750   -24.2890    88.3340     6.7010     5.4810     5.0940    25.4560     2.3110 
   79.0000   -23.7610    93.1420     6.4900     5.1290     4.9940    25.5240     2.3140 
   79.1250   -23.5400    94.6370     6.4960     4.9810     5.0170    25.5850     2.3090 
   79.2500   -23.4900    93.3900     6.5930     4.9530     5.1180    25.6380     2.3060 
   79.3750   -23.6820    91.2380     6.7050     4.9910     5.1600    25.6300     2.3080 
   79.5000   -24.0730    91.0680     6.7960     5.0540     5.1890    25.5130     2.3140 
   79.6250   -24.5750    93.2500     6.8780     5.1280     5.3570    25.2870     2.3170 
   79.7500   -25.1290    93.8400     6.9910     5.2210     5.5010    25.0490     2.3140 
   79.8750   -25.7420    91.6880     7.1480     5.3410     5.5650    24.7860     2.3040 
   80.0000   -26.4230    89.0170     7.3240     5.4810     5.8140    24.5100     2.2900 
   80.1250   -27.0250    86.0470     7.4680     5.6220     6.4810    24.2850     2.2760 
   80.2500   -27.7230    81.5700     7.5660     5.7540     7.3300    24.1480     2.2660 
   80.3750   -28.3970    75.7840     7.6650     5.9000     7.5480    24.1030     2.2580 
   80.5000   -28.9310    70.3850     7.8650     6.1100     7.0850    24.0870     2.2470 
   80.6250   -29.4300    69.6780     8.2990     6.4670     7.0190    24.0240     2.2300 
   80.7500   -29.7680    72.4340     8.9280     6.9520     8.0500    23.8910     2.2060 
   80.8750   -29.8800    75.4720     9.5960     7.4750     9.8100    23.7520     2.1830 
   81.0000   -29.7860    75.5520    10.0520     7.8680    11.1110    23.6970     2.1660 
   81.1250   -29.6010    73.3970     9.9480     7.8800    11.6120    23.7510     2.1700 
   81.2500   -29.3310    73.5150     9.3020     7.4870    11.5170    23.8580     2.1910 
   81.3750   -29.0110    76.5230     8.3150     6.7910    10.0690    24.0420     2.2250 
   81.5000   -28.7610    80.8240     7.3340     6.0200     7.3760    24.3300     2.2590 
   81.6250   -28.4810    83.4760     6.7780     5.4760     6.1490    24.6320     2.2770 
   81.7500   -28.2910    83.4350     6.7660     5.3020     5.9560    24.6990     2.2740 
   81.8750   -28.1550    80.7990     7.2890     5.5320     6.2300    24.5520     2.2550 
   82.0000   -27.9670    77.6450     8.1920     6.0950     7.4120    24.2370     2.2310 
   82.1250   -27.6850    76.1790     9.1270     6.7900    10.0680    23.9200     2.2150 
   82.2500   -27.1860    75.0730     9.6550     7.2920    11.3210    23.8740     2.2140 
   82.3750   -26.5960    72.8800     9.5050     7.3740    11.2420    24.1450     2.2270 
   82.5000   -25.9040    70.8510     8.6930     6.9730    10.1340    24.5860     2.2500 
   82.6250   -25.1400    72.7480     7.5910     6.2480     8.1030    24.8000     2.2810 
   82.7500   -24.5220    78.0250     6.7570     5.5910     6.2740    24.7100     2.3180 
   82.8750   -23.9910    84.0000     6.4530     5.2390     5.2700    24.4970     2.3640 
   83.0000   -23.6220    87.6970     6.7040     5.2740     5.1740    24.3940     2.4140 
   83.1250   -23.5560    87.3480     7.3720     5.6650     6.5090    24.3890     2.4500 
   83.2500   -23.7260    84.7540     8.0680     6.1520     9.4010    24.3930     2.4570 
   83.3750   -23.9460    80.9320     8.4940     6.5100    11.6130    24.3870     2.4330 
   83.5000   -24.2320    77.8290     8.4710     6.5690     9.8060    24.3510     2.3890 
   83.6250   -24.6750    77.9140     8.0290     6.2700     7.0150    24.2780     2.3490 
   83.7500   -25.0350    80.7520     7.5010     5.8240     5.9770    24.2190     2.3280 
   83.8750   -25.4640    84.5630     7.0630     5.3840     5.4580    24.1990     2.3240 
   84.0000   -26.0150    87.0630     6.7380     5.0200     5.1600    24.1970     2.3320 
   84.1250   -26.6470    87.8710     6.4690     4.7460     5.3650    24.1870     2.3420 
   84.2500   -27.3880    86.3920     6.2500     4.5540     5.7460    24.1800     2.3490 
   84.3750   -28.3860    84.1050     6.2160     4.5140     5.8930    24.2820     2.3560 
   84.5000   -29.6040    83.5930     6.5770     4.7540     5.5710    24.5520     2.3710 
   84.6250   -30.8780    82.4510     7.5770     5.4620     5.7740    24.9170     2.3950 
   84.7500   -32.2710    76.2540     9.0440     6.5550     8.1030    25.0230     2.4110 
   84.8750   -33.5500    66.5900    10.6550     7.8410    15.3420    24.9320     2.4000 
   85.0000   -34.7190    60.1950    11.9280     8.9970    25.0490    24.7170     2.3540 
   85.1250   -35.6170    59.3030    12.2500     9.5530    22.2200    24.5500     2.2810 
   85.2500   -36.2050    59.1330    11.7100     9.4470    15.5810    24.4610     2.2150 
   85.3750   -36.5910    59.3960    10.7380     8.8710    12.7810    24.3540     2.1760 
   85.5000   -36.6410    60.3140     9.8510     8.1730    12.0600    24.1650     2.1690 
   85.6250   -36.4230    59.5920     9.4070     7.6800    11.6480    24.0260     2.1840 
   85.7500   -36.0490    59.6650     9.3300     7.4540    11.2990    24.0480     2.2010 
   85.8750   -35.4830    63.0710     9.4980     7.4530    11.2780    24.1780     2.2120 
   86.0000   -34.7620    67.0710     9.7780     7.5980    11.4180    24.2370     2.2160 
   86.1250   -33.9530    66.2650    10.0600     7.8140    11.4750    24.0720     2.2150 
   86.2500   -33.0340    64.0250    10.2660     8.0120    11.2180    23.8790     2.2140 
   86.3750   -31.9370    63.5790    10.3400     8.1310    10.8170    23.8500     2.2160 
   86.5000   -30.8310    62.3960    10.2390     8.1160    10.7430    24.0490     2.2220 
   86.6250   -29.7310    58.5450     9.9090     7.9040    10.2330    24.3770     2.2300 
