~V
VERS. 2.00: Ver 2.00
~W
STRT.M 61.0000:
STOP.M 257.0000:
STEP.M 0.1250:
NULL. -999.2500:
UWI. DF32086:
~C
DEPT.M :
SP.MV :
GR.API :
CALI.CM :
RXO.OHMM :
RI. :
RML.OHMM :
DEN.GM/CC :
~A
# ...
  218.5000   -25.0650    82.8130    23.7680    44.2050    43.9270    50.7800     2.2560 
  218.6250   -25.0980    80.4720    23.7840    43.4830    44.0080    50.4200     2.2670 
  218.7500   -25.1500    76.9840    23.7550    41.3390    44.0110    50.0840     2.2750 
  218.8750   -25.1980    73.4370    23.7160    39.3230    44.0400    49.8320     2.2770 
  219.0000   -25.3090    71.5060    23.6730    38.7300    43.8410    49.2460     2.2750 
  219.1250   -25.4170    74.1740    23.6560    39.5850    42.4360    47.0610     2.2740 
  219.2500   -25.5440    78.6110    23.6390    40.8280    39.5180    43.0680     2.2750 
  219.3750   -25.7160    79.9900    23.6230    39.1860    35.6360    38.1360     2.2780 
  219.5000   -25.8460    79.0240    23.5800    31.7160    31.8830    33.6540     2.2800 
  219.6250   -26.0700    82.4840    23.4960    22.0570    29.5300    31.0910     2.2810 
  219.7500   -26.3000    88.7260    23.4100    19.8450    28.9540    30.7340     2.2830 
  219.8750   -26.5300    90.5890    23.2490    27.2340    30.2550    32.6040     2.2870 
  220.0000   -26.7730    85.2970    22.8920    37.8110    33.1940    36.3110     2.2900 
  220.1250   -27.0580    78.3290    22.6990    40.9570    37.1830    40.9860     2.2870 
  220.2500   -27.3490    73.8780    22.6900    38.8400    41.1120    45.2490     2.2830 
  220.3750   -27.6590    70.6140    22.7990    36.6730    44.5680    48.6410     2.2820 
  220.5000   -28.0050    68.1590    22.8500    35.9300    48.0470    51.8730     2.2810 
  220.6250   -28.2380    66.7230    22.9490    37.6890    53.1670    56.9280     2.2760 
  220.7500   -28.4560    65.0110    22.9880    44.6150    60.7710    64.8460     2.2690 
  220.8750   -28.7390    63.0040    23.0120    57.3980    70.6000    75.4670     2.2660 
  221.0000   -29.0050    61.0750    23.0630    73.1850    81.0070    87.0160     2.2630 
  221.1250   -29.2110    59.2150    23.3010    85.9220    88.6050    95.3040     2.2590 
  221.2500   -29.3750    59.4740    23.6920    90.3590    91.5030    97.8110     2.2570 
  221.3750   -29.5240    63.2010    23.9680    86.5890    89.8740    95.0860     2.2600 
  221.5000   -29.7130    68.4120    24.0590    80.2950    85.6370    89.9070     2.2690 
  221.6250   -29.9280    70.0220    24.0570    76.3410    81.1520    85.1430     2.2790 
  221.7500   -30.1070    68.0930    24.0570    73.0770    77.7870    81.9210     2.2820 
  221.8750   -30.2670    66.4650    24.0570    69.9160    75.7920    80.2790     2.2760 
  222.0000   -30.3960    67.6380    24.0500    67.7470    74.8550    79.7140     2.2650 
  222.1250   -30.5080    70.4970    24.0400    67.8530    74.1320    79.1110     2.2580 
  222.2500   -30.6830    70.9600    24.0360    70.4630    72.6620    77.3650     2.2630 
  222.3750   -30.8630    70.0100    24.0480    73.8480    70.2260    74.3120     2.2780 
  222.5000   -30.9940    71.6250    24.0750    72.4120    67.4610    70.8410     2.3010 
  222.6250   -31.1070    75.9700    24.1340    64.0010    66.0530    68.8860     2.3270 
  222.7500   -31.1950    78.9160    24.2150    54.4200    67.4670    69.8910     2.3440 
  222.8750   -31.2200    77.1080    24.2560    52.7330    72.9270    74.9920     2.3420 
  223.0000   -31.2380    70.6280    24.2550    64.1740    83.0400    84.9120     2.3260 
  223.1250   -31.3710    64.8290    24.2130    95.7840    97.3030    99.7500     2.3050 
  223.2500   -31.4940    64.4010    24.1610   130.5050   111.4040   115.0790     2.2820 
  223.3750   -31.5720    67.8530    24.1590   151.2820   121.8320   124.0950     2.2580 
  223.5000   -31.6160    70.1240    24.1680   152.8900   123.3340   125.9330     2.2480 
  223.6250   -31.6130    70.4370    24.1300   138.9630   117.7650   121.6490     2.2670 
  223.7500   -31.6010    71.9240    24.0320   116.4940   111.8420   116.2940     2.2930 
  223.8750   -31.5980    72.2110    23.9520    96.7120   108.1770   112.6140     2.3050 
  224.0000   -31.5980    69.1160    23.9490    91.0370   107.1470   111.3430     2.3030 
  224.1250   -31.5420    65.4000    23.9630   101.8940   108.0750   112.0540     2.3120 
  224.2500   -31.4240    66.2380    23.8380   108.0830   109.4280   113.3970     2.3350 
  224.3750   -31.2520    69.6740    23.6210   107.0340   110.3830   114.6730     2.3560 
  224.5000   -31.0550    70.5370    23.5230   103.1830   110.5190   115.4610     2.3520 
  224.6250   -30.8680    66.2880    23.6810   105.8670   109.6870   115.5090     2.3150 
  224.7500   -30.6920    63.1190    23.9870   113.7580   108.3340   115.0940     2.2680 
  224.8750   -30.4980    65.9190    24.1460   119.2360   106.8590   114.5530     2.2350 
  225.0000   -30.2440    70.3260    24.1790   115.5530   105.7800   114.3700     2.2220 
  225.1250   -29.9480    67.4840    24.1750   106.8290   106.0630   115.4960     2.2190 
  225.2500   -29.6580    60.9320    24.1450   104.1340   108.0040   118.2020     2.2140 
  225.3750   -29.3640    57.6090    24.0690   109.5020   110.5630   121.4450     2.2150 
  225.5000   -29.0600    59.3790    23.9760   120.2920   110.2580   121.9730     2.2350 
  225.6250   -28.7650    61.0330    23.9350   128.4610   100.9230   113.6870     2.2830 
  225.7500   -28.4720    61.0500    23.8800   123.6180    84.0060    96.6830     2.3350 
  225.8750   -28.1650    61.8610    23.7620   103.8240    65.0120    75.5660     2.3640 
  226.0000   -27.8530    65.7640    23.4730    75.7030    49.0670    56.5220     2.3610 
  226.1250   -27.5460    71.0890    22.9030    49.0690    38.8330    43.9480     2.3410 
  226.2500   -27.2270    75.9120    22.2550    32.9220    32.8540    36.6330     2.3270 
  226.3750   -26.8900    80.1130    21.9940    26.2320    30.0990    33.1840     2.3200 
  226.5000   -26.5470    82.2070    22.0580    25.7290    29.7220    32.4530     2.3160 
  226.6250   -26.2250    79.2190    22.4410    29.4420    31.2590    33.9310     2.3110 
  226.7500   -25.9490    74.3370    22.6090    34.0500    33.7750    36.6670     2.3060 
  226.8750   -25.7510    72.2080    22.6350    36.7390    36.7980    40.1700     2.2970 
  227.0000   -25.6380    74.9300    22.5940    36.4780    40.1030    44.1100     2.2860 
  227.1250   -25.5610    77.7430    22.5680    39.3000    43.7310    48.3490     2.2810 
  227.2500   -25.4770    77.2430    22.3860    46.5580    47.5310    52.5650     2.2830 
  227.3750   -25.4290    74.9230    22.0330    55.2380    51.1180    56.2690     2.2850 
  227.5000   -25.4800    72.8780    21.7840    60.5750    53.8780    58.8140     2.2820 
  227.6250   -25.5930    69.4430    21.7460    61.1120    54.8220    59.2280     2.2780 
  227.7500   -25.6750    66.0960    21.7430    57.7000    53.9590    57.6360     2.2770 
  227.8750   -25.6610    65.2790    21.9120    52.1530    51.6640    54.4780     2.2810 
  228.0000   -25.5590    67.7410    22.2650    47.9130    48.5010    50.4070     2.2870 
  228.1250   -25.4610    70.8580    22.8870    44.0630    44.8830    45.9720     2.2940 
  228.2500   -25.4030    72.7660    23.4880    39.2800    41.3180    41.7630     2.2990 
  228.3750   -25.3000    73.4110    23.8630    34.4110    38.3330    38.3250     2.2990 
  228.5000   -25.0950    73.9320    23.9670    31.7070    35.7320    36.8190     2.2880 
  228.6250   -24.8760    76.5780    23.9580    31.3140    35.2120    36.5570     2.2730 
  228.7500   -24.7050    78.8120    23.9450    31.6100    36.0780    37.8430     2.2700 
  228.8750   -24.5530    79.1960    23.9130    35.8420    38.0870    40.4500     2.2810 
  229.0000   -24.4310    79.5710    23.8360    44.2700    40.7060    43.7550     2.2940 
  229.1250   -24.3360    79.2660    23.6770    50.5270    43.0060    46.5410     2.3010 
  229.2500   -24.1960    77.7070    23.4840    49.2300    44.1990    47.7950     2.3170 
  229.3750   -24.1100    76.6940    23.3390    43.4090    43.9260    47.1440     2.3500 
  229.5000   -24.0950    78.0630    23.2300    37.7830    42.2530    44.8590     2.3930 
  229.6250   -24.0000    82.8160    23.0080    34.0170    39.5150    41.5830     2.4350 
