~V
VERS. 2.00: Ver 2.00
~W
STRT.M 61.0000:
STOP.M 238.0000:
STEP.M 0.1250:
NULL. -999.2500:
UWI. DF32044:
~C
DEPT.M :
DEN.GM/CC :
SP.MV :
GR.API :
RML.OHMM :
RI. :
RXO.OHMM :
CALI.CM :
~A
# ...
  128.5000     2.3100   -24.0480    89.3650     5.2640     4.7020     5.1060    24.6110 
  128.6250     2.2860   -24.0160   101.2470     4.8770     4.3870     4.6560    24.4550 
  128.7500     2.2740   -23.8520   106.6750     4.6800     4.2050     4.4710    24.1970 
  128.8750     2.2810   -23.7300   102.0170     4.7180     4.2050     4.4630    23.8770 
  129.0000     2.3090   -23.7180    93.0160     5.0270     4.4240     4.6630    23.5710 
  129.1250     2.3480   -23.5750    89.5480     5.6700     4.9170     5.2620    23.2950 
  129.2500     2.3840   -23.5080    90.5120     6.5490     5.6150     6.0600    23.1410 
  129.3750     2.4030   -23.5730    90.5230     7.5340     6.4270     6.9830    23.0720 
  129.5000     2.3970   -23.5660    87.4160     8.4170     7.2040     8.0600    23.0510 
  129.6250     2.3620   -23.5020    82.3300     8.8840     7.7140     9.2470    23.0580 
  129.7500     2.3200   -23.5560    78.7710     8.8450     7.8560     9.9220    23.0320 
  129.8750     2.2890   -23.6390    76.0240     8.3510     7.6250     9.4120    22.8950 
  130.0000     2.2810   -23.6140    74.9840     7.5860     7.1220     8.0690    22.6070 
  130.1250     2.2970   -23.5890    79.2890     6.7930     6.5010     6.9260    22.2220 
  130.2500     2.3200   -23.6110    86.8640     6.1410     5.9280     6.3840    21.8410 
  130.3750     2.3360   -23.5930    92.7060     5.6780     5.4740     6.1120    21.4980 
  130.5000     2.3400   -23.5290    93.7500     5.3900     5.1610     5.6950    21.2620 
  130.6250     2.3330   -23.4970    90.9980     5.2680     5.0030     5.4060    21.1280 
  130.7500     2.3210   -23.4890    88.4170     5.2590     4.9780     5.4970    21.0900 
  130.8750     2.3130   -23.4500    87.7870     5.4130     5.1220     5.9050    21.0830 
  131.0000     2.3190   -23.4070    86.9260     5.8760     5.5020     6.3340    21.0830 
  131.1250     2.3500   -23.4740    81.8710     6.8200     6.2400     6.7320    21.0830 
  131.2500     2.3980   -23.4860    74.7250     8.2740     7.2790     8.3040    21.0670 
  131.3750     2.4510   -23.4020    69.0360    10.0360     8.4980    12.1180    21.0450 
  131.5000     2.4920   -23.3950    66.1160    11.7180     9.6660    16.0150    21.1270 
  131.6250     2.5050   -23.4710    64.9870    12.7920    10.4320    15.0690    21.4060 
  131.7500     2.5000   -23.4190    64.8400    12.7180    10.7370    13.4150    21.7790 
  131.8750     2.4880   -23.3760    66.2080    12.4400    10.7580    13.9060    22.2050 
  132.0000     2.4810   -23.4190    70.4820    12.4640    10.8620    13.7750    22.8410 
  132.1250     2.4890   -23.3410    75.5940    13.3520    11.5400    11.5810    23.4360 
  132.2500     2.5110   -23.2760    76.6210    15.0260    12.8570    11.9550    23.7790 
  132.3750     2.5380   -23.3290    71.6410    17.1060    14.5880    16.4250    23.8560 
  132.5000     2.5590   -23.3280    63.6220    18.9130    16.2340    22.4470    23.8460 
  132.6250     2.5600   -23.2130    58.2650    19.4470    16.9880    23.4490    23.8410 
  132.7500     2.5390   -23.1990    56.5170    18.5580    16.6000    21.6130    23.8410 
  132.8750     2.5040   -23.2180    56.4370    16.7400    15.3050    19.3550    23.8410 
  133.0000     2.4670   -23.1570    56.7560    14.9420    13.7730    16.1100    23.8410 
  133.1250     2.4490   -23.0970    59.4570    14.1270    12.8360    12.8470    23.8270 
  133.2500     2.4570   -23.0740    61.6030    14.4140    12.7740    11.7170    23.7970 
  133.3750     2.4900   -23.0190    58.2260    15.6910    13.5890    13.5750    23.7660 
  133.5000     2.5340   -22.9190    50.1680    17.6540    15.0860    17.6410    23.7530 
  133.6250     2.5670   -22.8880    46.8890    19.7870    16.8900    20.7250    23.7530 
  133.7500     2.5800   -22.8970    49.6360    21.4770    18.4590    21.4150    23.7530 
  133.8750     2.5780   -22.8150    52.5010    22.4000    19.4710    21.3040    23.7530 
  134.0000     2.5710   -22.7290    53.7190    22.5860    19.8610    21.1140    23.7370 
  134.1250     2.5730   -22.7940    54.2160    22.3510    19.7990    20.6920    23.6850 
  134.2500     2.5840   -22.7750    53.0340    22.1250    19.6530    20.3840    23.6140 
  134.3750     2.6000   -22.6610    50.2390    22.0500    19.5810    20.1400    23.5880 
  134.5000     2.6110   -22.6810    48.9320    22.1440    19.6290    20.1030    23.5990 
  134.6250     2.6080   -22.7940    50.0050    22.3920    19.8120    20.7860    23.5890 
  134.7500     2.5940   -22.7750    50.5090    22.7300    20.0850    21.6930    23.5890 
  134.8750     2.5730   -22.7980    50.8180    23.1340    20.4350    22.2240    23.5780 
  135.0000     2.5540   -22.9610    53.0190    23.5880    20.8530    22.2190    23.5750 
  135.1250     2.5410   -22.9830    58.3240    24.0520    21.3210    21.7940    23.6000 
  135.2500     2.5370   -23.0410    63.7660    24.4300    21.7530    21.3850    23.5640 
  135.3750     2.5370   -23.2360    66.1800    24.6020    22.0390    21.3720    23.5070 
  135.5000     2.5390   -23.3210    64.6000    24.4400    22.0500    22.2360    23.4790 
  135.6250     2.5350   -23.2790    61.3540    23.7910    21.6140    22.9130    23.4790 
  135.7500     2.5250   -23.3640    60.5990    22.7790    20.8010    22.6050    23.4790 
  135.8750     2.5140   -23.4770    62.1510    21.5780    19.7380    21.9270    23.4790 
  136.0000     2.5050   -23.4440    63.9080    20.4180    18.6250    21.1210    23.4790 
  136.1250     2.5050   -23.4790    63.4880    19.5220    17.6860    19.6880    23.4790 
  136.2500     2.5080   -23.5750    62.5180    18.8900    16.9830    18.2050    23.4790 
  136.3750     2.5120   -23.6020    62.6040    18.4460    16.4930    17.6590    23.4790 
  136.5000     2.5130   -23.5960    62.6880    18.0970    16.1500    18.0510    23.4790 
  136.6250     2.5130   -23.6130    61.5450    17.8310    15.9320    17.7820    23.4830 
  136.7500     2.5160   -23.6240    60.2280    17.7360    15.8610    16.3620    23.5130 
  136.8750     2.5250   -23.5980    60.1300    17.9530    16.0210    15.0670    23.5810 
  137.0000     2.5380   -23.5470    61.8220    18.5530    16.4680    14.9050    23.6420 
  137.1250     2.5490   -23.4980    63.9190    19.4680    17.1730    16.2270    23.6860 
  137.2500     2.5540   -23.4070    63.6640    20.3530    17.8950    18.5910    23.7590 
  137.3750     2.5520   -23.2470    61.1980    20.8930    18.3930    20.6440    23.9070 
  137.5000     2.5410   -23.1440    57.7150    20.8900    18.4860    20.5260    24.1510 
  137.6250     2.5240   -23.1350    54.4340    20.3330    18.1120    18.2730    24.2560 
  137.7500     2.5050   -23.0040    52.9430    19.6190    17.5530    16.6120    24.2840 
  137.8750     2.4900   -22.8360    53.3350    19.0500    17.0560    16.3210    24.2520 
  138.0000     2.4820   -22.8330    55.1550    18.8030    16.7980    16.6750    24.2050 
  138.1250     2.4820   -22.7810    56.7210    18.9550    16.8890    17.5180    24.1440 
  138.2500     2.4870   -22.6930    58.9480    19.3410    17.2160    18.9600    24.1200 
  138.3750     2.4930   -22.7600    61.9670    19.7950    17.6490    20.2220    24.1140 
  138.5000     2.4980   -22.8150    64.8790    20.1220    18.0150    20.2790    24.1140 
  138.6250     2.5030   -22.7160    67.1500    20.0590    18.0740    19.7960    24.1140 
  138.7500     2.5070   -22.7110    67.9380    19.5520    17.7440    20.0660    24.1140 
  138.8750     2.5100   -22.7940    66.5260    18.6580    17.0400    20.2640    24.1140 
  139.0000     2.5140   -22.7480    63.8380    17.5710    16.1020    18.5230    24.1140 
  139.1250     2.5140   -22.7170    62.6400    16.6120    15.1890    15.7860    24.1140 
  139.2500     2.5100   -22.7630    63.2760    16.0070    14.5340    14.1140    24.1220 
  139.3750     2.5030   -22.7310    63.5240    15.8460    14.2540    13.7700    24.1400 
  139.5000     2.4950   -22.6560    61.4950    16.1110    14.3720    14.4470    24.1740 
  139.6250     2.4870   -22.6820    59.9060    16.7360    14.8670    15.7420    24.1640 
