~V
VERS. 2.00: Ver 2.00
~W
STRT.M 61.0000:
STOP.M 257.0000:
STEP.M 0.1250:
NULL. -999.2500:
UWI. DF32086:
~C
DEPT.M :
SP.MV :
GR.API :
CALI.CM :
RXO.OHMM :
RI. :
RML.OHMM :
DEN.GM/CC :
~A
# ...
  229.7500   -23.8820    86.0710    22.7110    30.9530    36.4140    38.1510     2.4720 
  229.8750   -23.8130    86.7490    22.4900    26.9630    33.2660    34.8570     2.4990 
  230.0000   -23.7600    86.0060    22.3660    22.3390    30.2900    31.8420     2.5070 
  230.1250   -23.7030    85.2930    22.6140    19.5260    27.7540    29.3220     2.4940 
  230.2500   -23.6500    85.1970    22.9880    18.0220    25.7020    27.2990     2.4730 
  230.3750   -23.5870    85.2650    23.3480    17.8020    24.1060    25.7010     2.4520 
  230.5000   -23.4790    86.2370    23.5820    18.8100    22.8600    24.3810     2.4350 
  230.6250   -23.4010    86.3800    23.6020    20.4840    21.9540    23.3350     2.4200 
  230.7500   -23.2470    85.1520    23.5700    21.5040    21.5260    22.8190     2.4050 
  230.8750   -23.0060    85.7280    23.5640    21.4860    21.9710    23.3740     2.3930 
  231.0000   -22.6800    86.5400    23.4760    20.9780    23.7730    25.6220     2.3950 
  231.1250   -22.2010    83.1710    23.2580    21.1450    27.4890    30.3010     2.4280 
  231.2500   -21.6760    75.6890    22.9690    25.3540    31.9540    36.0880     2.4830 
  231.3750   -21.1150    69.1520    22.5980    38.6030    34.4000    39.6000     2.5460 
  231.5000   -20.5200    65.5170    22.5410    58.4630    31.6440    36.6260     2.5950 
  231.6250   -19.8940    64.3010    22.9880    56.9460    24.0480    27.4430     2.6060 
  231.7500   -19.2790    65.1150    23.2590    35.9700    16.6250    18.5350     2.5760 
  231.8750   -18.7290    66.5610    23.5010    15.7130    11.3050    12.3300     2.5120 
  232.0000   -18.2630    67.3350    23.6450     7.2910     8.1040     8.7740     2.4380 
  232.1250   -17.9160    67.2910    23.6470     5.5910     6.6230     7.3290     2.3890 
  232.2500   -17.6780    68.3520    23.6130     5.4170     6.0750     6.9910     2.3710 
  232.3750   -17.5220    70.1220    23.5520     5.6820     6.1390     7.3280     2.3730 
  232.5000   -17.4640    69.7890    23.4770     6.0450     6.5560     7.9750     2.3760 
  232.6250   -17.4750    66.9490    23.4140     6.5720     7.0970     8.6030     2.3730 
  232.7500   -17.5590    64.0980    23.3700     7.1180     7.5750     9.0510     2.3690 
  232.8750   -17.6380    64.7370    23.3510     7.5420     7.9220     9.3330     2.3710 
  233.0000   -17.7510    68.2730    23.3580     7.9100     8.1280     9.5250     2.3800 
  233.1250   -17.8320    70.5460    23.3930     8.6820     8.2280     9.7150     2.3890 
  233.2500   -17.9030    71.9580    23.4620     9.7310     8.3150     9.9500     2.3960 
  233.3750   -17.9570    73.6950    23.4830    10.7170     8.4370    10.2220     2.4060 
  233.5000   -17.9770    74.4860    23.4670    11.3440     8.5850    10.4780     2.4190 
  233.6250   -17.9770    72.1650    23.4320    11.3430     8.6580    10.6140     2.4240 
  233.7500   -17.9340    70.4480    23.4170    10.7050     8.5640    10.5890     2.4170 
  233.8750   -17.9550    71.3500    23.3990     9.6380     8.2870    10.4120     2.4000 
  234.0000   -17.9580    72.1580    23.3790     8.5240     7.9110    10.1490     2.3830 
  234.1250   -17.9430    70.6340    23.3410     7.6690     7.5920     9.9000     2.3810 
  234.2500   -17.8730    69.4040    23.3230     6.9380     7.4210     9.7380     2.3970 
  234.3750   -17.7750    69.9950    23.3400     6.4000     7.3900     9.6770     2.4180 
  234.5000   -17.6840    70.9520    23.3740     6.1330     7.4210     9.6940     2.4300 
  234.6250   -17.6560    68.5000    23.4190     6.1290     7.4040     9.7370     2.4310 
  234.7500   -17.6900    65.0420    23.4240     6.1840     7.3060     9.7580     2.4300 
  234.8750   -17.6550    64.2270    23.3970     6.2660     7.1620     9.7380     2.4270 
  235.0000   -17.5990    67.0210    23.3690     6.3810     7.0370     9.6830     2.4180 
  235.1250   -17.6550    69.3970    23.3850     6.5150     6.9810     9.5920     2.4090 
  235.2500   -17.7630    69.5850    23.3910     6.6830     6.9590     9.4750     2.4080 
  235.3750   -17.9220    70.6070    23.3800     6.7940     6.9230     9.3400     2.4110 
  235.5000   -18.0990    74.0170    23.3600     6.7390     6.8450     9.2250     2.4080 
  235.6250   -18.2730    77.1660    23.3580     6.5990     6.7830     9.2290     2.4000 
  235.7500   -18.4430    76.9040    23.3700     6.6600     6.8410     9.4240     2.3970 
  235.8750   -18.6550    73.9860    23.3810     7.2070     7.0930     9.8540     2.4050 
  236.0000   -18.8920    70.7720    23.3770     8.6610     7.5380    10.4810     2.4170 
  236.1250   -19.1280    69.4990    23.3620    10.8340     8.0590    11.1460     2.4250 
  236.2500   -19.3520    71.3150    23.3740    12.0360     8.4430    11.6060     2.4290 
  236.3750   -19.5220    73.6460    23.3370    11.0700     8.5570    11.7090     2.4320 
  236.5000   -19.6600    73.6730    23.3590     9.0040     8.4110    11.4790     2.4390 
  236.6250   -19.7930    71.5210    23.4150     7.9220     8.1620    11.1180     2.4520 
  236.7500   -19.9500    70.6800    23.5040     7.9000     8.0120    10.8890     2.4680 
  236.8750   -20.1350    70.8870    23.4620     8.4430     8.0380    10.9080     2.4900 
  237.0000   -20.3430    69.5310    23.4140     9.0410     8.2070    11.1690     2.5160 
  237.1250   -20.5370    66.2860    23.3610     8.6830     8.4080    11.5620     2.5350 
  237.2500   -20.7580    63.6480    23.2620     7.8230     8.5360    11.8820     2.5300 
  237.3750   -21.0110    63.3260    23.1130     7.4060     8.5640    12.0140     2.4980 
  237.5000   -21.2650    66.2070    23.0050     7.6870     8.5040    11.9330     2.4540 
  237.6250   -21.5240    70.2020    22.9620     8.2700     8.3730    11.6890     2.4240 
  237.7500   -21.8200    71.9150    23.0420     8.6250     8.2070    11.4120     2.4220 
  237.8750   -22.1110    70.9120    23.2280     8.7580     8.0290    11.1810     2.4420 
  238.0000   -22.4170    69.2260    23.4000     8.7930     7.8790    11.0390     2.4610 
  238.1250   -22.7510    69.7050    23.5230     8.6600     7.8190    11.0200     2.4560 
  238.2500   -23.1160    71.9470    23.7390     8.4620     7.8680    11.1250     2.4280 
  238.3750   -23.5030    74.2300    23.9000     8.3730     8.0310    11.3720     2.3890 
  238.5000   -23.9240    75.7720    23.9430     8.4240     8.2960    11.7690     2.3610 
  238.6250   -24.3440    76.7710    23.9280     8.4820     8.6630    12.3300     2.3600 
  238.7500   -24.7140    77.1770    23.9250     8.5290     9.0890    12.9910     2.3860 
  238.8750   -25.0530    75.9160    23.9140     8.6780     9.5360    13.6820     2.4290 
  239.0000   -25.3330    73.6980    23.9020     9.1040     9.9580    14.3080     2.4760 
  239.1250   -25.5760    72.3300    23.8970     9.9490    10.2790    14.7580     2.5080 
  239.2500   -25.7880    70.0180    23.8960    10.5660    10.4770    15.0230     2.5210 
  239.3750   -26.0090    67.4640    23.8960    10.5010    10.5630    15.1300     2.5220 
  239.5000   -26.2180    67.8630    23.8960     9.9520    10.5740    15.1420     2.5250 
  239.6250   -26.3930    70.5850    23.8940     9.6520    10.5730    15.1340     2.5380 
  239.7500   -26.4950    70.7220    23.8810    10.0990    10.6190    15.1750     2.5510 
  239.8750   -26.5650    69.1120    23.8370    11.9850    10.7250    15.2990     2.5490 
  240.0000   -26.5960    69.0590    23.7550    15.5140    10.8750    15.4920     2.5350 
  240.1250   -26.4880    69.2510    23.6140    18.7210    11.0090    15.6770     2.5220 
  240.2500   -26.2970    68.2860    23.5010    19.3450    11.0660    15.7590     2.5200 
  240.3750   -25.9740    68.3880    23.4280    17.8030    11.0150    15.6830     2.5260 
  240.5000   -25.5710    70.8950    23.3710    15.8650    10.8560    15.4480     2.5350 
  240.6250   -24.9670    74.2410    23.2980    13.9290    10.6360    15.1210     2.5450 
  240.7500   -24.2380    76.1050    23.2970    12.1600    10.4390    14.8330     2.5480 
  240.8750   -23.3810    75.5800    23.4810    10.7120    10.3200    14.6640     2.5340 
