~V
VERS. 2.00: Ver 2.00
~W
STRT.M 60.0000:
STOP.M 229.0000:
STEP.M 0.1250:
NULL. -999.2500:
UWI. DF32026:
~C
DEPT.M :
SP.MV :
GR.API :
CALI.CM :
RXO.OHMM :
RI. :
RML.OHMM :
DEN.GM/CC :
~A
# ...
   93.7500    76.5550    94.8470    24.6460     6.2080     5.2440     7.1950     2.0170 
   93.8750    76.4510    97.9470    24.6930     6.9770     5.3450     7.2970     2.0310 
   94.0000    76.3480   101.1540    24.7890     7.1640     5.2970     7.1580     2.0960 
   94.1250    76.2650   104.1630    25.0260     6.4310     5.1210     6.8630     2.1860 
   94.2500    76.1950   108.3710    25.0580     5.6110     4.9390     6.6310     2.2690 
   94.3750    76.1250   112.7010    24.8880     5.4170     4.8300     6.5900     2.3120 
   94.5000    76.0550   113.4000    24.8560     5.7000     4.8230     6.7720     2.3160 
   94.6250    75.9740   108.1710    25.1610     6.1580     4.8880     7.0960     2.2990 
   94.7500    75.8690   102.2170    25.4170     6.6650     4.9240     7.3360     2.2790 
   94.8750    75.7500   100.1560    25.4490     6.9370     4.8520     7.2950     2.2690 
   95.0000    75.5910   102.4520    25.2490     6.7590     4.6680     6.9320     2.2720 
   95.1250    75.4100   104.9340    24.8280     6.3040     4.5000     6.4920     2.2830 
   95.2500    75.1920   106.1650    24.5970     6.2090     4.5470     6.3860     2.2920 
   95.3750    74.9740   106.4140    24.4700     6.7960     5.0150     6.9650     2.3040 
   95.5000    74.7250   105.6180    24.3880     8.9410     6.1410     8.5820     2.3370 
   95.6250    74.4510    99.4360    24.5800    15.3790     8.3870    11.9010     2.4000 
   95.7500    74.1910    90.7570    24.8000    24.0480    11.7160    16.8340     2.4810 
   95.8750    73.8860    84.6540    24.7460    30.5890    15.5630    22.4540     2.5530 
   96.0000    73.5780    82.2860    24.5670    32.2860    18.3260    26.1170     2.5920 
   96.1250    73.2020    82.0160    24.5060    29.5070    17.8610    24.5150     2.5850 
   96.2500    72.8490    83.5170    24.4790    24.1800    15.2780    20.0090     2.5270 
   96.3750    72.4830    84.9710    24.2400    17.5780    12.2420    15.4370     2.4250 
   96.5000    72.1510    84.6300    23.8880    12.0560     9.7380    12.1180     2.3130 
   96.6250    71.8600    87.2350    23.9260     9.4540     8.1250    10.3280     2.2230 
   96.7500    71.5620    93.6880    23.9750     8.4800     7.1810     9.5270     2.1670 
   96.8750    71.3380    96.7320    23.9210     8.2760     6.7690     9.4240     2.1420 
   97.0000    71.1380    91.7190    23.6700     8.4450     6.7350     9.7350     2.1350 
   97.1250    70.9890    84.5720    23.4390     8.7180     6.9210    10.1670     2.1370 
   97.2500    70.8390    82.8350    23.3850     8.9690     7.1280    10.4820     2.1390 
   97.3750    70.7260    85.3740    23.4540     9.1540     7.2650    10.6080     2.1260 
   97.5000    70.5830    87.0790    23.4050     9.2470     7.3010    10.5640     2.1120 
   97.6250    70.4470    84.0180    23.3200     9.1540     7.2370    10.4020     2.1210 
   97.7500    70.3270    80.1140    23.4190     9.0170     7.1360    10.2130     2.1300 
   97.8750    70.1610    79.5070    23.5840     8.9990     7.0310    10.0450     2.1280 
   98.0000    69.9980    81.9810    23.5880     9.1110     6.9410     9.9260     2.1190 
   98.1250    69.8540    80.7900    23.2330     9.1510     6.8760     9.8670     2.1130 
   98.2500    69.7020    78.2720    23.0130     9.0530     6.8330     9.8440     2.1140 
   98.3750    69.5310    79.6680    22.8700     8.9280     6.8200     9.8510     2.1200 
   98.5000    69.3940    82.9640    22.9250     8.9750     6.8480     9.9040     2.1220 
   98.6250    69.2410    82.1060    23.0750     9.1720     6.9300    10.0370     2.1180 
   98.7500    69.0860    79.0560    23.1490     9.4620     7.0390    10.2290     2.1130 
   98.8750    68.9760    78.9820    23.1190    10.4230     7.1440    10.4310     2.1130 
   99.0000    68.8690    80.4050    23.2240    12.9770     7.2150    10.5780     2.1150 
   99.1250    68.7940    80.1680    23.4510    15.6220     7.2360    10.6000     2.1180 
   99.2500    68.7560    78.7660    23.5910    14.7340     7.2220    10.5190     2.1230 
   99.3750    68.7360    75.9500    23.5620    11.5940     7.1880    10.3880     2.1340 
   99.5000    68.7470    73.8080    23.4650     9.7240     7.1520    10.2660     2.1550 
   99.6250    68.8000    75.0520    23.4130     9.4210     7.1300    10.2010     2.1770 
   99.7500    68.8960    76.7510    23.4080     9.5490     7.1220    10.1790     2.1870 
   99.8750    68.9790    75.6110    23.4100     9.6180     7.1190    10.1720     2.1810 
  100.0000    69.1190    74.0860    23.4130     9.5950     7.1050    10.1480     2.1620 
  100.1250    69.2730    75.5940    23.4180     9.4270     7.0600    10.0830     2.1430 
  100.2500    69.4640    76.0970    23.4290     9.2340     6.9830     9.9870     2.1300 
  100.3750    69.6860    73.6530    23.4160     9.1220     6.8800     9.8680     2.1240 
  100.5000    69.9240    71.9580    23.3660     9.0220     6.7620     9.7310     2.1230 
  100.6250    70.1930    74.1170    23.2680     8.7460     6.6580     9.5980     2.1270 
  100.7500    70.4550    75.4790    23.2430     8.3340     6.5920     9.4880     2.1380 
  100.8750    70.7680    73.4580    23.3170     8.0900     6.5550     9.3720     2.1520 
  101.0000    71.0950    72.2100    23.5060     8.2600     6.5150     9.1880     2.1600 
  101.1250    71.4190    75.2200    23.5890     8.9120     6.4810     8.9580     2.1630 
  101.2500    71.7510    78.5060    23.4880     9.5410     6.5680     8.9090     2.1760 
  101.3750    72.0970    78.3550    23.3200     9.6250     6.9360     9.3120     2.2170 
  101.5000    72.4680    74.9530    23.3670     9.5680     7.6960    10.3460     2.2940 
  101.6250    72.8600    72.0420    23.6960    11.8110     8.8420    12.0240     2.3870 
  101.7500    73.2640    71.3240    24.0630    18.2390     9.9490    13.6580     2.4470 
  101.8750    73.6640    73.4530    24.2880    23.9280    10.4430    14.2610     2.4400 
  102.0000    74.0420    78.1090    24.4250    21.1970     9.8960    13.1220     2.3820 
  102.1250    74.3590    84.6810    24.6600    12.4890     8.4210    10.6550     2.3250 
  102.2500    74.6210    91.8880    25.0470     7.4230     6.8290     8.2880     2.3000 
  102.3750    74.8240    98.9720    25.2370     6.1940     5.5310     6.5970     2.3030 
  102.5000    74.9390   103.6420    25.0060     5.8990     4.6660     5.6550     2.3160 
  102.6250    74.9600   104.0800    24.8360     5.6080     4.2610     5.3630     2.3250 
  102.7500    74.9260   104.3240    24.8800     5.3720     4.1280     5.3740     2.3270 
  102.8750    74.8150   107.7780    24.9210     5.1950     4.1690     5.5290     2.3230 
  103.0000    74.6090   110.6910    24.9460     5.0900     4.3220     5.7730     2.3120 
  103.1250    74.4150   105.1380    24.9700     5.3360     4.5610     6.1100     2.2930 
  103.2500    74.1700    95.1760    24.6990     5.7170     4.8150     6.4570     2.2740 
  103.3750    73.8830    88.7090    24.2410     6.0650     5.0230     6.7120     2.2630 
  103.5000    73.6270    87.0510    23.8650     6.3040     5.1410     6.7960     2.2600 
  103.6250    73.4030    86.4420    23.6870     6.2720     5.1470     6.6970     2.2610 
  103.7500    73.1480    85.4770    23.7110     6.1290     5.1160     6.5710     2.2630 
  103.8750    72.8750    85.6900    23.8580     6.2220     5.1240     6.5610     2.2640 
  104.0000    72.6630    87.1170    23.9040     6.5830     5.2280     6.7560     2.2570 
  104.1250    72.4600    87.2800    23.7640     7.0110     5.4590     7.1940     2.2350 
  104.2500    72.3160    84.7410    23.6360     7.4280     5.7690     7.7570     2.2050 
  104.3750    72.2300    80.0230    23.5800     7.9300     6.1020     8.3040     2.1830 
  104.5000    72.1140    74.8160    23.5700     8.3180     6.3820     8.6710     2.1750 
  104.6250    72.0380    73.7720    23.5410     8.4320     6.5120     8.6920     2.1770 
  104.7500    72.0230    77.0160    23.5110     8.5350     6.4880     8.4480     2.1800 
  104.8750    72.0810    81.1290    23.5530     8.5720     6.3820     8.1370     2.1840 
