~V
VERS. 2.00: Ver 2.00
~W
STRT.M 55.0000:
STOP.M 256.0000:
STEP.M 0.1250:
NULL. -999.2500:
UWI. DF327:
~C
DEPT.M :
SP.MV :
DEN.GM/CC :
AC.US/MT :
GR.API :
RML.OHMM :
RI. :
RXO.OHMM :
CALI.CM :
~A
   55.0000    44.8120  -999.2500   183.4040  -999.2500  -999.2500  -999.2500  -999.2500  -999.2500 
   55.1250    44.8010  -999.2500   183.5210  -999.2500  -999.2500  -999.2500  -999.2500  -999.2500 
   55.2500    44.6930  -999.2500   183.6170  -999.2500  -999.2500  -999.2500  -999.2500  -999.2500 
   55.3750    44.5070     2.0860   183.6670  -999.2500  -999.2500  -999.2500  -999.2500  -999.2500 
   55.5000    44.2500     2.0860   183.4650  -999.2500  -999.2500  -999.2500  -999.2500  -999.2500 
   55.6250    43.9740     2.0900   183.1090  -999.2500  -999.2500  -999.2500  -999.2500  -999.2500 
   55.7500    43.7500     2.0930   182.9610  -999.2500  -999.2500  -999.2500  -999.2500  -999.2500 
   55.8750    43.6580     2.0960   183.0030  -999.2500  -999.2500  -999.2500  -999.2500  -999.2500 
   56.0000    43.7250     2.0990   183.2810  -999.2500  -999.2500  -999.2500  -999.2500  -999.2500 
   56.1250    43.8810     2.1060   183.3930  -999.2500  -999.2500  -999.2500  -999.2500  -999.2500 
   56.2500    44.1340     2.1200   183.6090  -999.2500  -999.2500  -999.2500  -999.2500  -999.2500 
   56.3750    44.4750     2.1410   183.9440  -999.2500  -999.2500  -999.2500  -999.2500  -999.2500 
   56.5000    44.8970     2.1620   184.3690  -999.2500  -999.2500  -999.2500  -999.2500  -999.2500 
   56.6250    45.3350     2.1710   184.8990  -999.2500  -999.2500  -999.2500  -999.2500  -999.2500 
   56.7500    45.7090     2.1640   184.9700  -999.2500  -999.2500  -999.2500  -999.2500  -999.2500 
   56.8750    45.8590     2.1410   184.9130  -999.2500  -999.2500  -999.2500  -999.2500  -999.2500 
   57.0000    45.6970     2.1110   184.7200     0.0000     0.0000     0.0000     0.0000     0.0000 
   57.1250    45.2420     2.0850   184.3670     0.0000     0.0000     0.0000     0.0000     0.0000 
   57.2500    44.5160     2.0690   183.9070     0.0000     0.0000     0.0000     0.0000     0.0000 
   57.3750    43.6020     2.0610   183.5930    43.2810 440247.3440     0.5300     0.8860    18.0310 
   57.5000    42.5230     2.0570   183.8210    58.0080 333213.5310     0.6950     1.2000    24.3990 
   57.6250    41.3510     2.0550   184.4770    57.8670  8488.5080     0.6860     1.6140    24.9040 
   57.7500    40.1490     2.0540   185.5750    60.2880  -951.2820     0.6950 50002.1480    25.2370 
   57.8750    39.0880     2.0530   186.4390    65.0300  -999.2500     0.7240 175002.6410    25.3500 
   58.0000    38.2450     2.0550   187.0150    67.0370  -999.2500     0.7580 400002.8750    25.3620 
   58.1250    37.6450     2.0570   187.2130    63.0930  -999.2500     0.7810 700002.0000    25.3620 
   58.2500    37.1580     2.0580   187.0600    60.3290 113163.7890     0.7920 950001.2500    25.3620 
   58.3750    36.7080     2.0580   186.7910    61.1070 354982.8750     0.8030 825003.2500    25.3620 
   58.5000    36.2910     2.0560   186.6830    61.0260 668883.4380     0.8250 600006.6250    25.3620 
   58.6250    35.8640     2.0550   186.6740    58.4010 997053.5000     0.8630 300011.0630    25.3620 
   58.7500    35.4610     2.0550   186.7210    57.5520 1018189.5000     0.9000 50013.6250    25.3620 
   58.8750    35.0040     2.0520   186.8310    59.4060 1032151.9380     0.9210 175009.8280    25.3620 
   59.0000    34.4790     2.0480   187.0300    60.4910 1041253.7500     0.9180 400009.4060    25.3620 
   59.1250    33.8350     2.0460   187.3640    59.1200 915264.9380     0.8950 700006.8750    25.3620 
   59.2500    33.0960     2.0490   187.7390    57.0030 716912.5630     0.8690 1000000.0000    25.3620 
   59.3750    32.2980     2.0590   188.0610    54.9350 389706.4380     0.8540 1000000.0000    25.3620 
   59.5000    31.5000     2.0710   188.8750    53.8430  -999.2500     0.8510 1000000.0000    25.3620 
   59.6250    30.7200     2.0780   198.1560    53.9720  -999.2500     0.8530 1000000.0000    25.3620 
   59.7500    29.8890     2.0800   215.8960    55.2560 13077.6130     0.8530 1000000.0000    25.3620 
   59.8750    29.0210     2.0780   243.3870    56.1990 137080.3440     0.8460 1000000.0000    25.3580 
   60.0000    28.1550     2.0770   283.7750    54.9840 431800.4060     0.8350 1000000.0000    25.3480 
   60.1250    27.3850     2.0820   297.9150    51.3590 784727.9380     0.8300 1000000.0000    25.3340 
   60.2500    26.7420     2.0910   287.9400    48.2390 1037796.8130     0.8360 1000000.0000    25.3430 
   60.3750    26.1870     2.1010   259.3220    46.9050 968003.1250     0.8540 1000000.0000    25.3600 
   60.5000    25.6650     2.1030   226.2780    47.1170 843746.8750     0.8770 1000000.0000    25.3730 
   60.6250    25.2000     2.0900   208.2390    48.0640 506233.1880     0.8980 1000000.0000    25.3740 
   60.7500    24.8170     2.0670   208.3260    48.1950 134428.9690     0.9090 1000000.0000    25.3720 
   60.8750    24.5030     2.0420   220.5200    47.7710  -999.2500     0.9070 1000000.0000    25.3690 
   61.0000    24.2430     2.0220   238.4310    48.3410 80149.7270     0.8960 1000000.0000    25.3670 
   61.1250    23.9590     2.0120   258.5870    50.4580 275005.9690     0.8840 1000000.0000    25.3690 
   61.2500    23.6300     2.0110   285.3090    53.2070 603242.0000     0.8750 1000000.0000    25.3700 
   61.3750    23.2680     2.0190   325.2600    55.6360 888443.3750     0.8640 1000000.0000    25.3700 
   61.5000    22.8580     2.0470   370.2810    56.7670 837237.8750     0.8370 1000000.0000    25.3700 
   61.6250    22.3750     2.1130   395.8560    56.7500 519791.6560     0.7700 1000000.0000    25.3690 
   61.7500    21.8380     2.2110   400.1880    57.1860 164708.7340     0.6540 950001.3750    25.3660 
   61.8750    21.2190     2.3300   396.8570    57.9190    39.6730     0.4960 825003.1250    25.3630 
   62.0000    20.4410     2.4450   398.9050    57.0100     3.0260     0.3210 600006.1880    25.3620 
   62.1250    19.4060     2.5140   411.3040    54.3940     1.2130     0.1800 300008.7810    25.3530 
   62.2500    18.0720     2.5180   426.1000    53.1670     0.7100     0.0920     8.4780    25.3170 
   62.3750    16.2810     2.4620   436.1530    53.5400     0.4790     0.0610     3.2050    25.2250 
   62.5000    13.9100     2.3740   439.9590    54.2150     0.2590     0.1010     2.6170    25.0080 
   62.6250    10.8370     2.2870   442.8910    55.9760     0.0260     0.2850     3.5860    24.5140 
   62.7500     7.2910     2.2220   446.8250    60.3770     0.0310     0.6600     5.4860    23.9180 
   62.8750     3.4930     2.1840   451.2950    67.2350     0.7220     1.2660     7.8800    23.4700 
   63.0000    -0.3910     2.1700   455.6040    75.4000     2.6490     2.0920     9.7900    23.2100 
   63.1250    -4.1640     2.1700   456.4880    81.8950     6.6640     3.0830    10.6620    23.0300 
   63.2500    -7.6870     2.1740   452.9230    84.5710    17.5790     4.0940    10.8360    22.8530 
   63.3750   -10.7850     2.1770   446.4390    82.0130  2725.5600     5.0270    11.0560    22.6510 
   63.5000   -13.3300     2.1780   438.5540    78.0330  7163.6640     5.8190    11.2790    22.5120 
   63.6250   -15.1930     2.1760   433.1190    77.9760  -999.2500     6.4210    11.4590    22.5040 
   63.7500   -16.5680     2.1720   434.8090    79.4610  -999.2500     6.8730    11.5900    22.4960 
   63.8750   -17.6270     2.1670   448.1880    79.4180  -999.2500     7.2130    11.6520    22.4180 
   64.0000   -18.4940     2.1650   474.3240    78.8980 53942.4140     7.4910    11.6950    22.2590 
   64.1250   -19.2430     2.1650   506.7160    79.8780 240990.1720     7.7520    11.7930    22.0730 
   64.2500   -19.9100     2.1680   529.8060    81.1700 575030.6880     8.0160    11.9500    21.9690 
   64.3750   -20.4890     2.1730   531.2600    81.0860 957424.8750     8.2670    12.0850    22.0280 
   64.5000   -20.9530     2.1800   507.9200    79.8630 940667.8750     8.4740    12.0430    22.1770 
   64.6250   -21.2710     2.1860   469.4050    77.1630 775676.8130     8.5920    11.8580    22.2990 
   64.7500   -21.4810     2.1900   435.4720    74.1240 459804.9690     8.6270    11.7600    22.3940 
   64.8750   -21.5730     2.1900   417.7230    72.9030 86770.7810     8.6030    11.9500    22.4160 
