~V
VERS. 2.00: Ver 2.00
~W
STRT.M 60.0000:
STOP.M 271.0000:
STEP.M 0.1250:
NULL. -999.2500:
UWI. DF324:
~C
DEPT.M :
SP.MV :
AC.US/MT :
DEN.GM/CC :
GR.API :
CALI.CM :
RXO.OHMM :
RI. :
RML.OHMM :
~A
# ...
  100.0000   -22.3670   435.0480     2.2110    85.1910    23.2490     6.5840     5.7150     6.1810 
  100.1250   -22.8030   432.2790     2.2180    85.2030    23.1370     6.8810     5.9320     6.4090 
  100.2500   -23.2040   429.9760     2.2240    85.3050    22.8700     7.0190     6.1590     6.6470 
  100.3750   -23.5560   428.9410     2.2230    84.4540    22.5800     7.2170     6.3770     6.8750 
  100.5000   -23.8500   429.9760     2.2160    83.1240    22.3860     7.7240     6.5630     7.0710 
  100.6250   -24.0700   433.0150     2.2010    81.9390    22.3420     8.2270     6.6990     7.2140 
  100.7500   -24.2240   435.9530     2.1830    79.5980    22.3890     8.3930     6.7870     7.3070 
  100.8750   -24.3180   437.4160     2.1700    75.2920    22.5220     8.3300     6.8340     7.3560 
  101.0000   -24.3540   437.5970     2.1660    70.3130    22.7180     8.4330     6.8530     7.3750 
  101.1250   -24.3300   438.0230     2.1660    67.5840    22.8400     9.0080     6.8590     7.3820 
  101.2500   -24.2680   439.4040     2.1660    67.2750    22.8620     9.5450     6.8670     7.3910 
  101.3750   -24.1850   441.1390     2.1670    68.2250    22.8930     9.6460     6.8820     7.4070 
  101.5000   -24.0940   442.5400     2.1690    70.0890    22.9430     9.4170     6.9030     7.4280 
  101.6250   -24.0020   443.3590     2.1740    72.7830    22.7870     9.2240     6.9250     7.4520 
  101.7500   -23.9130   443.7390     2.1810    74.7730    22.5940     9.1450     6.9450     7.4730 
  101.8750   -23.8270   444.0740     2.1880    75.0410    22.5090     8.9370     6.9580     7.4850 
  102.0000   -23.7420   444.8090     2.1900    73.5590    22.5130     8.5670     6.9610     7.4890 
  102.1250   -23.6520   445.4780     2.1820    71.4690    22.4300     8.2480     6.9530     7.4810 
  102.2500   -23.5300   445.1490     2.1680    70.5440    22.3220     8.1180     6.9400     7.4670 
  102.3750   -23.3520   444.2030     2.1520    71.4900    22.2250     8.1210     6.9250     7.4510 
  102.5000   -23.1080   444.1120     2.1380    73.4900    22.1450     8.2900     6.9040     7.4300 
  102.6250   -22.7850   445.3230     2.1270    74.7200    22.0780     8.9410     6.8570     7.3800 
  102.7500   -22.3980   446.0940     2.1090    75.0600    22.0350     9.7010     6.7650     7.2830 
  102.8750   -21.9530   445.4990     2.1020    75.6610    22.0560    10.3470     6.6160     7.1270 
  103.0000   -21.4740   444.2980     2.1210    77.0230    22.0940    10.6110     6.4070     6.9070 
  103.1250   -21.0160   444.7280     2.1610    79.3840    22.1150    10.2850     6.1410     6.6280 
  103.2500   -20.6330   447.8390     2.2030    83.4240    22.1250     9.4990     5.8650     6.3380 
  103.3750   -20.3590   451.6480     2.2340    88.9520    22.1650     8.3320     5.6240     6.0860 
  103.5000   -20.2080   449.5580     2.2500    93.4540    22.2940     7.1850     5.4620     5.9150 
  103.6250   -20.1970   431.2940     2.2500    93.9410    22.5480     6.7770     5.4150     5.8660 
  103.7500   -20.2940   401.7770     2.2380    91.9530    22.7790     7.0680     5.4540     5.9070 
  103.8750   -20.4920   373.7290     2.2180    89.0230    22.8890     7.6350     5.5510     6.0080 
  104.0000   -20.7810   358.4310     2.1990    86.0850    22.9370     8.0410     5.6750     6.1380 
  104.1250   -21.1470   360.2910     2.1940    85.8810    23.0180     8.1270     5.8060     6.2770 
  104.2500   -21.5500   373.1750     2.2070    89.5360    23.1490     7.8690     5.9480     6.4250 
  104.3750   -21.9750   393.5460     2.2310    94.8190    23.2890     7.4740     6.1220     6.6080 
  104.5000   -22.4160   415.1600     2.2480    97.5200    23.4120     7.0680     6.3640     6.8620 
  104.6250   -22.8650   426.7240     2.2330    93.6480    23.4770     7.1440     6.7060     7.2220 
  104.7500   -23.3140   425.3050     2.1980    85.4510    23.4100     7.8560     7.1070     7.6430 
  104.8750   -23.7440   414.3590     2.1640    77.7150    23.3010     8.8920     7.4990     8.0540 
  105.0000   -24.1210   400.0050     2.1440    74.1480    23.3210     9.4130     7.8050     8.3750 
  105.1250   -24.4030   390.2210     2.1340    73.8960    23.4400     8.9910     7.9360     8.5130 
  105.2500   -24.5820   390.0030     2.1250    72.6320    23.6070     8.4940     7.9050     8.4810 
  105.3750   -24.6410   399.0280     2.1180    69.2860    23.7500     8.3030     7.7480     8.3150 
  105.5000   -24.5690   411.2320     2.1120    65.2380    23.8540     8.2690     7.5210     8.0770 
  105.6250   -24.3610   425.1060     2.1010    63.0420    23.9000     8.2740     7.2880     7.8320 
  105.7500   -24.0710   447.7290     2.0890    63.8040    23.9270     8.2770     7.0820     7.6160 
  105.8750   -23.7370   477.4310     2.0840    67.2140    23.9820     8.2740     6.8910     7.4150 
  106.0000   -23.3980   500.9880     2.0920    72.3290    24.0630     8.1980     6.6820     7.1960 
  106.1250   -23.1110   506.7520     2.1140    78.8810    24.1590     8.0010     6.4340     6.9360 
  106.2500   -22.9110   499.3800     2.1410    85.5130    24.1570     7.6500     6.1790     6.6680 
  106.3750   -22.8180   483.6430     2.1680    89.5380    24.0850     7.0080     5.9640     6.4420 
  106.5000   -22.8360   464.4330     2.1900    88.9920    24.0900     6.0930     5.8340     6.3050 
  106.6250   -22.9640   451.1800     2.2050    85.0790    24.0100     5.6240     5.8310     6.3030 
  106.7500   -23.1570   446.4820     2.2090    81.5920    23.8510     6.0180     5.9360     6.4130 
  106.8750   -23.3870   447.2190     2.1990    79.1780    23.6810     7.0920     6.1260     6.6120 
  107.0000   -23.6320   451.6370     2.1770    76.3180    23.5440     8.2350     6.3610     6.8590 
  107.1250   -23.8520   456.8720     2.1530    72.4010    23.3800     8.7740     6.5770     7.0850 
  107.2500   -24.0220   458.2280     2.1360    69.7370    23.2220     8.6670     6.7230     7.2390 
  107.3750   -24.1440   456.1870     2.1290    69.8030    23.0590     8.1570     6.7830     7.3020 
  107.5000   -24.2400   456.5770     2.1320    71.9130    22.9020     7.6580     6.7670     7.2860 
  107.6250   -24.3420   466.2910     2.1420    74.8600    22.7550     7.5150     6.7050     7.2200 
  107.7500   -24.4700   480.6700     2.1530    79.0730    22.5950     7.4740     6.6460     7.1580 
  107.8750   -24.6260   490.4830     2.1610    84.4450    22.4370     7.2550     6.6150     7.1260 
  108.0000   -24.8000   489.1650     2.1670    88.5350    22.2770     6.9370     6.6220     7.1330 
  108.1250   -24.9840   478.8430     2.1700    88.1690    22.1820     7.0840     6.6720     7.1860 
  108.2500   -25.1710   470.7590     2.1700    84.7360    22.2250     7.5330     6.7510     7.2690 
  108.3750   -25.3480   469.9280     2.1650    80.7980    22.4180     7.8710     6.8460     7.3680 
  108.5000   -25.4970   474.9340     2.1590    78.2110    22.7260     7.9680     6.9410     7.4680 
  108.6250   -25.5850   480.8430     2.1550    77.7780    22.9460     7.8920     7.0170     7.5470 
  108.7500   -25.6120   482.5170     2.1520    78.6320    23.0750     7.8930     7.0590     7.5920 
  108.8750   -25.5800   477.0810     2.1480    79.6750    23.1580     8.0540     7.0660     7.5990 
  109.0000   -25.4970   465.7040     2.1430    79.8640    23.2660     8.4080     7.0490     7.5810 
  109.1250   -25.3600   455.0350     2.1420    78.5280    23.4240     8.8270     7.0200     7.5510 
  109.2500   -25.1760   449.5370     2.1420    76.0630    23.6080     8.9830     6.9890     7.5180 
  109.3750   -24.9430   447.3570     2.1410    73.2450    23.7740     8.7950     6.9610     7.4890 
  109.5000   -24.6590   445.1710     2.1390    70.9830    23.8710     8.4320     6.9390     7.4660 
  109.6250   -24.3310   442.6530     2.1390    70.5140    23.9120     8.3870     6.9240     7.4500 
  109.7500   -23.9780   441.5260     2.1410    72.2610    23.9060     8.6920     6.9050     7.4300 
  109.8750   -23.6140   441.7440     2.1480    75.5880    23.8490     9.0180     6.8700     7.3940 
