~V
VERS. 2.00: Ver 2.00
~W
STRT.M 62.0000:
STOP.M 272.0000:
STEP.M 0.1250:
NULL. -999.2500:
UWI. DF32143:
~C
DEPT.M :
SP.MV :
GR.API :
CALI.CM :
RXO.OHMM :
RI. :
RML.OHMM :
DEN.GM/CC :
~A
# ...
  174.5000   -15.9670    59.2670    25.6630    14.3050    14.0310    17.1260     2.5560 
  174.6250   -15.9410    59.6650    25.6580    13.4690    13.7960    16.6400     2.5410 
  174.7500   -15.9380    61.6600    25.6480    12.8370    13.4270    16.0030     2.5290 
  174.8750   -15.9580    65.8920    25.6440    12.2450    13.0400    15.4020     2.5230 
  175.0000   -16.0110    69.9390    25.6350    11.7420    12.7490    14.9970     2.5230 
  175.1250   -16.1170    70.9520    25.6370    11.8820    12.6580    14.9100     2.5240 
  175.2500   -16.2700    72.0270    25.6520    13.0980    12.7480    15.0750     2.5170 
  175.3750   -16.4480    72.6940    25.6600    15.1430    12.9860    15.4240     2.4950 
  175.5000   -16.6460    71.5720    25.6380    16.6570    13.3270    15.8850     2.4690 
  175.6250   -16.8750    71.4220    25.5600    16.2450    13.7160    16.3820     2.4520 
  175.7500   -17.1290    73.2750    25.4830    15.1800    14.0850    16.8430     2.4400 
  175.8750   -17.4260    73.9440    25.4630    14.8530    14.3990    17.2340     2.4280 
  176.0000   -17.7680    73.2160    25.4670    15.2770    14.6370    17.5240     2.4200 
  176.1250   -18.1720    73.4210    25.4270    15.5110    14.7860    17.6910     2.4240 
  176.2500   -18.6560    73.8000    25.4120    15.3670    14.9370    17.8860     2.4290 
  176.3750   -19.2280    73.3400    25.5060    15.2240    15.2590    18.3840     2.4200 
  176.5000   -19.8860    72.4490    25.6560    15.3350    15.9700    19.5160     2.4000 
  176.6250   -20.6190    72.4490    25.7200    18.7600    17.4180    21.7560     2.3820 
  176.7500   -21.3910    71.4750    25.6890    22.6910    19.6900    25.1080     2.3680 
  176.8750   -22.1820    70.1400    25.6030    28.9090    22.8230    29.4770     2.3490 
  177.0000   -22.9650    68.4640    25.4780    34.6570    26.6280    34.4810     2.3250 
  177.1250   -23.7190    67.1650    25.2740    36.3100    30.6330    39.4320     2.3050 
  177.2500   -24.4220    67.1440    25.0070    35.9300    34.3390    43.8410     2.2960 
  177.3750   -25.0620    67.5500    24.7580    36.6760    37.6850    47.7920     2.2970 
  177.5000   -25.6300    68.7830    24.6140    39.2320    40.9960    51.8160     2.2950 
  177.6250   -26.1140    72.2330    24.5640    41.1550    44.9230    56.7840     2.2830 
  177.7500   -26.5400    76.4600    24.5130    40.8800    49.7360    62.9380     2.2690 
  177.8750   -26.9030    77.0540    24.4460    39.6840    55.3010    70.0290     2.2600 
  178.0000   -27.2210    73.8520    24.3850    39.7150    61.1100    77.3450     2.2530 
  178.1250   -27.4830    71.8950    24.3470    41.2010    66.3570    83.7750     2.2410 
  178.2500   -27.7110    71.7240    24.3370    42.2280    70.5670    88.7260     2.2210 
  178.3750   -27.9170    71.2350    24.3700    42.6510    73.5410    92.0010     2.1990 
  178.5000   -28.1090    71.1890    24.4490    43.7250    75.3560    93.7850     2.1890 
  178.6250   -28.2820    73.7140    24.5170    45.8980    76.2830    94.5140     2.2020 
  178.7500   -28.4360    74.7520    24.5020    47.8190    76.9800    95.0220     2.2200 
  178.8750   -28.5780    71.7150    24.3930    49.0790    77.8210    95.7380     2.2260 
  179.0000   -28.7040    67.8760    24.2660    50.1560    79.0060    96.8510     2.2190 
  179.1250   -28.8130    67.6550    24.2700    51.2200    80.5870    98.3330     2.2110 
  179.2500   -28.8770    68.1540    24.4170    51.8050    82.3650    99.9270     2.2070 
  179.3750   -28.9020    66.8170    24.6120    51.3120    84.2060   101.4900     2.2060 
  179.5000   -28.8940    64.2360    24.7700    49.1750    85.9730   102.8780     2.2060 
  179.6250   -28.8540    61.7780    24.8530    45.8620    87.3170   103.6610     2.2090 
  179.7500   -28.7870    61.9260    24.8510    44.1090    87.7730   103.2490     2.2100 
  179.8750   -28.6760    65.2880    24.7690    45.7150    86.7040   100.8170     2.2050 
  180.0000   -28.5330    70.6720    24.6640    49.7380    83.5400    95.7190     2.1990 
  180.1250   -28.3450    74.2200    24.6110    50.3920    77.8160    87.6840     2.2050 
  180.2500   -28.1260    74.5740    24.5970    44.9870    70.5930    78.3170     2.2210 
  180.3750   -27.8590    74.5430    24.5960    36.8590    62.9870    69.0800     2.2400 
  180.5000   -27.5520    76.3950    24.6070    31.1180    56.1320    61.1980     2.2540 
  180.6250   -27.2120    78.2420    24.6230    29.8090    51.1070    55.6810     2.2650 
  180.7500   -26.8520    76.3460    24.6310    30.8660    47.8380    52.1680     2.2750 
  180.8750   -26.5030    71.4580    24.6170    32.9260    46.0580    50.2520     2.2760 
  181.0000   -26.1760    68.1230    24.5860    35.2790    45.2920    49.3690     2.2640 
  181.1250   -25.9010    66.9390    24.5800    36.7390    45.0680    49.0040     2.2540 
  181.2500   -25.6930    65.5940    24.6030    36.7730    44.9510    48.7290     2.2580 
  181.3750   -25.5660    65.0130    24.6120    36.3550    44.7950    48.4180     2.2690 
  181.5000   -25.4980    67.3660    24.6120    37.6320    44.5380    48.0280     2.2740 
  181.6250   -25.4960    71.9270    24.6640    41.6280    44.2100    47.6440     2.2710 
  181.7500   -25.5440    75.0010    24.6590    44.1530    43.9930    47.4700     2.2700 
  181.8750   -25.6260    75.5370    24.4890    42.2510    44.0930    47.7350     2.2740 
  182.0000   -25.7270    75.3760    24.2210    38.7870    44.7660    48.7400     2.2740 
  182.1250   -25.8320    76.1280    24.0320    41.0950    46.5700    51.0940     2.2640 
  182.2500   -25.9100    75.8400    23.9280    48.2930    49.5970    54.7980     2.2510 
  182.3750   -25.9630    72.8350    23.8310    54.2920    53.6510    59.5310     2.2460 
  182.5000   -26.0060    68.9870    23.7500    55.8620    58.0780    64.4460     2.2490 
  182.6250   -26.0490    68.5540    23.7000    55.4460    61.5350    67.8570     2.2520 
  182.7500   -26.1010    70.9090    23.6690    54.6190    62.9970    68.7050     2.2480 
  182.8750   -26.1560    72.3600    23.6460    52.0470    62.1800    66.9380     2.2420 
  183.0000   -26.2150    70.9420    23.6220    48.3710    59.7010    63.5520     2.2350 
  183.1250   -26.2800    67.1960    23.5980    45.7040    56.5990    59.8780     2.2260 
  183.2500   -26.3640    63.7280    23.5970    44.6720    53.7820    56.7950     2.2230 
  183.3750   -26.4670    62.7610    23.6520    45.2840    51.6040    54.5730     2.2330 
  183.5000   -26.5760    65.7490    23.7790    47.1600    50.1300    53.1680     2.2570 
  183.6250   -26.6860    70.8130    23.8890    48.8210    49.2200    52.3450     2.2760 
  183.7500   -26.8030    72.0020    23.8600    48.8450    48.4900    51.6760     2.2800 
  183.8750   -26.9460    68.7940    23.7190    47.1480    47.8020    51.0420     2.2750 
  184.0000   -27.1130    67.5890    23.6180    45.0910    47.2000    50.5330     2.2750 
  184.1250   -27.3170    69.9850    23.7140    44.6910    47.0180    50.6100     2.2800 
  184.2500   -27.5380    70.9080    23.9680    46.4780    47.7270    51.8510     2.2790 
  184.3750   -27.7770    69.9160    24.2870    50.1300    49.9820    55.0050     2.2690 
  184.5000   -28.0360    69.0120    24.6460    55.6610    54.5580    60.8930     2.2600 
  184.6250   -28.3160    67.4600    25.0970    64.3830    62.9520    71.0840     2.2560 
  184.7500   -28.5870    63.8730    25.5520    75.5510    75.4000    85.7250     2.2520 
  184.8750   -28.8180    59.7000    25.8550    98.6590    91.9210   104.7870     2.2460 
  185.0000   -29.0020    56.5030    25.9510   130.6850   111.0920   126.6050     2.2380 
  185.1250   -29.1410    55.7690    25.9750   159.5700   128.4980   145.6630     2.2230 
  185.2500   -29.2290    57.3570    26.0390   169.4500   139.0680   155.7930     2.2010 
  185.3750   -29.2510    58.7740    26.0860   156.3060   140.2700   154.6100     2.1840 
  185.5000   -29.2210    58.6140    26.0570   129.5130   133.4480   144.9690     2.1840 
  185.6250   -29.1130    59.4320    25.9460   105.0350   122.5340   132.3100     2.2050 
