~V
VERS. 2.00: Ver 2.00
~W
STRT.M 55.0000:
STOP.M 256.0000:
STEP.M 0.1250:
NULL. -999.2500:
UWI. DF327:
~C
DEPT.M :
SP.MV :
DEN.GM/CC :
AC.US/MT :
GR.API :
RML.OHMM :
RI. :
RXO.OHMM :
CALI.CM :
~A
# ...
  145.0000    -5.7130     2.3140   436.3990   110.7910     5.1940     4.7190     4.9570    24.2220 
  145.1250    -5.8060     2.3210   435.7010   110.2210     5.2420     4.7650     4.9940    24.2120 
  145.2500    -5.8620     2.3350   434.7190   107.2790     5.2790     4.8010     5.0300    24.2060 
  145.3750    -5.8910     2.3500   434.7510   107.1550     5.3000     4.8220     5.0390    24.2020 
  145.5000    -5.9140     2.3600   436.3740   109.9380     5.3050     4.8260     5.0180    24.1970 
  145.6250    -5.9480     2.3610   439.1130   111.3860     5.2910     4.8120     4.9830    24.1800 
  145.7500    -6.0030     2.3570   441.5460   110.3030     5.2590     4.7810     4.9520    24.1530 
  145.8750    -6.0850     2.3510   442.6460   108.4660     5.2020     4.7260     4.9400    24.1410 
  146.0000    -6.1890     2.3470   441.6320   106.3360     5.1160     4.6430     4.9490    24.1390 
  146.1250    -6.3520     2.3460   437.5070   105.5590     5.0140     4.5450     4.9650    24.0950 
  146.2500    -6.5800     2.3440   430.7770   107.2630     4.9420     4.4750     4.9840    24.0240 
  146.3750    -6.8660     2.3390   422.3040   108.1320     4.9630     4.4960     5.0320    23.9580 
  146.5000    -7.1900     2.3300   413.7770   107.1310     5.1320     4.6590     5.1900    23.8830 
  146.6250    -7.5160     2.3190   407.8360   106.5010     5.4860     5.0010     5.6470    23.7260 
  146.7500    -7.8310     2.3110   405.2260   107.2260     5.9250     5.4260     6.4270    23.5090 
  146.8750    -8.1360     2.3070   405.1710   107.8300     6.3300     5.8160     7.3990    23.3220 
  147.0000    -8.4410     2.3070   405.8700   105.3890     6.5720     6.0500     8.2680    23.2190 
  147.1250    -8.6910     2.3080   405.4380   101.2590     6.5670     6.0450     8.3790    23.1800 
  147.2500    -8.8870     2.3030   403.4120    99.8000     6.4540     5.9360     7.9100    23.1110 
  147.3750    -9.0180     2.2890   400.1790   100.8680     6.4240     5.9070     7.5500    23.0360 
  147.5000    -9.0940     2.2680   396.4520   101.0200     6.6650     6.1400     8.1950    22.9940 
  147.6250    -9.1800     2.2430   392.7310    96.7250     7.3920     6.8420    10.5300    23.0480 
  147.7500    -9.3170     2.2200   389.9020    90.5660     8.5860     7.9960    14.1360    23.2180 
  147.8750    -9.4730     2.2010   389.3290    84.3750    10.2100     9.5660    18.3620    23.4640 
  148.0000    -9.6310     2.1890   392.0600    77.1060    12.1600    11.4500    22.0370    23.5770 
  148.1250    -9.8070     2.1850   397.9180    72.3240    14.2960    13.5140    23.1310    23.4170 
  148.2500    -9.9270     2.1840   404.4140    72.8210    16.4120    15.5570    23.2920    23.1300 
  148.3750   -10.0020     2.1870   410.0280    74.8990    18.3410    17.4210    23.4840    22.9330 
  148.5000   -10.0650     2.1920   413.9320    73.6160    19.8960    18.9230    23.9370    22.9330 
  148.6250   -10.0570     2.1990   415.4310    71.5510    20.7350    19.7350    24.0930    23.1200 
  148.7500    -9.9610     2.2080   415.0430    73.3790    20.8070    19.8040    24.0890    23.3450 
  148.8750    -9.8010     2.2200   413.2770    77.6430    20.1880    19.2060    23.6930    23.5710 
  149.0000    -9.5950     2.2310   410.9600    80.4860    19.1710    18.2230    22.2450    23.7820 
  149.1250    -9.3600     2.2390   409.0520    81.1040    18.1350    17.2220    20.0030    23.8790 
  149.2500    -9.1890     2.2440   408.0220    82.2550    17.2600    16.3770    17.9060    23.9190 
  149.3750    -9.0820     2.2460   407.7020    83.3050    16.5040    15.6460    17.1030    24.0090 
  149.5000    -9.0390     2.2490   407.3180    84.1460    15.7760    14.9430    17.6670    24.1670 
  149.6250    -9.1090     2.2530   405.9680    84.7530    15.0590    14.2500    17.3610    24.2740 
  149.7500    -9.2250     2.2560   403.7610    85.1850    14.4330    13.6450    15.8000    24.3080 
  149.8750    -9.3730     2.2590   401.2630    85.8160    13.9710    13.1990    14.1580    24.3080 
  150.0000    -9.5400     2.2620   399.0550    84.8740    13.6640    12.9030    13.6340    24.2900 
  150.1250    -9.7140     2.2670   397.5670    81.4920    13.4510    12.6970    14.1650    24.2730 
  150.2500    -9.8750     2.2730   396.7210    79.1160    13.2840    12.5350    14.9400    24.2410 
  150.3750   -10.0190     2.2770   396.6130    81.9240    13.2300    12.4830    15.6410    24.2210 
  150.5000   -10.1200     2.2770   397.3700    88.5440    13.4270    12.6740    16.0650    24.2100 
  150.6250   -10.1590     2.2700   398.6890    91.4900    14.0940    13.3180    16.4500    24.2130 
  150.7500   -10.2200     2.2610   399.4990    88.8990    15.2070    14.3930    18.0980    24.2580 
  150.8750   -10.3040     2.2500   398.9530    85.4110    16.6690    15.8050    21.4730    24.3130 
  151.0000   -10.3880     2.2420   397.0520    82.8250    18.2760    17.3580    25.4560    24.3920 
  151.1250   -10.4810     2.2360   394.5210    81.4330    19.7100    18.7440    27.3080    24.4240 
  151.2500   -10.5870     2.2340   392.1460    82.2600    20.7370    19.7370    27.6720    24.4020 
  151.3750   -10.7190     2.2380   390.3640    83.8930    21.2560    20.2320    27.2960    24.3400 
  151.5000   -10.8830     2.2440   389.9140    84.1820    21.3380    20.3030    27.2930    24.3230 
  151.6250   -11.0460     2.2490   391.8840    82.4540    21.2610    20.2860    28.1390    24.3000 
  151.7500   -11.1910     2.2450   395.2010    80.4640    21.6790    20.7160    29.2180    24.2210 
  151.8750   -11.3490     2.2330   397.9260    80.0530    23.0610    22.0050    29.8950    24.1300 
  152.0000   -11.4990     2.2130   398.2550    80.1170    25.7820    24.3170    31.7050    24.1390 
  152.1250   -11.6200     2.1950   395.2850    78.4490    29.3210    27.4310    36.6020    24.2300 
  152.2500   -11.7340     2.1840   390.4580    73.3280    32.6210    30.3700    42.6660    24.3320 
  152.3750   -11.8390     2.1820   385.0420    68.8430    34.2980    32.1640    46.2220    24.4190 
  152.5000   -11.9200     2.1900   380.1640    68.4000    32.7940    32.0740    45.7430    24.4570 
  152.6250   -11.9870     2.2050   377.4140    70.4790    28.8600    29.7660    39.7010    24.4470 
  152.7500   -12.0450     2.2210   377.7840    71.2540    24.9420    26.4260    32.9790    24.3850 
  152.8750   -12.0990     2.2350   381.9140    71.7310    22.1690    23.1340    27.0440    24.3090 
  153.0000   -12.1950     2.2420   389.1820    74.2570    20.7530    20.7210    23.1530    24.2550 
  153.1250   -12.3870     2.2400   396.5980    78.4010    20.6470    19.8330    22.3940    24.2310 
  153.2500   -12.6160     2.2320   400.3350    80.9700    21.4470    20.3000    24.3730    24.2320 
  153.3750   -12.8400     2.2220   398.8630    80.7420    23.0200    21.9580    28.1100    24.2550 
  153.5000   -13.0550     2.2130   393.7850    78.6520    25.2270    24.4820    32.4180    24.2940 
  153.6250   -13.2520     2.2120   389.5000    76.7940    27.8870    27.3630    35.7360    24.3110 
  153.7500   -13.4340     2.2170   389.2620    75.0810    30.5470    29.9190    37.2670    24.2970 
  153.8750   -13.5920     2.2230   393.1470    74.1190    32.8600    31.7110    37.2550    24.2320 
  154.0000   -13.7150     2.2260   398.7640    74.3440    34.5880    32.5570    36.4600    24.1140 
  154.1250   -13.7600     2.2230   401.6370    74.4010    35.4180    32.4130    34.4750    23.9790 
  154.2500   -13.7690     2.2180   399.7700    73.1320    35.2130    31.5880    31.8330    23.9200 
  154.3750   -13.7560     2.2190   394.3790    72.0050    33.6820    30.1370    30.4550    23.9970 
  154.5000   -13.7330     2.2290   388.7580    72.8360    30.8510    28.1290    31.1910    24.1490 
  154.6250   -13.7190     2.2430   386.2410    73.4040    27.3850    25.8400    32.3710    24.1680 
  154.7500   -13.6660     2.2520   386.3760    73.7360    24.4970    23.8480    31.5230    24.0920 
  154.8750   -13.5800     2.2510   387.6310    75.9100    22.8320    22.5830    28.0550    24.0760 
