~V
VERS. 2.00: Ver 2.00
~W
STRT.M 55.0000:
STOP.M 285.0000:
STEP.M 0.1250:
NULL. -999.2500:
UWI. DF32159:
~C
DEPT.M :
GR.API :
CALI.CM :
RXO.OHMM :
RI. :
RML.OHMM :
DEN.GM/CC :
SP.MV :
~A
   55.0000  -999.2500  -999.2500  -999.2500  -999.2500  -999.2500  -999.2500    68.6360 
   55.1250  -999.2500  -999.2500  -999.2500  -999.2500  -999.2500  -999.2500    68.5690 
   55.2500  -999.2500  -999.2500  -999.2500  -999.2500  -999.2500  -999.2500    68.4900 
   55.3750  -999.2500  -999.2500  -999.2500  -999.2500  -999.2500  -999.2500    68.3340 
   55.5000  -999.2500  -999.2500  -999.2500  -999.2500  -999.2500  -999.2500    68.0260 
   55.6250  -999.2500  -999.2500  -999.2500  -999.2500  -999.2500  -999.2500    67.5090 
   55.7500  -999.2500  -999.2500  -999.2500  -999.2500  -999.2500  -999.2500    66.8140 
   55.8750  -999.2500  -999.2500  -999.2500  -999.2500  -999.2500  -999.2500    65.9210 
   56.0000  -999.2500  -999.2500  -999.2500  -999.2500  -999.2500  -999.2500    64.8350 
   56.1250  -999.2500  -999.2500  -999.2500  -999.2500  -999.2500  -999.2500    63.5800 
   56.2500  -999.2500  -999.2500  -999.2500  -999.2500  -999.2500  -999.2500    62.2050 
   56.3750  -999.2500  -999.2500  -999.2500  -999.2500  -999.2500  -999.2500    60.7820 
   56.5000  -999.2500  -999.2500  -999.2500  -999.2500  -999.2500  -999.2500    59.3640 
   56.6250  -999.2500  -999.2500  -999.2500  -999.2500  -999.2500  -999.2500    57.9830 
   56.7500  -999.2500  -999.2500  -999.2500  -999.2500  -999.2500  -999.2500    56.6760 
   56.8750  -999.2500  -999.2500  -999.2500  -999.2500  -999.2500  -999.2500    55.4850 
   57.0000  -999.2500  -999.2500  -999.2500  -999.2500  -999.2500  -999.2500    54.4500 
   57.1250  -999.2500  -999.2500  -999.2500  -999.2500  -999.2500  -999.2500    53.6680 
   57.2500  -999.2500  -999.2500  -999.2500  -999.2500  -999.2500  -999.2500    53.1330 
   57.3750  -999.2500  -999.2500  -999.2500  -999.2500  -999.2500  -999.2500    52.8200 
   57.5000  -999.2500  -999.2500  -999.2500  -999.2500  -999.2500  -999.2500    52.6980 
   57.6250  -999.2500  -999.2500  -999.2500  -999.2500  -999.2500  -999.2500    52.7200 
   57.7500  -999.2500  -999.2500  -999.2500  -999.2500  -999.2500  -999.2500    52.7520 
   57.8750  -999.2500  -999.2500  -999.2500  -999.2500  -999.2500  -999.2500    52.7730 
   58.0000  -999.2500  -999.2500  -999.2500  -999.2500  -999.2500  -999.2500    52.7520 
   58.1250  -999.2500  -999.2500  -999.2500  -999.2500  -999.2500  -999.2500    52.6240 
   58.2500  -999.2500  -999.2500  -999.2500  -999.2500  -999.2500  -999.2500    52.3790 
   58.3750  -999.2500  -999.2500  -999.2500  -999.2500  -999.2500  -999.2500    51.9980 
   58.5000  -999.2500  -999.2500  -999.2500  -999.2500  -999.2500  -999.2500    51.4540 
   58.6250  -999.2500  -999.2500  -999.2500  -999.2500  -999.2500  -999.2500    50.7230 
   58.7500  -999.2500  -999.2500  -999.2500  -999.2500  -999.2500  -999.2500    49.8970 
   58.8750  -999.2500  -999.2500  -999.2500  -999.2500  -999.2500  -999.2500    48.9940 
   59.0000  -999.2500  -999.2500  -999.2500  -999.2500  -999.2500     2.1890    48.0430 
   59.1250  -999.2500  -999.2500  -999.2500  -999.2500  -999.2500     2.1890    47.0780 
   59.2500  -999.2500  -999.2500  -999.2500  -999.2500  -999.2500     2.1830    46.1590 
   59.3750  -999.2500  -999.2500  -999.2500  -999.2500  -999.2500     2.1820    45.3430 
   59.5000    48.3440    26.0520     1.1600     1.1370     8.4720     2.1720    44.6850 
   59.6250    48.3440    26.0520     1.1600     1.1370     8.4720     2.1570    44.3120 
   59.7500    48.4650    26.0510     1.1600     1.1380     8.2650     2.1540    44.2660 
   59.8750    47.7000    26.0450     1.1500     1.1400     7.9300     2.1660    44.5600 
   60.0000    46.0370    26.0300     1.1230     1.1400     8.0610     2.1860    45.2560 
   60.1250    47.2450    26.0100     1.0850     1.1380     8.7690     2.2030    46.5450 
   60.2500    50.3300    25.9920     1.0620     1.1360     9.7200     2.2130    48.3310 
   60.3750    52.5540    25.9820     1.0600     1.1330    10.5930     2.2080    50.5300 
   60.5000    51.9850    25.9770     1.0710     1.1310    11.2270     2.1780    53.0500 
   60.6250    50.9170    25.9700     1.0750     1.1280    11.7220     2.1280    55.7010 
   60.7500    51.7220    25.9550     1.0560     1.1210    12.0950     2.0830    58.1320 
   60.8750    52.3560    25.9270     1.0140     1.1060    11.4500     2.0580    59.9780 
   61.0000    52.1820    25.8910     0.9580     1.0790     8.3500     2.0650    60.6870 
   61.1250    53.6140    25.8580     0.9080     1.0390     4.1140     2.1280    58.8610 
   61.2500    54.8370    25.8350     0.8700     0.9960     1.4600     2.2350    54.2400 
   61.3750    53.4540    25.8150     0.8360     0.9590     0.1960     2.3450    47.5300 
   61.5000    51.1310    25.7780     0.7820     0.9370    -0.3340     2.3950    39.5760 
   61.6250    53.6940    25.6390     0.8100     0.9380    -0.4260     2.3560    30.7200 
   61.7500    60.7880    25.3060     1.2850     0.9800    -0.2630     2.2960    21.5100 
   61.8750    67.6670    24.7630     2.6520     1.1060     0.1720     2.2620    12.3740 
   62.0000    71.0430    24.1410     4.8930     1.3940     0.9690     2.2470     3.8640 
   62.1250    71.2450    23.6720     6.8380     2.0010     2.3300     2.2160    -2.7680 
   62.2500    72.4970    23.4310     7.6170     2.9170     3.9370     2.1780    -7.1670 
   62.3750    75.1100    23.3860     7.6320     3.9690     5.1020     2.1600    -9.9960 
   62.5000    75.6110    23.4910     7.5400     4.8750     5.6120     2.1630   -12.0060 
   62.6250    72.9980    23.7220     7.4350     5.4590     5.9520     2.1730   -13.3380 
   62.7500    71.4400    23.9950     7.3670     5.8570     6.4270     2.1800   -14.1720 
   62.8750    72.3140    24.2390     7.5360     6.1680     6.9940     2.1880   -14.5200 
   63.0000    73.9690    24.4050     7.9510     6.4530     7.5060     2.1970   -14.4160 
   63.1250    74.8450    24.4800     8.3220     6.7540     7.8530     2.1980   -13.8780 
   63.2500    75.5500    24.5090     8.4320     7.0670     8.0950     2.1900   -13.1130 
   63.3750    75.7390    24.5160     8.4290     7.3160     8.2650     2.1800   -12.2460 
   63.5000    75.3710    24.5310     8.5280     7.3770     8.2870     2.1750   -11.4150 
   63.6250    78.1450    24.6480     8.3940     7.0960     7.9420     2.1850   -10.8050 
   63.7500    86.2290    24.9270     7.5560     6.5630     7.3320     2.2090   -10.4730 
   63.8750    96.4230    25.3200     6.2630     5.9340     6.6820     2.2490   -10.4640 
   64.0000   103.5070    25.6680     5.2360     5.3850     6.1980     2.2940   -10.7860 
   64.1250   102.6020    25.7780     4.9540     5.0700     6.0400     2.3220   -11.4900 
   64.2500    97.5250    25.6900     5.1380     4.9940     6.1760     2.3220   -12.4370 
   64.3750    91.5300    25.5170     5.6750     5.1390     6.5600     2.3040   -13.4990 
   64.5000    86.4950    25.3690     6.3890     5.4530     7.0960     2.2860   -14.5140 
   64.6250    82.8230    25.2990     6.8500     5.8560     7.6440     2.2780   -15.4190 
   64.7500    80.8540    25.2660     7.0390     6.2440     8.0970     2.2680   -16.2320 
   64.8750    79.5510    25.2410     7.2810     6.5610     8.4250     2.2490   -16.9860 
   65.0000    77.5490    25.2200     7.6700     6.7750     8.6210     2.2220   -17.7050 
   65.1250    76.2740    25.2130     7.9860     6.8600     8.6760     2.1920   -18.3650 
   65.2500    78.0120    25.2210     8.2290     6.8660     8.6570     2.1690   -18.9450 
   65.3750    81.3100    25.2380     8.4010     6.8570     8.6500     2.1620   -19.4290 
   65.5000    82.5040    25.2600     8.3500     6.9180     8.7730     2.1750   -19.8530 
   65.6250    80.3970    25.2770     8.1140     7.1580     9.1780     2.1940   -20.1630 
   65.7500    80.0750    25.2860     8.0930     7.5720     9.8390     2.1990   -20.3650 
   65.8750    81.9170    25.2890     8.3690     8.0860    10.6200     2.1910   -20.4760 
   66.0000    81.9510    25.2890     8.6800     8.5460    11.2530     2.1810   -20.5110 
   66.1250    76.4120    25.2750     8.7640     8.7210    11.3680     2.1760   -20.5100 
