~V
VERS. 2.00: Ver 2.00
~W
STRT.M 60.0000:
STOP.M 266.0000:
STEP.M 0.1250:
NULL. -999.2500:
UWI. DF32129:
~C
DEPT.M :
SP.MV :
GR.API :
CALI.CM :
RXO.OHMM :
RI. :
RML.OHMM :
DEN.GM/CC :
~A
# ...
  172.5000   -36.8380    67.7510    25.8300   114.3250   156.9830   170.9280     2.1790 
  172.6250   -36.6880    62.8910    25.7950   112.9600   172.9030   188.0610     2.1680 
  172.7500   -36.5600    61.7550    25.6920   106.3760   186.1970   202.3830     2.1700 
  172.8750   -36.4550    64.5740    25.6060    98.8140   192.5520   210.0370     2.1770 
  173.0000   -36.3870    66.6580    25.8580    97.3750   188.7310   208.0440     2.1830 
  173.1250   -36.2490    65.2820    26.0400   105.7410   173.5460   194.4130     2.1920 
  173.2500   -36.1760    63.1540    26.1440   114.7030   153.1890   174.0180     2.2100 
  173.3750   -36.1120    63.4430    26.2400   114.5330   132.1880   151.1480     2.2260 
  173.5000   -36.0880    64.2940    26.3440   104.0170   113.3180   129.4050     2.2310 
  173.6250   -36.0430    63.4450    26.2860    90.3600    98.3520   111.5980     2.2220 
  173.7500   -36.0050    64.2300    26.0500    82.6760    86.9910    97.8890     2.2180 
  173.8750   -35.9760    68.2140    25.9540    78.7320    79.2110    88.3430     2.2270 
  174.0000   -36.0080    73.9370    25.9100    73.2820    75.1190    83.1510     2.2440 
  174.1250   -36.0420    76.3110    25.8900    69.9350    75.8470    83.8160     2.2540 
  174.2500   -36.1090    74.0280    25.8780    74.7790    81.5400    90.6830     2.2500 
  174.3750   -36.1530    69.9480    25.8780    89.3240    93.4040   105.1730     2.2430 
  174.5000   -36.1790    67.6010    25.8760   114.9170   113.1020   128.5910     2.2370 
  174.6250   -36.2370    67.3450    25.8690   147.5390   143.4970   161.8330     2.2250 
  174.7500   -36.2430    65.2150    25.8580   173.9660   180.4700   198.5020     2.2050 
  174.8750   -36.2770    61.2240    25.8440   187.5900   215.0740   229.8810     2.1820 
  175.0000   -36.2340    58.8730    25.8230   191.1590   235.2900   247.1230     2.1680 
  175.1250   -36.2080    60.1450    25.8250   188.1850   232.7780   244.3700     2.1630 
  175.2500   -36.1060    61.6990    25.8560   181.9310   217.4050   229.6110     2.1630 
  175.3750   -36.0080    62.7640    25.8940   173.1160   197.4390   209.7660     2.1710 
  175.5000   -35.9230    62.2820    25.8810   160.1290   177.9800   189.8450     2.1880 
  175.6250   -35.7980    59.8650    25.8660   144.3250   160.9970   172.2300     2.1980 
  175.7500   -35.6910    59.1430    25.8610   132.3170   145.6670   156.3610     2.1980 
  175.8750   -35.5290    62.9110    25.8650   124.8870   131.1980   141.4680     2.1970 
  176.0000   -35.3920    69.3480    25.8670   119.1030   117.1750   127.0530     2.2070 
  176.1250   -35.2530    71.4680    25.8670   108.3890   104.0760   113.3840     2.2230 
  176.2500   -35.1450    70.2240    25.8670    93.0420    92.5610   101.1040     2.2350 
  176.3750   -35.0460    68.7280    25.8680    78.7310    83.2740    91.0220     2.2450 
  176.5000   -34.9590    68.0990    25.8680    69.6510    76.6050    83.7130     2.2540 
  176.6250   -34.8770    70.1900    25.8600    67.2010    73.1490    79.9260     2.2590 
  176.7500   -34.8430    73.2640    25.8560    65.7970    72.3580    79.1060     2.2610 
  176.8750   -34.8100    75.6380    25.8550    66.8460    74.0400    81.0410     2.2620 
  177.0000   -34.8310    75.3580    25.8550    71.6910    77.9370    85.3890     2.2620 
  177.1250   -34.8580    71.5690    25.8550    80.0240    83.8680    91.7890     2.2610 
  177.2500   -34.9100    67.0320    25.8550    85.9230    90.7160    98.8940     2.2600 
  177.3750   -34.9760    64.0660    25.8630    90.2880    97.3920   105.4730     2.2570 
  177.5000   -35.0260    64.5090    25.8790    95.0310   102.7470   110.4030     2.2460 
  177.6250   -35.0810    67.0210    25.9050    99.3020   106.0120   113.0520     2.2270 
  177.7500   -35.1150    68.7940    25.8960   101.9650   108.3660   114.7280     2.2110 
  177.8750   -35.1800    69.1250    25.8980   101.9350   111.3450   116.9590     2.2060 
  178.0000   -35.1670    69.5410    25.9440   103.2200   116.3140   121.0630     2.2120 
  178.1250   -35.1950    70.5370    26.0580   117.8570   124.2500   127.8910     2.2220 
  178.2500   -35.1670    69.9910    26.1400   138.5660   134.0090   136.2760     2.2270 
  178.3750   -35.1510    67.1850    26.1670   149.3180   144.0250   144.8280     2.2290 
  178.5000   -35.1050    63.3910    26.1510   140.0920   152.7230   152.3350     2.2370 
  178.6250   -35.0380    61.1070    26.1310   128.0960   159.3670   158.4830     2.2540 
  178.7500   -34.9680    59.7300    26.0660   128.3280   165.5190   164.8020     2.2630 
  178.8750   -34.8710    58.5240    25.9630   139.4420   172.6710   172.6150     2.2530 
  179.0000   -34.8190    57.5200    25.8960   144.8660   180.9190   181.7900     2.2340 
  179.1250   -34.6790    57.1920    25.8760   136.6780   186.8520   189.1310     2.2170 
  179.2500   -34.5810    57.9570    25.8980   124.9170   186.2590   190.8000     2.2010 
  179.3750   -34.4330    59.4420    25.9710   120.3510   177.9160   185.2470     2.1810 
  179.5000   -34.3130    60.9720    26.1160   122.2210   164.4970   174.1070     2.1570 
  179.6250   -34.2060    60.3430    26.0410   115.1030   150.0430   160.6580     2.1420 
  179.7500   -34.1050    59.6910    25.9780   100.2760   136.4900   147.3700     2.1440 
  179.8750   -34.0040    61.3500    25.9200    87.1460   122.7560   133.6570     2.1620 
  180.0000   -33.9040    65.2430    25.8660    80.1740   107.2560   118.0450     2.1890 
  180.1250   -33.8230    68.3100    25.8810    74.3530    90.4830   100.5370     2.2100 
  180.2500   -33.7760    70.8590    25.9560    62.4630    75.5700    84.3150     2.2210 
  180.3750   -33.7560    73.8250    25.9750    50.4520    64.7160    72.2300     2.2280 
  180.5000   -33.7640    76.3040    26.1190    40.7530    58.9090    66.0250     2.2330 
  180.6250   -33.8150    76.2650    26.2070    34.2880    59.6150    68.3030     2.2280 
  180.7500   -33.8610    73.6200    26.1670    38.7230    66.8320    79.6960     2.2070 
  180.8750   -33.9430    69.5210    25.8910    60.2580    82.1870   101.9590     2.1780 
  181.0000   -33.9590    66.5510    25.7580    97.3290   107.9270   135.4520     2.1580 
  181.1250   -34.0260    65.0890    25.9670   129.1910   146.0220   175.7630     2.1580 
  181.2500   -34.0140    62.6010    26.1290   145.8970   184.0540   208.2400     2.1680 
  181.3750   -33.9650    59.7820    26.0070   150.6880   201.7060   219.4200     2.1780 
  181.5000   -33.8670    58.6460    25.6320   151.6830   189.7120   205.9170     2.1830 
  181.6250   -33.6980    60.3250    25.6820   149.6210   161.2440   176.5970     2.1860 
  181.7500   -33.5100    62.6810    25.9200   136.8990   135.2310   147.4870     2.1940 
  181.8750   -33.2540    63.8220    25.8740   110.2210   117.0720   125.6080     2.1990 
  182.0000   -33.0070    63.4440    25.4330    81.3200   107.7220   113.7500     2.1880 
  182.1250   -32.6700    62.5290    25.2290    70.1570   108.0780   113.8810     2.1690 
  182.2500   -32.3760    63.4760    25.3140    77.7300   116.2290   123.2030     2.1610 
  182.3750   -32.0770    65.0580    25.6810    97.5370   131.4910   139.7160     2.1680 
  182.5000   -31.7930    66.0520    25.9130   120.9790   151.3660   159.5040     2.1790 
  182.6250   -31.5020    65.7170    25.8840   137.1310   166.9880   174.0130     2.1820 
  182.7500   -31.2320    64.3170    25.7130   138.8820   167.7850   175.6950     2.1840 
  182.8750   -30.9900    64.1200    25.5940   130.7520   151.6000   162.4150     2.1920 
  183.0000   -30.7870    66.6810    25.4460   115.4580   126.5920   138.9000     2.2060 
  183.1250   -30.6100    70.1680    25.3390    95.0120   103.8880   114.0990     2.2250 
  183.2500   -30.4120    71.0370    25.3800    74.7110    88.0760    94.9850     2.2480 
  183.3750   -30.2220    70.3280    25.5420    60.2660    79.7340    84.0010     2.2700 
  183.5000   -30.0240    70.6390    25.6510    54.6630    78.7180    82.0440     2.2760 
  183.6250   -29.8340    70.5150    25.7010    61.5660    87.0440    92.3970     2.2560 
