~V
VERS. 2.00: Ver 2.00
~W
STRT.M 60.0000:
STOP.M 232.0000:
STEP.M 0.1250:
NULL. -999.2500:
UWI. DF323:
~C
DEPT.M :
GR.API :
RML.OHMM :
RI. :
RXO.OHMM :
CALI.CM :
SP.MV :
DEN.GM/CC :
AC.US/MT :
~A
# ...
  220.0000    92.3130    32.4690    29.1510    14.3680    25.8750    -9.2450     2.4750   260.4940 
  220.1250    90.7000    38.9700    33.9520    19.2800    26.7910    -9.0640     2.4790   248.1430 
  220.2500    89.7570    45.9840    39.3780    25.1990    27.3430    -8.8620     2.4780   239.3730 
  220.3750    90.1950    51.9830    44.4250    33.3150    27.4890    -8.6560     2.4710   235.3130 
  220.5000    92.3620    55.5870    47.9820    45.9160    27.3820    -8.5400     2.4580   235.0310 
  220.6250    92.9390    56.1350    49.1170    59.3630    27.1170    -8.5790     2.4390   237.0960 
  220.7500    91.1300    55.0570    48.5340    61.9350    26.8270    -8.6340     2.4230   239.2580 
  220.8750    89.1580    53.1690    46.9160    54.0810    26.5900    -8.6840     2.4180   239.8900 
  221.0000    88.4570    50.7920    44.8200    44.6150    26.3070    -8.7280     2.4260   238.6530 
  221.1250    89.7870    48.0630    42.6240    41.1170    25.7170    -8.8140     2.4400   237.2620 
  221.2500    92.2300    45.3260    40.5820    43.5930    24.9850    -8.9130     2.4500   237.7010 
  221.3750    93.1850    43.0310    38.8800    44.9480    24.4560    -9.0520     2.4530   240.0730 
  221.5000    90.9970    41.7180    37.7220    41.3700    24.2820    -9.1380     2.4510   242.8500 
  221.6250    87.0070    41.9190    37.4320    36.4200    24.2200    -9.1490     2.4480   243.6430 
  221.7500    85.5060    43.3590    37.9710    33.3870    24.0560    -9.1480     2.4450   242.2040 
  221.8750    85.7730    45.7630    39.2190    32.2610    23.9380    -9.0910     2.4440   239.9310 
  222.0000    86.9470    48.5960    40.8040    31.5490    24.0150    -9.0100     2.4450   238.8500 
  222.1250    87.5370    50.7240    41.9390    30.9300    24.2900    -8.8120     2.4470   240.3320 
  222.2500    87.5370    51.1670    42.0360    31.4810    24.6470    -8.5900     2.4460   243.3040 
  222.3750    87.5370    49.7080    41.0570    34.1380    25.0310    -8.3180     2.4400   246.8000 
  222.5000    87.5370    47.1140    39.5100    38.4090    25.3440    -8.0570     2.4280   250.1520 
  222.6250    87.5370    44.7660    38.2460    40.3400    25.4060    -7.8370     2.4170   252.2670 
  222.7500    87.5370    43.6940    37.8410    39.2680    25.2440    -7.5360     2.4140   252.0640 
  222.8750    87.5370    44.3050    38.5490    39.2160    24.9800    -7.2610     2.4210   249.0600 
  223.0000    87.5370    46.4310    40.3430    44.6260    24.6280    -7.0360     2.4350   244.0920 
  223.1250    87.5370    49.4660    42.9290    55.7710    24.2900    -6.8670     2.4500   239.2340 
  223.2500    87.5370    52.2740    45.4710    62.6290    24.3240    -6.7210     2.4640   236.1030 
  223.3750    87.5370    54.1670    47.3590    62.2990    24.8010    -6.6050     2.4760   234.8580 
  223.5000    87.5370    55.1850    48.4030    58.3130    25.2370    -6.5190     2.4890   234.5860 
  223.6250    87.5370    56.1520    48.9730    50.3090    25.0980    -6.4150     2.5060   233.9540 
  223.7500    87.5370    57.7050    49.6190    42.1440    24.7870    -6.3820     2.5190   232.6210 
  223.8750    87.5370    59.2030    50.0860    38.2270    24.7460    -6.3380     2.5160   231.3580 
  224.0000    87.5370    58.8560    49.4150    39.7130    25.0030    -6.2300     2.4850   231.6760 
  224.1250    87.5370    54.5200    46.3510    46.8620    25.4080    -6.1000     2.4210   235.7680 
  224.2500    87.5370    47.5350    41.6500    55.4630    25.9190    -5.9590     2.3480   243.1700 
  224.3750    87.5370    40.2630    36.7300    56.5380    26.4960    -5.8430     2.2910   251.2780 
  224.5000    87.5370    34.9750    33.0230    45.2750    26.9540    -5.7400     2.2640   255.3680 
  224.6250    87.5370    33.6620    31.8680    33.4740    27.0310    -5.6280     2.2760   249.6740 
  224.7500    87.5370    36.2870    33.3240    30.1460    26.7350    -5.5490     2.3090   236.7160 
  224.8750    87.5370    42.8840    37.4900    37.6220    26.2570    -5.5200     2.3580   222.3970 
  225.0000    87.5370    52.5860    43.9580    59.7210    25.8620    -5.5590     2.4170   212.7020 
  225.1250    87.5370    61.2660    50.4140    94.2790    25.7480    -5.5560     2.4800   210.0280 
  225.2500    87.5370    62.9740    52.8680    88.5570    25.6510    -5.5520     2.5260   209.9810 
  225.3750    87.5370    56.5930    49.8250    49.4360    25.3620    -5.5440     2.5390   210.0620 
  225.5000    87.5370    46.7530    43.5690    25.8110    25.0520    -5.4990     2.5170   210.5960 
  225.6250    87.5370    38.8180    37.6160    17.7320    25.1110    -5.4650     2.4730   213.2260 
  225.7500    87.5370    34.0550    33.4720    15.1570    25.4320    -5.4380     2.4350   216.6500 
  225.8750    87.5370    32.0740    31.2370    15.0410    25.6950    -5.4110     2.4140   218.8480 
  226.0000    87.5370    32.0350    30.5860    16.0930    25.7690    -5.3850     2.4090   219.1930 
  226.1250    87.5370    33.1400    31.1480    17.9480    25.7290    -5.4230     2.4100   219.7810 
  226.2500    87.5370    34.5590    32.2250    18.9540    25.5670    -5.4180     2.4060   223.1060 
  226.3750    87.5370    36.0190    33.4690    18.4830    25.2930    -5.3680     2.3990   229.6200 
  226.5000    87.5370    37.4360    34.6660    16.9780    25.1360    -5.3170     2.3900   237.7930 
  226.6250    87.5370    38.6510    35.6560    16.1330    25.3530    -5.2910     2.3780   244.7450 
  226.7500    87.5370    39.4840    36.4010    17.3430    25.7130    -5.2500     2.3630   249.2350 
  226.8750    87.5370    39.7590    36.8700    20.8960    25.9610    -5.1850     2.3500   251.8360 
  227.0000    87.5370    39.4390    37.0480    26.5890    26.0510    -5.0620     2.3460   254.1170 
  227.1250    87.5370    38.7760    36.9790    35.5720    26.0410    -4.9250     2.3590   257.6710 
  227.2500    87.5370    38.3330    36.8560    48.9520    25.9730    -4.7870     2.3870   262.2960 
  227.3750    87.5370    38.4270    36.7880    65.6470    25.8760    -4.7000     2.4200   266.7900 
  227.5000    87.5370    38.9730    36.7850    81.6170    25.7910    -4.6590     2.4480   269.6610 
  227.6250    87.5370    39.5290    36.7820    84.8110    25.7670    -4.6020     2.4600   269.8770 
  227.7500    87.5370    39.7980    36.7460    70.4440    25.8240    -4.5150     2.4580   268.7260 
  227.8750    87.5370    39.7750    36.7040    53.1900    25.9420    -4.4130     2.4450   267.5810 
  228.0000    87.5370    39.5750    36.6810    44.2600    26.0790    -4.3300     2.4300   267.2110 
  228.1250    87.5370    39.5750    36.6810    44.6380    26.1980    -4.2920     2.4260   267.4940 
  228.2500    87.5370    39.5750    36.6810    48.9640    26.2910    -4.3040     2.4380   267.9460 
  228.3750    87.5370    39.5750    36.6810    56.3900    26.2670    -4.2950     2.4600   268.6970 
  228.5000    87.5370    39.5750    36.6810    71.8940    26.0520    -4.2570     2.4820   269.8700 
  228.6250    87.5370    39.5750    36.6810   103.2340    25.7580    -4.2130     2.4900   270.0270 
  228.7500    87.5370    39.5750    36.6810   129.1630    25.5900    -4.2030     2.4810   266.2240 
  228.8750    87.5370    39.5750    36.6810   123.9780    25.6080    -4.2180     2.4590   256.6160 
  229.0000    87.5370    39.5750    36.6810   104.0980    25.7400    -4.2630     2.4320   243.0030 
  229.1250    87.5370    39.5750    36.6810    94.3460    25.8890    -4.2880     2.4100   232.3070 
  229.2500    87.5370    39.5750    36.6810    94.5010    25.9910    -4.2830     2.4000   229.3580 
  229.3750    87.5370    39.5750    36.6810    97.4410    26.0290    -4.2830     2.4040   233.1490 
  229.5000    87.5370    39.5750    36.6810   100.2970    26.0360    -4.2830     2.4210   238.9570 
  229.6250    87.5370    39.5750    36.6810   104.4110    26.0200  -999.2500     2.4470   241.7690 
  229.7500    87.5370    39.5750    36.6810   108.1740    25.9920  -999.2500     2.4730   240.5850 
  229.8750    87.5370    39.5750    36.6810   108.5810    25.9770  -999.2500     2.4880   236.0880 
