~V
VERS. 2.00: Ver 2.00
~W
STRT.M 53.0000:
STOP.M 258.0000:
STEP.M 0.1250:
NULL. -999.2500:
UWI. DF32102:
~C
DEPT.M :
SP.MV :
GR.API :
RML.OHMM :
RI. :
RXO.OHMM :
CALI.CM :
DEN.GM/CC :
~A
# ...
  244.2500   -14.2850    62.0560    14.7590    12.8890    10.3650    24.6350     2.4620 
  244.3750   -14.3010    60.8250    14.8510    12.9800    11.0130    24.6310     2.4780 
  244.5000   -14.2660    59.1500    14.9150    13.0500    12.0990    24.6160     2.4960 
  244.6250   -14.3260    59.8110    14.9280    13.0800    13.0450    24.5760     2.5120 
  244.7500   -14.3730    62.2200    14.9020    13.0770    13.7480    24.5300     2.5230 
  244.8750   -14.3430    63.1390    14.8590    13.0590    14.5810    24.4660     2.5260 
  245.0000   -14.2360    63.3500    14.8360    13.0540    16.9920    24.4510     2.5200 
  245.1250   -14.2240    63.4390    14.8870    13.1090    19.9600    24.4640     2.5070 
  245.2500   -14.2300    60.9110    15.0280    13.2410    18.4330    24.5160     2.4950 
  245.3750   -14.1490    57.3510    15.2480    13.4510    14.6020    24.6160     2.4900 
  245.5000   -14.1570    57.6570    15.5130    13.7150    13.3930    24.6900     2.4930 
  245.6250   -14.2040    61.6500    15.7590    13.9830    14.7810    24.6850     2.5010 
  245.7500   -14.2240    63.0510    15.9300    14.2010    15.7130    24.5940     2.5060 
  245.8750   -14.2710    61.5030    15.9930    14.3270    15.6200    24.4300     2.5020 
  246.0000   -14.3460    60.9030    15.9360    14.3360    14.4570    24.2650     2.4920 
  246.1250   -14.4360    62.8320    15.7450    14.2000    13.2180    24.1760     2.4790 
  246.2500   -14.5870    64.3180    15.4630    13.9570    12.8300    24.1650     2.4680 
  246.3750   -14.8760    64.4840    15.1230    13.6390    12.6300    24.2080     2.4600 
  246.5000   -15.1820    65.0200    14.7760    13.2960    12.0650    24.3060     2.4510 
  246.6250   -15.4020    66.0220    14.5080    13.0070    11.1130    24.4030     2.4430 
  246.7500   -15.6040    66.8330    14.3690    12.8260    10.3020    24.4310     2.4380 
  246.8750   -15.7820    67.1500    14.3810    12.7820    10.0970    24.4710     2.4370 
  247.0000   -15.9390    66.3580    14.5280    12.8710    10.3410    24.5630     2.4380 
  247.1250   -16.0630    65.4280    14.7660    13.0720    10.1150    24.6120     2.4350 
  247.2500   -16.0650    65.4450    15.0290    13.3230     9.9550    24.6280     2.4290 
  247.3750   -15.9330    65.6820    15.2920    13.5960     9.8610    24.6000     2.4210 
  247.5000   -15.7380    64.7180    15.5520    13.8800    10.0510    24.5820     2.4180 
  247.6250   -15.4640    63.1870    15.8100    14.1680    10.7430    24.6010     2.4260 
  247.7500   -15.1860    63.7000    16.0550    14.4470    12.3000    24.6350     2.4390 
  247.8750   -15.0360    64.4330    16.2660    14.7030    14.2210    24.6600     2.4490 
  248.0000   -14.8960    64.4330    16.4250    14.9130    15.4390    24.6520     2.4540 
  248.1250   -14.6350    64.4330    16.5120    15.0540    15.8760    24.6750     2.4560 
  248.2500   -14.4080    64.4330    16.5410    15.1330    14.9980    24.7030     2.4590 
  248.3750   -14.2770    64.4330    16.5150    15.1520    13.6570    24.7070     2.4600 
  248.5000   -14.1520    64.4330    16.4380    15.1190    12.7320    24.6900     2.4560 
  248.6250   -14.0650    64.4330    16.3160    15.0440    11.9660    24.6850     2.4400 
  248.7500   -14.0600    64.4330    16.1840    14.9590    11.2880    24.7020     2.4170 
  248.8750   -14.0830    64.4330    16.0790    14.8950    10.6020    24.6960     2.3940 
  249.0000   -14.2310    64.4330    16.0320    14.8830    10.2160    24.6630     2.3750 
  249.1250   -14.4480    64.4330    16.0670    14.9500    10.2480    24.6380     2.3640 
  249.2500   -14.6370    64.4330    16.1540    15.0790    10.7480    24.6170     2.3590 
  249.3750   -14.8490    64.4330    16.2610    15.2430    11.6210    24.6270     2.3590 
  249.5000   -15.0800    64.4330    16.3640    15.4140    12.3070    24.6830     2.3650 
  249.6250   -15.2870    64.4330    16.4480    15.5670    12.8470    24.7150     2.3770 
  249.7500   -15.5190    64.4330    16.5230    15.6990    13.3460    24.7070     2.3940 
  249.8750   -15.6960    64.4330    16.6000    15.8130    13.7540    24.6690     2.4120 
  250.0000   -15.7570    64.4330    16.6800    15.9100    13.8330    24.6400     2.4280 
  250.1250   -15.7650    64.4330    16.7450    15.9750    14.1110    24.6320     2.4390 
  250.2500   -15.8060    64.4330    16.7730    15.9970    14.9680    24.6510     2.4470 
  250.3750   -15.7420    64.4330    16.7440    15.9620    15.2870    24.6640     2.4520 
  250.5000   -15.5740    64.4330    16.6570    15.8720    14.1420    24.5890     2.4570 
  250.6250   -15.3320    64.4330    16.5340    15.7490    13.1440    24.4510     2.4660 
  250.7500   -15.0310    64.4330    16.4260    15.6410    13.3040    24.3290     2.4800 
  250.8750   -14.6340    64.4330    16.3810    15.5930    14.8810    24.2960     2.4990 
  251.0000   -14.2620    64.4330    16.4260    15.6330    15.1860    24.3040     2.5220 
  251.1250   -13.9510    64.4330    16.5760    15.7780    16.0050    24.2810     2.5420 
  251.2500   -13.6180    64.4330    16.7760    15.9790    15.8850    24.2520     2.5550 
  251.3750   -13.3360    64.4330    16.9750    16.1920    15.0140    24.2120     2.5550 
  251.5000   -13.2060    64.4330    17.1300    16.3730    13.1730    24.1830     2.5450 
  251.6250   -13.1270    64.4330    17.2130    16.4910    11.8850    24.3050     2.5260 
  251.7500   -13.0080    64.4330    17.2450    16.5570    11.1870    24.5070     2.5030 
  251.8750   -12.9620    64.4330    17.2520    16.5890    11.2570    24.6250     2.4810 
  252.0000   -12.8950    64.4330    17.2510    16.6020    12.0510    24.6560     2.4600 
  252.1250   -12.7490    64.4330    17.2520    16.6060    12.2840    24.6930     2.4460 
  252.2500   -12.5750    64.4330    17.2530    16.6070    11.2890    24.7370     2.4380 
  252.3750   -12.3690    64.4330    17.2540    16.6070    10.2270    24.7400     2.4330 
  252.5000   -12.0960    64.4330    17.2540    16.6060    10.1700    24.7070     2.4260 
  252.6250   -11.9230    64.4330    17.2530    16.6040    10.5800    24.6390     2.4170 
  252.7500   -11.8370    64.4330    17.2510    16.6000    10.9900    24.6020     2.4110 
  252.8750   -11.7910    64.4330    17.2490    16.5960    11.2920    24.6010     2.4120 
  253.0000   -11.7970    64.4330    17.2470    16.5930    11.3550    24.6300     2.4210 
  253.1250   -11.8110    64.4330    17.2470    16.5940    10.9950    24.6770     2.4290 
  253.2500   -11.8460    64.4330    17.2480    16.5980    10.8710    24.6690     2.4300 
  253.3750   -11.9500    64.4330    17.2510    16.6030    12.9880    24.6220     2.4290 
  253.5000   -12.0350    64.4330    17.2540    16.6080    19.3320    24.6030     2.4340 
  253.6250   -12.0080    64.4330    17.2580    16.6120    29.9560    24.5970     2.4490 
  253.7500   -11.9500    64.4330    17.2620    16.6150    37.1780    24.4530     2.4720 
  253.8750   -11.8410    64.4330    17.2620    16.6150    31.9240    24.2990     2.5000 
  254.0000   -11.7060    64.4330    17.2620    16.6150    24.6460    24.2600     2.5170 
  254.1250   -11.6980    64.4330    17.2620    16.6150    20.4440    24.2700     2.5180 
  254.2500   -11.6840    64.4330    17.2620    16.6150    19.8380    24.2850     2.5050 
  254.3750   -11.6290    64.4330    17.2620    16.6150    24.0060    24.2910     2.4870 
  254.5000   -11.6690    64.4330    17.2620    16.6150    31.0550    24.2820     2.4720 
  254.6250   -11.8050    64.4330    17.2620    16.6150    35.9690    24.2580     2.4670 
  254.7500   -11.8490    64.4330    17.2620    16.6150    33.6340    24.2290     2.4730 
  254.8750   -11.8750    64.4330    17.2620    16.6150    28.4100    24.1940     2.4890 
  255.0000   -11.8830    64.4330    17.2620    16.6150    23.8980    24.1920     2.5090 
  255.1250   -11.8720    64.4330    17.2620    16.6150    22.1600    24.1910     2.5280 
  255.2500   -11.8680    64.4330    17.2620    16.6150    21.6680    24.1240     2.5410 
  255.3750   -11.9270    64.4330    17.2620    16.6150    23.3790    24.0120     2.5410 
