~V
VERS. 2.00: Ver 2.00
~W
STRT.M 60.0000:
STOP.M 227.0000:
STEP.M 0.1250:
NULL. -999.2500:
UWI. DF32025:
~C
DEPT.M :
DEN.GM/CC :
GR.API :
RML.OHMM :
RI. :
RXO.OHMM :
CALI.CM :
SP.MV :
~A
# ...
  138.7500     2.3540    75.4530    39.2110    31.5590    30.9530    24.2700   -16.7240 
  138.8750     2.3550    76.5780    41.4590    33.5420    34.4090    24.3340   -16.8980 
  139.0000     2.3560    79.3420    43.2110    35.0950    39.5840    24.4000   -17.0780 
  139.1250     2.3470    80.1790    45.6140    37.1020    37.9250    24.4640   -17.2620 
  139.2500     2.3290    78.2090    50.1920    40.8400    34.5520    24.5210   -17.4620 
  139.3750     2.3030    74.2790    58.4340    47.5630    37.2860    24.5690   -17.6350 
  139.5000     2.2730    70.9440    71.2870    58.0640    52.4180    24.6070   -17.8040 
  139.6250     2.2450    69.7610    88.9300    72.4820    77.0060    24.6280   -18.0280 
  139.7500     2.2250    68.7000   108.1120    88.2210   107.5000    24.6300   -18.1610 
  139.8750     2.2160    65.5060   125.2440   102.5590   145.7800    24.6140   -18.3030 
  140.0000     2.2170    61.6590   137.0910   113.1270   160.5390    24.5810   -18.3230 
  140.1250     2.2250    59.6770   142.3000   118.7790   129.0290    24.5340   -18.4230 
  140.2500     2.2310    59.3710   145.3810   122.4660   113.0540    24.4790   -18.4020 
  140.3750     2.2310    62.0770   150.3180   127.0640   111.8960    24.4220   -18.4220 
  140.5000     2.2240    67.9420   159.4520   134.6270   121.7620    24.3690   -18.3780 
  140.6250     2.2120    71.0140   173.7330   146.3100   139.1450    24.3250   -18.2510 
  140.7500     2.1960    68.0430   190.8040   160.5410   160.7960    24.2950   -18.2130 
  140.8750     2.1820    62.6460   208.2010   175.5590   188.1390    24.2740   -18.1290 
  141.0000     2.1690    59.6360   223.2120   189.3240   195.6190    24.2620   -18.1820 
  141.1250     2.1610    59.1830   232.6470   199.3090   200.5860    24.2650   -18.1290 
  141.2500     2.1570    57.8170   236.3030   204.9520   211.5760    24.2540   -18.1820 
  141.3750     2.1570    55.9350   234.7640   206.3190   222.5650    24.2520   -18.1990 
  141.5000     2.1590    56.8170   229.5880   204.3730   219.1250    24.2510   -18.2430 
  141.6250     2.1620    59.7600   222.1650   200.4520   203.6560    24.2480   -18.3560 
  141.7500     2.1630    61.3740   214.4380   195.9310   187.4370    24.2440   -18.4230 
  141.8750     2.1610    61.8200   205.9160   190.6170   168.8800    24.2450   -18.5270 
  142.0000     2.1560    61.6860   197.0450   183.4420   159.2450    24.2560   -18.5420 
  142.1250     2.1510    61.7270   185.0510   172.5810   164.6400    24.2680   -18.6170 
  142.2500     2.1510    63.1910   172.3670   158.3490   174.2840    24.2730   -18.6190 
  142.3750     2.1550    66.4050   159.0860   142.0280   156.0060    24.2660   -18.6520 
  142.5000     2.1640    67.5800   141.6710   125.8810   116.3240    24.2590   -18.6890 
  142.6250     2.1730    64.6950   127.8140   113.0950    96.3150    24.2630   -18.7330 
  142.7500     2.1810    62.8460   119.8160   105.1340    85.3220    24.2820   -18.7290 
  142.8750     2.1860    64.3230   118.1750   102.8870    81.6560    24.3020   -18.7610 
  143.0000     2.1910    66.8740   123.0870   106.7160    84.0970    24.3100   -18.7500 
  143.1250     2.1940    68.5920   135.3840   117.3560    95.6440    24.3100   -18.7510 
  143.2500     2.1960    67.9120   152.6630   132.5980   115.5400    24.3100   -18.7620 
  143.3750     2.1970    64.2070   172.0480   150.0440   144.2360    24.3100   -18.7130 
  143.5000     2.1980    60.2070   189.0380   166.0530   170.1430    24.3100   -18.7380 
  143.6250     2.2000    59.7350   196.3740   174.7430   183.3810    24.3100   -18.6680 
  143.7500     2.2020    60.7560   191.4430   173.4890   192.7060    24.3090   -18.6610 
  143.8750     2.2060    60.7540   174.6940   161.8200   200.7390    24.3030   -18.6100 
  144.0000     2.2110    61.6950   150.4380   142.2930   178.1500    24.3220   -18.6100 
  144.1250     2.2180    63.9740   125.3460   119.7470   128.7020    24.3180   -18.6100 
  144.2500     2.2290    65.2250   104.3720    99.4860    87.5270    24.3050   -18.5700 
  144.3750     2.2470    67.3720    88.8970    83.7660    62.1030    24.2810   -18.5990 
  144.5000     2.2670    70.5420    78.6520    73.0440    52.2530    24.2360   -18.5300 
  144.6250     2.2850    71.6330    73.4300    67.3870    50.7160    24.1660   -18.5500 
  144.7500     2.2930    70.1670    71.7360    65.2440    55.1650    24.0820   -18.5180 
  144.8750     2.2890    68.5640    73.1400    66.1040    54.6600    23.9900   -18.5320 
  145.0000     2.2740    67.7160    77.2430    69.5570    43.8840    23.9000   -18.5240 
  145.1250     2.2540    65.7270    83.5830    75.2210    39.6610    23.8230   -18.5560 
  145.2500     2.2380    65.3870    90.4980    81.5970    54.6450    23.7710   -18.6100 
  145.3750     2.2320    66.3970    96.4210    87.2660    86.6670    23.7520   -18.6720 
  145.5000     2.2350    67.0120    99.8910    90.8470   102.2530    23.7680   -18.7070 
  145.6250     2.2440    67.9210    99.7130    91.0700    87.4760    23.8160   -18.7480 
  145.7500     2.2500    68.0820    97.1960    88.8830    82.5270    23.8740   -18.7840 
  145.8750     2.2520    65.9120    93.9220    85.5740    79.9700    23.9290   -18.7870 
  146.0000     2.2500    62.0350    91.4610    82.5950    75.6250    23.9720   -18.8230 
  146.1250     2.2440    60.3330    91.2280    81.3770    75.9140    23.9910   -18.7360 
  146.2500     2.2390    59.1670    93.2910    82.1760    79.8420    23.9910   -18.7410 
  146.3750     2.2340    56.3700    97.6310    85.0180    81.7200    23.9730   -18.6630 
  146.5000     2.2310    54.3790   104.0890    89.7370    81.4830    23.9450   -18.6770 
  146.6250     2.2280    57.0050   112.5340    96.1590    85.6150    23.9160   -18.5730 
  146.7500     2.2250    60.9340   121.9150   103.3340    96.8910    23.8920   -18.5390 
  146.8750     2.2220    63.2680   131.3020   110.4590   110.9810    23.8760   -18.4690 
  147.0000     2.2170    62.8940   139.7680   116.7750   123.1830    23.8690   -18.3650 
  147.1250     2.2080    61.0610   146.4380   121.5900   126.2490    23.8670   -18.3550 
  147.2500     2.1930    60.2610   151.6370   125.2120   122.6440    23.8710   -18.2100 
  147.3750     2.1720    60.3410   155.8840   128.1110   119.6090    23.8780   -18.1660 
  147.5000     2.1480    59.3590   159.7050   130.7900   121.0710    23.8870   -18.0110 
  147.6250     2.1260    57.2730   163.2400   133.5110   125.6690    23.9010   -17.9430 
  147.7500     2.1160    56.5330   166.3520   136.1840   132.5380    23.9180   -17.8190 
  147.8750     2.1210    57.6970   168.9960   138.7380   139.0530    23.9390   -17.7140 
  148.0000     2.1380    58.9440   171.6430   141.4590   142.5060    23.9650   -17.6450 
  148.1250     2.1600    58.5850   175.7060   145.4070   141.8660    24.0060   -17.5700 
  148.2500     2.1770    56.0430   181.9640   151.2820   138.5390    24.0640   -17.5900 
  148.3750     2.1820    54.3500   189.8800   158.8980   138.9080    24.1400   -17.5370 
  148.5000     2.1780    56.0840   197.1430   166.5030   147.4650    24.2360   -17.5350 
  148.6250     2.1720    59.0840   197.6070   169.5370   171.5730    24.3290   -17.5340 
  148.7500     2.1720    58.0610   187.4300   164.3980   197.1620    24.4090   -17.5170 
  148.8750     2.1830    55.2380   165.1580   149.4760   192.6820    24.4700   -17.4910 
  149.0000     2.2030    56.6270   135.3590   126.9170   166.8570    24.4470   -17.5050 
  149.1250     2.2270    62.6000   105.3640   102.8360   128.6490    24.4470   -17.4180 
  149.2500     2.2460    66.9580    82.7350    83.6540    83.8140    24.4470   -17.3490 
  149.3750     2.2570    68.2870    70.9720    71.9370    53.5880    24.4470   -17.2580 
  149.5000     2.2590    68.1730    68.4620    67.7550    46.6620    24.4470   -17.1570 
  149.6250     2.2540    66.3710    72.3690    70.4330    63.2940    24.4470   -17.1140 
  149.7500     2.2470    62.6990    79.3410    76.5090    80.5190    24.4470   -17.0530 
  149.8750     2.2400    60.0390    86.9390    83.5120    92.0740    24.4490   -17.0200 
