~V
VERS. 2.00: Ver 2.00
~W
STRT.M 60.0000:
STOP.M 266.0000:
STEP.M 0.1250:
NULL. -999.2500:
UWI. DF32129:
~C
DEPT.M :
SP.MV :
GR.API :
CALI.CM :
RXO.OHMM :
RI. :
RML.OHMM :
DEN.GM/CC :
~A
# ...
   93.7500   -32.8300    78.1070    24.0040     8.4140     6.3460     9.3890     2.1780 
   93.8750   -32.7160    78.0010    24.0040     8.4860     6.3460     9.2970     2.1690 
   94.0000   -32.6040    77.9120    24.0040     8.5680     6.3870     9.2470     2.1670 
   94.1250   -32.5020    78.3490    23.9990     8.6910     6.4710     9.2490     2.1720 
   94.2500   -32.4030    78.4280    23.9770     8.8150     6.5830     9.3060     2.1770 
   94.3750   -32.2720    77.8390    23.9320     8.8660     6.7200     9.4310     2.1830 
   94.5000   -32.1100    76.6400    23.8990     8.9360     6.8700     9.6120     2.1900 
   94.6250   -31.9370    75.1550    23.8890     9.0960     6.9830     9.7590     2.2020 
   94.7500   -31.7440    73.8330    23.8950     9.1760     7.0040     9.7640     2.2130 
   94.8750   -31.5800    72.2050    23.9250     8.9810     6.8920     9.5720     2.2180 
   95.0000   -31.4330    71.8590    24.0100     8.4910     6.6370     9.1900     2.2190 
   95.1250   -31.2960    75.4540    24.1160     7.6930     6.2390     8.6530     2.2230 
   95.2500   -31.1250    80.5330    24.1960     7.0630     5.7630     8.0520     2.2270 
   95.3750   -30.9500    82.6860    24.2460     6.8120     5.2600     7.4290     2.2250 
   95.5000   -30.8050    80.8680    24.3340     6.6390     4.7820     6.8270     2.2200 
   95.6250   -30.7390    79.5930    24.5200     6.2620     4.3970     6.3220     2.2320 
   95.7500   -30.7870    82.5170    24.7150     5.8480     4.1410     5.9710     2.2560 
   95.8750   -30.9070    88.0380    24.8260     5.6750     4.0390     5.8300     2.2730 
   96.0000   -31.0730    92.0060    24.8310     5.8010     4.1030     5.9330     2.2710 
   96.1250   -31.2460    91.6980    24.6620     6.2600     4.3560     6.3240     2.2580 
   96.2500   -31.4610    89.8590    24.3290     6.8640     4.7460     6.9120     2.2450 
   96.3750   -31.7260    87.5400    24.0830     7.5090     5.2270     7.6070     2.2320 
   96.5000   -32.0250    83.9530    24.0040     8.1420     5.7310     8.2960     2.2150 
   96.6250   -32.2750    80.6720    24.0240     8.5910     6.1690     8.8310     2.2000 
   96.7500   -32.4520    80.3420    24.0620     8.8360     6.4950     9.1770     2.1920 
   96.8750   -32.5330    80.0620    24.0950     8.9600     6.6960     9.3510     2.1850 
   97.0000   -32.5560    77.9730    24.1060     9.0250     6.7890     9.3980     2.1740 
   97.1250   -32.5470    77.3570    24.0910     9.0730     6.8040     9.3630     2.1650 
   97.2500   -32.5560    80.6090    24.0570     9.1110     6.7960     9.3160     2.1650 
   97.3750   -32.5740    83.5580    24.0260     9.1610     6.7940     9.3050     2.1710 
   97.5000   -32.5800    81.3610    24.0120     9.1780     6.8170     9.3610     2.1730 
   97.6250   -32.5890    76.0150    24.0200     9.1570     6.8720     9.5050     2.1700 
   97.7500   -32.5950    73.0320    24.0400     9.1060     6.9570     9.7060     2.1670 
   97.8750   -32.6060    72.1830    24.0750     9.0020     7.0730     9.9300     2.1640 
   98.0000   -32.6230    71.4740    24.0990     8.7560     7.2140    10.1410     2.1600 
   98.1250   -32.6640    70.5890    24.1070     8.5360     7.3800    10.3270     2.1620 
   98.2500   -32.6930    70.8550    24.1070     8.5930     7.5810    10.5290     2.1720 
   98.3750   -32.7130    70.2720    24.1070     8.8970     7.8230    10.7730     2.1830 
   98.5000   -32.7140    69.0750    24.1070     9.2350     8.0920    11.0530     2.1940 
   98.6250   -32.7420    71.0860    24.1070     9.4730     8.3310    11.3100     2.2190 
   98.7500   -32.7750    75.1660    24.1070     9.6450     8.4700    11.4530     2.2610 
   98.8750   -32.8360    78.5000    24.1070     9.6350     8.4590    11.4010     2.3010 
   99.0000   -32.8730    80.7170    24.1070     9.3910     8.2930    11.1400     2.3110 
   99.1250   -32.8810    80.7640    24.1070     9.1140     8.0290    10.7490     2.2800 
   99.2500   -32.8360    78.1020    24.1070     8.9790     7.7690    10.3800     2.2380 
   99.3750   -32.7650    74.2730    24.1070     8.9580     7.5690    10.1180     2.2070 
   99.5000   -32.7020    72.1910    24.1070     8.9840     7.4590     9.9990     2.1940 
   99.6250   -32.6550    73.2380    24.1070     8.9990     7.4460    10.0290     2.1920 
   99.7500   -32.6290    74.9500    24.1070     9.0020     7.4830    10.1220     2.1880 
   99.8750   -32.5940    76.2260    24.1070     8.9980     7.5290    10.2050     2.1830 
  100.0000   -32.5860    76.5950    24.1070     8.9660     7.5430    10.2250     2.1800 
  100.1250   -32.5830    75.1640    24.1070     8.8940     7.4900    10.1400     2.1840 
  100.2500   -32.6500    73.2660    24.1070     8.8810     7.3830     9.9860     2.1880 
  100.3750   -32.7590    71.5400    24.1070     9.0150     7.2490     9.8120     2.1820 
  100.5000   -32.9220    71.7020    24.1070     9.2920     7.1260     9.6710     2.1670 
  100.6250   -33.0710    73.6790    24.1070     9.3560     7.0590     9.6080     2.1530 
  100.7500   -33.1930    74.9940    24.1070     9.2710     7.0520     9.6100     2.1480 
  100.8750   -33.2880    74.5210    24.1070     9.2110     7.0850     9.6500     2.1510 
  101.0000   -33.3550    72.9770    24.1070     9.2740     7.1260     9.6920     2.1570 
  101.1250   -33.4170    72.7340    24.1070     9.4030     7.1380     9.7070     2.1600 
  101.2500   -33.4710    73.5190    24.1070     9.5260     7.1130     9.7010     2.1580 
  101.3750   -33.4870    73.2910    24.1070     9.5980     7.0660     9.6940     2.1550 
  101.5000   -33.4340    72.4190    24.1070     9.5840     7.0190     9.6990     2.1560 
  101.6250   -33.3470    72.6110    24.1070     9.4520     6.9950     9.7310     2.1630 
  101.7500   -33.2540    72.0120    24.1070     9.2540     6.9970     9.7810     2.1670 
  101.8750   -33.1750    69.4710    24.1060     9.1020     7.0230     9.8480     2.1630 
  102.0000   -33.1170    67.2770    24.1000     9.0820     7.0600     9.9260     2.1560 
  102.1250   -33.0600    68.8220    24.0830     9.1180     7.0980     9.9950     2.1530 
  102.2500   -32.9800    71.9980    24.0640     9.1190     7.1250    10.0350     2.1530 
  102.3750   -32.9170    73.0700    24.0570     9.0570     7.1370    10.0500     2.1540 
  102.5000   -32.8360    71.9010    24.0640     8.9830     7.1500    10.0580     2.1530 
  102.6250   -32.7690    71.9190    24.0650     8.9830     7.1800    10.0770     2.1570 
  102.7500   -32.7200    73.6900    24.0650     9.0460     7.2220    10.1030     2.1650 
  102.8750   -32.6850    74.2300    24.0630     9.1090     7.2620    10.1250     2.1750 
  103.0000   -32.6470    72.2920    24.0610     9.1500     7.2840    10.1370     2.1830 
  103.1250   -32.6080    70.5330    24.0670     9.1570     7.2780    10.1440     2.1800 
  103.2500   -32.5500    71.6000    24.0800     9.1300     7.2540    10.1540     2.1700 
  103.3750   -32.4730    75.9650    24.0950     9.1550     7.2280    10.1620     2.1610 
  103.5000   -32.4280    80.7280    24.1020     9.3220     7.2060    10.1490     2.1560 
  103.6250   -32.3740    79.4800    24.1050     9.4130     7.1800    10.0850     2.1550 
  103.7500   -32.3150    73.9910    24.1070     9.2890     7.1330     9.9790     2.1570 
  103.8750   -32.2420    70.3050    24.1140     9.0580     7.0620     9.8450     2.1590 
  104.0000   -32.1470    71.5200    24.1390     8.8710     6.9730     9.7020     2.1640 
  104.1250   -32.0200    73.0320    24.2160     8.7430     6.8950     9.5670     2.1700 
  104.2500   -31.8480    71.2990    24.3050     8.6760     6.8510     9.4580     2.1720 
  104.3750   -31.6160    69.7290    24.3770     8.6810     6.8500     9.3850     2.1700 
  104.5000   -31.3420    71.4990    24.4210     8.6930     6.8830     9.3530     2.1650 
  104.6250   -31.0630    74.3940    24.4810     8.7010     6.9460     9.3890     2.1600 
  104.7500   -30.7530    74.4070    24.5780     8.7500     7.0250     9.4940     2.1570 
  104.8750   -30.4070    72.2140    24.6790     8.8140     7.0890     9.6200     2.1540 
