~V
VERS. 2.00: Ver 2.00
~W
STRT.M 61.0000:
STOP.M 257.0000:
STEP.M 0.1250:
NULL. -999.2500:
UWI. DF32086:
~C
DEPT.M :
SP.MV :
GR.API :
CALI.CM :
RXO.OHMM :
RI. :
RML.OHMM :
DEN.GM/CC :
~A
# ...
  106.0000   -26.4980    97.8290    24.0050    11.2760     6.9900    10.1020     2.4680 
  106.1250   -26.4160   102.1080    24.0340     9.9450     6.6910     9.6340     2.4760 
  106.2500   -26.4010   105.2500    24.0030     7.3960     6.0110     8.5790     2.4420 
  106.3750   -26.4630   106.0540    23.9470     5.7510     5.2590     7.4390     2.3880 
  106.5000   -26.5780   106.3190    23.9190     5.1690     4.6940     6.5880     2.3400 
  106.6250   -26.7990   106.2380    23.9080     5.1650     4.4740     6.2270     2.3160 
  106.7500   -27.1050   105.6930    23.8640     5.3610     4.5070     6.2310     2.3040 
  106.8750   -27.4760   104.6120    23.7660     5.7290     4.7090     6.5060     2.2920 
  107.0000   -27.9010   101.8640    23.6460     6.2670     5.0200     6.9980     2.2740 
  107.1250   -28.3180    96.7180    23.5550     6.9570     5.4530     7.7300     2.2600 
  107.2500   -28.7160    91.3960    23.6160     7.7080     6.0130     8.6380     2.2590 
  107.3750   -29.0820    87.7800    23.7630     8.8790     6.6590     9.5790     2.2710 
  107.5000   -29.4390    85.7380    23.5510    10.1930     7.2310    10.2540     2.2810 
  107.6250   -29.6830    85.2530    23.3700    10.4530     7.4100    10.1830     2.2740 
  107.7500   -29.7680    85.5840    23.2880     9.5100     7.1110     9.4130     2.2520 
  107.8750   -29.6700    86.0050    23.4070     8.0370     6.4420     8.2600     2.2310 
  108.0000   -29.4080    88.4150    23.5630     6.5270     5.6440     7.1420     2.2280 
  108.1250   -29.0280    94.6150    23.8460     5.4980     5.0060     6.4320     2.2590 
  108.2500   -28.6430   100.3160    24.0770     5.2020     4.6440     6.1540     2.2950 
  108.3750   -28.2660   102.2060    24.1760     5.4040     4.5580     6.2280     2.3050 
  108.5000   -27.8950   101.2850    24.1720     5.7390     4.6780     6.4950     2.2840 
  108.6250   -27.5550    99.8750    24.1340     5.7710     4.8760     6.7220     2.2710 
  108.7500   -27.2910    98.7610    24.1320     5.5170     4.9930     6.7220     2.2880 
  108.8750   -27.1470    98.5190    24.1020     5.2690     4.9590     6.4680     2.3240 
  109.0000   -27.1450    99.5820    24.0370     5.1980     4.8000     6.0930     2.3530 
  109.1250   -27.2870   101.5340    23.9860     5.1410     4.6130     5.8320     2.3600 
  109.2500   -27.4740   103.5740    23.9810     5.0920     4.5120     5.8220     2.3550 
  109.3750   -27.7210   103.0070    23.9980     5.2400     4.5590     6.0910     2.3490 
  109.5000   -27.9990    97.5350    23.9880     5.7950     4.7640     6.5740     2.3410 
  109.6250   -28.3390    88.5910    23.9610     6.5370     5.0620     7.0720     2.3220 
  109.7500   -28.6850    82.7030    23.9660     6.9210     5.2890     7.3180     2.2920 
  109.8750   -28.9770    81.5270    24.0350     6.7150     5.3380     7.1790     2.2640 
  110.0000   -29.2130    81.0350    24.1500     6.2240     5.2260     6.7740     2.2500 
  110.1250   -29.3990    79.2660    24.2010     5.8560     5.1530     6.5180     2.2530 
  110.2500   -29.5850    79.5110    24.3010     5.9470     5.3780     6.8100     2.2720 
  110.3750   -29.7530    80.8830    24.3750     6.6480     6.1130     7.9330     2.3100 
  110.5000   -29.9200    79.5770    24.2790     8.4520     7.5270    10.0970     2.3670 
  110.6250   -30.0810    74.8010    24.0880    12.7630     9.7590    13.4680     2.4380 
  110.7500   -30.2740    76.1600    23.9950    17.1260    12.2540    17.1340     2.5030 
  110.8750   -30.5730    87.9760    23.9830    18.8480    14.1070    19.5520     2.5360 
  111.0000   -30.9210   102.4030    24.0330    18.2850    14.5140    19.4670     2.5080 
  111.1250   -31.3190   105.0360    23.9920    17.8330    13.4070    17.1960     2.4210 
  111.2500   -31.6960    94.7080    23.7890    15.4470    11.8580    14.6600     2.3310 
  111.3750   -32.0310    80.3700    23.5260    11.9860    10.4610    12.6670     2.2640 
  111.5000   -32.2870    70.9720    23.2140    10.0710     9.4590    11.3920     2.2190 
  111.6250   -32.4570    69.7510    22.9200     9.4820     8.9220    10.7730     2.1960 
  111.7500   -32.5370    71.5530    22.7490     9.2110     8.7270    10.5530     2.1920 
  111.8750   -32.4990    73.7900    22.7110     9.0060     8.8720    10.7170     2.1960 
  112.0000   -32.3420    75.8760    22.7790     8.9760     9.3520    11.2810     2.1910 
  112.1250   -32.0520    76.9330    22.7240     9.1400    10.0300    12.1140     2.1850 
  112.2500   -31.6680    77.4680    22.6740     9.7640    10.4720    12.6890     2.2100 
  112.3750   -31.2200    78.5270    22.6440    11.3020    10.2290    12.3990     2.2820 
  112.5000   -30.7560    80.1010    22.5410    12.8610     9.0810    10.9130     2.3870 
  112.6250   -30.3080    80.9100    22.3250    11.4440     7.3080     8.6310     2.4750 
  112.7500   -29.9210    84.5060    22.3540     8.1830     5.6830     6.6150     2.5060 
  112.8750   -29.6290    92.1740    22.6560     5.7250     4.5910     5.3340     2.4850 
  113.0000   -29.4810    98.4340    22.9910     4.9750     4.1460     4.8800     2.4430 
  113.1250   -29.5070    96.6700    23.1950     5.7510     4.4400     5.3590     2.4000 
  113.2500   -29.6830    89.7850    23.1160     8.2610     5.3000     6.5940     2.3520 
  113.3750   -29.9950    82.7520    23.0540    11.2460     6.5740     8.4300     2.2960 
  113.5000   -30.4080    76.6490    23.0850    12.2990     7.9660    10.4550     2.2480 
  113.6250   -30.8740    71.4240    23.2540    11.0770     8.9930    11.9020     2.2190 
  113.7500   -31.3330    68.3520    23.2710    10.0670     9.4640    12.4570     2.2020 
  113.8750   -31.7550    68.2500    23.1280     9.5670     9.4760    12.2830     2.1900 
  114.0000   -32.1040    69.2650    22.9680     9.1110     9.2740    11.7700     2.1860 
  114.1250   -32.3710    69.3450    23.0240     8.8520     9.0430    11.2340     2.1940 
  114.2500   -32.5680    69.2110    23.1670     8.8660     8.8200    10.7700     2.2040 
  114.3750   -32.6640    71.3830    23.1690     8.8760     8.5920    10.4020     2.2100 
  114.5000   -32.7020    75.6310    23.3470     8.7450     8.3860    10.1930     2.2100 
  114.6250   -32.6910    78.3960    23.4360     8.5190     8.2920    10.2800     2.2060 
  114.7500   -32.6620    79.6850    23.4290     8.4570     8.3630    10.6790     2.2020 
  114.8750   -32.6110    81.1870    23.3850     8.7340     8.6130    11.3670     2.2060 
  115.0000   -32.5430    82.4680    23.4290     9.2630     8.9940    12.2090     2.2210 
  115.1250   -32.4310    80.4190    23.5670     9.7320     9.3270    12.8260     2.2390 
  115.2500   -32.2660    75.9090    23.5970     9.9290     9.3670    12.8000     2.2450 
  115.3750   -32.0920    72.7740    23.5520     9.8120     8.9650    11.9450     2.2380 
  115.5000   -31.8850    72.1890    23.5060     9.3050     8.1670    10.4890     2.2260 
  115.6250   -31.6470    74.0960    23.4690     8.3040     7.2040     8.9770     2.2220 
  115.7500   -31.4000    78.3410    23.4310     7.0240     6.3700     7.8550     2.2340 
  115.8750   -31.1660    83.5950    23.4260     6.0040     5.8120     7.2810     2.2640 
  116.0000   -30.9880    86.8740    23.4070     5.8620     5.5900     7.2520     2.2920 
  116.1250   -30.8610    84.6890    23.3000     6.5210     5.7040     7.6530     2.2850 
  116.2500   -30.7870    80.8860    23.1940     7.1390     5.9490     8.1020     2.2490 
  116.3750   -30.7260    78.4310    23.2760     7.3880     6.1180     8.2740     2.2110 
  116.5000   -30.6770    78.8630    23.3660     7.3320     6.0550     8.0100     2.2010 
  116.6250   -30.6850    83.7280    23.4940     6.8530     5.7480     7.4460     2.2250 
  116.7500   -30.7410    89.8010    23.6050     6.1490     5.4260     6.9940     2.2530 
  116.8750   -30.8610    94.5400    23.6570     5.7570     5.2750     6.8890     2.2640 
  117.0000   -31.0310    94.8590    23.5860     6.1110     5.4110     7.2090     2.2520 
  117.1250   -31.2430    88.7780    23.3740     7.1390     5.9040     7.9540     2.2270 
