~V
VERS. 2.00: Ver 2.00
~W
STRT.M 60.0000:
STOP.M 271.0000:
STEP.M 0.1250:
NULL. -999.2500:
UWI. DF324:
~C
DEPT.M :
SP.MV :
AC.US/MT :
DEN.GM/CC :
GR.API :
CALI.CM :
RXO.OHMM :
RI. :
RML.OHMM :
~A
# ...
   70.0000   -31.4690   442.4930     2.1280    73.2960    24.5100    11.1490     8.5630     8.8220 
   70.1250   -31.4680   395.2850     2.2420    75.4250    24.4900    16.8690     9.6910     9.9530 
   70.2500   -31.5000   342.5650     2.3660    77.5940    24.3100    32.8680    10.7110    10.9330 
   70.3750   -31.5710   305.7110     2.4480    79.0800    24.0250    56.5390    11.3120    11.5090 
   70.5000   -31.6910   302.5510     2.4420    80.5860    23.7450    69.2990    11.2870    11.4850 
   70.6250   -31.8860   340.9160     2.3460    83.2740    23.6160    54.1130    10.5770    10.8040 
   70.7500   -32.1440   393.6440     2.2370    85.3650    23.6570    30.1170     9.5560     9.8240 
   70.8750   -32.4440   435.5810     2.1610    84.9730    23.8150    15.2870     8.5120     8.8220 
   71.0000   -32.7580   454.3920     2.1280    82.5520    24.0820    10.6380     7.6510     7.9950 
   71.1250   -33.0480   453.8800     2.1230    80.2050    24.5460    10.3420     7.1190     7.4840 
   71.2500   -33.2920   449.6200     2.1210    78.4810    25.2490    10.6220     6.8700     7.2450 
   71.3750   -33.4840   447.7260     2.1100    76.3030    26.1060    11.0920     6.8310     7.2080 
   71.5000   -33.6260   449.1860     2.0860    72.8380    26.8560    11.4470     6.8970     7.2710 
   71.6250   -33.7000   452.1560     2.0620    69.1490    27.2440    11.5790     6.9670     7.3380 
   71.7500   -33.7090   454.1250     2.0540    66.9790    27.4400    11.6040     6.9980     7.3680 
   71.8750   -33.6650   454.7280     2.0590    66.1650    27.6060    11.5830     6.9900     7.3600 
   72.0000   -33.5840   454.8810     2.0600    65.8420    27.7630    11.4940     6.9510     7.3230 
   72.1250   -33.4770   455.4770     2.0510    66.2000    28.0210    11.5180     6.8930     7.2670 
   72.2500   -33.3610   456.3420     2.0400    67.3890    28.3800    11.5010     6.8330     7.2100 
   72.3750   -33.2430   457.1200     2.0340    68.8960    28.6860    11.4370     6.7800     7.1590 
   72.5000   -33.1190   457.5490     2.0340    70.3610    28.7470    11.3260     6.7370     7.1170 
   72.6250   -32.9850   457.0990     2.0400    71.6540    28.4050    11.2410     6.7040     7.0860 
   72.7500   -32.8500   455.9050     2.0520    72.6490    27.7100    10.9870     6.6780     7.0610 
   72.8750   -32.7240   455.1680     2.0710    73.6190    26.9950    10.5260     6.6590     7.0420 
   73.0000   -32.6100   456.7180     2.0950    74.7610    26.5210     9.9100     6.6410     7.0260 
   73.1250   -32.5110   461.3830     2.1170    75.1970    26.3420     9.2480     6.6220     7.0070 
   73.2500   -32.4190   466.2930     2.1290    74.6760    26.2870     8.8160     6.5990     6.9850 
   73.3750   -32.3220   468.6290     2.1260    74.0890    26.1670     8.6340     6.5820     6.9690 
   73.5000   -32.2140   467.0190     2.1120    73.7540    25.9600     8.5700     6.5790     6.9660 
   73.6250   -32.0930   461.7220     2.0990    73.0490    25.8780     8.6080     6.5990     6.9850 
   73.7500   -31.9610   455.5870     2.0950    72.5410    26.0240     8.7330     6.6360     7.0200 
   73.8750   -31.8070   451.3580     2.0980    73.3370    26.1610     9.0080     6.6830     7.0650 
   74.0000   -31.6260   451.5280     2.1040    75.0770    26.0060     9.6720     6.7310     7.1120 
   74.1250   -31.4310   457.0580     2.1090    75.9750    25.4340    11.0940     6.7650     7.1450 
   74.2500   -31.2440   463.6580     2.1110    76.0660    24.7710    12.7050     6.7700     7.1500 
   74.3750   -31.0660   467.3080     2.1130    76.3260    24.1570    13.4630     6.7410     7.1220 
   74.5000   -30.8910   466.8000     2.1140    77.2080    23.6730    12.8640     6.6810     7.0640 
   74.6250   -30.7280   464.7810     2.1140    78.5880    23.5660    11.2310     6.6060     6.9910 
   74.7500   -30.5840   464.2590     2.1180    80.0420    23.8160     9.3640     6.5380     6.9260 
   74.8750   -30.4620   464.6150     2.1260    80.9600    24.3490     7.7370     6.4860     6.8770 
   75.0000   -30.3600   464.1740     2.1330    80.6100    24.9650     6.6410     6.4550     6.8460 
   75.1250   -30.2660   463.2200     2.1290    79.0870    25.2710     6.1990     6.4440     6.8360 
   75.2500   -30.1560   463.5750     2.1160    77.8080    25.2800     6.3930     6.4450     6.8370 
   75.3750   -30.0250   464.9740     2.1040    77.4050    25.1740     6.8180     6.4450     6.8380 
   75.5000   -29.8850   465.5930     2.1010    77.6880    25.0250     7.0670     6.4330     6.8260 
   75.6250   -29.7300   464.7040     2.1100    77.6080    24.8030     7.1180     6.3960     6.7900 
   75.7500   -29.5510   464.2540     2.1220    76.6060    24.5780     7.3020     6.3390     6.7350 
   75.8750   -29.3470   465.0240     2.1260    75.1900    24.4130     7.4090     6.2740     6.6730 
   76.0000   -29.1270   465.8440     2.1150    74.2180    24.2940     7.1890     6.2120     6.6130 
   76.1250   -28.8950   465.1170     2.0950    73.7450    24.2250     6.7420     6.1630     6.5670 
   76.2500   -28.6570   463.7720     2.0800    72.6820    24.2990     6.3700     6.1370     6.5410 
   76.3750   -28.4130   463.3100     2.0770    70.8890    24.4550     6.2230     6.1410     6.5450 
   76.5000   -28.1600   464.2660     2.0830    69.6820    24.5880     6.3110     6.1760     6.5790 
   76.6250   -27.8930   465.6580     2.0900    70.6420    24.8580     6.5160     6.2360     6.6370 
   76.7500   -27.6120   465.9120     2.1000    73.1110    25.2500     6.6550     6.3050     6.7030 
   76.8750   -27.3050   464.5180     2.1120    75.5170    25.6600     6.7450     6.3720     6.7670 
   77.0000   -26.9470   462.0550     2.1200    76.3590    25.7570     6.8710     6.4340     6.8260 
   77.1250   -26.4990   459.9120     2.1180    75.5530    25.2330     6.9660     6.4960     6.8860 
   77.2500   -25.9680   459.0340     2.1150    74.5990    24.3660     6.9530     6.5630     6.9510 
   77.3750   -25.3560   459.3260     2.1140    74.0610    23.6120     6.9260     6.6330     7.0170 
   77.5000   -24.6610   459.7470     2.1130    73.9070    23.0990     7.0260     6.6870     7.0700 
   77.6250   -23.8990   458.2770     2.1160    75.5080    22.9110     7.2510     6.6760     7.0590 
   77.7500   -23.1340   454.0670     2.1340    80.3540    22.8730     7.5920     6.5570     6.9440 
   77.8750   -22.4220   447.8150     2.1770    88.3070    22.9260     7.9030     6.2980     6.6960 
   78.0000   -21.8210   441.9750     2.2430    98.6070    23.0410     7.8560     5.8970     6.3110 
   78.1250   -21.4060   440.7130     2.3130   110.9290    23.1240     7.1760     5.3900     5.8240 
   78.2500   -21.1770   444.9970     2.3610   122.5830    23.1670     6.0100     4.8870     5.3410 
   78.3750   -21.1470   453.1860     2.3720   129.9830    23.1920     4.8360     4.4860     4.9570 
   78.5000   -21.3240   461.5690     2.3620   131.5440    23.2210     4.0630     4.2640     4.7440 
   78.6250   -21.7250   465.6700     2.3670   127.7960    23.2640     3.8210     4.3120     4.7890 
   78.7500   -22.2510   465.4230     2.3940   120.0700    23.3970     4.4110     4.6090     5.0750 
   78.8750   -22.8290   462.9590     2.4220   108.2300    23.6520     7.1650     5.1220     5.5670 
   79.0000   -23.3930   460.5530     2.4180    94.5410    23.8680    12.9860     5.7700     6.1890 
   79.1250   -23.8940   459.3350     2.3620    84.0650    23.9150    19.0180     6.4320     6.8250 
   79.2500   -24.3150   459.2570     2.2860    78.5210    23.9040    19.3270     6.9840     7.3550 
   79.3750   -24.6330   460.3070     2.2160    76.4620    23.9670    14.8490     7.3580     7.7140 
   79.5000   -24.8260   461.8060     2.1720    75.5610    24.0420    10.7340     7.5500     7.8980 
   79.6250   -24.8690   462.3370     2.1580    74.3310    24.0730     9.1370     7.5940     7.9400 
   79.7500   -24.8070   461.9480     2.1580    72.9360    24.0750     9.0220     7.5850     7.9320 
   79.8750   -24.6720   461.8660     2.1600    71.7870    24.0700     9.2010     7.5900     7.9360 
