~V
VERS. 2.00: Ver 2.00
~W
STRT.M 62.0000:
STOP.M 272.0000:
STEP.M 0.1250:
NULL. -999.2500:
UWI. DF32144:
~C
DEPT.M :
SP.MV :
DEN.GM/CC :
GR.API :
RML.OHMM :
RI. :
RXO.OHMM :
CALI.CM :
~A
# ...
   73.2500   -15.5210     2.1700    70.1310     8.5450     7.7410     8.2550    20.0510 
   73.3750   -15.3550     2.1710    71.8940     8.5280     7.6590     8.3540    19.7080 
   73.5000   -15.0260     2.1740    77.9580     8.4320     7.5120     8.4640    18.7940 
   73.6250   -14.4660     2.1850    82.9910     8.1060     7.2010     8.3510    18.3770 
   73.7500   -13.7050     2.2040    83.6730     7.5620     6.7370     7.8410    19.2090 
   73.8750   -12.8080     2.2310    81.6570     6.9060     6.1940     6.9900    20.6620 
   74.0000   -11.8760     2.2620    83.1970     6.3150     5.6960     6.3650    21.6460 
   74.1250   -11.0050     2.2880    91.4420     6.0120     5.3990     5.8790    21.8880 
   74.2500   -10.2940     2.2990    95.0610     6.0510     5.3460     5.6930    21.7920 
   74.3750    -9.8520     2.2910    90.1340     6.4370     5.5490     5.8270    21.5590 
   74.5000    -9.6940     2.2700    82.3830     7.1110     5.9800     6.5390    21.3290 
   74.6250    -9.8770     2.2420    78.4310     7.9200     6.5530     7.5730    21.4210 
   74.7500   -10.3080     2.2180    76.4570     8.6020     7.0690     8.3930    21.6730 
   74.8750   -10.8650     2.2030    75.6470     8.9700     7.3750     8.7260    21.8590 
   75.0000   -11.4760     2.1980    77.0010     8.9630     7.4050     8.9740    21.9210 
   75.1250   -12.0620     2.2030    77.9960     8.6690     7.2040     8.3340    21.9280 
   75.2500   -12.5400     2.2090    78.2230     8.3720     6.9680     7.3140    21.9330 
   75.3750   -12.8960     2.2120    77.7680     8.2580     6.8270     7.0010    21.9060 
   75.5000   -13.1430     2.2070    74.1410     8.4080     6.8440     7.7310    21.8200 
   75.6250   -13.3120     2.1940    67.1190     8.8080     7.0400     8.8640    21.6610 
   75.7500   -13.4850     2.1800    63.3270     9.2740     7.3120     9.2500    21.5640 
   75.8750   -13.6930     2.1700    65.0530     9.6360     7.5580     9.1300    21.4580 
   76.0000   -13.9490     2.1630    68.5120     9.7620     7.6760     9.1900    21.3020 
   76.1250   -14.2100     2.1610    71.3180     9.6040     7.6050     9.3800    21.3480 
   76.2500   -14.4440     2.1630    72.9960     9.3350     7.4400     9.2380    21.4610 
   76.3750   -14.6060     2.1690    73.4510     9.1120     7.2820     8.8400    21.5370 
   76.5000   -14.7080     2.1770    72.1560     9.0420     7.2130     8.5880    21.5580 
   76.6250   -14.7720     2.1840    71.7700     9.1850     7.2880     8.8470    21.5830 
   76.7500   -14.7890     2.1850    71.9250     9.4460     7.4620     9.3240    21.6480 
   76.8750   -14.8320     2.1820    70.8510     9.7170     7.6700     9.9210    21.7080 
   77.0000   -14.9110     2.1760    69.4630     9.8910     7.8410    10.3810    21.6630 
   77.1250   -15.0690     2.1720    69.8180     9.8880     7.9050    10.1720    21.4310 
   77.2500   -15.2430     2.1690    69.6650     9.7720     7.8850     9.6880    21.1460 
   77.3750   -15.4120     2.1660    67.3650     9.6160     7.8200     9.3800    20.8460 
   77.5000   -15.5680     2.1620    64.6100     9.4920     7.7560     9.5090    20.7450 
   77.6250   -15.7170     2.1580    65.7800     9.4540     7.7360     9.9970    20.9450 
   77.7500   -15.8600     2.1570    68.5290     9.4980     7.7720    10.1330    21.2220 
   77.8750   -15.8900     2.1580    70.1990     9.6170     7.8670     9.9710    21.2820 
   78.0000   -15.8260     2.1600    69.5920     9.7810     8.0110     9.9010    21.1740 
   78.1250   -15.7070     2.1610    67.9180     9.9380     8.1770    10.0620    21.1030 
   78.2500   -15.6630     2.1600    66.6930    10.0190     8.3150    10.1890    21.0940 
   78.3750   -15.7160     2.1590    65.8970     9.9590     8.3750    10.2900    21.1150 
   78.5000   -15.8390     2.1550    65.0850     9.7230     8.3180    10.3820    21.1610 
   78.6250   -15.9480     2.1470    64.3870     9.3210     8.1290    10.3710    21.2610 
   78.7500   -15.9650     2.1360    64.6120     8.9260     7.9140    10.4220    21.4030 
   78.8750   -15.9510     2.1240    66.5870     8.7660     7.8210    10.4920    21.5510 
   79.0000   -15.8660     2.1200    68.4870     9.0680     8.0120    10.7240    21.7490 
   79.1250   -15.5780     2.1480    68.0880     9.9800     8.6360    11.4330    22.2090 
   79.2500   -14.9990     2.2130    64.1350    11.1490     9.5170    13.2150    22.8440 
   79.3750   -14.0850     2.3050    59.7000    12.0720    10.3320    17.4300    23.4580 
   79.5000   -12.9600     2.3960    59.6450    12.1900    10.6350    25.7930    23.8500 
   79.6250   -11.7290     2.4410    66.5690    11.1370    10.0450    20.2690    23.8940 
   79.7500   -10.5410     2.4330    75.1450     9.5710     8.9830    10.9160    23.8520 
   79.8750    -9.3950     2.3850    80.6000     8.1350     7.9140     7.4400    23.8470 
   80.0000    -8.3120     2.3210    84.5160     7.2040     7.1310     7.1010    23.8720 
   80.1250    -7.3520     2.2700    87.6400     6.8650     6.7430     8.0200    23.7570 
   80.2500    -6.4870     2.2410    86.6760     6.7760     6.5560     8.5660    23.5500 
   80.3750    -5.7130     2.2350    84.1120     6.6470     6.3710     8.0350    23.5750 
   80.5000    -4.9450     2.2470    85.5250     6.3120     6.0460     6.3710    24.0450 
   80.6250    -4.2120     2.2670    92.7710     5.8500     5.6100     5.3920    24.7050 
   80.7500    -3.4990     2.2860   100.5030     5.5030     5.2390     5.0360    25.1440 
   80.8750    -2.8370     2.2970   104.8490     5.3640     5.0180     4.9700    25.3430 
   81.0000    -2.2150     2.3000   103.4620     5.4020     4.9520     5.1120    25.2390 
   81.1250    -1.6150     2.2970    97.5590     5.5440     5.0200     5.4220    24.9680 
   81.2500    -1.1070     2.3000    92.9920     5.7260     5.1810     5.5870    25.0250 
   81.3750    -0.8280     2.3200    90.1600     5.9800     5.4520     5.4200    25.3430 
   81.5000    -0.8870     2.3580    86.2510     6.3810     5.8720     5.5190    25.5440 
   81.6250    -1.2530     2.4000    83.9270     6.9970     6.4850     6.8980    25.3810 
   81.7500    -1.8250     2.4160    83.1260     7.7370     7.2050     9.3990    24.7690 
   81.8750    -2.5550     2.3900    79.7480     8.5200     7.9490     9.9770    23.8220 
   82.0000    -3.3870     2.3330    74.8030     9.2930     8.6530     9.3700    23.2310 
   82.1250    -4.2510     2.2870    70.9140     9.9670     9.2370     9.0550    23.3400 
   82.2500    -4.9860     2.2880    67.2680    10.4040     9.6030    10.0560    23.7820 
   82.3750    -5.4720     2.3380    64.3890    10.4010     9.5870    12.4890    24.3300 
   82.5000    -5.5820     2.4040    65.7870     9.7690     9.0310    15.2360    24.8980 
   82.6250    -5.3140     2.4370    72.4610     8.4120     7.8750    12.5260    25.2740 
   82.7500    -4.7660     2.4220    80.2650     6.8350     6.5430     7.4940    25.3320 
   82.8750    -3.9980     2.3800    89.8940     5.5650     5.4210     5.6490    25.2190 
   83.0000    -3.1430     2.3480    99.3960     4.9860     4.7660     5.1790    25.1130 
   83.1250    -2.3520     2.3670   101.5910     5.4210     4.7960     5.2000    25.0760 
   83.2500    -1.8320     2.4240    96.6150     6.7010     5.4410     6.3970    25.1590 
   83.3750    -1.6880     2.4860    88.3250     8.5740     6.6150    10.5450    25.2800 
   83.5000    -1.9580     2.5130    80.2150    10.4780     8.0250    15.6350    25.1240 
   83.6250    -2.6200     2.4750    74.8870    11.4600     9.0360    13.9190    24.5200 
   83.7500    -3.5840     2.3960    73.2580    11.2940     9.3050     9.8610    23.9450 
   83.8750    -4.7500     2.3060    72.9770    10.3670     8.9710     8.1510    23.6580 
   84.0000    -6.0220     2.2330    71.8690     9.3190     8.4240     8.3910    23.4960 
   84.1250    -7.3270     2.1920    71.8050     8.6670     8.0170     9.0140    23.3850 
   84.2500    -8.5770     2.1740    74.4490     8.4060     7.8160     9.4990    23.2700 
   84.3750    -9.7250     2.1710    76.7330     8.3860     7.7560     9.2080    23.1030 
