~V
VERS. 2.00: Ver 2.00
~W
STRT.M 60.0000:
STOP.M 271.0000:
STEP.M 0.1250:
NULL. -999.2500:
UWI. DF324:
~C
DEPT.M :
SP.MV :
AC.US/MT :
DEN.GM/CC :
GR.API :
CALI.CM :
RXO.OHMM :
RI. :
RML.OHMM :
~A
# ...
  150.0000   -17.5970   428.1370     2.2840   108.7780    23.8050     4.3310     3.8920     4.3660 
  150.1250   -17.6760   428.5040     2.2940   105.1010    23.6480     4.2250     3.8640     4.3370 
  150.2500   -17.7320   428.1340     2.3020   100.1270    23.6180     4.1650     3.8340     4.3060 
  150.3750   -17.7660   427.4690     2.3100    97.1960    23.6670     4.1790     3.7950     4.2640 
  150.5000   -17.7890   426.8690     2.3240    99.0390    23.7010     4.2050     3.7390     4.2060 
  150.6250   -17.8020   426.9590     2.3370   104.7020    23.6950     4.1110     3.6640     4.1270 
  150.7500   -17.8050   428.1860     2.3380   109.1590    23.6250     3.9440     3.5830     4.0420 
  150.8750   -17.7910   430.5730     2.3330   109.7110    23.4920     3.7500     3.5080     3.9630 
  151.0000   -17.7570   433.4950     2.3340   106.8580    23.4310     3.5790     3.4470     3.8990 
  151.1250   -17.7060   435.8180     2.3380   104.1410    23.6590     3.4320     3.4120     3.8620 
  151.2500   -17.6460   436.8960     2.3340   103.3440    23.9940     3.3440     3.4010     3.8510 
  151.3750   -17.5740   436.5340     2.3230   103.5600    24.2170     3.3090     3.4090     3.8590 
  151.5000   -17.4800   434.7690     2.3180   104.0890    24.2720     3.3210     3.4270     3.8780 
  151.6250   -17.3570   431.6950     2.3360   105.0750    24.2020     3.3790     3.4530     3.9050 
  151.7500   -17.2160   428.2900     2.3600   106.2700    24.1040     3.5050     3.4860     3.9410 
  151.8750   -17.0670   425.7040     2.3720   107.3040    24.0500     3.6600     3.5340     3.9900 
  152.0000   -16.9250   424.7540     2.3590   108.0530    24.0440     3.7850     3.5990     4.0590 
  152.1250   -16.7900   425.4270     2.3310   108.0700    24.0630     3.8120     3.6880     4.1520 
  152.2500   -16.6530   427.1890     2.3040   106.8380    24.0780     3.8300     3.7870     4.2560 
  152.3750   -16.5040   431.0860     2.2810   104.6380    24.0880     3.9340     3.8780     4.3520 
  152.5000   -16.3380   438.0640     2.2580   102.8090    24.1230     4.1940     3.9380     4.4150 
  152.6250   -16.1500   445.3780     2.2410   102.9710    24.1390     4.3910     3.9350     4.4120 
  152.7500   -15.9440   447.4760     2.2410   104.0910    24.1690     4.3400     3.8700     4.3440 
  152.8750   -15.7230   442.7660     2.2580   103.5440    24.2190     3.9880     3.7600     4.2280 
  153.0000   -15.4900   435.0740     2.2800   100.5570    24.2790     3.5000     3.6320     4.0940 
  153.1250   -15.2620   430.6640     2.2890    98.1840    24.3230     3.1830     3.5230     3.9790 
  153.2500   -15.0490   430.1540     2.2860    98.9880    24.3460     3.1150     3.4550     3.9080 
  153.3750   -14.8670   431.0150     2.2800   101.2550    24.3410     3.2560     3.4400     3.8920 
  153.5000   -14.7250   431.2040     2.2750   101.7820    24.3090     3.4770     3.4800     3.9340 
  153.6250   -14.6310   429.9540     2.2690    99.4690    24.2710     3.6960     3.5600     4.0180 
  153.7500   -14.5760   427.0290     2.2610    96.9640    24.2300     3.9090     3.6450     4.1080 
  153.8750   -14.5560   421.9600     2.2560    95.9650    24.1820     4.0630     3.7110     4.1770 
  154.0000   -14.5680   415.6660     2.2570    96.6840    24.0960     4.0540     3.7460     4.2140 
  154.1250   -14.6000   411.7160     2.2690    98.3870    23.9370     3.7650     3.7550     4.2230 
  154.2500   -14.6320   412.6200     2.2880    99.8040    23.7360     3.4220     3.7630     4.2310 
  154.3750   -14.6530   418.0370     2.3070   100.4630    23.5550     3.2190     3.7870     4.2570 
  154.5000   -14.6580   425.3780     2.3150   101.0870    23.4410     3.3130     3.8370     4.3090 
  154.6250   -14.6500   431.5430     2.3100   102.5110    23.4030     3.8650     3.9160     4.3910 
  154.7500   -14.6330   434.8410     2.3010   103.2910    23.4010     4.6990     4.0040     4.4840 
  154.8750   -14.6060   433.8040     2.2920   102.0570    23.4090     5.5770     4.0750     4.5580 
  155.0000   -14.5590   427.9690     2.2830   100.1380    23.4120     6.1520     4.0970     4.5820 
  155.1250   -14.4880   420.8180     2.2720   101.7440    23.4160     6.0330     4.0430     4.5260 
  155.2500   -14.4050   418.8710     2.2620   107.0900    23.4200     5.3830     3.9320     4.4090 
  155.3750   -14.3190   424.4420     2.2550   113.1060    23.4450     4.7250     3.7870     4.2560 
  155.5000   -14.2430   434.2310     2.2570   116.2400    23.5070     4.4550     3.6360     4.0980 
  155.6250   -14.1900   441.8370     2.2670   114.7010    23.5520     4.4770     3.5140     3.9700 
  155.7500   -14.1630   445.2800     2.2770   111.9480    23.5360     4.5250     3.4310     3.8830 
  155.8750   -14.1600   446.0930     2.2770   111.2110    23.4640     4.5710     3.3910     3.8410 
  156.0000   -14.1840   445.9000     2.2660   112.5970    23.3720     4.6420     3.3900     3.8400 
  156.1250   -14.2440   444.8580     2.2570   114.0670    23.2700     4.6370     3.4220     3.8730 
  156.2500   -14.3320   443.0030     2.2590   115.5520    23.1660     4.5890     3.4720     3.9260 
  156.3750   -14.4440   440.8210     2.2660   117.5850    23.1120     4.5290     3.5380     3.9950 
  156.5000   -14.5640   438.9710     2.2700   118.5000    23.0970     4.4560     3.6200     4.0810 
  156.6250   -14.6830   437.8490     2.2740   115.4540    23.0950     4.4760     3.7140     4.1800 
  156.7500   -14.8000   437.1070     2.2810   110.7110    23.0970     4.7010     3.8130     4.2840 
  156.8750   -14.9190   436.5270     2.2880   107.3800    23.0990     5.0840     3.9100     4.3860 
  157.0000   -15.0380   436.3330     2.2890   107.0310    23.1010     5.4580     3.9980     4.4780 
  157.1250   -15.1490   437.3100     2.2860   109.5450    23.1060     5.5950     4.0630     4.5460 
  157.2500   -15.2490   439.5590     2.2810   111.8270    23.1150     5.4790     4.1030     4.5880 
  157.3750   -15.3380   442.7650     2.2790   111.5560    23.1380     5.2260     4.1180     4.6040 
  157.5000   -15.4180   446.4670     2.2800   109.0820    23.1860     4.9670     4.1140     4.5990 
  157.6250   -15.4870   450.2550     2.2800   107.2100    23.2550     4.7200     4.0940     4.5790 
  157.7500   -15.5490   453.2070     2.2750   106.8050    23.2570     4.4640     4.0710     4.5550 
  157.8750   -15.6030   453.6600     2.2700   106.9940    23.1760     4.2820     4.0510     4.5340 
  158.0000   -15.6500   450.1540     2.2710   108.3420    23.0690     4.2160     4.0440     4.5260 
  158.1250   -15.6960   443.0090     2.2800   111.7590    22.9520     4.1550     4.0660     4.5490 
  158.2500   -15.7500   435.9020     2.2860   114.3020    22.8830     3.9860     4.1230     4.6090 
  158.3750   -15.8210   430.8100     2.2850   113.2960    22.8190     3.7970     4.2250     4.7160 
  158.5000   -15.9160   427.1690     2.2740   109.1240    22.7870     3.7410     4.3800     4.8790 
  158.6250   -16.0410   422.9240     2.2600   104.4830    22.7960     3.9880     4.6210     5.1320 
  158.7500   -16.1920   417.8490     2.2490   101.1100    22.8540     4.4930     4.9520     5.4800 
  158.8750   -16.3790   413.2300     2.2420    99.4590    22.9660     5.1710     5.3700     5.9180 
  159.0000   -16.6150   409.9590     2.2380    99.4410    23.0970     5.8830     5.8520     6.4240 
  159.1250   -16.9100   407.6230     2.2350   100.2490    23.2880     6.6730     6.3770     6.9760 
  159.2500   -17.2620   405.0980     2.2340   100.2180    23.5750     7.8990     6.9410     7.5680 
  159.3750   -17.6650   402.2710     2.2360    98.8540    23.8970     9.9320     7.5680     8.2270 
  159.5000   -18.1110   399.7360     2.2370    96.4820    24.1650    12.0730     8.3280     9.0240 
  159.6250   -18.5870   398.4650     2.2350    92.9950    24.2830    12.8180     9.4290    10.1800 
  159.7500   -19.0730   398.6090     2.2320    88.2960    24.3210    12.1310    11.0400    11.8720 
  159.8750   -19.5540   399.9100     2.2280    82.8000    24.3220    12.4670    13.3450    14.2920 
