~V
VERS. 2.00: Ver 2.00
~W
STRT.M 62.0000:
STOP.M 272.0000:
STEP.M 0.1250:
NULL. -999.2500:
UWI. DF32144:
~C
DEPT.M :
SP.MV :
DEN.GM/CC :
GR.API :
RML.OHMM :
RI. :
RXO.OHMM :
CALI.CM :
~A
# ...
  242.0000   -15.1750     2.2870    92.2740    13.1570    14.1040    12.7920    24.4670 
  242.1250   -15.4630     2.2760    92.3380    12.9800    13.9300    15.1270    24.1490 
  242.2500   -15.8220     2.2790    90.7900    12.6190    13.5140    15.2070    23.9420 
  242.3750   -16.2930     2.2930    87.9040    12.2140    12.9990    13.3800    23.9530 
  242.5000   -16.8890     2.3120    83.8650    11.9320    12.5400    12.2680    24.2030 
  242.6250   -17.6550     2.3220    80.9730    11.9710    12.3160    13.9140    24.7190 
  242.7500   -18.3970     2.3210    81.2310    12.3860    12.4000    16.1320    25.1640 
  242.8750   -19.0320     2.3100    84.3150    13.2310    12.8630    15.9350    25.4140 
  243.0000   -19.5930     2.2930    88.7110    14.5380    13.7510    14.0580    25.4660 
  243.1250   -20.1500     2.2740    93.2440    16.3970    15.1510    15.2250    25.4280 
  243.2500   -20.6700     2.2550    95.4840    18.7090    16.9790    19.6630    25.4650 
  243.3750   -21.0780     2.2360    95.1120    21.3960    19.1840    25.9710    25.5880 
  243.5000   -21.3540     2.2200    94.3630    24.2930    21.6400    30.2120    25.7270 
  243.6250   -21.5200     2.2080    93.0670    27.1030    24.1000    31.6150    25.8210 
  243.7500   -21.6720     2.2000    91.5230    29.4880    26.2320    33.9190    25.8510 
  243.8750   -21.7940     2.1950    93.0340    31.0600    27.6720    36.2840    25.8460 
  244.0000   -21.8420     2.1900    97.6320    31.3460    27.9730    39.1480    25.7910 
  244.1250   -21.7570     2.1840    99.1570    29.6800    26.5160    40.9180    25.6450 
  244.2500   -21.5370     2.1810    97.7150    26.5410    23.7550    37.4130    25.3750 
  244.3750   -21.2560     2.1830    96.4920    22.6990    20.4120    28.1300    24.7030 
  244.5000   -20.9410     2.1900    95.2400    19.0630    17.2760    17.4670    23.1020 
  244.6250   -20.5750     2.1990    94.1290    16.4920    15.0170    11.1780    20.7230 
  244.7500   -20.2630     2.2070    95.4580    15.0950    13.6860     9.2810    19.1050 
  244.8750   -19.9870     2.2130    96.8410    14.8150    13.2550    10.2760    19.3440 
  245.0000   -19.6740     2.2230    96.4100    15.4400    13.6190    11.9940    20.8370 
  245.1250   -19.3710     2.2380    96.1720    16.6930    14.6610    13.1840    22.4380 
  245.2500   -19.1790     2.2540    96.3950    18.0690    15.9760    16.3500    23.4290 
  245.3750   -19.0590     2.2660    94.2710    19.2370    17.2480    20.5610    23.7420 
  245.5000   -18.9620     2.2710    89.6530    19.9380    18.1830    21.3290    23.7340 
  245.6250   -18.8490     2.2690    87.5420    19.8390    18.3960    17.5390    23.6370 
  245.7500   -18.5970     2.2640    89.3830    18.9210    17.7930    15.2520    23.6340 
  245.8750   -18.2170     2.2600    92.6340    17.2310    16.3770    16.7010    23.7170 
  246.0000   -17.7630     2.2590    93.7400    15.0100    14.3780    16.3770    23.7110 
  246.1250   -17.2030     2.2650    92.9640    12.6640    12.1980    12.4610    23.6510 
  246.2500   -16.5270     2.2790    91.4050    10.5810    10.2360     8.4340    23.6490 
  246.3750   -15.7700     2.2980    86.2380     8.9490     8.6710     6.7720    23.6890 
  246.5000   -15.0330     2.3170    78.5620     7.8440     7.5620     6.2790    23.7170 
  246.6250   -14.3220     2.3340    74.5110     7.3460     6.9780     6.2370    23.7230 
  246.7500   -13.6480     2.3510    73.9690     7.3030     6.8060     6.3300    23.7270 
  246.8750   -13.1360     2.3730    73.0390     7.6240     6.9960     6.5580    23.7290 
  247.0000   -12.8380     2.4040    71.3980     8.2330     7.4940     6.9670    23.7290 
  247.1250   -12.7180     2.4370    72.8970     9.1330     8.2940     7.9010    23.7310 
  247.2500   -12.7570     2.4610    74.0910    10.2680     9.3110     9.9410    23.6930 
  247.3750   -12.9530     2.4680    71.3430    11.5640    10.4730    13.5040    23.5860 
  247.5000   -13.1500     2.4570    66.8460    12.8380    11.6230    15.1320    23.3700 
  247.6250   -13.2170     2.4390    66.7100    13.6850    12.4150    14.8780    23.3170 
  247.7500   -13.2280     2.4290    70.1870    13.8280    12.5880    13.5220    22.9890 
  247.8750   -13.1060     2.4340    72.2590    13.1620    12.0330    12.0870    22.6410 
  248.0000   -12.7770     2.4490    71.3410    11.8600    10.9020    10.4780    22.6080 
  248.1250   -12.2720     2.4590    69.2670    10.3420     9.5610     8.9360    23.1220 
  248.2500   -11.7170     2.4510    66.7780     9.0840     8.4110     7.6750    23.9070 
  248.3750   -11.2170     2.4250    63.4390     8.3190     7.6410     7.1270    24.8560 
  248.5000   -10.8730     2.3890    61.9750     8.1230     7.3200     7.0920    25.5370 
  248.6250   -10.8020     2.3560    66.5450     8.4980     7.4920     7.6590    25.7810 
  248.7500   -10.8730     2.3350    73.6100     9.1390     7.9610     8.9640    25.7890 
  248.8750   -11.0050     2.3250    78.5530     9.7670     8.5310    10.1030    25.6010 
  249.0000   -11.1850     2.3200    80.8650    10.1260     8.9850     9.9550    25.1550 
  249.1250   -11.3390     2.3160    81.5640    10.0520     9.1330     8.7930    24.4680 
  249.2500   -11.3580     2.3120    81.0060     9.7330     9.0440     8.4200    23.9470 
  249.3750   -11.1380     2.3100    78.9050     9.3640     8.8320     8.0030    23.7510 
  249.5000   -10.7240     2.3110    75.4840     9.0750     8.5910     7.6150    23.7960 
  249.6250   -10.0960     2.3170    73.3870     8.8760     8.3460     7.6990    23.9480 
  249.7500    -9.3020     2.3260    73.5650     8.6620     8.0610     7.9150    24.1000 
  249.8750    -8.5170     2.3350    74.9620     8.3740     7.7100     7.7890    24.2980 
  250.0000    -7.8580     2.3410    73.7660     8.0260     7.3160     7.1100    24.5970 
  250.1250    -7.3840     2.3420    69.2770     7.7250     6.9700     6.8070    25.0250 
  250.2500    -7.1340     2.3390    68.4950     7.5760     6.7570     6.8680    25.5210 
  250.3750    -7.1120     2.3340    73.5590     7.6390     6.7320     7.0960    25.9440 
  250.5000    -7.1740     2.3310    80.4000     7.9540     6.9370     7.6790    26.2150 
  250.6250    -7.3590     2.3380    82.6700     8.6580     7.4800     9.0460    26.3050 
  250.7500    -7.7530     2.3590    81.9840     9.8490     8.4130    11.6960    26.2740 
  250.8750    -8.2140     2.3920    83.1030    11.7190     9.8660    16.5960    26.1290 
  251.0000    -8.6850     2.4300    87.6890    14.4230    11.9810    24.6080    25.8830 
  251.1250    -9.2290     2.4560    90.4780    17.9280    14.8660    38.3700    25.7640 
  251.2500    -9.7520     2.4590    90.6070    21.3040    17.8930    45.6820    25.6980 
  251.3750   -10.1740     2.4350    92.5100    23.2500    19.9650    42.7030    25.6160 
  251.5000   -10.4870     2.3930    96.4290    22.6810    19.9530    34.4750    25.5180 
  251.6250   -10.5850     2.3470    95.7240    19.5020    17.5650    25.3760    25.5150 
  251.7500   -10.4460     2.3090    88.0120    15.6270    14.4360    17.5360    25.5410 
  251.8750   -10.1910     2.2860    78.7000    12.2720    11.6050    11.6270    25.5540 
  252.0000    -9.8370     2.2760    71.2520     9.9360     9.5080     8.5450    25.6010 
  252.1250    -9.3240     2.2780    66.8740     8.7060     8.2620     7.4240    25.7430 
  252.2500    -8.7530     2.2870    65.6950     8.1350     7.5840     7.3030    25.8570 
  252.3750    -8.2120     2.3000    67.3390     7.9810     7.3240     7.4870    25.8640 
  252.5000    -7.7770     2.3120    70.2130     8.0520     7.3440     7.7260    25.7740 
  252.6250    -7.5670     2.3180    70.8520     8.2190     7.5400     7.8350    25.5310 
  252.7500    -7.5980     2.3190    69.4320     8.4100     7.8060     7.8230    25.2380 
  252.8750    -7.7500     2.3170    68.5610     8.6400     8.1210     7.7690    25.0010 
  253.0000    -7.9400     2.3160    71.1200     8.9500     8.4950     7.8800    24.9590 
  253.1250    -8.2380     2.3180    75.8520     9.3730     8.9490     8.2990    25.1280 
