~V
VERS. 2.00: Ver 2.00
~W
STRT.M 62.0000:
STOP.M 272.0000:
STEP.M 0.1250:
NULL. -999.2500:
UWI. DF32143:
~C
DEPT.M :
SP.MV :
GR.API :
CALI.CM :
RXO.OHMM :
RI. :
RML.OHMM :
DEN.GM/CC :
~A
# ...
  107.0000   -25.7470    69.8430    23.6470     7.3780     5.7780     7.1430     2.1830 
  107.1250   -24.6320    73.2760    23.5080     6.9360     5.4790     6.6490     2.1930 
  107.2500   -23.4360    75.0170    23.3370     6.2710     5.1150     6.0860     2.2080 
  107.3750   -22.2520    75.6890    23.1440     5.4360     4.7550     5.5740     2.2330 
  107.5000   -21.1650    76.8230    22.9260     4.6170     4.4610     5.2080     2.2630 
  107.6250   -20.2790    77.3100    22.6960     4.2060     4.2920     5.0540     2.2790 
  107.7500   -19.6130    74.6560    22.5150     4.2290     4.2250     5.0440     2.2760 
  107.8750   -19.1950    70.9020    22.4340     4.4940     4.2270     5.0950     2.2660 
  108.0000   -19.0760    70.8750    22.4340     4.7570     4.2560     5.1260     2.2650 
  108.1250   -19.3580    76.6600    22.4820     4.8470     4.2830     5.0990     2.2850 
  108.2500   -19.9620    80.7440    22.5750     4.7600     4.3200     5.0900     2.3070 
  108.3750   -20.8070    79.0140    22.7650     4.6110     4.4130     5.2050     2.3090 
  108.5000   -21.8040    74.1770    23.0730     4.7170     4.6130     5.5320     2.2840 
  108.6250   -22.8760    72.0540    23.3810     5.5520     4.9680     6.1260     2.2520 
  108.7500   -23.9220    72.1350    23.5650     6.8210     5.4240     6.8640     2.2310 
  108.8750   -24.8650    70.5940    23.6150     7.8430     5.8940     7.5930     2.2210 
  109.0000   -25.6050    67.6320    23.6060     8.1820     6.2650     8.1290     2.2170 
  109.1250   -25.9770    67.5240    23.6060     8.0450     6.3900     8.2460     2.2150 
  109.2500   -25.9810    70.8930    23.6090     7.9200     6.2590     7.9410     2.2090 
  109.3750   -25.6550    74.5110    23.6110     7.7680     5.9120     7.2950     2.1960 
  109.5000   -25.0830    74.8840    23.6060     7.4200     5.4660     6.5330     2.1800 
  109.6250   -24.3740    71.7980    23.6130     6.8240     5.1380     6.0630     2.1840 
  109.7500   -23.7310    68.6190    23.7060     6.4910     5.1230     6.1990     2.2270 
  109.8750   -23.2640    66.5030    23.9040     7.5840     5.5950     7.1950     2.3160 
  110.0000   -23.0530    63.1760    24.1230    12.2200     6.7290     9.2340     2.4320 
  110.1250   -23.2150    59.1620    24.2290    23.1840     8.7150    12.4100     2.5350 
  110.2500   -23.6780    58.6440    24.2150    34.8510    11.0160    15.6460     2.5990 
  110.3750   -24.3740    60.6380    24.0980    39.9880    12.6240    17.2310     2.6170 
  110.5000   -25.2300    59.5380    23.7990    36.3180    12.6410    16.1390     2.5820 
  110.6250   -26.1810    55.7200    23.2000    27.3820    11.2140    13.4360     2.4910 
  110.7500   -27.1060    55.6340    22.4670    18.6690     9.6050    11.1240     2.3780 
  110.8750   -27.9280    59.3180    21.8450    13.1690     8.3540     9.7220     2.2780 
  111.0000   -28.6070    64.3460    21.4970    11.1040     7.5810     9.1360     2.2130 
  111.1250   -29.0870    68.5030    21.4040    11.0520     7.2610     9.1440     2.1890 
  111.2500   -29.4260    71.2620    21.4090    11.3520     7.1900     9.3700     2.1820 
  111.3750   -29.6520    71.6470    21.4570    11.4550     7.2540     9.6270     2.1800 
  111.5000   -29.8020    69.6810    21.5300    11.2240     7.3590     9.8080     2.1800 
  111.6250   -29.8910    67.4960    21.6190    10.7100     7.4460     9.8810     2.1840 
  111.7500   -29.9360    65.6420    21.7080    10.2430     7.5020     9.8880     2.1890 
  111.8750   -29.9600    65.8260    21.7910    10.0410     7.5290     9.8500     2.1930 
  112.0000   -29.9830    66.4950    21.8860    10.1110     7.5310     9.7800     2.1960 
  112.1250   -30.0080    65.4290    22.0650    10.2710     7.5180     9.7000     2.2010 
  112.2500   -30.0460    63.1030    22.3320    10.3540     7.4980     9.6280     2.2060 
  112.3750   -30.1130    60.3370    22.6270    10.3430     7.4760     9.5710     2.2070 
  112.5000   -30.1970    58.4260    22.8670    10.2830     7.4490     9.5260     2.2020 
  112.6250   -30.2900    59.3690    22.9980    10.2270     7.4130     9.4800     2.1920 
  112.7500   -30.3830    62.2570    23.0540    10.2020     7.3670     9.4160     2.1840 
  112.8750   -30.4650    63.4200    23.0680    10.1980     7.3140     9.3310     2.1760 
  113.0000   -30.5240    61.0990    23.0670    10.1790     7.2650     9.2390     2.1680 
  113.1250   -30.5370    59.2640    23.0670    10.1030     7.2380     9.1780     2.1600 
  113.2500   -30.5120    59.9710    23.0670    10.0070     7.2400     9.1740     2.1560 
  113.3750   -30.4370    62.0450    23.0580     9.9570     7.2650     9.2260     2.1590 
  113.5000   -30.2950    62.4120    23.0340    10.0110     7.2950     9.2990     2.1690 
  113.6250   -30.0820    61.0580    23.0060    10.1300     7.2960     9.3260     2.1800 
  113.7500   -29.8360    60.7840    22.9910    10.1180     7.2530     9.2720     2.1870 
  113.8750   -29.5580    63.7940    22.9850     9.8630     7.1680     9.1480     2.1880 
  114.0000   -29.2560    68.4060    22.9710     9.4650     7.0590     8.9920     2.1860 
  114.1250   -28.9590    68.3860    22.9390     9.1900     6.9510     8.8540     2.1850 
  114.2500   -28.6820    65.3490    22.9020     9.1110     6.8590     8.7520     2.1850 
  114.3750   -28.4460    64.1280    22.8670     9.1030     6.7850     8.6750     2.1830 
  114.5000   -28.2800    66.1170    22.8230     9.0370     6.7240     8.6030     2.1790 
  114.6250   -28.2100    65.8690    22.7570     8.8870     6.6780     8.5350     2.1830 
  114.7500   -28.1940    63.7590    22.6860     8.7130     6.6550     8.4950     2.1960 
  114.8750   -28.2110    63.8010    22.6010     8.5620     6.6690     8.5180     2.2070 
  115.0000   -28.2410    65.2040    22.4530     8.5290     6.7310     8.6180     2.2050 
  115.1250   -28.2650    64.0480    22.2130     8.6810     6.8300     8.7650     2.1890 
  115.2500   -28.2480    61.2510    21.9050     8.8940     6.9110     8.8640     2.1710 
  115.3750   -28.1830    59.7700    21.3930     9.0950     6.9230     8.8410     2.1630 
  115.5000   -28.0700    59.5040    20.5490     9.2350     6.8450     8.6740     2.1620 
  115.6250   -27.9120    59.7850    19.5850     9.2350     6.6900     8.4120     2.1650 
  115.7500   -27.7310    60.2840    18.9100     9.2790     6.5190     8.1590     2.1670 
  115.8750   -27.5520    60.0760    18.5960     9.5810     6.3730     7.9770     2.1680 
  116.0000   -27.3820    60.2340    18.4690     9.8680     6.2700     7.8800     2.1750 
  116.1250   -27.2380    63.3210    18.3770     9.3890     6.2000     7.8170     2.1880 
  116.2500   -27.1400    66.8780    18.3030     8.3860     6.1150     7.6950     2.2010 
  116.3750   -27.0790    68.4890    18.3010     7.6010     5.9930     7.4760     2.2040 
  116.5000   -27.0250    69.5160    18.4520     7.3730     5.8420     7.2040     2.1980 
  116.6250   -26.9010    75.0520    18.7170     7.4390     5.7170     7.0050     2.1930 
  116.7500   -26.6300    80.7110    18.9710     7.5530     5.6760     6.9780     2.1890 
  116.8750   -26.1580    80.2760    19.2230     7.8810     5.7480     7.1500     2.1830 
  117.0000   -25.4490    75.9090    19.5190     8.5170     5.9050     7.4410     2.1730 
  117.1250   -24.4280    74.4480    19.8330     9.1360     6.0330     7.6280     2.1640 
  117.2500   -23.2040    75.4560    20.1320     9.0710     6.0090     7.5160     2.1630 
  117.3750   -21.8930    77.4400    20.4760     7.9790     5.7820     7.0570     2.1800 
  117.5000   -20.5840    81.8890    20.9380     6.2550     5.3940     6.3670     2.2210 
  117.6250   -19.3430    88.2970    21.5370     5.1080     4.9630     5.6870     2.2800 
  117.7500   -18.2510    92.3010    22.1490     5.1200     4.6100     5.1970     2.3340 
  117.8750   -17.3460    92.4980    22.6150     5.9180     4.3790     4.9360     2.3640 
  118.0000   -16.6550    90.8440    22.8250     6.5670     4.2680     4.8640     2.3660 
  118.1250   -16.2280    89.4460    22.7930     6.2900     4.2610     4.9250     2.3500 
