~V
VERS. 2.00: Ver 2.00
~W
STRT.M 62.0000:
STOP.M 260.0000:
STEP.M 0.1250:
NULL. -999.2500:
UWI. DF32117:
~C
DEPT.M :
GR.API :
CALI.CM :
RXO.OHMM :
RI. :
RML.OHMM :
DEN.GM/CC :
SP.MV :
~A
# ...
  163.2500    77.2610    24.9030    46.6840    71.5260    80.1500     2.2690   -28.2370 
  163.3750    77.4100    24.8900    46.4600    74.4070    84.0020     2.2570   -28.3930 
  163.5000    78.9640    24.8740    46.9370    77.4740    87.9660     2.2550   -28.4740 
  163.6250    81.4090    24.8590    48.2900    80.4090    91.5310     2.2610   -28.4700 
  163.7500    83.1790    24.8440    49.8300    83.0710    94.5590     2.2630   -28.4160 
  163.8750    82.0480    24.8340    51.1780    85.4850    97.1600     2.2590   -28.3410 
  164.0000    78.6850    24.8300    52.1520    87.7140    99.4820     2.2550   -28.2690 
  164.1250    76.7300    24.8310    52.4210    89.6090   101.3240     2.2510   -28.1880 
  164.2500    77.0080    24.8310    52.1310    90.8510   102.2560     2.2420   -28.1110 
  164.3750    77.3580    24.8310    51.6040    90.9730   101.7180     2.2320   -28.0600 
  164.5000    76.5580    24.8310    50.8580    89.5540    99.2960     2.2310   -28.0090 
  164.6250    75.0360    24.8310    49.3760    86.1310    94.6190     2.2410   -27.9400 
  164.7500    72.7220    24.8310    47.2560    81.2740    88.5010     2.2490   -27.8850 
  164.8750    70.5160    24.8310    44.8840    75.6080    81.7400     2.2500   -27.8610 
  165.0000    69.3230    24.8310    42.3640    69.8970    75.2310     2.2550   -27.8630 
  165.1250    69.4280    24.8310    39.6330    65.0640    70.0070     2.2710   -27.9060 
  165.2500    70.6510    24.8310    37.4010    61.5670    66.4330     2.2890   -27.9770 
  165.3750    72.8640    24.8310    36.3610    59.6970    64.7340     2.2990   -28.0660 
  165.5000    74.6460    24.8270    36.5250    59.5450    64.9440     2.2980   -28.2050 
  165.6250    72.6450    24.8080    37.5020    61.2610    67.1930     2.2840   -28.4490 
  165.7500    70.8100    24.7800    39.0830    64.2840    70.8730     2.2640   -28.7450 
  165.8750    72.7880    24.7570    41.3130    68.2450    75.6000     2.2480   -29.0630 
  166.0000    75.8540    24.7490    43.8660    72.7240    80.9260     2.2450   -29.3840 
  166.1250    75.2840    24.7520    46.1120    77.1790    86.2150     2.2570   -29.6750 
  166.2500    73.2870    24.7530    47.7070    81.0310    90.7340     2.2700   -29.9170 
  166.3750    72.9810    24.7530    48.4680    83.8320    93.9330     2.2770   -30.0960 
  166.5000    72.7310    24.7530    48.2780    85.3810    95.6310     2.2760   -30.1820 
  166.6250    70.3560    24.7530    47.1470    85.6990    95.9510     2.2690   -30.1030 
  166.7500    70.0730    24.7520    45.7500    85.3690    95.6010     2.2590   -29.9040 
  166.8750    73.7090    24.7520    44.8730    84.6520    94.8490     2.2510   -29.6100 
  167.0000    78.8010    24.7560    44.9340    83.6480    93.7790     2.2520   -29.2430 
  167.1250    78.7590    24.7760    45.0520    82.3070    92.3430     2.2620   -28.8130 
  167.2500    74.9630    24.8030    43.9790    80.6920    90.6510     2.2700   -28.3740 
  167.3750    71.7720    24.8240    42.3150    78.8790    88.8410     2.2690   -27.9400 
  167.5000    71.9580    24.8310    41.6320    76.9920    87.0800     2.2650   -27.5350 
  167.6250    72.3960    24.8310    42.3270    75.0760    85.3610     2.2670   -27.1630 
  167.7500    69.7590    24.8310    42.7930    72.9660    83.3450     2.2760   -26.8000 
  167.8750    66.4580    24.8310    42.4470    70.4800    80.7420     2.2840   -26.4240 
  168.0000    65.5780    24.8310    41.5830    67.6710    77.6470     2.2880   -26.0360 
  168.1250    68.4480    24.8310    40.1920    65.0920    74.8370     2.2880   -25.6910 
  168.2500    70.0580    24.8310    38.6710    63.5620    73.3520     2.2830   -25.3910 
  168.3750    68.7090    24.8310    38.3490    63.8700    74.0750     2.2750   -25.1200 
  168.5000    66.7830    24.8310    40.3280    66.6100    77.5560     2.2680   -24.8620 
  168.6250    68.1180    24.8310    43.8320    72.3570    84.2530     2.2690   -24.6360 
  168.7500    71.6690    24.8310    46.4780    80.1530    92.9350     2.2770   -24.4390 
  168.8750    73.1000    24.8310    47.7130    88.7680   102.0080     2.2830   -24.2700 
  169.0000    71.1700    24.8320    48.5860    96.1010   108.8490     2.2820   -24.1140 
  169.1250    69.2710    24.8290    49.7940    98.3630   108.9180     2.2710   -23.9260 
  169.2500    69.3790    24.8110    50.2720    93.9790   101.1020     2.2560   -23.7000 
  169.3750    70.9130    24.7840    48.4050    83.0970    86.6170     2.2490   -23.4480 
  169.5000    72.4880    24.7620    42.8920    68.2050    69.1110     2.2550   -23.1880 
  169.6250    75.8460    24.7230    33.9240    53.3700    53.2010     2.2720   -22.9250 
  169.7500    81.4580    24.6170    25.0840    41.3970    40.9600     2.2910   -22.6860 
  169.8750    86.5150    24.4380    18.6960    32.8530    32.4790     2.3130   -22.4690 
  170.0000    89.3120    24.2440    15.2670    27.2080    26.9960     2.3370   -22.3000 
  170.1250    90.1140    24.1170    14.3860    23.8390    23.8020     2.3540   -22.2000 
  170.2500    90.8630    24.0540    14.5070    21.7300    21.8640     2.3630   -22.1500 
  170.3750    91.1600    24.0190    14.4440    20.6590    21.0200     2.3690   -22.1580 
  170.5000    90.9840    23.9900    13.5540    20.6890    21.4370     2.3780   -22.2180 
  170.6250    89.8710    23.9720    12.6840    22.3490    23.8290     2.3790   -22.3390 
  170.7500    86.2950    23.9670    13.7820    25.8750    28.4090     2.3650   -22.5130 
  170.8750    80.6700    24.0090    18.4160    31.6770    35.4590     2.3430   -22.7450 
  171.0000    75.0620    24.1520    26.3820    39.7930    44.8050     2.3250   -23.0130 
  171.1250    71.5280    24.3730    33.2980    49.3130    55.2560     2.3160   -23.3010 
  171.2500    70.2860    24.5460    35.6650    57.6320    64.0310     2.3140   -23.6080 
  171.3750    71.2110    24.5780    35.0270    62.5820    68.8850     2.3140   -23.9000 
  171.5000    73.8810    24.4530    34.6080    63.4880    69.3360     2.3100   -24.1610 
  171.6250    77.4610    24.2330    35.3340    61.1380    66.5420     2.3030   -24.3710 
  171.7500    80.7500    24.0450    35.5150    57.6090    62.7030     2.2970   -24.5180 
  171.8750    82.9300    23.9380    34.0090    53.6880    58.5470     2.2960   -24.5950 
  172.0000    84.2160    23.9120    31.3930    49.8580    54.5630     2.3030   -24.6050 
  172.1250    84.8030    24.0220    29.3510    46.7780    51.5440     2.3100   -24.5570 
  172.2500    83.6500    24.2590    27.9230    44.8870    50.0030     2.3080   -24.4520 
  172.3750    80.2370    24.5230    26.6600    44.5910    50.3720     2.2990   -24.3080 
  172.5000    76.9780    24.6940    26.2010    46.1090    52.7890     2.2900   -24.1360 
  172.6250    76.9630    24.7290    27.7860    49.5110    57.1300     2.2880   -23.9450 
  172.7500    78.7380    24.7150    30.5420    53.8770    62.2530     2.2900   -23.7390 
  172.8750    78.2510    24.6960    33.1210    58.5080    67.3590     2.2900   -23.5390 
  173.0000    74.9400    24.6900    34.7830    63.0100    72.1500     2.2900   -23.3460 
  173.1250    73.1070    24.6900    35.5040    67.9040    77.5320     2.2900   -23.1570 
  173.2500    74.4770    24.6910    36.1810    74.6710    85.2900     2.2890   -22.9870 
  173.3750    74.8850    24.6920    37.8680    84.8930    96.9840     2.2830   -22.8370 
  173.5000    71.0400    24.6920    41.2610    98.6340   112.3780     2.2680   -22.7100 
  173.6250    66.0660    24.6970    45.7770   111.8930   126.3160     2.2540   -22.6170 
  173.7500    63.5140    24.7000    48.9610   117.5260   130.0780     2.2610   -22.5640 
  173.8750    62.7550    24.6160    47.9640   111.3100   119.5880     2.2900   -22.5340 
  174.0000    63.2520    24.3690    41.8280    95.6250    99.8820     2.3240   -22.5340 
  174.1250    67.8370    24.0600    33.6880    78.0290    80.8000     2.3410   -22.5630 
  174.2500    74.7500    23.8760    28.2790    64.4310    67.1350     2.3430   -22.6070 
  174.3750    79.5210    23.8330    26.3320    55.8100    58.8770     2.3330   -22.6670 
