~V
VERS. 2.00: Ver 2.00
~W
STRT.M 55.0000:
STOP.M 285.0000:
STEP.M 0.1250:
NULL. -999.2500:
UWI. DF32159:
~C
DEPT.M :
GR.API :
CALI.CM :
RXO.OHMM :
RI. :
RML.OHMM :
DEN.GM/CC :
SP.MV :
~A
# ...
  201.2500    71.2900    25.8960    68.1570    57.5360    62.6700     2.2920   -32.0140 
  201.3750    71.1820    25.8310    58.8510    53.2740    58.0930     2.2980   -32.5060 
  201.5000    68.0180    25.7950    52.1340    49.9840    54.7120     2.2900   -32.8580 
  201.6250    65.9700    25.7950    50.3020    47.9350    52.7860     2.2760   -33.0300 
  201.7500    68.1630    25.8100    51.1910    46.9550    52.1170     2.2640   -33.0360 
  201.8750    72.9180    25.8220    52.7100    47.1050    52.7960     2.2590   -32.9210 
  202.0000    75.7730    25.8250    53.9040    48.5430    55.0100     2.2600   -32.7750 
  202.1250    73.6950    25.8400    56.2300    51.7950    59.3720     2.2600   -32.6680 
  202.2500    69.3500    25.9090    62.3600    56.8390    65.8510     2.2540   -32.6260 
  202.3750    65.3200    26.0650    73.9540    63.6180    74.4620     2.2450   -32.6830 
  202.5000    62.2690    26.2890    88.8840    71.6310    84.7590     2.2380   -32.8290 
  202.6250    61.1800    26.5030   100.1220    79.7820    95.5210     2.2340   -33.0530 
  202.7500    62.0570    26.6460   105.3760    86.8620   105.0720     2.2300   -33.3310 
  202.8750    62.8570    26.7200   107.3320    92.3510   112.5660     2.2240   -33.6130 
  203.0000    62.5230    26.7500   109.0890    96.3870   118.1020     2.2200   -33.8290 
  203.1250    61.9520    26.7520   112.5140    99.3260   122.1780     2.2130   -33.9110 
  203.2500    63.2620    26.7360   116.9720   101.4180   125.1470     2.2060   -33.8410 
  203.3750    64.2460    26.7120   119.5030   102.1530   126.2680     2.2020   -33.5670 
  203.5000    62.2640    26.6890   117.9800   100.8940   124.5920     2.2020   -33.0970 
  203.6250    58.4030    26.6750   113.2430    97.2150   119.4890     2.2020   -32.4420 
  203.7500    57.2170    26.6560   107.6300    92.3330   112.6980     2.2010   -31.6310 
  203.8750    60.2660    26.6260   101.4650    87.4410   105.7820     2.2050   -30.6840 
  204.0000    65.8410    26.5940    95.4340    83.4720    99.8560     2.2180   -29.6470 
  204.1250    70.7390    26.5740    91.2200    81.0240    95.6650     2.2380   -28.5960 
  204.2500    71.1700    26.5690    89.9410    79.7090    92.8650     2.2520   -27.5970 
  204.3750    65.4150    26.5730    91.0780    79.0170    90.9320     2.2520   -26.7190 
  204.5000    57.8440    26.5840    92.3610    78.1700    88.9620     2.2430   -25.9620 
  204.6250    56.1760    26.6050    93.2900    75.9530    85.4800     2.2400   -25.3450 
  204.7500    60.0260    26.6190    93.6310    71.7810    79.6890     2.2490   -24.8570 
  204.8750    65.1410    26.5980    88.9720    65.5380    71.4830     2.2670   -24.4640 
  205.0000    68.5330    26.5240    75.9740    57.8140    61.8030     2.2830   -24.1130 
  205.1250    70.5050    26.4170    58.4690    49.8050    52.4050     2.2930   -23.7210 
  205.2500    70.9910    26.3350    42.8220    42.7280    44.5970     2.2960   -23.2300 
  205.3750    70.7830    26.2990    31.0390    37.3170    39.0530     2.2970   -22.5730 
  205.5000    71.2340    26.2940    23.8290    34.1180    36.2000     2.3000   -21.7310 
  205.6250    69.8200    26.3060    21.2740    34.2180    37.0480     2.3080   -20.6690 
  205.7500    65.6130    26.3410    21.4750    38.1630    41.8620     2.3170   -19.4260 
  205.8750    60.9530    26.4140    27.5070    47.4200    51.8830     2.3310   -18.0360 
  206.0000    57.9920    26.5230    55.7100    63.1820    68.4690     2.3710   -16.5780 
  206.1250    57.2020    26.6240   177.2120    82.3310    88.2700     2.4570   -15.1500 
  206.2500    55.8850    26.6610   275.2760    89.8470    92.4820     2.5620   -13.8110 
  206.3750    53.4650    26.6040   235.1670    74.6100    70.9540     2.6450   -12.6450 
  206.5000    52.8080    26.4610   106.1920    47.3960    42.1720     2.6820   -11.6980 
  206.6250    56.6020    26.2640    47.6430    26.8920    23.8830     2.6680   -11.0240 
  206.7500    59.7230    26.0690    21.0350    15.2360    13.8270     2.6290   -10.5810 
  206.8750    58.8400    25.9080     9.3490     9.3970     8.6810     2.5800   -10.3570 
  207.0000    57.2030    25.8020     5.2790     6.6670     6.2770     2.5350   -10.2980 
  207.1250    58.4110    25.7500     4.8270     5.5780     5.5190     2.5090   -10.3290 
  207.2500    59.2960    25.7140     4.8680     5.1640     5.4410     2.4980   -10.3900 
  207.3750    59.2840    25.6810     4.6490     5.1260     5.6520     2.4930   -10.4290 
  207.5000    58.9270    25.6660     4.3460     5.2610     5.8990     2.4920   -10.4100 
  207.6250    57.4200    25.6910     4.2000     5.4330     6.0470     2.4920   -10.2840 
  207.7500    55.8510    25.7340     4.2440     5.5810     6.1250     2.4920   -10.0680 
  207.8750    55.4260    25.7650     4.4260     5.6980     6.1740     2.4900    -9.7750 
  208.0000    54.8230    25.7690     4.6330     5.7690     6.1910     2.4830    -9.4390 
  208.1250    52.6230    25.7610     4.7350     5.7690     6.1480     2.4650    -9.1240 
  208.2500    50.4030    25.7690     4.7090     5.7030     6.0510     2.4390    -8.8700 
  208.3750    49.7750    25.8140     4.6050     5.5820     5.9240     2.4090    -8.7040 
  208.5000    51.0900    25.8990     4.5070     5.4350     5.8090     2.3860    -8.6380 
  208.6250    52.8070    25.9910     4.4810     5.3000     5.7700     2.3760    -8.7180 
  208.7500    52.8130    26.0270     4.4860     5.2110     5.8300     2.3700    -8.8990 
  208.8750    49.2170    25.9750     4.4940     5.1880     5.9890     2.3630    -9.1650 
  209.0000    44.3160    25.8680     4.5410     5.2350     6.2360     2.3560    -9.4730 
  209.1250    44.1210    25.7800     4.6970     5.3460     6.5450     2.3570    -9.7510 
  209.2500    47.8870    25.7450     4.9060     5.4830     6.8480     2.3700    -9.9710 
  209.3750    51.8750    25.7470     5.0980     5.6100     7.0900     2.3950   -10.1210 
  209.5000    53.9820    25.7690     5.2410     5.7010     7.2500     2.4180   -10.2200 
  209.6250    56.3400    25.8240     5.3520     5.7480     7.3590     2.4250   -10.2770 
  209.7500    59.3700    25.9030     5.4490     5.7840     7.4980     2.4270   -10.3730 
  209.8750    62.3610    25.9810     5.5370     5.8410     7.7220     2.4340   -10.5870 
  210.0000    65.0860    26.0320     5.6880     5.9440     8.0520     2.4460   -11.0150 
  210.1250    70.2660    26.0490     6.0320     6.1040     8.4600     2.4550   -11.7920 
  210.2500    76.8520    26.0530     6.4990     6.2900     8.8650     2.4620   -12.9380 
  210.3750    82.0690    26.0550     6.9440     6.4760     9.2250     2.4680   -14.4970 
  210.5000    86.2660    26.0600     7.2960     6.6600     9.5580     2.4710   -16.4170 
  210.6250    91.7910    26.0670     7.5710     6.8930     9.9870     2.4660   -18.6290 
  210.7500    96.2270    26.0660     7.8940     7.2510    10.6610     2.4570   -20.9340 
  210.8750    94.3510    26.0360     8.6320     7.8080    11.7170     2.4500   -23.2050 
  211.0000    86.6560    25.9530    10.3890     8.6160    13.2190     2.4480   -25.3040 
  211.1250    79.4980    25.8220    13.7060     9.7030    15.1390     2.4450   -27.0580 
  211.2500    75.5760    25.6980    17.5300    10.9050    17.1320     2.4290   -28.3930 
  211.3750    73.5630    25.6220    20.5150    12.0260    18.8180     2.3920   -29.2150 
  211.5000    72.5220    25.5940    21.9740    12.8580    19.8680     2.3380   -29.5200 
  211.6250    73.4440    25.5920    22.2120    13.2310    20.1160     2.2910   -29.2940 
  211.7500    77.7100    25.5930    22.0230    13.3090    19.9830     2.2660   -28.7200 
  211.8750    81.6720    25.5940    21.6380    13.2920    19.8590     2.2510   -27.8520 
  212.0000    81.4500    25.5920    21.4070    13.3760    20.0620     2.2330   -26.7820 
  212.1250    78.1070    25.5870    21.8430    13.7090    20.7780     2.2250   -25.6140 
  212.2500    75.3370    25.5850    22.8970    14.1860    21.7040     2.2450   -24.4840 
  212.3750    74.1630    25.5950    24.5250    14.6010    22.3810     2.2850   -23.4530 
