~V
VERS. 2.00: Ver 2.00
~W
STRT.M 60.0000:
STOP.M 266.0000:
STEP.M 0.1250:
NULL. -999.2500:
UWI. DF32129:
~C
DEPT.M :
SP.MV :
GR.API :
CALI.CM :
RXO.OHMM :
RI. :
RML.OHMM :
DEN.GM/CC :
~A
# ...
  228.7500   -23.4610    67.5110    25.9080   100.7600   100.0120   107.1560     2.2020 
  228.8750   -23.4290    65.4140    25.8740   107.3750   102.7530   110.7900     2.2060 
  229.0000   -23.3510    65.2940    25.8740   113.9580   100.0760   109.8330     2.2040 
  229.1250   -23.3370    65.4170    25.8740   115.1620    92.1110   103.5490     2.2050 
  229.2500   -23.2930    65.9670    25.8560   104.9730    82.2890    94.4250     2.2130 
  229.3750   -23.2620    66.1550    25.8390    87.3240    72.6160    84.3670     2.2230 
  229.5000   -23.2170    65.3030    25.8170    72.6570    64.2770    74.9630     2.2310 
  229.6250   -23.1530    64.6070    25.7970    67.8080    58.2150    67.6410     2.2340 
  229.7500   -23.1040    65.5770    25.7740    65.0580    54.3290    62.6240     2.2390 
  229.8750   -23.0550    68.9160    25.7540    60.2350    52.6170    60.0520     2.2460 
  230.0000   -23.0210    71.5610    25.7220    56.3480    52.9840    59.9010     2.2480 
  230.1250   -22.9860    70.7710    25.6880    61.2070    55.5010    62.2840     2.2390 
  230.2500   -22.9600    68.1900    25.7260    71.2650    59.4180    66.3100     2.2240 
  230.3750   -22.9020    67.5720    25.7860    81.2640    64.1700    71.2900     2.2100 
  230.5000   -22.8510    69.5270    25.8120    85.2130    69.1100    76.4640     2.1990 
  230.6250   -22.8570    70.3700    25.8100    82.9480    73.6100    81.1570     2.1930 
  230.7500   -22.8080    70.8270    25.8090    83.2440    77.6540    85.3740     2.2020 
  230.8750   -22.7770    71.6340    25.8070    89.1710    81.5760    89.4310     2.2350 
  231.0000   -22.7900    71.1120    25.7890    97.7970    85.7020    93.5870     2.2810 
  231.1250   -22.7210    67.3400    25.7530   107.0200    90.0440    97.8010     2.3080 
  231.2500   -22.6680    64.8980    25.7390   114.0490    94.3120   101.8350     2.3070 
  231.3750   -22.6100    66.3860    25.7720   115.0110    98.3010   105.4740     2.2920 
  231.5000   -22.5210    70.1840    25.7750   112.1150   101.8050   108.4850     2.2880 
  231.6250   -22.4460    71.3520    25.7970   120.7320   104.1320   110.2350     2.3120 
  231.7500   -22.3930    68.3060    25.8010   136.6510   104.3660   110.0390     2.3500 
  231.8750   -22.3350    64.9500    25.7820   138.7960   101.4470   107.0530     2.3870 
  232.0000   -22.2220    64.9060    25.7100   120.3900    95.1410   101.0140     2.4050 
  232.1250   -22.1510    68.3530    25.6250    97.7420    86.3020    92.4480     2.3950 
  232.2500   -22.1000    73.7170    25.5690    82.9250    77.2050    83.3470     2.3740 
  232.3750   -22.0640    79.8820    25.5320    74.0690    69.2520    75.1420     2.3590 
  232.5000   -22.0090    83.2560    25.4620    70.0480    63.2210    68.8170     2.3610 
  232.6250   -21.9910    80.4430    25.3170    66.4200    59.6590    65.1140     2.3740 
  232.7500   -21.9870    77.1830    25.2010    64.3630    58.0670    63.5180     2.3890 
  232.8750   -21.9250    77.7790    25.2800    63.6820    58.2480    63.7850     2.4030 
  233.0000   -21.9480    81.0850    25.6110    61.7940    60.0150    65.6600     2.4140 
  233.1250   -21.9740    82.2830    25.7090    60.8200    63.2480    68.9140     2.4130 
  233.2500   -21.9110    80.9550    25.7050    64.1250    66.8820    72.4070     2.4020 
  233.3750   -21.8900    79.7020    25.6500    73.4310    69.2030    74.4930     2.3900 
  233.5000   -21.9050    79.4890    25.6640    84.0950    67.9800    73.1920     2.3890 
  233.6250   -21.8000    80.0970    25.7540    97.2930    61.7150    67.0920     2.3920 
  233.7500   -21.7070    80.8540    25.8130    95.7890    53.3720    58.7320     2.3870 
  233.8750   -21.6780    81.5970    25.8270    75.3380    45.6480    50.6550     2.3740 
  234.0000   -21.5760    81.5330    25.8320    49.7390    40.1030    44.6240     2.3660 
  234.1250   -21.4340    82.2360    25.8510    39.0230    37.5620    41.7260     2.3680 
  234.2500   -21.3560    84.1270    25.8600    40.9750    37.3610    41.3380     2.3700 
  234.3750   -21.2830    86.2990    25.8470    46.0890    39.1230    43.0500     2.3710 
  234.5000   -21.1550    87.8920    25.8050    49.2570    42.3480    46.3550     2.3760 
  234.6250   -21.0760    89.4350    25.7660    52.2270    46.3150    50.5070     2.3930 
  234.7500   -20.9960    89.8720    25.6900    56.4280    49.6570    54.0360     2.4170 
  234.8750   -20.8760    89.2900    25.5740    61.0320    50.8350    55.3630     2.4390 
  235.0000   -20.7770    89.6120    25.4930    63.0850    48.5610    53.1560     2.4530 
  235.1250   -20.7610    88.8390    25.6870    66.0960    42.7440    47.1320     2.4520 
  235.2500   -20.7580    84.0920    25.8470    63.4360    36.1870    40.0660     2.4440 
  235.3750   -20.7140    79.2350    25.8240    51.9430    30.8590    34.0780     2.4400 
  235.5000   -20.7280    80.4560    25.7990    35.7450    27.7270    30.3090     2.4490 
  235.6250   -20.8390    85.9360    25.7740    30.7400    27.3570    29.4070     2.4690 
  235.7500   -20.9690    86.7420    25.6480    38.8160    29.1200    30.7110     2.4870 
  235.8750   -21.0980    84.3400    25.3550    52.3760    32.6120    33.7890     2.4890 
  236.0000   -21.2400    84.2400    25.1390    58.7090    37.0710    37.8990     2.4700 
  236.1250   -21.4020    87.3320    25.0450    50.1100    41.0720    41.7970     2.4430 
  236.2500   -21.5850    86.9240    25.0420    42.3360    43.6850    44.6390     2.4310 
  236.3750   -21.8180    82.9900    25.2000    38.6240    45.1840    46.5850     2.4370 
  236.5000   -22.0330    80.0390    25.5930    38.2710    46.4860    48.3590     2.4510 
  236.6250   -22.1310    81.6750    25.7080    38.2400    48.4270    50.6630     2.4700 
  236.7500   -22.2130    85.0330    25.5780    42.3540    51.0400    53.4870     2.4870 
  236.8750   -22.3730    87.5740    25.5670    50.6580    53.9410    56.3780     2.4960 
  237.0000   -22.5940    88.6760    25.5860    62.2550    56.0700    58.2620     2.4910 
  237.1250   -22.7990    87.7190    25.7590    69.9700    54.7730    56.7140     2.4740 
  237.2500   -22.9510    86.1310    25.7980    67.2610    48.8520    50.8090     2.4480 
  237.3750   -23.0760    84.3760    25.7280    53.8600    39.3810    41.4640     2.4140 
  237.5000   -23.2530    83.7780    25.6950    36.5150    29.3390    31.3640     2.3740 
  237.6250   -23.5400    87.0660    25.9980    22.8000    21.6080    23.3610     2.3350 
  237.7500   -23.8170    93.6550    26.1230    14.9780    16.4600    17.8950     2.3040 
  237.8750   -23.9990   101.5200    26.1080    11.9230    13.5400    14.6660     2.2840 
  238.0000   -24.0770   106.2690    26.0700    11.8150    12.3990    13.2450     2.2800 
  238.1250   -24.0650   105.5230    26.0940    13.2030    12.8870    13.5210     2.2900 
  238.2500   -24.0430   102.9680    26.0460    15.2700    14.4460    14.9440     2.3000 
  238.3750   -24.0400   100.8770    26.0260    18.6420    16.5860    17.0200     2.3050 
  238.5000   -24.0100   100.1940    25.7600    22.0930    18.3580    18.7910     2.3110 
  238.6250   -23.9320   100.5480    25.6690    22.0880    18.1790    18.7050     2.3260 
  238.7500   -23.8630   101.1340    25.6970    18.1290    16.5160    16.4710     2.3390 
  238.8750   -23.8540    99.9810    25.8390    13.3880    14.1450    13.4450     2.3370 
  239.0000   -23.9300    96.6520    25.7940    10.3910    11.7580    11.1590     2.3160 
  239.1250   -24.1090    96.1320    25.7650     9.6350    10.4070    10.0340     2.2890 
  239.2500   -24.3330    98.9310    25.5470    11.6900    10.0700     9.9830     2.2780 
  239.3750   -24.5520   101.1640    25.5950    16.5200    10.6990    10.9550     2.2840 
  239.5000   -24.7540   100.4050    25.9140    22.1640    12.1800    12.8620     2.2880 
  239.6250   -24.9290    96.9510    26.2070    24.9840    14.3010    15.4890     2.2690 
  239.7500   -25.1050    94.3960    26.3900    25.0990    16.4650    18.0860     2.2400 
  239.8750   -25.2750    94.2950    26.3910    24.6570    18.2890    20.1030     2.2190 
