~V
VERS. 2.00: Ver 2.00
~W
STRT.M 60.0000:
STOP.M 266.0000:
STEP.M 0.1250:
NULL. -999.2500:
UWI. DF32129:
~C
DEPT.M :
SP.MV :
GR.API :
CALI.CM :
RXO.OHMM :
RI. :
RML.OHMM :
DEN.GM/CC :
~A
# ...
  127.5000   -36.2710    75.1680    24.6130    10.9980     9.7100    12.4140     2.2090 
  127.6250   -36.2460    73.1310    24.6130    10.9360     9.5270    12.1210     2.1990 
  127.7500   -36.2040    71.4500    24.6130    10.9420     9.3760    11.8610     2.1900 
  127.8750   -36.1520    70.3890    24.6130    10.9610     9.2770    11.6600     2.1870 
  128.0000   -36.1000    68.7310    24.6240    10.9980     9.2270    11.4990     2.1860 
  128.1250   -36.0510    67.1530    24.6750    10.9940     9.2130    11.3510     2.1850 
  128.2500   -35.9630    66.4020    24.7740    10.9530     9.2090    11.2160     2.1870 
  128.3750   -35.8700    67.1680    24.8740    10.8510     9.2020    11.1080     2.1880 
  128.5000   -35.7640    68.1500    24.9250    10.7270     9.1770    11.0270     2.1880 
  128.6250   -35.6440    68.6650    24.9020    10.7570     9.1130    10.9320     2.1850 
  128.7500   -35.5050    69.6090    24.8260    10.8000     8.9990    10.7900     2.1860 
  128.8750   -35.3480    69.7540    24.7500    10.4860     8.8290    10.5990     2.1930 
  129.0000   -35.1540    69.2170    24.7170     9.8050     8.6160    10.3850     2.2030 
  129.1250   -34.9300    70.4380    24.7170     9.2700     8.3900    10.1950     2.2050 
  129.2500   -34.7330    72.1380    24.7170     9.0490     8.1860    10.0560     2.2020 
  129.3750   -34.5550    72.4800    24.7170     8.9200     8.0310     9.9790     2.1970 
  129.5000   -34.4100    72.7320    24.7160     8.8330     7.9410     9.9690     2.1920 
  129.6250   -34.2870    73.6430    24.7140     8.8470     7.9260    10.0230     2.1850 
  129.7500   -34.1720    73.4750    24.7130     8.9760     7.9620    10.1060     2.1790 
  129.8750   -34.0530    72.0710    24.7150     9.1090     8.0240    10.1940     2.1770 
  130.0000   -33.9530    71.3000    24.7170     9.2160     8.0820    10.2590     2.1780 
  130.1250   -33.8430    71.1150    24.7170     9.3070     8.1060    10.2740     2.1820 
  130.2500   -33.7450    70.9610    24.7170     9.3630     8.1130    10.2810     2.1880 
  130.3750   -33.6660    71.0610    24.7170     9.3920     8.1770    10.3740     2.1980 
  130.5000   -33.5930    70.8530    24.7170     9.4010     8.4060    10.6780     2.2060 
  130.6250   -33.5330    69.2440    24.7200     9.3970     8.9310    11.3440     2.2200 
  130.7500   -33.5010    68.5660    24.7460     9.5310     9.6780    12.2990     2.2600 
  130.8750   -33.5100    70.5340    24.8210    10.0330    10.4730    13.3320     2.3310 
  131.0000   -33.5560    73.0360    24.9250    11.0210    11.0260    14.0450     2.4050 
  131.1250   -33.6740    72.6680    24.9710    11.6470    10.9700    13.9080     2.4190 
  131.2500   -33.8150    71.1120    24.9130    11.4320    10.4000    13.0930     2.3660 
  131.3750   -33.9570    71.3300    24.8010    10.7090     9.5740    12.0180     2.2840 
  131.5000   -34.0930    72.7770    24.7320    10.0710     8.7730    11.0750     2.2190 
  131.6250   -34.1840    72.3450    24.7170     9.7120     8.2250    10.5230     2.1930 
  131.7500   -34.2580    71.5580    24.7230     9.6010     7.9360    10.2940     2.1870 
  131.8750   -34.2900    72.2190    24.7510     9.6710     7.8470    10.2640     2.1830 
  132.0000   -34.2880    73.4790    24.8230     9.7940     7.8740    10.3060     2.1780 
  132.1250   -34.1970    73.8820    24.8940     9.9170     7.9750    10.3630     2.1760 
  132.2500   -34.0320    73.1380    24.9410    10.0190     8.1480    10.4840     2.1800 
  132.3750   -33.7670    72.2610    24.9660    10.0430     8.4190    10.7290     2.1850 
  132.5000   -33.4100    71.8960    24.9790    10.0290     8.7650    11.0990     2.1860 
  132.6250   -32.9660    72.8290    24.9910    10.1310     9.0540    11.4440     2.1760 
  132.7500   -32.4640    73.6140    25.0150    10.3330     9.0940    11.4800     2.1640 
  132.8750   -31.9120    73.4560    25.0640    10.3720     8.7500    11.0010     2.1570 
  133.0000   -31.3110    73.6100    25.1660     9.9230     8.0350    10.0360     2.1620 
  133.1250   -30.6850    77.2540    25.3410     8.8000     7.1140     8.8450     2.1880 
  133.2500   -30.0700    83.7980    25.5770     7.5630     6.2390     7.7750     2.2250 
  133.3750   -29.5190    89.2050    25.8480     6.6810     5.5320     6.9690     2.2600 
  133.5000   -29.0600    90.8080    26.1190     6.2730     5.0280     6.4400     2.2780 
  133.6250   -28.7330    90.5400    26.2140     6.1740     4.7390     6.1630     2.2810 
  133.7500   -28.4990    92.8120    26.0360     6.1130     4.6070     6.0490     2.2850 
  133.8750   -28.3530    96.7360    25.5810     6.0080     4.6210     6.0790     2.3010 
  134.0000   -28.2920    99.2490    25.2500     5.9700     4.7620     6.2460     2.3320 
  134.1250   -28.2920    99.6960    25.1520     6.1510     4.9930     6.5340     2.3720 
  134.2500   -28.3250    98.2180    25.2240     6.6360     5.2200     6.8350     2.4080 
  134.3750   -28.3540    94.2130    25.4590     7.1510     5.3480     7.0090     2.4270 
  134.5000   -28.3710    90.0870    25.9050     7.2700     5.3030     6.9380     2.4240 
  134.6250   -28.3800    91.2360    26.1300     6.8320     5.0700     6.6080     2.4050 
  134.7500   -28.3860    97.4370    26.1940     6.3030     4.7710     6.2120     2.3860 
  134.8750   -28.3790   103.1070    26.1200     5.9180     4.4890     5.8870     2.3720 
  135.0000   -28.3470   104.5170    25.8990     5.6910     4.2800     5.7000     2.3640 
  135.1250   -28.3130   103.4840    25.7750     5.6300     4.1730     5.6540     2.3580 
  135.2500   -28.2980   103.7580    25.5840     5.7100     4.1280     5.6470     2.3500 
  135.3750   -28.3010   103.7430    25.3530     5.7490     4.1160     5.6210     2.3430 
  135.5000   -28.3160   102.1190    25.2480     5.6010     4.1180     5.5680     2.3450 
  135.6250   -28.3420   103.4630    25.2860     5.4490     4.1170     5.5170     2.3570 
  135.7500   -28.3560   107.6820    25.2770     5.5140     4.1120     5.4970     2.3600 
  135.8750   -28.3790   110.7220    25.1900     5.6850     4.1110     5.5130     2.3520 
  136.0000   -28.4020   110.1410    25.1310     5.7770     4.1290     5.5640     2.3420 
  136.1250   -28.4520   107.7900    25.1610     5.7540     4.1920     5.6670     2.3390 
  136.2500   -28.4810   106.9780    25.3260     5.8220     4.3100     5.8400     2.3340 
  136.3750   -28.5420   107.8310    25.6960     6.0070     4.4830     6.0940     2.3180 
  136.5000   -28.6090   108.5160    25.9840     6.2880     4.6940     6.4040     2.2990 
  136.6250   -28.6790   104.9040    26.0640     6.5410     4.8970     6.6910     2.2930 
  136.7500   -28.7650   103.2460    25.9100     6.6540     5.0320     6.8590     2.3020 
  136.8750   -28.8590   107.0490    25.5280     6.6110     5.0670     6.8500     2.3210 
  137.0000   -28.9930   111.2810    25.2340     6.4750     5.0150     6.6870     2.3380 
  137.1250   -29.1500   109.5620    25.1540     6.3040     4.9190     6.4760     2.3380 
  137.2500   -29.3650   105.0270    25.2630     6.1900     4.8420     6.3470     2.3170 
  137.3750   -29.6080   103.3640    25.4860     6.1760     4.8230     6.3540     2.2850 
  137.5000   -29.8720   103.7180    25.5540     6.2790     4.8900     6.4940     2.2610 
  137.6250   -30.1870   101.2270    25.3780     6.4590     5.0630     6.7490     2.2570 
  137.7500   -30.5210    95.1350    25.1370     6.6870     5.3120     7.0710     2.2560 
  137.8750   -30.8780    90.7130    25.0440     7.0050     5.6100     7.4490     2.2450 
  138.0000   -31.2140    91.2450    25.0170     7.3700     5.9240     7.8630     2.2220 
  138.1250   -31.5290    91.0820    24.9810     7.6260     6.2080     8.2530     2.2020 
  138.2500   -31.8110    88.4700    24.9800     7.7720     6.4420     8.5550     2.1960 
  138.3750   -32.0300    86.6250    24.9880     7.8900     6.6230     8.7480     2.2000 
  138.5000   -32.2320    86.3230    25.0150     8.0070     6.7570     8.8600     2.2010 
  138.6250   -32.3910    87.0000    25.0610     8.0890     6.8610     8.9510     2.1950 
