~V
VERS. 2.00: Ver 2.00
~W
STRT.M 62.0000:
STOP.M 243.0000:
STEP.M 0.1250:
NULL. -999.2500:
UWI. DF32072:
~C
DEPT.M :
SP.MV :
GR.API :
CALI.CM :
RXO.OHMM :
RI. :
RML.OHMM :
DEN.GM/CC :
~A
# ...
  140.7500   -26.0230    78.2330    24.3470    11.7360    10.6860    11.2210     2.4350 
  140.8750   -25.9430    78.1700    24.2990    13.5140    12.0130    12.5500     2.4950 
  141.0000   -25.8760    74.8000    24.3060    16.9170    13.6300    14.2680     2.5540 
  141.1250   -25.8210    68.6220    24.4820    20.5630    15.2760    16.0810     2.5810 
  141.2500   -25.7360    64.8950    24.6180    21.7810    16.4950    17.3860     2.5810 
  141.3750   -25.6870    65.3420    24.7690    19.6870    17.0190    17.8110     2.5750 
  141.5000   -25.6260    67.5470    24.8990    16.1440    16.9620    17.5380     2.5760 
  141.6250   -25.5570    69.2160    25.1350    14.1150    16.7470    17.2050     2.5770 
  141.7500   -25.5130    68.8890    25.0880    14.5680    16.7660    17.2890     2.5740 
  141.8750   -25.4600    67.8430    24.8960    16.4210    17.1060    17.8400     2.5670 
  142.0000   -25.4250    67.6070    24.6490    17.9140    17.6040    18.5990     2.5630 
  142.1250   -25.4000    67.0860    24.4190    17.9850    17.8150    18.9820     2.5600 
  142.2500   -25.4030    67.2800    24.3190    17.2990    17.4390    18.6130     2.5490 
  142.3750   -25.3970    69.8000    24.2350    16.8540    16.4550    17.4880     2.5290 
  142.5000   -25.4190    73.1910    24.1910    16.3290    15.1340    15.9630     2.5070 
  142.6250   -25.4680    74.1110    24.1790    15.5790    13.9620    14.6450     2.4950 
  142.7500   -25.5130    73.3180    24.1940    14.2090    13.2880    13.9390     2.4940 
  142.8750   -25.5910    73.4450    24.2050    13.2200    13.2800    14.0250     2.5030 
  143.0000   -25.6630    73.8840    24.2820    13.6840    13.9800    14.9320     2.5290 
  143.1250   -25.7240    69.9290    24.3550    15.5920    15.3180    16.5700     2.5630 
  143.2500   -25.7540    63.3730    24.3820    18.2090    16.7630    18.2940     2.5820 
  143.3750   -25.8080    57.8960    24.3440    19.8860    17.7440    19.3960     2.5720 
  143.5000   -25.8400    57.1450    24.3210    19.1910    17.8400    19.3620     2.5440 
  143.6250   -25.8170    60.9950    24.3200    16.7710    16.9880    18.1880     2.5250 
  143.7500   -25.8370    66.0820    24.3210    14.7470    15.8010    16.7120     2.5270 
  143.8750   -25.8290    69.8090    24.3270    13.7580    14.7010    15.4690     2.5390 
  144.0000   -25.7420    70.6650    24.3310    13.5590    13.9500    14.7380     2.5460 
  144.1250   -25.7240    69.4500    24.3310    13.5230    13.7520    14.6950     2.5410 
  144.2500   -25.6990    67.9290    24.3310    13.7690    14.0390    15.1870     2.5340 
  144.3750   -25.6570    65.9720    24.3310    14.3900    14.7420    16.1050     2.5370 
  144.5000   -25.6570    62.7290    24.3300    15.4020    15.7120    17.2700     2.5530 
  144.6250   -25.6110    59.9200    24.3210    17.0050    16.6480    18.3270     2.5770 
  144.7500   -25.5470    58.7030    24.3070    18.3350    17.1980    18.8700     2.5850 
  144.8750   -25.5010    59.4740    24.2930    18.2370    17.1700    18.6820     2.5670 
  145.0000   -25.4310    61.4560    24.2730    16.5940    16.6140    17.8700     2.5360 
  145.1250   -25.4020    63.1820    24.2190    14.6970    15.7770    16.8170     2.5210 
  145.2500   -25.3360    64.8160    24.1920    13.6550    15.0320    15.9820     2.5240 
  145.3750   -25.2800    65.4800    24.1780    13.2540    14.5990    15.5990     2.5270 
  145.5000   -25.2360    64.4290    24.1730    13.2880    14.5770    15.7370     2.5220 
  145.6250   -25.1580    62.2480    24.1740    13.8940    14.9850    16.3600     2.5230 
  145.7500   -25.1200    60.8520    24.1790    15.1480    15.5840    17.1550     2.5380 
  145.8750   -25.0950    60.8980    24.1670    16.8500    16.1580    17.8520     2.5600 
  146.0000   -25.0590    61.6970    24.1250    17.7890    16.5340    18.2420     2.5780 
  146.1250   -25.0340    62.1030    24.0810    17.3040    16.6590    18.2790     2.5800 
  146.2500   -25.0370    62.4050    24.1000    16.4060    16.7200    18.2340     2.5690 
  146.3750   -25.0220    62.1040    24.1230    16.0460    16.8700    18.3030     2.5530 
  146.5000   -24.9980    59.9090    24.1650    16.4130    17.1790    18.5770     2.5450 
  146.6250   -25.0130    55.6040    24.2390    17.7970    17.6090    19.0130     2.5570 
  146.7500   -25.0220    52.2370    24.3340    18.9830    17.9770    19.3660     2.5810 
  146.8750   -25.0270    52.1970    24.3080    19.1520    18.1250    19.4260     2.6010 
  147.0000   -25.0340    53.8390    24.2290    18.3990    18.0000    19.1290     2.6050 
  147.1250   -25.0220    55.4670    24.1920    18.1400    17.6980    18.6140     2.5950 
  147.2500   -25.0440    57.2740    24.1740    17.7070    17.4200    18.1440     2.5890 
  147.3750   -25.0790    58.9600    24.1770    17.3490    17.2630    17.8240     2.5920 
  147.5000   -25.0650    59.8950    24.1650    17.2870    17.2400    17.6480     2.6010 
  147.6250   -25.0950    60.6350    24.2310    17.6380    17.2720    17.5340     2.6010 
  147.7500   -25.0950    62.6280    24.4430    17.8620    17.1340    17.4590     2.5880 
  147.8750   -25.0680    63.3940    24.7350    17.1540    16.7830    17.3430     2.5690 
  148.0000   -25.1260    60.9030    24.9420    15.6800    16.3150    17.1050     2.5590 
  148.1250   -25.1500    59.0980    24.8740    14.5210    15.7730    16.7510     2.5670 
  148.2500   -25.1320    60.0330    24.6600    13.6170    15.1570    16.2740     2.5780 
  148.3750   -25.1500    60.4520    24.4270    12.6320    14.4150    15.6140     2.5820 
  148.5000   -25.2110    58.0190    24.3300    11.8700    13.5040    14.7270     2.5760 
  148.6250   -25.2970    56.7030    24.3340    11.2700    12.4250    13.6040     2.5660 
  148.7500   -25.4250    58.2280    24.2730    10.2440    11.3210    12.4060     2.5560 
  148.8750   -25.6440    59.9710    24.2720     9.2200    10.3560    11.3090     2.5460 
  149.0000   -25.8700    59.5690    24.3090     8.5950     9.6770    10.4730     2.5310 
  149.1250   -26.1740    57.3490    24.3340     8.4770     9.4110    10.0490     2.5070 
  149.2500   -26.5690    57.3020    24.3570     8.7980     9.4600     9.9620     2.4840 
  149.3750   -26.9860    60.6830    24.3740    10.1240     9.7270    10.1310     2.4720 
  149.5000   -27.4380    65.1210    24.3590    13.2130    10.0920    10.4570     2.4690 
  149.6250   -27.9750    68.2160    24.5580    16.6730    10.5050    10.9030     2.4610 
  149.7500   -28.5820    69.3320    24.8860    17.8100    11.0850    11.5510     2.4340 
  149.8750   -29.1840    67.9590    25.0820    18.1010    12.1200    12.6510     2.3840 
  150.0000   -29.8660    65.0030    25.2350    22.9270    13.9910    14.5670     2.3230 
  150.1250   -30.5730    64.1350    25.4660    37.4890    17.4870    18.1430     2.2760 
  150.2500   -31.2690    64.2550    25.3930    56.7220    23.1060    24.0040     2.2510 
  150.3750   -32.0280    64.2460    25.3170    74.1750    31.6190    33.0620     2.2370 
  150.5000   -32.7630    65.3620    25.3240    86.8440    43.6890    45.9990     2.2230 
  150.6250   -33.4570    69.1280    25.4020    98.3850    59.8310    63.1170     2.2110 
  150.7500   -34.1390    72.2750    25.4550   116.1690    78.1760    82.2700     2.2060 
  150.8750   -34.7650    73.0790    25.4480   141.4530    96.9590   101.5900     2.2030 
  151.0000   -35.3370    71.3340    25.3860   166.8580   114.2180   119.0180     2.1980 
  151.1250   -35.8890    68.2290    25.3410   176.8570   126.2430   130.9400     2.1930 
  151.2500   -36.3590    64.9430    25.3270   167.1520   130.5170   135.4760     2.1980 
  151.3750   -36.7880    62.8730    25.3260   143.3050   126.4450   132.1400     2.2130 
  151.5000   -37.2280    62.5590    25.3170   116.8240   116.8000   122.9870     2.2280 
  151.6250   -37.5900    63.4370    25.3100    98.9490   105.9780   111.7470     2.2320 
  151.7500   -37.9360    65.5880    25.3020    89.8650    96.9650   101.8890     2.2280 
  151.8750   -38.2770    68.5960    25.2900    85.8310    90.3040    94.4190     2.2220 
