~V
VERS. 2.00: Ver 2.00
~W
STRT.M 60.0000:
STOP.M 276.0000:
STEP.M 0.1250:
NULL. -999.2500:
UWI. DF32145:
~C
DEPT.M :
SP.MV :
GR.API :
CALI.CM :
RXO.OHMM :
RI. :
RML.OHMM :
DEN.GM/CC :
~A
# ...
  217.5000   -26.8100    73.1820    23.1270    46.7630    57.8360    55.2250     2.1970 
  217.6250   -26.8020    71.6890    23.1280    46.2180    57.1850    54.6500     2.1820 
  217.7500   -26.9070    67.4290    23.1280    46.1320    57.2940    54.7810     2.1810 
  217.8750   -27.0260    63.8540    23.1280    45.6020    58.8060    56.3690     2.2120 
  218.0000   -27.0900    62.3140    23.1240    45.8110    61.9980    59.8440     2.2900 
  218.1250   -27.1020    62.0340    23.1000    53.6820    66.6420    65.2220     2.4090 
  218.2500   -27.0690    60.9280    23.0470    72.6820    71.3270    71.0180     2.5130 
  218.3750   -27.0310    59.1910    22.9490    83.0870    74.7360    75.6570     2.5450 
  218.5000   -26.8950    58.9020    22.8010    71.9550    76.1710    78.1460     2.4860 
  218.6250   -26.6250    62.8460    22.5880    53.7310    76.1330    79.0120     2.3750 
  218.7500   -26.2570    68.5930    22.5030    48.8300    76.3430    80.3050     2.2880 
  218.8750   -25.8620    72.2690    22.4880    52.1810    77.8660    83.2650     2.2510 
  219.0000   -25.5040    71.4400    22.4850    59.6790    81.1710    88.4230     2.2550 
  219.1250   -25.1240    68.1170    22.4720    67.6550    86.0690    95.5340     2.2760 
  219.2500   -24.7660    66.2800    22.4770    67.2730    90.9660   102.5020     2.2840 
  219.3750   -24.4310    66.4820    22.5130    62.9980    94.3510   107.2820     2.2760 
  219.5000   -24.1990    66.7600    22.6130    63.1160    95.2120   108.6420     2.2500 
  219.6250   -24.0950    66.4610    22.7270    68.2330    92.9640   106.1310     2.2050 
  219.7500   -24.1070    65.7660    22.8050    67.2440    88.6270   101.1580     2.1560 
  219.8750   -24.1740    65.3030    22.8360    59.1040    83.1510    94.8690     2.1310 
  220.0000   -24.2540    65.9980    22.8470    51.6100    77.6370    88.5890     2.1480 
  220.1250   -24.4370    68.8630    22.8470    50.6780    73.2830    83.8290     2.1940 
  220.2500   -24.7080    70.4910    22.8430    52.9030    70.5150    81.1590     2.2340 
  220.3750   -25.0160    70.0590    22.8440    56.0830    69.4260    80.7300     2.2610 
  220.5000   -25.2840    69.6780    22.8640    58.1980    69.7910    82.2400     2.2750 
  220.6250   -25.5130    69.2140    22.8850    59.3910    71.2540    85.0970     2.2650 
  220.7500   -25.6780    67.7780    22.9020    60.9160    73.1400    88.2670     2.2370 
  220.8750   -25.8200    67.2990    22.9080    63.3730    75.1730    91.2780     2.2140 
  221.0000   -25.8640    68.0280    22.9090    65.9890    77.2390    93.9190     2.2110 
  221.1250   -25.8050    68.5390    22.9070    67.8410    79.6760    96.3330     2.2200 
  221.2500   -25.6320    67.8190    22.8930    69.0010    83.2240    99.3140     2.2280 
  221.3750   -25.4190    67.3540    22.8610    69.5070    88.7010   103.9590     2.2460 
  221.5000   -25.2050    66.9460    22.8280    69.8180    96.7580   111.5010     2.2930 
  221.6250   -24.9540    64.8170    22.7590    74.0010   107.8160   123.5900     2.3830 
  221.7500   -24.6500    61.9640    22.6280    89.9990   119.4110   138.2290     2.4930 
  221.8750   -24.3010    59.0460    22.4740   118.3310   126.7140   148.3030     2.6000 
  222.0000   -23.9730    57.4370    22.3630   134.8870   122.2470   139.5120     2.6800 
  222.1250   -23.6440    58.5160    22.3140   110.8920    98.2330   102.9940     2.7170 
  222.2500   -23.3050    61.0230    22.2710    72.5030    66.2850    64.0500     2.7220 
  222.3750   -22.9210    63.9780    22.2350    42.2900    39.2280    36.7010     2.6970 
  222.5000   -22.4600    66.8530    22.2190    24.6000    21.9250    20.7590     2.6410 
  222.6250   -22.0180    71.0350    22.2190    14.3100    13.2580    12.7590     2.5620 
  222.7500   -21.6280    73.6250    22.2190     8.6540     8.6170     8.3660     2.4870 
  222.8750   -21.3100    72.0480    22.2190     5.9320     6.1820     6.1030     2.4340 
  223.0000   -21.0080    67.0740    22.2190     5.0260     4.9850     5.1260     2.4050 
  223.1250   -20.7870    62.2020    22.2190     4.7990     4.5760     4.9670     2.3960 
  223.2500   -20.6790    60.8290    22.2190     4.7440     4.5110     5.0850     2.3860 
  223.3750   -20.6710    64.4110    22.2190     4.7100     4.5980     5.2200     2.3700 
  223.5000   -20.7520    71.5610    22.2190     4.6960     4.7360     5.2730     2.3510 
  223.6250   -20.8800    79.8060    22.2190     4.6940     4.9140     5.3200     2.3470 
  223.7500   -21.0480    88.8830    22.2240     4.7640     5.1630     5.4900     2.3600 
  223.8750   -21.2070    99.0400    22.2600     5.1450     5.4950     5.8270     2.3830 
  224.0000   -21.3990   107.5040    22.3530     5.8420     5.8800     6.2900     2.4030 
  224.1250   -21.5270   110.1790    22.4710     6.4610     6.2260     6.7610     2.4110 
  224.2500   -21.5970   108.2960    22.5270     6.6560     6.4450     7.1050     2.4110 
  224.3750   -21.6310   105.9960    22.5410     6.6820     6.4980     7.2570     2.4080 
  224.5000   -21.6790   106.5080    22.5410     6.7260     6.4240     7.2400     2.4090 
  224.6250   -21.7450   110.2850    22.5410     6.7900     6.3090     7.1510     2.4150 
  224.7500   -21.8040   113.9340    22.5400     6.8410     6.2360     7.1150     2.4140 
  224.8750   -21.8820   117.3090    22.5360     6.8850     6.2290     7.1850     2.4010 
  225.0000   -21.9660   120.6750    22.5250     6.9500     6.2860     7.3790     2.3840 
  225.1250   -22.0970   124.4480    22.5040     7.0390     6.4110     7.7220     2.3780 
  225.2500   -22.2680   127.8980    22.4670     7.1440     6.5940     8.1810     2.3850 
  225.3750   -22.4250   129.6960    22.4300     7.2870     6.8250     8.7160     2.4030 
  225.5000   -22.5640   128.0550    22.4150     7.5830     7.0720     9.2510     2.4230 
  225.6250   -22.6780   120.6930    22.4000     8.0580     7.2420     9.6340     2.4380 
  225.7500   -22.8290   113.2380    22.3520     8.3230     7.2520     9.7490     2.4400 
  225.8750   -22.9660   110.5250    22.2770     8.2570     7.0600     9.5360     2.4290 
  226.0000   -23.1250   112.9910    22.2310     7.9630     6.7090     9.0590     2.4100 
  226.1250   -23.2460   116.2250    22.2190     7.5340     6.3710     8.5600     2.3970 
  226.2500   -23.3390   115.6650    22.2190     7.3170     6.2610     8.3800     2.4010 
  226.3750   -23.4320   113.5030    22.2190     7.6450     6.5720     8.8190     2.4160 
  226.5000   -23.5280   111.4970    22.2190     9.1140     7.5010    10.1770     2.4260 
  226.6250   -23.6010   109.4720    22.2320    13.3230     9.4410    13.0150     2.4150 
  226.7500   -23.5950   104.4700    22.3120    20.4660    12.4550    17.3760     2.3920 
  226.8750   -23.5750    95.0790    22.5130    29.0500    16.4790    23.0560     2.3660 
  227.0000   -23.5340    85.1980    22.7700    36.9920    20.9440    29.0180     2.3430 
  227.1250   -23.5120    78.7260    22.8820    38.8000    24.5810    33.1400     2.3250 
  227.2500   -23.4240    75.3460    22.9090    34.8340    26.8800    35.0320     2.3090 
  227.3750   -23.3490    75.9930    22.9090    29.8730    28.2950    35.8400     2.2960 
  227.5000   -23.2720    80.7130    22.9090    29.1180    29.6560    37.0040     2.2870 
  227.6250   -23.2320    85.4350    22.9330    34.0540    31.7430    39.6280     2.2810 
  227.7500   -23.2170    84.9480    23.0360    39.7530    34.7450    43.7630     2.2730 
  227.8750   -23.1920    82.2330    23.2680    43.1870    38.5540    49.1810     2.2630 
  228.0000   -23.1500    80.2370    23.5950    43.3890    42.4180    54.7620     2.2570 
  228.1250   -23.1100    78.7240    23.7040    42.7810    44.2420    57.2310     2.2580 
  228.2500   -23.1250    77.0200    23.6710    45.3610    42.9330    54.8650     2.2660 
  228.3750   -23.1720    76.1240    23.6000    48.0050    39.1420    48.9670     2.2770 
  228.5000   -23.2170    76.7600    23.5430    43.5670    34.8160    42.6940     2.2810 
  228.6250   -23.2470    77.7140    23.4550    32.2030    32.2970    39.1610     2.2700 
