~V
VERS. 2.00: Ver 2.00
~W
STRT.M 63.0000:
STOP.M 291.0000:
STEP.M 0.1250:
NULL. -999.2500:
UWI. DF325:
~C
DEPT.M :
DEN.GM/CC :
SP.MV :
AC.US/MT :
GR.API :
RML.OHMM :
RI. :
RXO.OHMM :
CALI.CM :
~A
# ...
  103.0000     2.2520   -23.1410   388.6910    61.9160    17.2890    15.7840    16.1620    24.0910 
  103.1250     2.2140   -23.3620   424.7250    62.5060    14.5210    13.1970    13.6070    23.9770 
  103.2500     2.1890   -23.5530   436.7030    61.9250    12.6520    11.4510    12.9270    24.0230 
  103.3750     2.1730   -23.7480   431.1500    60.9420    11.6250    10.4900    12.4230    24.1780 
  103.5000     2.1650   -23.9280   418.0830    61.6340    11.2650    10.1550    11.9390    24.3000 
  103.6250     2.1710   -24.0140   406.8520    64.7820    11.3850    10.2670    11.8220    24.3150 
  103.7500     2.1880   -23.9800   401.4680    68.2230    11.6660    10.5270    11.9700    24.2570 
  103.8750     2.2080   -23.8640   404.6140    69.1240    11.9420    10.7810    12.2840    24.1920 
  104.0000     2.2220   -23.7210   418.3340    67.2330    12.1350    10.9560    12.6460    24.1920 
  104.1250     2.2210   -23.6180   441.2960    64.9500    12.2000    11.0360    12.7870    24.2170 
  104.2500     2.2100   -23.5440   464.7970    64.1870    12.1890    11.0640    12.5960    24.1710 
  104.3750     2.1940   -23.4960   482.3260    64.8650    12.1020    11.0580    12.4890    24.0750 
  104.5000     2.1810   -23.4700   490.6380    66.0920    11.9470    11.0160    12.5160    24.0070 
  104.6250     2.1790   -23.4550   488.3310    65.8260    11.7950    10.9250    12.5750    23.9680 
  104.7500     2.1870   -23.4340   479.5660    63.9080    11.6540    10.8030    12.5340    23.8970 
  104.8750     2.2040   -23.3940   469.0900    62.2370    11.5930    10.6910    12.5240    23.8350 
  105.0000     2.2210   -23.3360   462.0110    63.1610    11.6470    10.6570    12.7700    23.7830 
  105.1250     2.2290   -23.2570   460.3090    66.0920    11.9070    10.8070    13.1020    23.7300 
  105.2500     2.2230   -23.1530   457.8970    68.2260    12.3130    11.1330    13.8530    23.7020 
  105.3750     2.2030   -23.0220   448.2000    68.6780    12.7810    11.5710    15.3570    23.7680 
  105.5000     2.1760   -22.9030   429.8070    67.8240    13.2360    11.9970    17.3810    23.9640 
  105.6250     2.1490   -22.8520   412.4280    66.1220    13.4990    12.2390    19.2950    24.1220 
  105.7500     2.1290   -22.8660   408.3670    63.9260    13.5280    12.2590    19.7050    24.1240 
  105.8750     2.1230   -22.9350   420.6260    63.0070    13.3540    12.0970    17.0730    24.0220 
  106.0000     2.1350   -23.0250   440.1760    63.4070    13.0690    11.8480    14.0660    23.9120 
  106.1250     2.1620   -23.1620   451.4610    64.3150    12.7410    11.6130    12.9600    23.8000 
  106.2500     2.1910   -23.3700   451.1820    64.9410    12.4310    11.4350    12.8680    23.6810 
  106.3750     2.2110   -23.5730   445.2720    63.3830    12.1560    11.3110    13.1010    23.5610 
  106.5000     2.2130   -23.7690   441.5680    58.8650    11.9400    11.2200    13.2840    23.4800 
  106.6250     2.2020   -23.9740   444.4100    53.6800    11.8590    11.1510    13.1990    23.5450 
  106.7500     2.1900   -24.1600   451.7610    54.3270    11.8720    11.1100    12.9090    23.6380 
  106.8750     2.1850   -24.3010   461.2040    60.2040    11.9560    11.1190    12.4670    23.7300 
  107.0000     2.1880   -24.4100   469.5130    64.7090    12.1400    11.1850    12.0730    23.7560 
  107.1250     2.1960   -24.4970   472.8760    63.4580    12.3820    11.2910    12.0430    23.7280 
  107.2500     2.2030   -24.5140   471.4330    60.8940    12.5740    11.3780    12.2450    23.7370 
  107.3750     2.2070   -24.5130   467.9360    61.1390    12.5980    11.4000    12.3530    23.7690 
  107.5000     2.2050   -24.5140   465.8000    62.9080    12.5310    11.3370    12.0960    23.7780 
  107.6250     2.1970   -24.4620   466.1590    61.9170    12.3870    11.2030    11.6820    23.7490 
  107.7500     2.1850   -24.3800   466.5330    60.6130    12.2390    11.0650    11.5130    23.7020 
  107.8750     2.1720   -24.2840   465.3360    61.6970    12.1480    10.9800    11.7460    23.6570 
  108.0000     2.1610   -24.1540   462.8480    63.4550    12.1510    10.9830    12.2470    23.6800 
  108.1250     2.1550   -23.9740   460.1510    62.3710    12.2660    11.0890    12.8040    23.8730 
  108.2500     2.1550   -23.8210   457.6740    62.5610    12.4450    11.2540    13.3420    24.0770 
  108.3750     2.1630   -23.6690   455.1430    65.7910    12.6490    11.4430    13.8810    24.1770 
  108.5000     2.1760   -23.4640   451.7440    67.9020    12.8510    11.6360    14.3060    24.1610 
  108.6250     2.1870   -23.2770   445.7470    66.9950    13.0390    11.8270    14.5440    24.0710 
  108.7500     2.1860   -23.1650   436.8170    65.4530    13.2160    12.0230    14.8370    23.9550 
  108.8750     2.1720   -23.1410   428.0340    63.3230    13.3760    12.2230    15.2020    23.8640 
  109.0000     2.1500   -23.1710   425.4450    61.0840    13.5160    12.3950    15.5200    23.8270 
  109.1250     2.1370   -23.2400   434.7040    61.7560    13.6230    12.5240    15.6390    23.7890 
  109.2500     2.1460   -23.3640   448.3560    64.1370    13.6880    12.5960    15.5110    23.6380 
  109.3750     2.1780   -23.5470   455.8620    64.0870    13.6930    12.5930    15.0660    23.4570 
  109.5000     2.2190   -23.7630   452.7920    61.6110    13.6210    12.4900    14.4350    23.4000 
  109.6250     2.2430   -24.0180   446.0920    61.2260    13.4200    12.2440    13.8620    23.5160 
  109.7500     2.2410   -24.2760   446.4090    62.1580    13.1000    11.8810    13.3690    23.6120 
  109.8750     2.2210   -24.5060   455.2150    61.5560    12.6490    11.4580    12.9500    23.5970 
  110.0000     2.1960   -24.7090   466.5670    58.7670    12.1210    10.9980    12.5540    23.4680 
  110.1250     2.1830   -24.8860   471.0310    57.0560    11.5480    10.5500    12.0870    23.2720 
  110.2500     2.1800   -25.0180   466.9730    58.1330    11.0910    10.2040    11.6740    23.2150 
  110.3750     2.1830   -25.1030   459.1200    60.0560    10.9040    10.0450    11.4170    23.2900 
  110.5000     2.1870   -25.1490   452.8250    60.1350    11.0360    10.1170    11.4320    23.3190 
  110.6250     2.1900   -25.0970   445.3260    59.5560    11.4360    10.4000    12.0940    23.3100 
  110.7500     2.1940   -24.9690   428.4690    60.8910    11.8500    10.7010    13.4340    23.2740 
  110.8750     2.2020   -24.7900   399.9230    63.2530    12.0060    10.8470    14.9880    23.3000 
  111.0000     2.2140   -24.5930   368.5190    64.9670    11.8870    10.7360    16.2100    23.3790 
  111.1250     2.2280   -24.3510   353.6990    66.8550    11.5580    10.4280    15.8270    23.3790 
  111.2500     2.2400   -24.0410   360.5660    70.7080    11.3300    10.2150    13.5550    23.2800 
  111.3750     2.2430   -23.7220   377.9800    76.2530    11.4610    10.3370    11.9850    23.1190 
  111.5000     2.2350   -23.4150   386.5480    81.1670    12.0750    10.9110    12.7500    22.8720 
  111.6250     2.2140   -23.1040   371.4830    81.5570    13.1310    11.8980    15.3900    22.5460 
  111.7500     2.1870   -22.8140   346.8970    78.6720    14.2280    12.9230    18.3500    22.1760 
  111.8750     2.1640   -22.5700   331.6950    77.6610    14.9600    13.6070    20.2930    21.8770 
  112.0000     2.1530   -22.3530   338.0780    80.5390    14.9880    13.6330    18.9580    21.6060 
  112.1250     2.1610   -22.1660   365.4760    82.9780    14.1240    12.8260    14.7540    21.3400 
  112.2500     2.1790   -22.0450   396.7480    84.7730    12.8300    11.6170    11.9140    21.0470 
  112.3750     2.1970   -21.9750   423.1300    88.9470    11.5480    10.4210    10.5420    20.7470 
  112.5000     2.2040   -21.9450   444.4220    93.1830    10.6210     9.5500     9.7590    20.3460 
  112.6250     2.1870   -22.0240   463.9330    91.2000    10.2820     9.2200     9.4300    19.8170 
  112.7500     2.1540   -22.1950   478.6900    83.9210    10.3930     9.3230     9.5610    19.3190 
  112.8750     2.1160   -22.3890   482.0830    77.0940    10.8170     9.7540     9.9470    18.9000 
