~V
VERS. 2.00: Ver 2.00
~W
STRT.M 60.0000:
STOP.M 270.0000:
STEP.M 0.1250:
NULL. -999.2500:
UWI. DF32131:
~C
DEPT.M :
DEN.GM/CC :
GR.API :
CALI.CM :
RXO.OHMM :
RI. :
RML.OHMM :
SP.MV :
~A
# ...
  262.5000     2.4120    70.2580    24.8570     7.4800     5.0210     6.0360    -7.4990 
  262.6250     2.4120    70.2580    24.8590     7.1550     5.0570     6.0840    -7.5430 
  262.7500     2.4230    70.2580    24.8620     6.6880     5.0470     6.1160    -7.6300 
  262.8750     2.4370    70.2580    24.8500     6.4460     5.0090     6.1320    -7.7120 
  263.0000     2.4350    70.2580    24.7960     6.7390     4.9690     6.1360    -7.7860 
  263.1250     2.4150    70.2580    24.6830     7.1830     4.9460     6.1370    -7.8820 
  263.2500     2.3990    70.2580    24.6080     7.2080     4.9320     6.1380    -7.9560 
  263.3750     2.4000    70.2580    24.5820     7.0300     4.9180     6.1360    -8.0080 
  263.5000     2.4090    70.2580    24.5770     7.2740     4.8980     6.1290    -8.0850 
  263.6250     2.4110    70.2580    24.5790     8.2290     4.8700     6.1230    -8.0950 
  263.7500     2.4120    70.2580    24.5860     8.7700     4.8430     6.1230    -8.0110 
  263.8750     2.4200    70.2580    24.6120     8.7690     4.8330     6.1300    -7.9230 
  264.0000     2.4300    70.2580    24.6590     8.5130     4.8510     6.1380    -7.8710 
  264.1250     2.4260    70.2580    24.6480     8.2520     4.8510     6.1380    -7.8570 
  264.2500     2.4130    70.2580    24.5340     7.7890     4.8510     6.1380    -7.8350 
  264.3750     2.4010    70.2580    24.3430     7.4260     4.8510     6.1380    -7.7750 
  264.5000     2.3970    70.2580    24.2170     7.3510     4.8510     6.1380    -7.7000 
  264.6250     2.4060    70.2580    24.2210     8.1480     4.8510     6.1380    -7.7350 
  264.7500     2.4280    70.2580    24.3620     9.4730     4.8510     6.1380    -7.8440 
  264.8750     2.4500    70.2580    24.5630    11.0540     4.8510     6.1380    -7.9240 
  265.0000     2.4610    70.2580    24.6390    12.3860     4.8510     6.1380    -7.9750 
  265.1250     2.4600    70.2580    24.5380    12.5190     4.8510     6.1380    -7.9850 
  265.2500     2.4620    70.2580    24.4610    11.5340     4.8510     6.1380    -8.0270 
  265.3750     2.4670    70.2580    24.4040    10.3810     4.8510     6.1380    -8.1040 
  265.5000     2.4680    70.2580    24.3730     9.7610     4.8510     6.1380    -8.1760 
  265.6250     2.4590    70.2580    24.3630    10.0080     4.8510     6.1380    -8.1040 
  265.7500     2.4420    70.2580    24.3630    10.1960     4.8510     6.1380    -7.9660 
  265.8750     2.4260    70.2580    24.3630    10.2230     4.8510     6.1380    -7.8410 
  266.0000     2.4240    70.2580    24.3520     9.8310     4.8510     6.1380    -7.7370 
  266.1250     2.4440    70.2580    24.3160     8.9910     4.8510     6.1380    -7.6700 
  266.2500     2.4640    70.2580    24.2310     8.4210     4.8510     6.1380    -7.5540 
  266.3750     2.4690    70.2580    24.0950     8.4470     4.8510     6.1380    -7.4010 
  266.5000     2.4570    70.2580    23.9440     8.8450     4.8510     6.1380    -7.2730 
  266.6250     2.4410    70.2580    23.8770     9.1850     4.8510     6.1380    -7.2780 
  266.7500     2.4310    70.2580    23.8540     9.1240     4.8510     6.1380    -7.3650 
  266.8750     2.4150    70.2580    23.7830     8.3540     4.8510     6.1380    -7.4430 
  267.0000     2.3690    70.2580    23.5070     7.1760     4.8510     6.1380    -7.4620 
  267.1250     2.2730    70.2580    22.7560     6.6240     4.8510     6.1380    -7.4610 
  267.2500     2.1660    70.2580    21.7000     6.6570     4.8510     6.1380    -7.5260 
  267.3750     2.0900    70.2580    20.8240     6.8290     4.8510     6.1380    -7.6740 
  267.5000     2.0650    70.2580    20.4390     6.9050     4.8510     6.1380    -7.9500 
  267.6250     2.0720    70.2580    20.3880     6.9050     4.8510     6.1380    -8.1880 
  267.7500     2.0770    70.2580    20.3840     6.9060     4.8510     6.1380    -8.4140 
  267.8750     2.0760    70.2580    20.3840     6.9070     4.8510     6.1380    -8.6990 
  268.0000     2.0770    70.2580    20.3840     6.9070     4.8510     6.1380    -9.0300 
  268.1250     2.0770    70.2580    20.3800     6.9070     4.8510     6.1380    -9.3230 
  268.2500     2.0750    70.2580    20.3730     6.9040     4.8510     6.1380    -9.5700 
  268.3750     2.0730    70.2580    20.3650     6.8970     4.8510     6.1380    -9.6710 
  268.5000     2.0760    70.2580    20.3550     6.8880     4.8510     6.1380    -9.6710 
  268.6250     2.0830    70.2580    20.3260     6.8810     4.8510     6.1380  -999.2500 
  268.7500     2.0840    70.2580    20.3090     6.8780     4.8510     6.1380  -999.2500 
  268.8750     2.0750    70.2580    20.3040     6.8780     4.8510     6.1380  -999.2500 
  269.0000     2.0610    70.2580    20.3030     6.8780     4.8510     6.1380  -999.2500 
  269.1250     2.0470  -999.2500  -999.2500  -999.2500  -999.2500  -999.2500  -999.2500 
  269.2500     2.0430  -999.2500  -999.2500  -999.2500  -999.2500  -999.2500  -999.2500 
  269.3750     2.0500  -999.2500  -999.2500  -999.2500  -999.2500  -999.2500  -999.2500 
  269.5000     2.0580  -999.2500  -999.2500  -999.2500  -999.2500  -999.2500  -999.2500 
  269.6250     2.0560  -999.2500  -999.2500  -999.2500  -999.2500  -999.2500  -999.2500 
  269.7500     2.0440  -999.2500  -999.2500  -999.2500  -999.2500  -999.2500  -999.2500 
  269.8750     2.0840  -999.2500  -999.2500  -999.2500  -999.2500  -999.2500  -999.2500 
  270.0000     2.2320  -999.2500  -999.2500  -999.2500  -999.2500  -999.2500  -999.2500 
