~V
VERS. 2.00: Ver 2.00
~W
STRT.M 59.0000:
STOP.M 261.0000:
STEP.M 0.1250:
NULL. -999.2500:
UWI. DF32116:
~C
DEPT.M :
SP.MV :
GR.API :
CALI.CM :
RXO.OHMM :
RI. :
RML.OHMM :
DEN.GM/CC :
~A
# ...
  171.5000   -35.1210    76.2450    25.3690    40.8520    43.5010    47.1240     2.2970 
  171.6250   -35.4350    73.1370    25.2560    45.3720    46.7800    51.6990     2.2910 
  171.7500   -35.7790    68.7980    25.0170    56.1060    51.9840    58.3470     2.2850 
  171.8750   -36.1600    66.5110    24.7700    68.9810    58.4990    66.2960     2.2840 
  172.0000   -36.5600    68.2140    24.7050    77.2790    65.4200    74.5440     2.2910 
  172.1250   -37.0160    71.4980    24.9160    78.8570    71.8360    82.2420     2.3010 
  172.2500   -37.5290    71.9640    25.1830    79.8470    77.9010    89.8450     2.3030 
  172.3750   -38.0740    70.1650    25.3380    84.5840    84.8030    98.9160     2.2950 
  172.5000   -38.6730    68.7300    25.3640    96.5160    94.4240   111.6770     2.2780 
  172.6250   -39.3360    65.9490    25.2840   119.4250   109.7410   131.6780     2.2640 
  172.7500   -40.0230    61.6440    25.1080   148.1370   131.4410   159.8140     2.2570 
  172.8750   -40.7350    58.1360    24.9260   179.8450   159.9710   196.8980     2.2480 
  173.0000   -41.4740    55.7640    24.9200   221.4300   194.4720   242.0880     2.2270 
  173.1250   -42.2060    53.2730    25.1700   286.2110   231.2260   290.2500     2.2060 
  173.2500   -42.9070    53.2560    25.4700   351.8920   262.0200   329.1090     2.2030 
  173.3750   -43.5740    55.7060    25.6610   390.0420   278.9680   346.9830     2.2170 
  173.5000   -44.1920    57.4660    25.7160   394.9450   278.4610   340.0050     2.2310 
  173.6250   -44.7490    57.2860    25.6920   361.3600   262.0400   313.1780     2.2320 
  173.7500   -45.2320    58.3770    25.6860   300.2770   238.8990   279.5670     2.2290 
  173.8750   -45.6350    61.1940    25.7240   243.6920   213.5010   244.6070     2.2290 
  174.0000   -45.9590    62.5720    25.7750   223.6440   188.5670   211.6840     2.2390 
  174.1250   -46.1810    62.8610    25.7760   213.1820   166.8150   184.4860     2.2530 
  174.2500   -46.3130    64.1050    25.6900   178.2020   149.7170   164.0630     2.2620 
  174.3750   -46.3750    66.6930    25.5570   137.0240   138.3310   150.8380     2.2580 
  174.5000   -46.3590    68.2110    25.4850   122.5330   132.4970   143.8950     2.2410 
  174.6250   -46.2460    66.3540    25.5150   138.7310   130.8490   141.3290     2.2240 
  174.7500   -46.0760    64.9610    25.5240   156.5070   130.0570   139.5060     2.2210 
  174.8750   -45.8660    66.0570    25.4540   157.2340   128.1890   136.4710     2.2320 
  175.0000   -45.6270    69.6610    25.3510   139.0020   124.4580   131.7050     2.2500 
  175.1250   -45.3980    70.6120    25.2730   115.2760   119.8610   126.8980     2.2650 
  175.2500   -45.2080    67.3070    25.1990   101.1100   117.3450   125.1910     2.2740 
  175.3750   -45.0390    62.1910    25.1280   101.9500   119.5140   129.0470     2.2790 
  175.5000   -44.9290    58.5070    25.1270   116.8780   128.1280   140.0450     2.2730 
  175.6250   -44.8870    58.1340    25.2890   144.9460   145.4410   160.6140     2.2530 
  175.7500   -44.8930    57.6130    25.5280   186.0490   170.3610   189.8920     2.2310 
  175.8750   -44.9540    55.9430    25.7250   242.1520   201.9130   227.3520     2.2200 
  176.0000   -45.0270    55.1600    25.8070   307.4990   237.8080   270.9060     2.2200 
  176.1250   -45.0980    55.7870    25.7990   365.9520   274.1160   316.2170     2.2180 
  176.2500   -45.1560    56.1830    25.7850   402.4170   306.4520   357.0920     2.2120 
  176.3750   -45.2080    55.9770    25.7940   419.5370   332.1640   389.1300     2.2090 
  176.5000   -45.2320    55.9350    25.8150   433.1350   350.6980   410.8380     2.2130 
  176.6250   -45.2420    56.5610    25.8260   450.8270   361.7190   421.2020     2.2150 
  176.7500   -45.2540    57.4320    25.8290   466.3560   364.9880   420.0210     2.2120 
  176.8750   -45.2480    58.7220    25.8300   479.8970   357.6670   404.2140     2.2040 
  177.0000   -45.2710    59.1220    25.8310   489.4720   338.6120   373.8460     2.1940 
  177.1250   -45.2980    58.6020    25.8350   452.0070   309.2350   332.7740     2.1790 
  177.2500   -45.3080    58.7470    25.8350   361.9020   275.2100   287.8720     2.1670 
  177.3750   -45.2990    59.8200    25.8080   264.2920   238.1770   240.7550     2.1690 
  177.5000   -45.2370    61.7340    25.7590   212.3920   198.7310   192.9330     2.1890 
  177.6250   -45.0760    63.6060    25.7300   199.2310   159.3780   149.5450     2.2190 
  177.7500   -44.8320    64.8510    25.7360   166.3790   124.6840   114.7850     2.2440 
  177.8750   -44.5110    66.4140    25.7500   108.5940    97.7810    89.9170     2.2570 
  178.0000   -44.1290    69.2120    25.7490    60.9600    79.1910    73.5760     2.2580 
  178.1250   -43.7180    71.6630    25.7410    47.3560    68.3830    64.3020     2.2540 
  178.2500   -43.2950    72.3520    25.7450    52.0440    62.3580    59.2720     2.2560 
  178.3750   -42.8790    71.8170    25.7440    61.8490    60.1570    57.7610     2.2670 
  178.5000   -42.5190    70.8600    25.6960    63.1700    61.5320    59.6740     2.2780 
  178.6250   -42.2300    69.3510    25.5540    56.7730    68.1390    66.4490     2.2790 
  178.7500   -41.9700    67.3370    25.3900    65.5350    81.7580    79.1620     2.2720 
  178.8750   -41.7320    65.0400    25.3020   113.5530   105.3960   100.3320     2.2600 
  179.0000   -41.4600    61.9500    25.3130   198.7540   141.2930   133.1770     2.2450 
  179.1250   -41.1190    58.8510    25.3400   253.4030   189.5180   182.1960     2.2300 
  179.2500   -40.7060    56.8080    25.3460   265.8290   238.3860   238.4030     2.2180 
  179.3750   -40.1970    56.7750    25.3860   270.1130   273.0070   282.6130     2.2070 
  179.5000   -39.5860    57.3270    25.4800   276.1310   282.7030   296.4870     2.2000 
  179.6250   -38.8900    55.0530    25.5620   271.1360   266.1410   277.8420     2.2040 
  179.7500   -38.1490    51.6960    25.5970   258.3700   236.5700   245.0190     2.2160 
  179.8750   -37.3700    51.2260    25.5910   224.9780   201.8010   208.3240     2.2290 
  180.0000   -36.6090    54.6070    25.5410   169.4770   169.3660   176.5900     2.2370 
  180.1250   -35.8530    59.3450    25.4400   118.6990   147.7070   157.6560     2.2430 
  180.2500   -35.1080    60.1070    25.3480    92.7000   139.4710   151.9840     2.2460 
  180.3750   -34.3970    56.8290    25.3000    94.7010   147.6920   161.1320     2.2420 
  180.5000   -33.7000    53.4170    25.2920   129.0260   176.1780   188.3190     2.2410 
  180.6250   -32.9810    52.2830    25.2930   195.2210   230.6150   241.5790     2.2730 
  180.7500   -32.2340    51.0520    25.2940   270.9900   293.2060   302.9370     2.3460 
  180.8750   -31.4540    49.1810    25.2940   406.8430   320.9090   311.5120     2.4430 
  181.0000   -30.6020    48.8970    25.2930   671.2840   271.5860   229.8780     2.5290 
  181.1250   -29.7170    50.4930    25.2910   633.6570   174.5160   136.1140     2.5670 
  181.2500   -28.8200    52.0700    25.2910   348.5790    98.6060    78.6390     2.5560 
  181.3750   -27.8980    54.5670    25.2920   104.2730    54.7340    48.0110     2.5190 
  181.5000   -26.9860    58.9490    25.2950    38.0230    33.2980    32.4800     2.4870 
  181.6250   -26.1070    63.4580    25.2920    24.8850    25.1360    26.1660     2.4910 
  181.7500   -25.2700    66.3010    25.2780    21.8490    22.2530    24.4120     2.5290 
  181.8750   -24.4960    65.1110    25.2640    23.7990    22.3490    25.7160     2.5830 
  182.0000   -23.7990    59.6970    25.2680    30.4450    24.0430    28.6620     2.6320 
  182.1250   -23.1790    53.7500    25.2850    40.5940    25.2930    30.5150     2.6570 
  182.2500   -22.6130    51.9390    25.2950    44.8610    24.0270    28.7090     2.6560 
  182.3750   -22.1060    53.3510    25.2960    37.4530    20.1260    23.3400     2.6300 
  182.5000   -21.6520    54.8050    25.2900    23.1530    15.3130    16.9280     2.5790 
  182.6250   -21.2750    56.1110    25.2400    12.6590    11.4920    12.0780     2.5130 
