~V
VERS. 2.00: Ver 2.00
~W
STRT.M 62.0000:
STOP.M 282.0000:
STEP.M 0.1250:
NULL. -999.2500:
UWI. DF32160:
~C
DEPT.M :
GR.API :
CALI.CM :
RXO.OHMM :
RI. :
RML.OHMM :
DEN.GM/CC :
SP.MV :
~A
# ...
  242.0000    66.3370    25.2580    99.1230    68.8880    79.8070     2.2510   -20.8510 
  242.1250    66.4190    25.1690   100.0330    74.7310    85.5590     2.2420   -21.2680 
  242.2500    65.9520    25.0730   114.0080    78.3300    88.9930     2.2400   -21.6580 
  242.3750    63.5020    25.0170   132.9210    80.1840    90.6250     2.2450   -22.0160 
  242.5000    59.9340    24.9940   137.2270    80.7550    90.8740     2.2510   -22.3370 
  242.6250    57.6290    24.9740   120.6720    80.2310    89.8550     2.2500   -22.6200 
  242.7500    57.9380    24.9630   104.0360    79.1990    88.2490     2.2490   -22.8690 
  242.8750    60.6230    24.9720    96.2350    78.2340    86.8100     2.2500   -23.0820 
  243.0000    62.9540    24.9960    94.4280    78.0070    86.4120     2.2430   -23.2640 
  243.1250    61.4510    25.0550    97.1810    79.2400    88.0320     2.2230   -23.3840 
  243.2500    58.3320    25.1330   101.7640    81.5410    91.2110     2.2050   -23.4690 
  243.3750    57.6580    25.1600   102.9690    84.1110    95.0030     2.1990   -23.5270 
  243.5000    60.9840    25.0900    99.4380    86.0810    98.3100     2.2010   -23.5370 
  243.6250    63.9440    25.0360    98.4790    86.9280   100.2100     2.2070   -23.4820 
  243.7500    63.0990    25.1290   101.2100    87.2240   101.0760     2.2150   -23.3920 
  243.8750    59.7550    25.3310   100.0220    87.6620   101.5760     2.2250   -23.2660 
  244.0000    57.6000    25.5150    94.3770    88.7600   102.2820     2.2330   -23.0890 
  244.1250    58.2200    25.5780    96.4240    90.2510   102.8600     2.2430   -22.8720 
  244.2500    59.6170    25.5590   109.9950    90.6600   101.8010     2.2550   -22.6320 
  244.3750    61.3400    25.5120   124.3480    88.5470    97.7640     2.2680   -22.3660 
  244.5000    62.9760    25.4770   124.7250    83.3510    90.6540     2.2720   -22.0890 
  244.6250    63.4970    25.4700   105.5100    75.6450    81.7090     2.2640   -21.7950 
  244.7500    63.3170    25.4690    82.2200    67.5110    72.9120     2.2550   -21.4980 
  244.8750    65.6790    25.4450    65.2230    60.1700    65.0500     2.2560   -21.2080 
  245.0000    69.3420    25.3950    57.0060    54.1230    58.2890     2.2720   -20.9360 
  245.1250    68.8040    25.3580    53.1630    49.4200    52.7500     2.2950   -20.6830 
  245.2500    65.2510    25.3720    48.1890    45.6120    48.3310     2.3110   -20.4560 
  245.3750    63.0770    25.4220    41.9380    42.6000    45.0230     2.3180   -20.2670 
  245.5000    63.8740    25.4640    36.8010    40.1810    42.4510     2.3200   -20.1210 
  245.6250    64.8220    25.4740    35.9110    37.9280    39.9640     2.3190   -20.0420 
  245.7500    66.8950    25.4730    39.1660    35.5760    37.2570     2.3070   -19.9970 
  245.8750    71.3910    25.4670    42.5430    33.3770    34.7000     2.2830   -19.9780 
  246.0000    77.5630    25.4450    40.0520    31.8940    32.9950     2.2590   -19.9760 
  246.1250    81.0070    25.4150    32.0020    32.0140    33.0920     2.2480   -19.9940 
  246.2500    80.3570    25.3960    28.1450    33.7780    34.8420     2.2460   -19.9860 
  246.3750    77.7640    25.3920    34.8660    36.6850    37.5330     2.2410   -19.9310 
  246.5000    74.8190    25.3940    52.5290    39.3870    39.6660     2.2300   -19.8090 
  246.6250    76.3550    25.3930    64.1680    39.6390    38.9850     2.2300   -19.6170 
  246.7500    82.8350    25.3940    56.3450    37.1580    35.6260     2.2490   -19.3720 
  246.8750    89.1850    25.3960    37.4570    33.0770    31.1110     2.2780   -19.1040 
  247.0000    90.7930    25.3880    23.9010    29.0350    27.1490     2.2950   -18.8360 
  247.1250    87.3850    25.3470    21.2070    26.2420    24.7400     2.2930   -18.6130 
  247.2500    82.3560    25.2910    23.1180    24.4710    23.3850     2.2870   -18.4680 
  247.3750    77.1250    25.2440    24.2760    23.2340    22.4910     2.2860   -18.4400 
  247.5000    75.6270    25.2120    22.2250    22.1450    21.6300     2.2910   -18.5750 
  247.6250    81.0490    25.1840    18.7970    21.2180    20.8770     2.2960   -18.9380 
  247.7500    86.4990    25.1440    16.5570    20.7950    20.7560     2.3030   -19.4760 
  247.8750    87.7070    25.0900    15.9010    21.3670    21.8410     2.3100   -20.1420 
  248.0000    84.1310    25.0440    17.5220    23.4790    24.6010     2.3070   -20.9110 
  248.1250    76.6330    25.0270    25.6630    28.0420    29.7630     2.2810   -21.7250 
  248.2500    69.8210    25.0030    44.1590    35.0250    37.2070     2.2530   -22.5140 
  248.3750    67.8950    24.9560    69.4200    44.3040    46.9320     2.2480   -23.2330 
  248.5000    69.6620    25.0030    87.1320    55.3700    58.6790     2.2880   -23.8320 
  248.6250    68.6930    25.2930    86.4610    67.7580    72.2300     2.3580   -24.2460 
  248.7500    63.3630    25.6680    82.3660    81.5450    87.4520     2.3980   -24.4890 
  248.8750    59.4330    25.9990    87.6140    98.2760   105.6660     2.3690   -24.5690 
  249.0000    59.1850    26.3170   103.8340   119.8170   128.8550     2.2830   -24.4890 
  249.1250    58.5470    26.5620   123.5660   146.9450   158.8290     2.2060   -24.2470 
  249.2500    56.9340    26.5100   150.7200   174.0990   190.3200     2.1880   -23.9020 
  249.3750    58.5120    26.1660   208.8240   192.5440   211.9240     2.2240   -23.4680 
  249.5000    64.1460    25.8170   284.8890   193.5320   210.5470     2.2860   -22.9390 
  249.6250    68.1500    25.7010   286.8020   173.7190   184.1900     2.3410   -22.2890 
  249.7500    71.0900    25.6910   215.8600   146.0860   152.2650     2.3720   -21.5560 
  249.8750    75.7600    25.6690   143.1440   119.7450   124.6070     2.3730   -20.7520 
  250.0000    79.0930    25.6350   108.1010    99.0080   103.8400     2.3500   -19.8900 
  250.1250    77.8970    25.6310   100.8380    85.2250    90.0290     2.3200   -18.9880 
  250.2500    75.1360    25.6720   101.2990    76.0890    80.6910     2.3000   -18.0950 
  250.3750    72.8560    25.6970   100.3690    70.3890    74.8530     2.2960   -17.2370 
  250.5000    69.8230    25.6240    94.3810    67.2180    71.8730     2.3000   -16.4440 
  250.6250    66.0470    25.4950    83.2440    66.3480    71.6830     2.3080   -15.7230 
  250.7500    64.0980    25.4440    71.2490    67.2640    73.4890     2.3280   -15.0650 
  250.8750    65.2690    25.5100    63.7270    69.9510    77.0040     2.3650   -14.4880 
  251.0000    68.3520    25.6420    66.6830    74.4250    82.1280     2.4110   -13.9890 
  251.1250    70.1980    25.7540    81.6500    81.0280    89.3450     2.4370   -13.5350 
  251.2500    70.3650    25.8190    95.6570    88.9790    97.9340     2.4390   -13.0730 
  251.3750    71.0240    25.8290   101.0900    96.1030   104.9690     2.4370   -12.5790 
  251.5000    72.4830    25.7960   105.5330    97.4650   103.3240     2.4520   -12.0420 
  251.6250    68.7500    25.7330   113.4170    84.6580    83.7160     2.4680   -11.4380 
  251.7500    58.0590    25.6680    99.1890    61.6710    56.6120     2.4600   -10.7670 
  251.8750    45.8960    25.6320    61.1990    38.3180    33.8170     2.4480   -10.0460 
  252.0000    38.6860    25.5880    25.7150    21.5200    19.0850     2.4680    -9.2790 
  252.1250    38.8520    25.4800    10.7880    12.6020    11.4220     2.5170    -8.4980 
  252.2500    40.9030    25.3520     5.2010     7.8420     7.2720     2.5360    -7.7440 
  252.3750    40.5330    25.2900     3.5320     5.3880     5.1850     2.4970    -7.0450 
  252.5000    37.6600    25.3180     3.1730     4.1840     4.2910     2.4250    -6.4100 
  252.6250    37.1320    25.3910     3.1180     3.7550     4.1330     2.3750    -5.8910 
  252.7500    40.8520    25.4730     3.2060     3.6810     4.2650     2.3690    -5.4850 
  252.8750    45.1090    25.5510     3.3940     3.8000     4.4760     2.3860    -5.1660 
  253.0000    47.7100    25.6070     3.6090     4.0150     4.6270     2.4040    -4.9070 
  253.1250    49.9600    25.6200     3.8790     4.2610     4.6560     2.4160    -4.6870 
