~V
VERS. 2.00: Ver 2.00
~W
STRT.M 63.0000:
STOP.M 291.0000:
STEP.M 0.1250:
NULL. -999.2500:
UWI. DF325:
~C
DEPT.M :
DEN.GM/CC :
SP.MV :
AC.US/MT :
GR.API :
RML.OHMM :
RI. :
RXO.OHMM :
CALI.CM :
~A
# ...
  193.0000     2.2030   -27.9930   442.9960    59.6970   112.9040   114.0370    86.7860    24.5900 
  193.1250     2.2110   -27.9700   441.2060    61.6320   113.9000   117.2510    87.2920    24.5420 
  193.2500     2.2240   -27.9140   437.8860    65.0890   105.6050   111.0610    86.2580    24.5000 
  193.3750     2.2380   -27.8850   434.5790    66.0870    90.6770    97.1720    79.0620    24.5550 
  193.5000     2.2520   -27.9020   431.8340    65.6590    74.7680    80.5920    62.0070    24.6600 
  193.6250     2.2600   -27.9020   429.2670    67.8700    63.2950    67.1530    45.8450    24.7770 
  193.7500     2.2600   -27.8530   427.3800    69.8540    56.5540    58.4770    39.0950    24.8570 
  193.8750     2.2540   -27.7810   428.0280    67.4880    53.5170    54.0270    38.7740    24.9180 
  194.0000     2.2450   -27.7490   431.7580    63.7910    52.9450    52.5920    41.8960    24.9040 
  194.1250     2.2380   -27.7310   436.1230    65.0060    54.0330    53.2740    45.7560    24.8910 
  194.2500     2.2350   -27.6970   437.8210    68.0640    55.9860    55.0510    49.4570    24.9020 
  194.3750     2.2360   -27.6680   436.1260    68.4150    58.6620    57.6590    55.3290    24.9340 
  194.5000     2.2400   -27.6640   432.3370    65.7350    62.0970    61.0340    60.5960    24.9630 
  194.6250     2.2470   -27.6560   428.5240    64.2080    66.3950    65.2280    62.5200    24.9800 
  194.7500     2.2550   -27.6480   426.0120    65.5450    71.0200    69.7470    62.7060    24.9650 
  194.8750     2.2600   -27.6270   425.0110    68.5980    75.1510    73.8250    64.3610    24.9300 
  195.0000     2.2620   -27.5780   424.9940    70.3770    77.7960    76.4850    65.6000    24.8800 
  195.1250     2.2610   -27.5250   425.3820    70.9990    77.8680    76.5690    64.5280    24.8410 
  195.2500     2.2570   -27.4680   425.9490    73.4990    75.9470    74.5090    62.3400    24.8190 
  195.3750     2.2540   -27.3930   426.4620    76.2300    73.0120    71.1710    59.1060    24.8100 
  195.5000     2.2500   -27.3030   426.3120    76.4230    70.2050    67.6970    54.4170    24.7960 
  195.6250     2.2460   -27.2330   424.9110    74.2510    68.3380    65.0710    50.7560    24.7670 
  195.7500     2.2400   -27.1450   422.9750    71.9600    67.0390    63.1960    50.3470    24.7380 
  195.8750     2.2330   -27.0330   421.1950    69.9480    65.6620    61.5740    52.1060    24.6950 
  196.0000     2.2280   -26.9490   419.9560    67.7290    63.8210    59.7880    54.6990    24.6480 
  196.1250     2.2320   -26.9250   419.0020    67.3800    62.1670    58.1970    56.5070    24.5780 
  196.2500     2.2480   -26.8790   416.5790    66.5270    62.3720    58.0650    56.6860    24.3590 
  196.3750     2.2800   -26.8060   410.0800    63.8070    66.0880    60.8210    56.8340    23.9190 
  196.5000     2.3240   -26.7300   396.3610    61.3630    74.1820    67.3440    61.0020    23.5340 
  196.6250     2.3700   -26.6720   373.0340    59.4730    86.4600    77.6630    76.8890    23.4810 
  196.7500     2.4060   -26.6230   347.3440    57.2350    99.6560    89.0560   100.3940    23.8240 
  196.8750     2.4310   -26.5560   326.4130    54.6920   110.4680    98.7440   121.8110    24.2640 
  197.0000     2.4460   -26.4730   312.5500    53.4130   116.1210   104.3250   126.6710    24.5900 
  197.1250     2.4480   -26.3910   300.4340    53.7020   115.1820   104.2750   107.8790    24.7450 
  197.2500     2.4390   -26.3210   287.1020    53.8650   111.0110   100.9970    86.8110    24.7950 
  197.3750     2.4190   -26.2780   279.5850    55.3530   106.4690    96.8170    74.0570    24.8530 
  197.5000     2.3960   -26.2840   285.1970    59.5350   103.4580    93.6230    72.5350    24.8970 
  197.6250     2.3820   -26.3060   302.1250    63.0330   103.1890    92.8190    76.6580    24.8990 
  197.7500     2.3830   -26.3300   315.5980    62.5890   105.5330    94.3730    81.5020    24.9100 
  197.8750     2.3950   -26.3910   317.4910    59.8480   110.6260    98.2510    85.3750    24.9290 
  198.0000     2.4090   -26.4730   308.0670    59.0360   118.2250   104.1100    88.1710    24.9390 
  198.1250     2.4130   -26.5590   292.7440    61.0490   126.8520   110.8020    89.3410    24.9200 
  198.2500     2.4060   -26.6500   281.5030    63.2420   132.9330   115.6990    89.0000    24.8600 
  198.3750     2.3880   -26.7240   282.0190    65.3970   132.6280   115.9080    85.9370    24.7570 
  198.5000     2.3610   -26.7660   297.9760    67.3070   123.2500   109.1350    79.6110    24.6290 
  198.6250     2.3340   -26.8150   328.7810    68.0660   104.3580    94.4060    68.8820    24.5400 
  198.7500     2.3100   -26.8760   363.9110    69.7050    82.8790    76.4620    57.3090    24.4490 
  198.8750     2.2940   -26.9140   395.2360    73.5280    64.0550    59.6460    44.9610    24.3320 
  199.0000     2.2830   -26.9130   417.1810    78.5870    50.6550    46.8630    33.8210    24.2510 
  199.1250     2.2770   -26.9110   427.5130    80.1110    42.5800    39.4540    27.4790    24.2640 
  199.2500     2.2730   -26.9310   432.2250    77.9540    37.9740    35.6570    26.0610    24.3340 
  199.3750     2.2720   -26.9190   434.9130    75.0300    36.4360    34.3360    28.6100    24.4160 
  199.5000     2.2740   -26.8640   436.7770    73.5680    36.8090    34.5350    33.8080    24.5140 
  199.6250     2.2780   -26.7880   437.0340    74.0200    37.7210    35.5570    38.0310    24.5880 
  199.7500     2.2790   -26.7080   436.1800    76.5050    38.5910    36.6790    39.8340    24.6010 
  199.8750     2.2780   -26.6110   435.3570    79.7210    39.1540    37.5370    39.6810    24.5800 
  200.0000     2.2750   -26.4790   435.2180    82.2660    39.2870    37.9220    39.3520    24.5360 
  200.1250     2.2720   -26.3380   435.7920    82.1120    38.9270    37.6990    38.5340    24.4490 
  200.2500     2.2710   -26.2170   436.5320    78.5450    38.2460    37.0460    38.0430    24.3130 
  200.3750     2.2730   -26.1190   437.0020    73.3050    37.3800    36.1160    36.9360    24.1870 
  200.5000     2.2760   -26.0220   437.1550    70.6900    36.4930    35.0890    34.8380    24.1340 
  200.6250     2.2790   -25.9420   437.4710    73.1520    35.8200    34.1870    32.8030    24.1080 
  200.7500     2.2830   -25.8900   438.2200    74.3990    35.5050    33.5660    32.0290    24.1260 
  200.8750     2.2880   -25.8710   439.0270    73.3550    35.6040    33.2970    32.6930    24.2220 
  201.0000     2.2950   -25.8630   438.9040    73.1360    36.0320    33.3390    34.3010    24.4160 
  201.1250     2.3020   -25.8420   436.6200    73.8680    36.5640    33.5340    35.8320    24.5890 
  201.2500     2.3050   -25.8420   433.3440    74.0110    36.9320    33.6510    37.3720    24.6680 
  201.3750     2.3030   -25.8830   431.3530    74.5700    37.0220    33.5790    38.4840    24.6790 
  201.5000     2.2940   -25.9360   432.5720    75.6590    36.8470    33.3140    38.1100    24.6570 
  201.6250     2.2810   -25.9760   436.9000    75.6020    36.4750    32.9090    36.2790    24.6140 
  201.7500     2.2680   -26.0340   441.1310    76.1890    36.0220    32.4670    34.8300    24.5690 
  201.8750     2.2610   -26.1280   443.4210    79.3570    35.5430    32.0500    34.4090    24.5230 
  202.0000     2.2600   -26.2410   443.8240    82.3830    35.0990    31.7280    34.2980    24.4580 
  202.1250     2.2630   -26.3380   443.8620    82.4130    34.7700    31.6020    34.0350    24.3810 
  202.2500     2.2690   -26.4120   444.6260    80.5400    34.5410    31.6450    33.2940    24.3400 
  202.3750     2.2760   -26.4500   445.5680    77.7020    34.3470    31.7830    32.8030    24.3400 
  202.5000     2.2840   -26.4550   445.4590    75.6110    34.1160    31.9100    32.2020    24.3620 
  202.6250     2.2900   -26.4340   442.8100    74.7830    33.7830    31.9090    30.3030    24.3790 
  202.7500     2.2900   -26.3700   438.1810    75.9400    33.2960    31.6990    27.4820    24.3880 
  202.8750     2.2800   -26.2510   433.6320    78.0480    32.5180    31.1410    24.6360    24.4090 
