~V
VERS. 2.00: Ver 2.00
~W
STRT.M 60.0000:
STOP.M 232.0000:
STEP.M 0.1250:
NULL. -999.2500:
UWI. DF323:
~C
DEPT.M :
GR.API :
RML.OHMM :
RI. :
RXO.OHMM :
CALI.CM :
SP.MV :
DEN.GM/CC :
AC.US/MT :
~A
# ...
  110.0000    70.4000    10.2890     9.6700    11.6970    24.4940   -12.0920     2.1480   430.2830 
  110.1250    69.5650    10.3270     9.7420    12.0380    24.5020   -12.1150     2.1440   430.0130 
  110.2500    72.0370    10.3540     9.8090    12.5190    24.5010   -12.1520     2.1400   429.4960 
  110.3750    73.0370    10.3880     9.8470    12.9610    24.4810   -12.2700     2.1320   429.7160 
  110.5000    71.1980    10.3980     9.8350    13.2510    24.4400   -12.4940     2.1170   431.2750 
  110.6250    68.0110    10.3990     9.7900    13.2610    24.3460   -12.8170     2.0980   433.0180 
  110.7500    66.3750    10.5210     9.8120    13.2110    24.2040   -13.1930     2.0910   431.2540 
  110.8750    68.2700    10.9390    10.0290    13.2320    24.0660   -13.5380     2.1180   420.4770 
  111.0000    72.4440    11.8560    10.5780    13.2040    24.0330   -13.7500     2.1930   394.4350 
  111.1250    73.5340    13.5600    11.6750    12.9000    24.1550   -13.6510     2.3130   349.5890 
  111.2500    70.4580    15.7740    13.2070    12.6020    24.3000   -13.2200     2.4380   300.0970 
  111.3750    67.4640    17.7870    14.7820    13.0420    24.3970   -12.5010     2.5300   263.0140 
  111.5000    68.2660    18.5210    15.6550    15.6770    24.4480   -11.5480     2.5630   251.2270 
  111.6250    71.3290    17.0230    14.9650    21.9160    24.4840   -10.4330     2.5260   270.9080 
  111.7500    74.4050    14.3150    13.2100    24.5490    24.4930    -9.3190     2.4490   308.5980 
  111.8750    79.0210    11.6140    11.1920    18.0960    24.4810    -8.3450     2.3600   352.6430 
  112.0000    86.9190     9.7610     9.5710    11.3610    24.4870    -7.6140     2.2800   391.5880 
  112.1250    92.8100     9.1000     8.7290     9.9670    24.5140    -7.2380     2.2260   415.1240 
  112.2500    90.7340     9.1710     8.4970    10.8420    24.5230    -7.1540     2.1960   425.9200 
  112.3750    83.4100     9.6130     8.7020    11.5260    24.5080    -7.2810     2.1820   429.6980 
  112.5000    78.8930    10.1020     9.1240    11.4740    24.4950    -7.5530     2.1760   431.3590 
  112.6250    80.4580    10.3350     9.4780    11.3550    24.5160    -7.8740     2.1740   432.0900 
  112.7500    82.5530    10.2660     9.5980    11.2970    24.5610    -8.1470     2.1740   431.1410 
  112.8750    83.2480     9.9970     9.5000    11.1880    24.6060    -8.3250     2.1770   428.4080 
  113.0000    84.4040     9.6720     9.3000    11.0500    24.6270    -8.3590     2.1830   424.7100 
  113.1250    85.8460     9.4150     9.1310    10.7460    24.6220    -8.2930     2.1890   422.1360 
  113.2500    85.0890     9.2760     9.0610    10.4440    24.6160    -8.2610     2.1900   422.2950 
  113.3750    83.4550     9.2370     9.0780    10.4600    24.6230    -8.3350     2.1870   425.3620 
  113.5000    81.1860     9.2020     9.0980    10.8450    24.6350    -8.5270     2.1800   430.3450 
  113.6250    78.7360     8.9660     8.9490    11.4830    24.6390    -8.8050     2.1720   435.7620 
  113.7500    78.0990     8.4100     8.5400    11.7800    24.6290    -9.0440     2.1690   440.2150 
  113.8750    81.3000     7.5360     7.8680    10.8170    24.6240    -9.1160     2.1770   443.0220 
  114.0000    86.6160     6.5130     7.0530     9.0510    24.6810    -9.0100     2.2010   444.2760 
  114.1250    88.3950     5.6800     6.3300     7.8480    24.8200    -8.7500     2.2410   444.6560 
  114.2500    88.7010     5.2650     5.8740     7.3060    24.9520    -8.4060     2.2800   444.5950 
  114.3750    91.6660     5.3670     5.7700     6.9150    25.0080    -8.0310     2.3020   443.3590 
  114.5000    93.7220     5.9690     6.0270     7.1280    25.0160    -7.6870     2.2980   440.2000 
  114.6250    87.2980     6.9140     6.5860     8.8740    25.0790    -7.4690     2.2720   435.6460 
  114.7500    78.5890     7.7670     7.1800    10.9790    25.2010    -7.3380     2.2440   431.9930 
  114.8750    76.7630     8.1730     7.5700    11.6800    25.3610    -7.2530     2.2250   430.5130 
  115.0000    82.2020     7.9740     7.6080    10.5720    25.5380    -7.1910     2.2150   431.0340 
  115.1250    87.2860     7.3230     7.3110     8.9560    25.6980    -7.1390     2.2090   432.0050 
  115.2500    88.9860     6.7320     6.9640     8.0230    25.7730    -7.0560     2.2080   430.8990 
  115.3750    89.8010     6.5160     6.7710     7.7670    25.7130    -6.8930     2.2180   424.8370 
  115.5000    91.7980     6.7700     6.8410     7.7960    25.5780    -6.6270     2.2450   410.8750 
  115.6250    94.1410     7.3920     7.1950     7.8510    25.4890    -6.2490     2.2790   388.7680 
  115.7500    94.7310     8.0440     7.6560     8.2070    25.4070    -5.9120     2.3010   369.0760 
  115.8750    93.7440     8.4830     8.0460     8.9590    25.2250    -5.7300     2.3020   363.2130 
  116.0000    91.5930     8.5950     8.2140     9.6380    24.9580    -5.7400     2.2850   375.8400 
  116.1250    88.8980     8.4590     8.1160     9.4430    24.7770    -5.8860     2.2630   399.1290 
  116.2500    87.2370     8.3530     7.9370     8.6830    24.7290    -6.1130     2.2480   416.9980 
  116.3750    87.4240     8.4640     7.8460     8.3680    24.7410    -6.4550     2.2410   424.2490 
  116.5000    89.3210     8.8990     7.9730     9.3030    24.7260    -6.9560     2.2430   424.0680 
  116.6250    91.6850     9.7390     8.4450    11.1890    24.6450    -7.6070     2.2460   422.2960 
  116.7500    92.7010    10.8620     9.2300    12.5690    24.5470    -8.2610     2.2410   421.9940 
  116.8750    91.8680    12.1330    10.2750    12.9940    24.4910    -8.8660     2.2210   423.7970 
  117.0000    89.1850    13.3790    11.4630    13.4020    24.4910    -9.4060     2.1870   427.8330 
  117.1250    85.1220    14.3490    12.5580    15.8840    24.5270    -9.9080     2.1480   432.2640 
  117.2500    79.4310    14.8800    13.3090    19.7920    24.5950   -10.4000     2.1190   433.7780 
  117.3750    73.7450    14.8640    13.5480    21.3270    24.6850   -10.8660     2.1090   431.0660 
  117.5000    71.4960    14.3430    13.2720    18.4400    24.7220   -11.2460     2.1170   425.7450 
  117.6250    73.2890    13.5480    12.6430    15.3130    24.6410   -11.5090     2.1340   421.5260 
  117.7500    75.6520    12.8300    11.9830    14.2400    24.5300   -11.7020     2.1510   419.9090 
  117.8750    76.3310    12.3090    11.4250    14.2130    24.4990   -11.8550     2.1630   420.0070 
  118.0000    76.2060    11.9040    10.9700    14.2440    24.6520   -11.9570     2.1730   420.5360 
  118.1250    77.9460    11.3690    10.5220    14.0810    25.0290   -11.9200     2.1810   420.6180 
  118.2500    81.3960    10.6250    10.0170    13.8440    25.4670   -11.6890     2.1870   419.5440 
  118.3750    84.1580     9.8620     9.5460    12.9120    25.7860   -11.2150     2.1920   416.1800 
  118.5000    84.7770     9.4960     9.3370    11.3760    25.8830   -10.5610     2.2020   408.7070 
  118.6250    82.0520    10.2500     9.8250    10.8790    25.7680    -9.8270     2.2400   391.5000 
  118.7500    78.5740    12.4360    11.2420    11.9630    25.5870    -9.1440     2.3130   361.0770 
  118.8750    74.4710    16.1280    13.7590    14.2100    25.4800    -8.5270     2.4080   318.6330 
  119.0000    69.5470    20.5770    17.1100    17.3580    25.5790    -7.9290     2.4910   275.0640 
  119.1250    67.2640    22.9360    19.5820    22.0280    25.8760    -7.3530     2.5160   254.8920 
  119.2500    68.4030    21.0970    19.1660    26.1770    26.1330    -6.8010     2.4820   270.1020 
  119.3750    73.9570    16.1610    16.0180    22.8460    26.2000    -6.2790     2.4150   315.9010 
  119.5000    85.8510    11.0140    12.1290    13.8680    26.1030    -5.7540     2.3500   371.7230 
  119.6250   100.5800     8.0980     9.2640     7.8690    25.9940    -5.1760     2.3110   408.7700 
  119.7500   108.2550     6.4830     7.5930     5.8690    25.9530    -4.5690     2.2930   420.2120 
  119.8750   106.8680     6.1560     6.9170     6.5110    25.9540    -3.9810     2.2800   415.0380 
