~V
VERS. 2.00: Ver 2.00
~W
STRT.M 60.0000:
STOP.M 258.0000:
STEP.M 0.1250:
NULL. -999.2500:
UWI. DF32100:
~C
DEPT.M :
SP.MV :
GR.API :
CALI.CM :
RXO.OHMM :
RI. :
RML.OHMM :
DEN.GM/CC :
~A
# ...
  217.5000   -17.4460   115.1390    23.0190    10.2040     9.3670    12.3490     2.3540 
  217.6250   -17.7330   110.5420    23.0190    13.8210    11.5420    15.2660     2.3260 
  217.7500   -18.0350   101.5100    23.0190    16.4210    14.0930    18.5910     2.2920 
  217.8750   -18.3270    93.6480    23.0360    16.6310    16.5370    21.5020     2.2720 
  218.0000   -18.6230    91.0850    23.1140    15.6100    18.2900    23.1430     2.2680 
  218.1250   -18.8730    93.3560    23.2970    15.8420    18.8600    23.0490     2.2710 
  218.2500   -19.0870    94.9900    23.4490    16.4360    18.6960    22.1540     2.2730 
  218.3750   -19.2820    94.1260    23.5070    16.4240    18.3130    21.2410     2.2730 
  218.5000   -19.4890    92.7980    23.5130    15.7330    18.1160    20.7780     2.2750 
  218.6250   -19.6830    94.2520    23.5110    14.9540    18.4820    21.1310     2.2980 
  218.7500   -19.9160    96.6280    23.4850    16.2170    19.6300    22.4210     2.3430 
  218.8750   -20.1770    97.1340    23.4060    19.1340    21.7860    24.8470     2.3830 
  219.0000   -20.4780    95.0600    23.2800    21.9900    24.9950    28.4460     2.3830 
  219.1250   -20.7890    91.4780    23.2020    24.8300    28.8780    32.7760     2.3310 
  219.2500   -21.1300    86.9390    23.1390    28.4390    32.2250    36.3350     2.2750 
  219.3750   -21.4810    83.2250    23.0770    30.8110    33.9880    37.8030     2.2440 
  219.5000   -21.8810    84.1310    23.0220    29.6030    33.9990    37.1510     2.2370 
  219.6250   -22.2740    87.8770    22.9720    25.6150    33.3270    35.9320     2.2390 
  219.7500   -22.6280    87.9450    22.9030    21.8110    33.6230    35.9690     2.2380 
  219.8750   -22.9270    83.4290    22.8140    20.1930    35.9960    38.2850     2.2300 
  220.0000   -23.1740    77.6670    22.6970    22.1800    41.3950    43.7450     2.2150 
  220.1250   -23.3830    73.6450    22.6430    29.6940    51.0460    53.7700     2.1980 
  220.2500   -23.5920    71.6090    22.6280    39.1100    63.4460    67.1080     2.1840 
  220.3750   -23.7960    71.1020    22.6190    44.7980    75.5580    80.2780     2.1760 
  220.5000   -23.9610    72.5450    22.5830    45.0280    83.3960    87.9150     2.1750 
  220.6250   -24.0920    73.9540    22.5020    42.4590    84.2310    86.8400     2.1840 
  220.7500   -24.1740    74.3110    22.4330    38.6440    81.3870    82.2800     2.1990 
  220.8750   -24.2380    74.8450    22.3650    32.7310    77.8810    78.0220     2.2160 
  221.0000   -24.2960    75.3520    22.2470    26.9790    75.5780    75.7320     2.2290 
  221.1250   -24.3300    74.0360    22.0780    24.1140    75.1150    75.7140     2.2340 
  221.2500   -24.3300    70.7420    21.9310    23.4640    75.5230    76.6840     2.2350 
  221.3750   -24.2840    69.0280    21.7130    23.4570    75.9750    77.6060     2.2360 
  221.5000   -24.1930    69.8480    21.2490    23.6590    76.0010    77.8240     2.2390 
  221.6250   -24.0990    71.1790    20.1860    24.9080    75.8780    77.2060     2.2430 
  221.7500   -24.0130    72.3750    18.9890    27.7040    76.2970    76.6300     2.2450 
  221.8750   -23.9160    73.2660    18.6220    34.6390    77.0950    77.8470     2.2420 
  222.0000   -23.7840    73.1310    19.2870    48.6720    79.6270    80.8150     2.2330 
  222.1250   -23.6570    69.5840    20.5310    66.2670    84.5690    86.1500     2.2220 
  222.2500   -23.4970    65.2000    21.3990    79.2110    91.2850    93.1330     2.2150 
  222.3750   -23.3460    63.8810    21.7220    86.9600    98.8800   100.8270     2.2190 
  222.5000   -23.2100    66.3180    21.7730    93.3950   105.6560   107.6480     2.2310 
  222.6250   -23.0660    67.9090    21.7760    97.0250   108.2960   110.7990     2.2470 
  222.7500   -22.9080    67.2040    21.7770    94.4270   105.6260   109.2840     2.2690 
  222.8750   -22.7650    69.4260    21.7810    85.9050    98.6130   103.5540     2.2970 
  223.0000   -22.6130    76.4900    21.8000    73.4410    89.9890    95.6360     2.3240 
  223.1250   -22.4590    84.6290    21.8120    61.4620    82.9640    88.5300     2.3380 
  223.2500   -22.3050    89.3660    21.8200    55.6040    79.0040    84.2840     2.3370 
  223.3750   -22.1870    88.0340    21.8220    56.2600    78.5570    83.7390     2.3240 
  223.5000   -22.1060    80.4380    21.8230    59.3310    81.4160    86.7830     2.3070 
  223.6250   -22.0540    73.9370    21.8220    61.1030    86.8300    92.5650     2.3030 
  223.7500   -21.9970    74.5530    21.7940    59.0130    92.3630    98.5600     2.3210 
  223.8750   -21.9160    78.6850    21.6660    55.7140    96.1210   102.9390     2.3520 
  224.0000   -21.8620    81.1380    21.3710    53.8620    97.4510   105.0020     2.3710 
  224.1250   -21.8260    82.9920    21.1430    54.8660    97.4260   105.5820     2.3540 
  224.2500   -21.8290    84.0110    21.0560    61.2810    98.1220   106.7240     2.3160 
  224.3750   -21.8090    81.0470    21.0560    73.5740   100.3640   109.3250     2.2790 
  224.5000   -21.7770    73.7100    21.0660    86.2880   103.7380   112.9630     2.2610 
  224.6250   -21.7160    67.1440    21.0590    90.4020   106.3220   115.7430     2.2730 
  224.7500   -21.6820    65.1640    21.0420    86.9460   106.4050   116.1060     2.3000 
  224.8750   -21.6530    67.6250    21.0320    81.0700   103.9890   113.9710     2.3170 
  225.0000   -21.6240    71.4040    21.0290    76.4280   100.8110   110.8570     2.3090 
  225.1250   -21.5660    71.5960    21.0280    72.9760    99.7520   109.6960     2.2780 
  225.2500   -21.4990    68.4920    21.0220    72.6360   102.3670   112.4480     2.2490 
  225.3750   -21.4090    65.6600    21.0050    78.9450   109.4970   120.1500     2.2360 
  225.5000   -21.2770    64.8700    20.9840    90.6750   121.2790   132.7540     2.2360 
  225.6250   -21.1230    64.7190    20.9640   101.3180   136.7640   148.7440     2.2340 
  225.7500   -20.9410    65.0470    20.9620   107.6440   151.1000   163.3120     2.2260 
  225.8750   -20.7510    65.9450    20.9580   110.2330   158.5310   171.6000     2.2320 
  226.0000   -20.5510    66.4390    20.8670   108.8510   155.1850   170.2670     2.2610 
  226.1250   -20.3280    66.6970    20.6230   103.9050   141.7540   158.7150     2.2990 
  226.2500   -20.0690    67.8360    20.4200    95.5490   125.7230   143.0810     2.3140 
  226.3750   -19.8230    68.5510    20.5640    85.7230   111.2440   127.7000     2.3020 
  226.5000   -19.5690    67.3620    20.9300    77.8940   100.1590   115.1770     2.2740 
  226.6250   -19.3340    66.3050    21.1510    74.9220    93.1130   106.8030     2.2510 
  226.7500   -19.0900    67.6270    21.2180    74.4510    88.2030   100.9320     2.2370 
  226.8750   -18.8730    70.2830    21.2250    75.4760    83.3220    95.5010     2.2300 
  227.0000   -18.6480    73.4120    21.2250    76.2240    76.5150    88.3820     2.2260 
  227.1250   -18.4480    75.9580    21.2250    71.6460    67.4280    78.6450     2.2230 
  227.2500   -18.2450    77.7670    21.2250    59.9480    58.5060    68.5070     2.2250 
  227.3750   -18.0560    80.0200    21.2250    46.5420    51.6680    60.2050     2.2330 
  227.5000   -17.8970    82.2520    21.2110    40.4720    47.9190    55.2490     2.2390 
  227.6250   -17.7600    82.7420    21.1050    45.3430    48.0600    54.8970     2.2350 
  227.7500   -17.6260    79.9390    20.8920    55.5870    51.3030    58.2550     2.2270 
  227.8750   -17.4830    76.8730    20.7010    64.1900    57.1020    64.5340     2.2280 
  228.0000   -17.3480    75.9340    20.6210    68.0770    64.4450    72.3980     2.2380 
  228.1250   -17.2550    75.5840    20.6200    66.8650    71.5620    79.8560     2.2500 
  228.2500   -17.2260    73.1640    20.6220    63.4540    77.0550    85.5910     2.2550 
  228.3750   -17.1970    69.7980    20.6200    62.3190    80.8550    89.5010     2.2510 
  228.5000   -17.2140    69.3740    20.6160    66.3390    83.5460    91.9670     2.2440 
  228.6250   -17.2190    70.8650    20.6150    74.1140    85.0430    92.7670     2.2430 
