~V
VERS. 2.00: Ver 2.00
~W
STRT.M 61.0000:
STOP.M 325.0000:
STEP.M 0.1250:
NULL. -999.2500:
UWI. DF320:
~C
DEPT.M :
GR.API :
RML.OHMM :
RI. :
RXO.OHMM :
CALI.CM :
SP.MV :
DEN.GM/CC :
AC.US/MT :
~A
# ...
   91.0000    79.7570     8.3800     7.6610     8.8840    23.8550   -20.7890     2.2100   447.1930 
   91.1250    73.1620     8.2870     7.6130     9.1870    23.8400   -20.7870     2.2200   444.7460 
   91.2500    65.8020     8.3270     7.6260     9.4530    23.8070   -20.8710     2.2300   442.4020 
   91.3750    62.5790     8.4490     7.6800     9.6600    23.7420   -21.0280     2.2380   441.8850 
   91.5000    64.1900     8.5970     7.7610     9.8550    23.6410   -21.2340     2.2400   443.6220 
   91.6250    64.9220     8.7710     7.8640     9.7950    23.5810   -21.4870     2.2290   445.4390 
   91.7500    64.4670     8.9010     8.0140     9.4190    23.5860   -21.7990     2.2100   444.1290 
   91.8750    65.7530     9.0570     8.2170     9.0290    23.5960   -22.1560     2.1880   437.9280 
   92.0000    68.4890     9.2240     8.4660     8.9660    23.5970   -22.4850     2.1690   426.5290 
   92.1250    70.1120     9.3600     8.6850     9.2270    23.6160   -22.7370     2.1610   410.8360 
   92.2500    68.5660     9.4330     8.7670     9.6010    23.6300   -22.9430     2.1640   396.5630 
   92.3750    67.1290     9.4380     8.7570    10.0000    23.6200   -23.1260     2.1740   390.0560 
   92.5000    68.4310     9.3960     8.6480    10.2720    23.6070   -23.3340     2.1910   395.0600 
   92.6250    71.0320     9.3390     8.5040    10.3460    23.6040   -23.5440     2.2080   409.4610 
   92.7500    71.6740     9.2980     8.4000    10.3800    23.6070   -23.6820     2.2190   423.9050 
   92.8750    70.5290     9.2800     8.3580    10.4080    23.6080   -23.7460     2.2210   434.0090 
   93.0000    68.0660     9.2780     8.3670    10.4300    23.6070   -23.7910     2.2140   439.8140 
   93.1250    63.2340     9.2820     8.4040    10.4770    23.6060   -23.8480     2.2020   442.9820 
   93.2500    58.0050     9.2840     8.4450    10.4980    23.6080   -23.9140     2.1920   444.7910 
   93.3750    56.6250     9.2880     8.4640    10.4560    23.6130   -23.9330     2.1860   445.5380 
   93.5000    58.5830     9.3020     8.4790    10.3850    23.6300   -23.8710     2.1830   445.9590 
   93.6250    58.8820     9.3300     8.4960    10.3360    23.6660   -23.7260     2.1820   446.5830 
   93.7500    57.6500     9.3630     8.5200    10.3340    23.7140   -23.5440     2.1800   447.0430 
   93.8750    57.6680     9.3810     8.5340    10.3320    23.7540   -23.3350     2.1760   446.7380 
   94.0000    58.9170     9.3800     8.5030    10.2050    23.7830   -23.0900     2.1720   445.6650 
   94.1250    62.1170     9.3320     8.4530     9.8960    23.7850   -22.8010     2.1690   444.7450 
   94.2500    68.4030     9.2610     8.4300     9.4790    23.7700   -22.4300     2.1680   444.7680 
   94.3750    73.8050     9.1790     8.3820     9.1100    23.7380   -21.9950     2.1680   445.8050 
   94.5000    73.7960     9.0830     8.3040     8.8910    23.7070   -21.5090     2.1690   447.5640 
   94.6250    69.8500     8.9770     8.2050     8.8500    23.6790   -20.9930     2.1730   450.1840 
   94.7500    69.1150     8.8380     8.0520     8.8060    23.6580   -20.4990     2.1820   453.6740 
   94.8750    72.2570     8.6810     7.8460     8.6320    23.6380   -20.0270     2.1980   457.3200 
   95.0000    75.4390     8.4930     7.6100     8.2340    23.6180   -19.5620     2.2200   459.7450 
   95.1250    76.5090     8.3450     7.4720     7.7450    23.6260   -19.1410     2.2410   459.6060 
   95.2500    76.3130     8.3420     7.4690     7.5280    23.6600   -18.8080     2.2500   457.9320 
   95.3750    73.8010     8.4780     7.5960     7.7630    23.6590   -18.5900     2.2420   455.9880 
   95.5000    68.8650     8.7180     7.8210     8.4170    23.5700   -18.4940     2.2220   454.2440 
   95.6250    64.9590     9.0050     8.0880     9.1380    23.4740   -18.4660     2.1970   452.2570 
   95.7500    64.7450     9.2550     8.3220     9.5140    23.4100   -18.3900     2.1780   449.9710 
   95.8750    65.9070     9.4090     8.4700     9.5680    23.3770   -18.2080     2.1670   447.9220 
   96.0000    65.6070     9.4260     8.4890     9.4260    23.3580   -17.9080     2.1630   446.6710 
   96.1250    67.3470     9.2590     8.3320     9.0640    23.3110   -17.4410     2.1660   446.7870 
   96.2500    74.2180     8.9660     8.0360     8.5800    23.3080   -16.8300     2.1750   448.3010 
   96.3750    82.6480     8.5970     7.6400     7.9740    23.3550   -16.0740     2.1900   450.2800 
   96.5000    88.6690     8.2200     7.2120     7.2840    23.3940   -15.1790     2.2110   450.3000 
   96.6250    93.6810     7.9260     6.8480     6.7460    23.4030   -14.2210     2.2370   445.8740 
   96.7500    97.1790     7.6890     6.5970     6.5030    23.5140   -13.3030     2.2620   439.0450 
   96.8750    98.0000     7.5580     6.4710     6.4560    23.6800   -12.5030     2.2820   432.3610 
   97.0000    98.8970     7.5100     6.4550     6.6030    23.7480   -11.8650     2.2940   427.0970 
   97.1250   100.9350     7.5360     6.5290     6.7660    23.6790   -11.4170     2.2950   423.2340 
   97.2500   100.2870     7.6080     6.6480     6.8790    23.5540   -11.1570     2.2890   420.2580 
   97.3750    95.9470     7.7080     6.7890     6.9320    23.4550   -11.0530     2.2780   418.3030 
   97.5000    92.5360     7.8040     6.9290     7.0250    23.4060   -11.0530     2.2680   416.9680 
   97.6250    94.6790     7.8680     7.0390     7.1800    23.3880   -11.1240     2.2640   415.5930 
   97.7500    98.8180     7.9150     7.1190     7.1960    23.3720   -11.2460     2.2650   414.9010 
   97.8750   100.7180     7.9860     7.1800     7.0440    23.3590   -11.4040     2.2680   416.3220 
   98.0000    99.7420     8.1070     7.2420     6.9570    23.3570   -11.5780     2.2690   420.6070 
   98.1250    98.8870     8.2440     7.2990     7.0000    23.3660   -11.7080     2.2660   426.3820 
   98.2500    98.5010     8.3050     7.3140     7.1860    23.3800   -11.7520     2.2610   431.2620 
   98.3750    95.7640     8.2160     7.2420     7.3610    23.3940   -11.7510     2.2580   434.7660 
   98.5000    92.5290     7.9580     7.0620     7.4020    23.4090   -11.7370     2.2610   437.5030 
   98.6250    93.9600     7.5740     6.7890     7.0730    23.4260   -11.7050     2.2700   439.7480 
   98.7500    97.5490     7.1870     6.4970     6.4870    23.4470   -11.6180     2.2800   440.9510 
   98.8750   100.9550     6.8920     6.2510     6.0620    23.4620   -11.4900     2.2860   440.3890 
   99.0000   103.4740     6.7780     6.1150     5.9600    23.4680   -11.3530     2.2850   437.5890 
   99.1250   105.2470     6.9690     6.1860     6.1760    23.4680   -11.2640     2.2800   432.3020 
   99.2500   104.1940     7.4390     6.4660     6.4840    23.4680   -11.2270     2.2750   426.5100 
   99.3750    99.3000     8.0960     6.9170     6.8520    23.4680   -11.2090     2.2730   422.1200 
   99.5000    92.5270     8.7470     7.4210     7.3980    23.4690   -11.1880     2.2730   419.7840 
   99.6250    88.2600     9.0960     7.7600     7.9390    23.4750   -11.1280     2.2720   419.1400 
   99.7500    90.6390     9.0360     7.8010     8.0550    23.4940   -11.0260     2.2710   419.6450 
   99.8750    98.5740     8.6180     7.5220     7.4580    23.5410   -10.8640     2.2720   421.9020 
  100.0000   108.4630     8.0370     7.0300     6.4360    23.6390   -10.6450     2.2770   426.5150 
  100.1250   115.5640     7.5580     6.5190     5.5170    23.8170   -10.3880     2.2890   432.5450 
  100.2500   117.6350     7.2940     6.1370     5.0570    24.0470   -10.1070     2.3070   437.0840 
  100.3750   119.5040     7.2170     5.9190     5.0480    24.2720    -9.8170     2.3310   437.6630 
  100.5000   123.5420     7.2280     5.8280     5.1960    24.4010    -9.5640     2.3550   433.3570 
  100.6250   124.9320     7.2010     5.7910     5.3230    24.4330    -9.4280     2.3730   426.9380 
  100.7500   121.3770     7.0660     5.7210     5.3130    24.4340    -9.4450     2.3840   424.0000 
  100.8750   120.0150     6.8090     5.5780     5.1200    24.4290    -9.5990     2.3880   427.3190 
