~V
VERS. 2.00: Ver 2.00
~W
STRT.M 62.0000:
STOP.M 282.0000:
STEP.M 0.1250:
NULL. -999.2500:
UWI. DF32160:
~C
DEPT.M :
GR.API :
CALI.CM :
RXO.OHMM :
RI. :
RML.OHMM :
DEN.GM/CC :
SP.MV :
~A
# ...
  129.5000    74.4530    24.2300     7.7730     7.7360     8.9500     2.2490   -18.6860 
  129.6250    74.8500    24.2440     7.8110     7.1280     8.2490     2.2220   -19.2460 
  129.7500    74.0300    24.2470     8.0040     6.8210     8.0600     2.2130   -19.6870 
  129.8750    72.2040    24.2390     7.9920     6.7790     8.2590     2.2030   -19.9760 
  130.0000    72.2010    24.2300     7.8460     6.9190     8.6790     2.1870   -20.1000 
  130.1250    73.2490    24.2370     7.8140     7.0870     9.0370     2.1770   -20.0110 
  130.2500    73.1740    24.2760     7.9920     7.0710     8.9990     2.1840   -19.7540 
  130.3750    72.6840    24.3310     8.1980     6.7330     8.3770     2.2050   -19.3720 
  130.5000    75.6970    24.3510     7.9490     6.0800     7.2710     2.2320   -18.9380 
  130.6250    81.5560    24.3320     6.7230     5.3010     6.0860     2.2610   -18.5500 
  130.7500    85.4860    24.3460     5.1730     4.6550     5.2230     2.2860   -18.2810 
  130.8750    86.7170    24.3900     4.2240     4.2780     4.8420     2.2950   -18.1520 
  131.0000    84.6800    24.3980     4.3790     4.2250     4.9690     2.2810   -18.1480 
  131.1250    79.4110    24.3230     5.5260     4.6760     5.8210     2.2530   -18.3110 
  131.2500    74.2800    24.2320     6.8250     5.6720     7.3870     2.2290   -18.6160 
  131.3750    73.9200    24.2290     7.3250     6.3730     8.3190     2.2180   -19.0350 
  131.5000    72.7760    24.3020     7.8660     6.9500     8.9770     2.2220   -19.5060 
  131.6250    72.7410    24.4580     8.2560     7.3170     9.3040     2.2300   -19.9530 
  131.7500    74.0320    24.5940     8.3830     7.5410     9.4670     2.2290   -20.3580 
  131.8750    73.9700    24.6630     8.4530     7.6820     9.5640     2.2190   -20.7180 
  132.0000    70.4780    24.7410     8.6250     7.7840     9.6410     2.2100   -21.0470 
  132.1250    65.1900    24.7510     8.7710     7.8720     9.7160     2.2030   -21.3380 
  132.2500    62.2070    24.5320     8.8680     7.9490     9.7810     2.1910   -21.5770 
  132.3750    62.8830    24.1520     9.0700     7.9940     9.8120     2.1770   -21.7580 
  132.5000    66.8780    23.8330     9.3800     7.9890     9.7900     2.1690   -21.8720 
  132.6250    70.5520    23.6280     9.4960     7.9280     9.7140     2.1740   -21.8940 
  132.7500    70.8340    23.3760     9.2930     7.8440     9.6240     2.1830   -21.8220 
  132.8750    67.8690    23.1180     8.9090     7.7550     9.5370     2.1920   -21.6580 
  133.0000    64.0910    22.9620     8.5700     7.6540     9.4360     2.1960   -21.4150 
  133.1250    63.4750    22.9170     8.4880     7.4970     9.2420     2.1920   -21.0730 
  133.2500    66.6930    22.9050     8.4950     7.2490     8.8920     2.1870   -20.6740 
  133.3750    71.9470    22.9280     8.2620     6.9040     8.3800     2.1870   -20.2460 
  133.5000    75.6420    23.0420     7.6440     6.5060     7.7840     2.1960   -19.8390 
  133.6250    75.1440    23.3100     6.9110     6.1470     7.2720     2.2200   -19.5120 
  133.7500    74.4240    23.7300     6.4310     5.9050     6.9730     2.2630   -19.2860 
  133.8750    76.9300    24.2390     6.3440     5.8310     6.9590     2.3140   -19.1750 
  134.0000    81.3640    24.6830     6.6450     5.9410     7.2340     2.3460   -19.1470 
  134.1250    82.1160    24.8910     7.1950     6.2260     7.7530     2.3290   -19.1880 
  134.2500    78.3650    24.9260     7.6790     6.5730     8.3190     2.2820   -19.2730 
  134.3750    76.1450    24.9010     7.9760     6.8720     8.7520     2.2340   -19.3750 
  134.5000    76.9250    24.8780     8.0800     7.0210     8.9040     2.2080   -19.4680 
  134.6250    77.2160    24.8700     7.9110     6.9400     8.6910     2.2140   -19.5310 
  134.7500    76.0750    24.8840     7.5140     6.7060     8.2800     2.2360   -19.5570 
  134.8750    75.6360    24.9020     7.0600     6.4060     7.8250     2.2550   -19.5680 
  135.0000    75.1310    24.9020     6.7280     6.1330     7.4650     2.2580   -19.6000 
  135.1250    73.5770    24.8880     6.6240     5.9860     7.3400     2.2430   -19.7030 
  135.2500    73.5600    24.8800     6.7420     5.9970     7.4550     2.2190   -19.8840 
  135.3750    73.8030    24.8940     7.1560     6.1690     7.7900     2.1990   -20.1440 
  135.5000    71.3090    24.9300     7.8630     6.4800     8.2820     2.1920   -20.4670 
  135.6250    69.4010    24.9370     8.5900     6.8770     8.8270     2.1960   -20.8160 
  135.7500    68.5500    24.8960     9.1800     7.2640     9.2950     2.1940   -21.1690 
  135.8750    66.1750    24.8260     9.8280     7.5720     9.6040     2.1840   -21.4900 
  136.0000    63.6760    24.7210    10.5580     7.7620     9.7230     2.1740   -21.7730 
  136.1250    65.1520    24.5450    10.7030     7.8150     9.6560     2.1700   -22.0210 
  136.2500    66.9580    24.3640    10.0790     7.7920     9.5040     2.1640   -22.2130 
  136.3750    67.3810    24.2620     9.2330     7.7430     9.3430     2.1570   -22.3350 
  136.5000    69.0840    24.2480     8.7550     7.7090     9.2360     2.1640   -22.3840 
  136.6250    70.7830    24.2600     8.7530     7.7350     9.2420     2.1940   -22.3310 
  136.7500    69.2650    24.2610     8.9540     7.8150     9.3350     2.2290   -22.1410 
  136.8750    67.2360    24.2660     9.2420     7.9020     9.4240     2.2470   -21.7940 
  137.0000    67.9740    24.2730     9.4930     7.9030     9.3640     2.2370   -21.2780 
  137.1250    69.9700    24.2820     9.3970     7.6840     8.9710     2.2130   -20.5550 
  137.2500    72.7830    24.3420     8.6890     7.2450     8.2820     2.2040   -19.6750 
  137.3750    75.7790    24.5300     7.4050     6.6350     7.4040     2.2210   -18.6950 
  137.5000    78.3500    24.8810     6.0290     5.9500     6.4860     2.2530   -17.6740 
  137.6250    80.7930    25.3410     5.1740     5.2960     5.6730     2.2800   -16.6910 
  137.7500    84.1930    25.7360     4.7450     4.7340     5.0100     2.2990   -15.8170 
  137.8750    87.8870    25.9480     4.4310     4.2960     4.5220     2.3140   -15.1220 
  138.0000    89.1930    25.9620     4.0740     4.0120     4.2400     2.3290   -14.6550 
  138.1250    85.3940    25.8780     3.7890     3.9300     4.2200     2.3400   -14.4920 
  138.2500    78.2320    25.7910     3.8590     4.0160     4.4060     2.3410   -14.6210 
  138.3750    73.0790    25.6670     4.5490     4.2450     4.7560     2.3360   -14.9870 
  138.5000    74.3250    25.5160     5.6830     4.5790     5.2000     2.3300   -15.5220 
  138.6250    79.2030    25.4680     6.3500     4.9580     5.6520     2.3200   -16.2150 
  138.7500    80.9430    25.5190     6.2740     5.3210     6.0600     2.3000   -17.0190 
  138.8750    77.5830    25.5390     6.1270     5.6600     6.4440     2.2690   -17.8770 
  139.0000    71.7300    25.4750     6.6460     5.9970     6.8500     2.2350   -18.7080 
  139.1250    68.5900    25.4340     8.0850     6.3630     7.3160     2.2090   -19.4210 
  139.2500    69.1460    25.4420     9.7530     6.7660     7.8270     2.1900   -19.9930 
  139.3750    69.7660    25.3950    10.6880     7.1890     8.3440     2.1730   -20.4370 
  139.5000    68.0280    25.2540    10.2960     7.6070     8.8390     2.1520   -20.7780 
  139.6250    65.6370    25.0930     9.1680     8.0230     9.3420     2.1320   -21.0210 
  139.7500    63.9880    24.9870     8.5370     8.4850     9.9310     2.1290   -21.1780 
  139.8750    62.7040    24.9270     8.4980     9.0300    10.6490     2.1550   -21.2640 
  140.0000    62.1950    24.8730     8.6990     9.6420    11.4490     2.2110   -21.3340 
  140.1250    63.8840    24.8190     8.9560    10.2090    12.1500     2.2760   -21.4370 
  140.2500    65.4410    24.7720     9.2240    10.5760    12.5560     2.3230   -21.5830 
  140.3750    64.8420    24.7360     9.3980    10.6370    12.5480     2.3340   -21.7680 
  140.5000    63.4330    24.7070     9.4950    10.3840    12.1580     2.3060   -21.9740 
  140.6250    63.2980    24.6830     9.6800     9.9060    11.5400     2.2530   -22.1670 
