~V
VERS. 2.00: Ver 2.00
~W
STRT.M 60.0000:
STOP.M 271.0000:
STEP.M 0.1250:
NULL. -999.2500:
UWI. DF324:
~C
DEPT.M :
SP.MV :
AC.US/MT :
DEN.GM/CC :
GR.API :
CALI.CM :
RXO.OHMM :
RI. :
RML.OHMM :
~A
# ...
  230.0000   -24.6740   407.0100     2.3710   125.3650    23.8420     7.3880     7.1320     7.5460 
  230.1250   -24.9190   406.5200     2.3710   123.5450    23.8750     7.2970     7.7520     8.1890 
  230.2500   -25.1800   401.3620     2.3690   119.3370    23.8830     7.9010     8.8190     9.2950 
  230.3750   -25.4480   390.7070     2.3600   111.2880    23.8800    10.4720    10.4310    11.0030 
  230.5000   -25.7100   376.4070     2.3390   101.0930    23.8780    16.4760    12.6650    13.4290 
  230.6250   -25.9460   363.7110     2.3100    93.3850    23.8810    25.3430    15.6200    16.7260 
  230.7500   -26.1560   356.6200     2.2840    90.2960    23.8640    33.3910    19.0570    20.4260 
  230.8750   -26.3380   355.0400     2.2710    90.1080    23.8050    38.9390    22.7260    24.3080 
  231.0000   -26.4880   356.2920     2.2700    89.3460    23.7460    42.7570    26.2950    28.0620 
  231.1250   -26.5920   359.3640     2.2720    86.5510    23.7150    45.7680    29.3390    31.2650 
  231.2500   -26.6570   366.4850     2.2700    84.8590    23.7040    48.0650    31.7870    33.8400 
  231.3750   -26.6870   379.4910     2.2640    85.8130    23.7050    48.8250    33.7010    35.8530 
  231.5000   -26.6870   395.9350     2.2590    87.8260    23.7130    47.4250    35.1930    37.4240 
  231.6250   -26.6550   408.2840     2.2580    87.5460    23.7330    46.5310    36.3190    38.6080 
  231.7500   -26.5970   412.1470     2.2600    84.7020    23.7400    47.6820    37.2100    39.5440 
  231.8750   -26.5120   408.3330     2.2600    81.1960    23.7290    50.1220    37.8880    40.2590 
  232.0000   -26.4030   400.8880     2.2530    79.0630    23.6970    51.2280    38.3600    40.7540 
  232.1250   -26.2740   394.2550     2.2440    78.5190    23.6610    49.6670    38.6000    41.0080 
  232.2500   -26.1360   389.9360     2.2470    77.4340    23.6450    47.7900    38.6390    41.0480 
  232.3750   -25.9930   387.4220     2.2600    74.8780    23.6630    46.9160    38.4880    40.8890 
  232.5000   -25.8480   385.8340     2.2720    72.3330    23.6830    46.6250    38.2270    40.6150 
  232.6250   -25.6940   384.8900     2.2780    73.2330    23.6830    45.5080    38.0260    40.4040 
  232.7500   -25.5240   384.6300     2.2780    77.1120    23.6330    43.6410    38.0250    40.4020 
  232.8750   -25.3280   384.9200     2.2750    80.8210    23.5310    42.0130    38.2930    40.6840 
  233.0000   -25.1030   385.1240     2.2680    82.2610    23.4450    40.7740    38.8470    41.2670 
  233.1250   -24.8440   384.3340     2.2630    82.1590    23.3720    40.0200    39.6620    42.1240 
  233.2500   -24.5540   382.7220     2.2620    82.0260    23.2730    40.2270    40.5930    43.1040 
  233.3750   -24.2250   381.1100     2.2630    81.5750    23.1560    41.9170    41.5280    44.0880 
  233.5000   -23.8540   380.4310     2.2650    80.5970    23.0930    44.8330    42.3540    44.9570 
  233.6250   -23.4430   381.2410     2.2660    79.6470    23.1080    47.3620    42.9380    45.5700 
  233.7500   -23.0100   382.8570     2.2600    78.9460    23.1490    48.1580    43.2220    45.8700 
  233.8750   -22.5670   384.6700     2.2490    78.2700    23.1850    47.5180    43.1240    45.7660 
  234.0000   -22.1200   386.3090     2.2400    77.9790    23.1960    47.2730    42.5560    45.1690 
  234.1250   -21.6680   387.6530     2.2390    79.0430    23.1760    48.7250    41.4000    43.9530 
  234.2500   -21.2190   388.7940     2.2440    81.6160    23.1170    49.1290    39.8190    42.2900 
  234.3750   -20.7840   389.6970     2.2540    84.8920    23.0540    46.5140    37.9610    40.3350 
  234.5000   -20.3700   390.2630     2.2670    87.0000    23.0040    41.5460    36.0200    38.2930 
  234.6250   -19.9840   390.4660     2.2830    86.5600    23.1010    37.2250    34.2850    36.4670 
  234.7500   -19.6280   390.5560     2.2940    85.7490    23.2470    34.4170    32.9820    35.0970 
  234.8750   -19.3090   390.6050     2.2920    86.7990    23.3810    33.1380    32.2770    34.3550 
  235.0000   -19.0260   390.4010     2.2760    89.2540    23.4420    33.0040    32.2780    34.3570 
  235.1250   -18.7850   389.5320     2.2550    89.7910    23.4420    33.0670    33.1770    35.3020 
  235.2500   -18.5740   388.2360     2.2450    87.8030    23.4320    32.4320    34.8150    37.0250 
  235.3750   -18.3830   387.1480     2.2500    85.0650    23.4200    32.2450    37.0440    39.3710 
  235.5000   -18.2070   386.8730     2.2600    83.1980    23.3770    34.7600    39.6140    42.0740 
  235.6250   -18.0410   387.4600     2.2570    82.3230    23.2900    40.7750    42.1110    44.7010 
  235.7500   -17.8830   388.1410     2.2400    81.6360    23.2460    47.7010    44.0930    46.7860 
  235.8750   -17.7390   388.5830     2.2200    81.4140    23.3210    52.5390    45.2540    48.0080 
  236.0000   -17.6180   388.9790     2.2120    82.4300    23.4330    53.9770    45.5090    48.2750 
  236.1250   -17.5340   389.8760     2.2210    84.9010    23.4270    52.3700    45.0040    47.7440 
  236.2500   -17.4780   391.5440     2.2370    87.0730    23.3960    49.9950    44.3890    47.0970 
  236.3750   -17.4560   393.5820     2.2490    87.8790    23.3400    47.3980    44.1970    46.8960 
  236.5000   -17.4770   393.9550     2.2560    87.8040    23.2220    44.3930    44.8420    47.5740 
  236.6250   -17.5440   388.2760     2.2700    87.9890    23.0300    41.3810    46.7720    49.6040 
  236.7500   -17.6320   377.1980     2.2930    88.4060    22.8370    41.0630    49.8510    52.8430 
  236.8750   -17.7250   365.7850     2.3080    88.2510    22.6740    46.8610    53.9500    57.1550 
  237.0000   -17.8080   359.5510     2.3050    87.3280    22.5040    59.0700    58.8950    62.3580 
  237.1250   -17.8700   358.2430     2.2960    86.6510    22.2840    70.6370    64.7950    68.5650 
  237.2500   -17.9080   355.0690     2.2950    86.6520    22.1930    76.5030    71.5360    75.6560 
  237.3750   -17.9190   348.8890     2.2950    86.6610    22.3600    80.1680    78.8360    83.3350 
  237.5000   -17.9010   344.9180     2.2830    85.4610    22.7850    89.5650    85.9180    90.7860 
  237.6250   -17.8500   349.4590     2.2660    81.8460    23.2430   108.5510    91.2390    96.3840 
  237.7500   -17.7750   358.4920     2.2580    76.4280    23.4510   130.4430    93.7600    99.0350 
  237.8750   -17.6810   366.3160     2.2580    71.2830    23.5200   148.3000    92.8360    98.0640 
  238.0000   -17.5730   370.8550     2.2560    68.9450    23.5360   154.0160    88.4900    93.4910 
  238.1250   -17.4620   374.1020     2.2500    69.8280    23.5440   140.3100    81.2570    85.8820 
  238.2500   -17.3500   376.6970     2.2480    71.5840    23.5620   112.3300    73.2200    77.4270 
  238.3750   -17.2340   375.3110     2.2560    73.5290    23.5640    82.5700    65.9850    69.8160 
  238.5000   -17.1130   367.2060     2.2720    75.4210    23.5260    62.0230    60.6560    64.2100 
  238.6250   -16.9890   355.2490     2.2840    75.6050    23.4500    55.2670    57.8860    61.2960 
  238.7500   -16.8730   348.4060     2.2820    73.5690    23.4170    56.4420    56.9760    60.3380 
  238.8750   -16.7700   351.5290     2.2670    70.4740    23.4340    59.9420    57.5610    60.9540 
  239.0000   -16.6760   362.4750     2.2480    67.7850    23.4830    62.6810    59.4050    62.8940 
  239.1250   -16.5850   372.6030     2.2340    66.5940    23.4850    64.6460    62.6260    66.2820 
  239.2500   -16.4950   375.1830     2.2230    67.0210    23.5240    66.4260    66.9970    70.8810 
  239.3750   -16.4040   369.8680     2.2140    68.1210    23.5530    68.1600    72.2260    76.3820 
  239.5000   -16.3090   360.3620     2.2140    68.4310    23.5220    72.1530    77.3560    81.7790 
  239.6250   -16.1980   352.2570     2.2330    67.9280    23.5130    85.2190    80.0720    84.6350 
  239.7500   -16.0640   349.0860     2.2620    68.4620    23.5030   110.1830    78.6720    83.1630 
  239.8750   -15.8970   351.6160     2.2840    70.6550    23.4850   138.8150    72.5060    76.6770 
