~V
VERS. 2.00: Ver 2.00
~W
STRT.M 61.0000:
STOP.M 262.0000:
STEP.M 0.1250:
NULL. -999.2500:
UWI. DF32115:
~C
DEPT.M :
GR.API :
CALI.CM :
RXO.OHMM :
RI. :
RML.OHMM :
DEN.GM/CC :
SP.MV :
~A
# ...
  173.5000    64.0930    27.1330    77.8410   109.6870   124.9420     2.2390   -31.1780 
  173.6250    63.6760    27.4540    78.7020   108.3610   122.4640     2.2330   -31.3470 
  173.7500    63.1500    27.4850    76.8510   105.2030   117.5630     2.2280   -31.5710 
  173.8750    62.2440    27.0900    73.1220    99.8350   110.1110     2.2260   -31.8320 
  174.0000    61.5460    26.2730    67.6340    92.7800   101.0100     2.2250   -32.1060 
  174.1250    63.4280    25.6600    61.5340    85.2650    91.8860     2.2340   -32.3750 
  174.2500    66.4300    25.9390    57.4210    78.7020    84.2190     2.2520   -32.6550 
  174.3750    68.8890    26.8850    55.1810    73.9310    78.8610     2.2710   -32.9190 
  174.5000    71.8860    27.6760    52.9930    71.4550    76.2940     2.2800   -33.1350 
  174.6250    74.0540    27.4650    51.1890    71.9470    77.1770     2.2770   -33.3320 
  174.7500    71.1060    26.5480    52.9120    74.8590    80.7240     2.2730   -33.4890 
  174.8750    64.7230    25.6890    59.7810    79.5750    86.1510     2.2710   -33.5880 
  175.0000    60.7100    25.7360    68.9460    84.9990    92.2030     2.2690   -33.6230 
  175.1250    62.2220    26.7530    72.8760    89.3110    96.8620     2.2630   -33.6160 
  175.2500    64.5680    27.3900    70.2380    91.1000    98.6890     2.2590   -33.5600 
  175.3750    66.2920    26.9760    65.5350    89.8580    97.3250     2.2630   -33.4600 
  175.5000    68.4260    25.9710    63.1380    86.4260    93.9530     2.2720   -33.3400 
  175.6250    71.4050    25.5880    61.9440    83.0760    91.3460     2.2800   -33.2210 
  175.7500    73.2860    25.9240    58.4490    82.2540    92.0930     2.2820   -33.1180 
  175.8750    72.3190    26.3020    54.6990    85.7590    98.0680     2.2770   -33.0410 
  176.0000    68.8400    26.2120    56.9150    95.1770   110.8090     2.2670   -33.0130 
  176.1250    63.5590    25.7390    72.0910   113.0820   132.9720     2.2520   -33.0580 
  176.2500    59.1420    25.4290    94.7730   138.2500   163.2730     2.2350   -33.1600 
  176.3750    57.9660    25.3640   114.4620   168.2180   199.0070     2.2190   -33.3340 
  176.5000    59.9480    25.3170   122.9590   197.5840   233.4630     2.2080   -33.5740 
  176.6250    62.0920    25.2440   118.6970   217.4110   254.8400     2.2030   -33.8380 
  176.7500    62.6450    25.1770   110.1100   225.4830   261.0130     2.2020   -34.1140 
  176.8750    62.4720    25.1150   103.2530   224.3380   256.4130     2.2070   -34.4110 
  177.0000    63.4210    25.0690   100.2680   218.6140   247.2580     2.2170   -34.7110 
  177.1250    68.4820    25.0290    98.5920   210.8840   236.0120     2.2260   -34.9550 
  177.2500    74.9820    24.9770    96.4240   200.2540   220.6370     2.2340   -35.1630 
  177.3750    78.4590    24.9230    94.3900   184.0660   198.0400     2.2430   -35.3230 
  177.5000    77.6490    24.8950    91.2260   161.4790   168.6530     2.2530   -35.4340 
  177.6250    76.3580    24.8870    81.1290   135.5020   138.1230     2.2610   -35.4960 
  177.7500    76.1490    24.8820    65.4630   112.0210   112.6630     2.2660   -35.5310 
  177.8750    74.5770    24.8680    51.2250    94.1060    94.4080     2.2720   -35.5370 
  178.0000    72.7500    24.8310    44.1640    82.5020    83.1080     2.2800   -35.5220 
  178.1250    72.9530    24.7800    44.7860    77.3300    78.4040     2.2840   -35.5340 
  178.2500    71.9180    24.7530    47.1150    76.6190    78.2310     2.2790   -35.5780 
  178.3750    68.8450    24.7310    47.3070    79.7850    82.0140     2.2690   -35.6360 
  178.5000    66.3100    24.6140    45.6940    86.4510    89.3820     2.2640   -35.7070 
  178.6250    66.3740    24.3730    46.9500    96.6270   100.3820     2.2710   -35.8180 
  178.7500    65.1730    24.1370    51.0680   108.9480   113.6670     2.2810   -35.9270 
  178.8750    60.4770    23.9660    52.5790   122.0920   127.9510     2.2840   -36.0310 
  179.0000    56.7640    23.8360    48.1270   134.3100   141.4830     2.2770   -36.1410 
  179.1250    59.0310    23.7210    41.4120   143.5240   152.1900     2.2660   -36.2400 
  179.2500    61.9890    23.6320    37.5820   150.1680   160.5310     2.2590   -36.3070 
  179.3750    61.8140    23.5540    36.1950   155.9960   168.3620     2.2590   -36.3630 
  179.5000    61.0980    23.4820    35.2860   163.1990   177.9400     2.2630   -36.4290 
  179.6250    63.8070    23.4420    33.7470   173.0240   190.3730     2.2590   -36.4910 
  179.7500    64.0810    23.4160    32.2310   183.1120   202.6860     2.2420   -36.5660 
  179.8750    59.5230    23.3890    31.3990   190.3490   211.0010     2.2220   -36.6620 
  180.0000    55.9430    23.3630    31.0190   192.8120   213.0400     2.2140   -36.7900 
  180.1250    57.4660    23.3540    30.6910   191.1010   209.9320     2.2250   -36.9530 
  180.2500    59.8860    23.3550    30.8860   189.2380   206.7840     2.2420   -37.1370 
  180.3750    62.0750    23.3630    31.8790   189.5230   206.1100     2.2530   -37.3390 
  180.5000    64.4370    23.3770    32.7620   191.7880   207.3890     2.2530   -37.5520 
  180.6250    64.7200    23.3790    32.2880   192.0860   205.5990     2.2510   -37.7330 
  180.7500    63.5520    23.3670    31.1030   185.5110   195.1100     2.2550   -37.8660 
  180.8750    64.7380    23.3520    30.0090   169.6840   174.1150     2.2640   -37.9330 
  181.0000    67.9120    23.3490    28.8950   146.5700   146.6860     2.2700   -37.9130 
  181.1250    69.0060    23.3540    27.4450   122.1410   120.9000     2.2720   -37.7570 
  181.2500    70.8940    23.3490    26.5430   102.0260   101.3460     2.2750   -37.5170 
  181.3750    74.1320    23.3680    27.2990    88.0830    88.6640     2.2850   -37.2090 
  181.5000    73.8750    23.4760    30.0140    80.2800    82.1420     2.2980   -36.8290 
  181.6250    68.8820    23.7270    33.9590    78.8370    81.7830     2.3050   -36.4370 
  181.7500    65.7700    24.0630    37.7560    82.2640    86.2060     2.2970   -36.0660 
  181.8750    65.9270    24.4300    42.0580    90.2140    95.2880     2.2750   -35.7090 
  182.0000    66.7070    24.7580    49.4830   102.2060   108.8760     2.2490   -35.3650 
  182.1250    66.4360    25.0600    63.2570   117.0330   126.2160     2.2350   -35.0630 
  182.2500    66.5730    25.3530    78.6440   131.1920   143.4150     2.2350   -34.7550 
  182.3750    67.3350    25.5140    88.2900   141.8050   156.8070     2.2430   -34.4080 
  182.5000    67.0200    25.4440    88.3820   147.7280   164.8340     2.2490   -34.0230 
  182.6250    63.3020    25.2620    82.6920   150.3180   169.3180     2.2460   -33.5400 
  182.7500    58.8450    25.1930    80.4110   153.6820   175.0480     2.2400   -32.9470 
  182.8750    56.7930    25.2410    87.1580   160.1660   184.5070     2.2350   -32.2810 
  183.0000    57.2130    25.3110   103.5570   169.1770   196.6600     2.2280   -31.5640 
  183.1250    56.4820    25.3770   122.4010   175.4900   204.3940     2.2170   -30.7510 
  183.2500    56.2390    25.4120   133.3230   174.0790   201.5010     2.2120   -29.8730 
  183.3750    58.5220    25.4170   130.5140   164.2380   188.4560     2.2270   -28.9650 
  183.5000    62.9880    25.4770   115.4720   149.3290   170.7910     2.2740   -28.0260 
  183.6250    66.3220    25.6400    99.4010   133.4320   153.2150     2.3540   -27.0390 
  183.7500    66.0290    25.7110    95.1420   117.9220   135.8190     2.4470   -26.0270 
  183.8750    63.4170    25.5620   101.9210   101.7980   116.9250     2.5390   -25.0010 
  184.0000    60.6370    25.3180   102.9060    84.4040    96.2570     2.6160   -23.9710 
  184.1250    59.7830    25.2270    83.6550    67.0000    76.0950     2.6570   -22.9490 
  184.2500    60.0120    25.2510    58.5720    51.6220    58.6890     2.6650   -21.9600 
  184.3750    59.9330    25.2800    40.9310    39.2490    44.7470     2.6530   -21.0290 
  184.5000    60.8850    25.3050    31.1080    29.9580    34.1350     2.6380   -20.1840 
  184.6250    62.9130    25.3350    26.1820    23.7490    26.8960     2.6230   -19.4820 
