~V
VERS. 2.00: Ver 2.00
~W
STRT.M 61.0000:
STOP.M 325.0000:
STEP.M 0.1250:
NULL. -999.2500:
UWI. DF320:
~C
DEPT.M :
GR.API :
RML.OHMM :
RI. :
RXO.OHMM :
CALI.CM :
SP.MV :
DEN.GM/CC :
AC.US/MT :
~A
   61.0000    59.0930     0.7640     0.2520     0.4530    23.4630    32.8920     2.4210   571.7390 
   61.1250    66.2140     0.6300     0.2310     1.0070    23.4840    31.4760     2.4590   615.5370 
   61.2500    74.6950     2.2650     0.3690     2.0130    23.5180    29.7150     2.4500   637.5440 
   61.3750    79.0560     5.0780     0.7180     3.4600    23.4930    27.5470     2.4050   644.8050 
   61.5000    78.3650     6.8460     1.3280     5.4190    23.4350    24.9450     2.3460   649.1280 
   61.6250    76.3100     8.6080     2.2460     7.2160    23.3570    21.6370     2.3000   645.9360 
   61.7500    74.4730    10.1860     3.3280     8.4010    23.2970    17.7760     2.2780   624.6740 
   61.8750    72.8380    11.2930     4.4080     8.5580    23.3090    13.6180     2.2750   581.4710 
   62.0000    74.4190    11.8250     5.2990     7.9970    23.4530     9.3380     2.2770   524.5550 
   62.1250    81.4680    11.8660     5.8080     7.0000    23.7920     5.1130     2.2710   479.5420 
   62.2500    88.4240    11.7090     5.9760     5.9450    24.2380     1.2300     2.2580   461.8530 
   62.3750    91.7410    11.4190     5.8720     5.1790    24.6590    -2.1770     2.2460   466.0430 
   62.5000    93.6430    10.9690     5.5960     4.8570    24.9090    -5.0230     2.2470   475.9700 
   62.6250    97.7410    10.3970     5.2800     4.9080    24.9220    -6.9900     2.2660   480.6990 
   62.7500   100.8780     9.9800     5.0860     5.1270    24.8560    -8.2920     2.2970   480.9530 
   62.8750    99.8190    10.0530     5.1450     5.4840    24.7910    -9.1540     2.3310   477.3990 
   63.0000    95.3270    10.8560     5.5420     6.2030    24.7230    -9.7230     2.3610   470.5270 
   63.1250    89.3250    12.4780     6.3290     7.2370    24.6180   -10.1780     2.3720   458.2030 
   63.2500    80.5550    14.4040     7.3160     8.7210    24.4760   -10.6630     2.3610   442.0780 
   63.3750    70.8960    16.0610     8.2930    10.3930    24.2730   -11.1800     2.3280   427.9140 
   63.5000    66.6830    16.9130     9.0180    11.0950    23.9530   -11.7490     2.2810   422.8260 
   63.6250    71.9090    16.5780     9.2440    10.9370    23.4810   -12.4570     2.2370   429.5780 
   63.7500    80.5260    15.5000     9.0480     9.7260    23.0150   -13.2050     2.2100   439.6120 
   63.8750    88.3640    14.1540     8.5840     7.9200    22.7230   -13.8980     2.2050   447.2380 
   64.0000    93.9180    13.0020     8.0570     6.7660    22.6130   -14.4960     2.2170   451.4380 
   64.1250    94.1110    12.4400     7.6890     6.5170    22.6740   -14.9180     2.2360   453.6330 
   64.2500    89.7540    12.4230     7.5670     6.6770    22.8710   -15.2430     2.2490   454.6140 
   64.3750    84.2280    12.8140     7.6970     7.0690    23.2250   -15.5500     2.2500   454.1440 
   64.5000    79.9510    13.3880     8.0150     7.6910    23.7270   -15.8690     2.2380   452.6320 
   64.6250    76.5890    13.8560     8.3980     8.6930    24.1950   -16.1590     2.2180   450.0190 
   64.7500    71.9750    14.0610     8.7170     9.7510    24.4710   -16.4670     2.1990   446.8070 
   64.8750    66.9890    14.0430     8.9360    10.4540    24.5740   -16.8490     2.1870   444.4160 
   65.0000    64.2920    14.0010     9.1090    10.6470    24.6250   -17.3520     2.1890   444.2540 
   65.1250    64.7460    14.1770     9.3480    10.6080    24.6560   -17.9920     2.2130   445.8490 
   65.2500    66.5310    14.5550     9.6960    10.6980    24.6670   -18.6370     2.2550   446.6660 
   65.3750    67.1000    14.9990    10.1250    10.9440    24.6730   -19.2180     2.3050   446.9930 
   65.5000    65.6350    15.3430    10.5550    11.4460    24.6630   -19.7390     2.3420   449.6330 
   65.6250    64.2280    15.4090    10.8570    12.1520    24.6340   -20.1750     2.3430   459.7640 
   65.7500    64.7590    15.1970    10.9690    12.3840    24.6170   -20.4800     2.3120   479.3460 
   65.8750    67.3800    14.7510    10.8790    12.0400    24.6450   -20.6620     2.2630   505.8120 
   66.0000    70.9000    14.1440    10.6240    11.6500    24.6480   -20.7520     2.2130   530.6380 
   66.1250    75.7600    13.4760    10.2670    11.2330    24.5460   -20.7850     2.1770   544.0630 
   66.2500    81.0440    12.8800     9.9170    10.2810    24.3680   -20.8040     2.1570   549.4090 
   66.3750    85.8060    12.4400     9.6390     9.6050    24.1840   -20.8080     2.1510   552.9490 
   66.5000    90.0730    12.1880     9.4690     9.3030    24.0070   -20.7890     2.1550   556.8950 
   66.6250    92.7950    12.1280     9.4240     9.2370    23.7160   -20.7490     2.1640   559.8480 
   66.7500    92.5620    12.1610     9.4520     9.2070    23.2620   -20.7060     2.1730   560.7100 
   66.8750    88.3820    12.2010     9.5030     9.2090    22.7470   -20.6450     2.1800   557.8570 
   67.0000    82.6370    12.1680     9.5220     9.2190    22.4180   -20.5380     2.1890   549.4420 
   67.1250    78.8380    12.0000     9.4700     9.0750    22.4470   -20.3960     2.2040   532.2920 
   67.2500    77.2730    11.7340     9.3750     8.7220    22.6820   -20.2150     2.2250   507.9170 
   67.3750    78.7130    11.4160     9.2670     8.0240    22.9790   -19.9920     2.2450   482.3320 
   67.5000    81.7290    11.0800     9.1600     7.1610    23.2620   -19.7630     2.2560   464.8460 
   67.6250    82.8580    10.7250     9.0230     6.7300    23.5260   -19.5210     2.2500   461.5840 
   67.7500    82.3820    10.3500     8.8190     6.5720    23.7930   -19.2960     2.2320   465.6620 
   67.8750    82.8940     9.9930     8.5480     6.5810    23.9490   -19.0950     2.2130   472.9690 
   68.0000    86.8610     9.7490     8.2770     6.6880    23.9150   -18.8960     2.2050   484.7100 
   68.1250    95.3300     9.7870     8.1640     6.7630    23.7210   -18.6920     2.2190   502.9730 
   68.2500   104.9640    10.0880     8.2860     6.8480    23.5390   -18.4360     2.2530   518.2240 
   68.3750   109.0670    10.5280     8.6180     7.1580    23.5020   -18.2110     2.3010   519.2560 
   68.5000   103.9010    10.8980     9.0310     7.8030    23.6120   -17.9990     2.3520   501.1700 
   68.6250    95.1610    10.9330     9.3110     8.7490    23.7800   -17.8800     2.3860   470.5430 
   68.7500    91.5700    10.6180     9.3350     9.3820    23.9310   -17.8010     2.3910   446.9760 
   68.8750    93.1100    10.0470     9.0980     8.9590    24.0140   -17.7670     2.3660   442.1080 
   69.0000    94.2300     9.3690     8.6820     7.7850    23.9790   -17.8280     2.3220   455.3900 
   69.1250    90.4420     8.7290     8.2030     7.2470    23.8070   -17.9280     2.2800   470.6850 
   69.2500    87.7470     8.2220     7.7790     7.1570    23.5510   -18.1640     2.2540   473.4620 
   69.3750    90.0780     7.9310     7.4920     7.1750    23.2460   -18.4740     2.2450   467.8400 
   69.5000    93.9680     7.9140     7.4080     7.0280    22.8980   -18.7930     2.2460   465.5180 
   69.6250    93.3800     8.1990     7.5840     6.8880    22.6550   -19.1500     2.2480   468.2480 
   69.7500    91.2210     8.6210     7.9280     7.1240    22.4950   -19.5530     2.2420   464.1660 
   69.8750    89.3450     9.0210     8.3370     7.6850    22.3320   -20.0190     2.2290   451.7080 
   70.0000    86.0360     9.2630     8.6960     8.2540    22.1330   -20.4830     2.2110   440.6900 
   70.1250    79.2000     9.2810     8.8940     8.5980    21.9700   -20.9320     2.1930   440.2730 
   70.2500    73.6590     9.2270     8.9690     8.7010    21.9120   -21.4020     2.1790   444.9530 
   70.3750    72.5930     9.2870     9.0280     8.7120    21.9730   -21.8540     2.1720   449.5250 
   70.5000    75.6010     9.6110     9.2070     8.9960    22.1410   -22.2780     2.1760   452.7500 
   70.6250    81.0360    10.2460     9.6230     9.9080    22.3810   -22.6470     2.1940   453.3370 
   70.7500    86.5540    10.9670    10.1870    11.2270    22.6100   -22.9770     2.2160   452.4840 
   70.8750    89.5680    11.5380    10.7460    12.6080    22.8350   -23.2380     2.2310   451.0600 
