~V
VERS. 2.00: Ver 2.00
~W
STRT.M 59.0000:
STOP.M 261.0000:
STEP.M 0.1250:
NULL. -999.2500:
UWI. DF32116:
~C
DEPT.M :
SP.MV :
GR.API :
CALI.CM :
RXO.OHMM :
RI. :
RML.OHMM :
DEN.GM/CC :
~A
# ...
  149.0000   -18.5040    57.4270    25.1280    24.9240    22.7590    27.1230     2.4680 
  149.1250   -18.3390    53.5220    25.1450    26.5120    22.6230    27.0730     2.5100 
  149.2500   -18.0700    52.4930    25.1480    26.8270    22.4070    26.9070     2.5420 
  149.3750   -17.7120    54.8020    25.1480    25.8150    21.8650    26.2320     2.5630 
  149.5000   -17.2840    57.5860    25.1560    23.9380    20.7680    24.7360     2.5630 
  149.6250   -16.8140    58.0880    25.1790    21.4260    19.0280    22.3760     2.5420 
  149.7500   -16.3500    57.7170    25.2080    18.5700    17.0450    19.7610     2.5180 
  149.8750   -15.9100    59.1300    25.2240    15.5450    15.1790    17.3930     2.4940 
  150.0000   -15.5180    60.6350    25.2040    12.9250    13.7200    15.6530     2.4710 
  150.1250   -15.1610    58.4580    25.1720    11.6750    12.9380    14.8920     2.4490 
  150.2500   -14.8390    54.6290    25.1940    11.7280    12.7630    14.9700     2.4400 
  150.3750   -14.5680    53.0510    25.2880    12.7500    13.1290    15.7540     2.4470 
  150.5000   -14.3320    54.9890    25.3980    14.3860    13.9020    17.0050     2.4690 
  150.6250   -14.1510    56.9940    25.4500    16.0320    14.8740    18.3650     2.4980 
  150.7500   -14.0240    56.2970    25.4570    17.0730    15.7400    19.4420     2.5310 
  150.8750   -13.9450    53.5310    25.4530    17.5960    16.3280    20.0690     2.5580 
  151.0000   -13.8930    52.6490    25.4550    18.0650    16.6030    20.2690     2.5660 
  151.1250   -13.9120    55.1190    25.4580    18.3680    16.5760    20.1110     2.5470 
  151.2500   -14.0000    57.3650    25.4410    18.2880    16.3450    19.7200     2.5280 
  151.3750   -14.1350    57.5160    25.3940    18.1790    15.9380    19.1280     2.5210 
  151.5000   -14.3170    56.3070    25.3380    18.1720    15.4030    18.3990     2.5220 
  151.6250   -14.5280    56.9170    25.2960    17.5060    14.8600    17.7220     2.5180 
  151.7500   -14.7590    59.0440    25.2440    16.1570    14.4880    17.3550     2.5140 
  151.8750   -14.9930    59.9010    25.1720    15.1340    14.4410    17.5080     2.5210 
  152.0000   -15.2150    57.8320    25.1020    15.3920    14.8020    18.2630     2.5420 
  152.1250   -15.4140    54.0150    25.0570    17.1110    15.5620    19.5000     2.5630 
  152.2500   -15.6010    52.1950    25.0210    19.1840    16.3900    20.6590     2.5720 
  152.3750   -15.7650    53.0740    24.9860    20.4920    16.9010    21.1760     2.5710 
  152.5000   -15.8980    54.4180    24.9560    19.9830    16.7710    20.6800     2.5670 
  152.6250   -16.0360    53.3150    24.9400    17.3900    15.8890    19.1910     2.5650 
  152.7500   -16.1910    52.1800    24.9270    14.3680    14.7160    17.4540     2.5620 
  152.8750   -16.3640    53.7580    24.9020    12.1610    13.6050    15.9650     2.5540 
  153.0000   -16.5620    56.7460    24.8640    11.2660    12.7630    14.9610     2.5410 
  153.1250   -16.7670    58.0740    24.8560    11.5620    12.3020    14.5290     2.5240 
  153.2500   -16.9520    58.0450    24.9050    12.1700    12.1300    14.4690     2.5070 
  153.3750   -17.1270    57.6200    25.0030    12.5640    12.1810    14.6570     2.4980 
  153.5000   -17.3130    57.2850    25.1210    12.7150    12.3900    14.9990     2.5010 
  153.6250   -17.4790    59.6880    25.2020    13.3200    12.7240    15.4590     2.5160 
  153.7500   -17.6280    63.7460    25.2160    14.6660    13.1290    15.9850     2.5300 
  153.8750   -17.7950    67.2720    25.1750    16.0600    13.5640    16.5190     2.5370 
  154.0000   -18.0110    68.5590    25.1200    16.6020    13.9720    16.9820     2.5390 
  154.1250   -18.3220    67.0780    25.0880    16.1560    14.2680    17.2690     2.5400 
  154.2500   -18.7430    64.9230    25.0670    15.4490    14.4110    17.3570     2.5450 
  154.3750   -19.2670    65.2750    25.0520    14.7280    14.3820    17.2420     2.5540 
  154.5000   -19.8710    68.2760    25.0520    14.1350    14.2070    16.9680     2.5590 
  154.6250   -20.5030    68.0890    25.0830    13.8730    13.9330    16.5850     2.5520 
  154.7500   -21.1130    65.8390    25.1200    13.6800    13.6270    16.1650     2.5400 
  154.8750   -21.6820    65.1640    25.1430    13.4770    13.3370    15.7700     2.5370 
  155.0000   -22.1980    67.1170    25.1400    13.6860    13.1210    15.4810     2.5450 
  155.1250   -22.5980    68.4660    25.1030    14.5780    13.0670    15.4140     2.5440 
  155.2500   -22.8790    68.3260    25.0460    15.3040    13.1900    15.5760     2.5260 
  155.3750   -23.0430    66.7000    25.0030    15.3890    13.5010    15.9620     2.5030 
  155.5000   -23.0910    64.4690    24.9890    15.1740    13.9770    16.5200     2.4940 
  155.6250   -23.0890    64.8190    24.9760    15.2530    14.5460    17.1220     2.5070 
  155.7500   -23.0670    66.5400    24.9480    15.6070    15.0630    17.5960     2.5290 
  155.8750   -23.0190    67.5740    24.9270    16.1080    15.4220    17.8320     2.5470 
  156.0000   -22.9640    68.3290    24.9400    16.5550    15.5560    17.7900     2.5310 
  156.1250   -22.9250    69.9360    24.9710    16.4630    15.4400    17.4910     2.5030 
  156.2500   -22.9130    71.0150    24.9760    15.8020    15.1700    17.0770     2.4850 
  156.3750   -22.9410    70.6690    24.9440    14.9620    14.8020    16.6140     2.4770 
  156.5000   -23.0180    70.9920    24.8960    14.4290    14.3700    16.1300     2.4660 
  156.6250   -23.1410    71.9640    24.8560    14.4060    13.9150    15.6590     2.4440 
  156.7500   -23.3180    69.9900    24.8400    14.3800    13.5070    15.2610     2.4220 
  156.8750   -23.5540    66.1460    24.8670    14.1390    13.2260    15.0340     2.4090 
  157.0000   -23.8280    65.0060    24.9330    14.1110    13.1720    15.1290     2.4080 
  157.1250   -24.1690    68.9680    25.0020    14.9570    13.5650    15.8750     2.4140 
  157.2500   -24.5680    71.5870    25.0390    16.3290    14.5380    17.4670     2.4130 
  157.3750   -25.0100    70.9860    25.0460    18.3270    16.3000    20.1730     2.3960 
  157.5000   -25.9220    71.2770    25.0430    22.4000    19.0970    24.2520     2.3600 
  157.6250   -26.4740    73.3800    25.0740    31.1260    23.4410    30.2050     2.3160 
  157.7500   -27.0220    74.5580    25.1540    41.9400    29.2470    37.7590     2.2840 
  157.8750   -27.5770    74.0980    25.2460    50.5340    36.2160    46.4310     2.2680 
  158.0000   -28.1080    71.2230    25.3010    56.8270    43.4980    55.1060     2.2560 
  158.1250   -28.5960    66.1130    25.3060    67.4560    49.4960    61.7400     2.2440 
  158.2500   -29.0450    63.1270    25.3030    77.5570    53.3400    65.4640     2.2420 
  158.3750   -29.4540    64.4360    25.3030    74.9060    55.0430    66.6020     2.2570 
  158.5000   -29.8360    66.8560    25.3030    60.5620    55.4400    66.4650     2.2770 
  158.6250   -30.2090    67.4730    25.3040    51.4860    55.7150    66.5970     2.2830 
  158.7500   -30.5870    67.4980    25.3030    53.4620    56.5390    67.5360     2.2770 
  158.8750   -30.9650    66.9220    25.3030    63.7900    57.8580    68.9730     2.2690 
  159.0000   -31.3530    65.6990    25.2930    78.0740    59.2250    70.1580     2.2710 
  159.1250   -31.7440    66.2210    25.2520    82.7960    59.8360    70.0030     2.2880 
  159.2500   -32.1410    67.9020    25.1700    73.0860    59.4850    68.5710     2.3050 
  159.3750   -32.5500    68.5580    25.0630    59.0050    58.6330    66.7510     2.3110 
  159.5000   -32.9440    67.5830    24.9690    52.7660    58.1750    65.7510     2.3030 
  159.6250   -33.3080    65.4100    24.9120    55.3720    59.1660    66.7420     2.2920 
  159.7500   -33.6490    65.2480    24.8730    60.6830    61.7110    69.6130     2.2870 
  159.8750   -33.9540    68.5660    24.8450    67.4460    65.5380    73.8910     2.2840 
  160.0000   -34.2370    73.0280    24.8330    74.8120    69.7980    78.4780     2.2770 
  160.1250   -34.5030    75.0780    24.8160    79.1500    73.0470    81.6800     2.2600 
