~V
VERS. 2.00: Ver 2.00
~W
STRT.M 60.0000:
STOP.M 229.0000:
STEP.M 0.1250:
NULL. -999.2500:
UWI. DF32026:
~C
DEPT.M :
SP.MV :
GR.API :
CALI.CM :
RXO.OHMM :
RI. :
RML.OHMM :
DEN.GM/CC :
~A
   60.0000   101.5710    79.2850    24.2490     1.3010     0.0400     2.7610     1.9670 
   60.1250   100.3110    78.6700    24.4190     1.3700     0.0160     1.8930     1.9820 
   60.2500    98.9450    76.7710    24.5390     1.3550    -0.0130     0.8130     2.0080 
   60.3750    97.4190    75.2670    24.5910     1.2430    -0.0400     0.0580     2.0580 
   60.5000    95.7580    74.0550    24.8320     1.1060    -0.0630    -0.3360     2.1510 
   60.6250    93.8740    72.5910    24.6640     1.0780    -0.0760    -0.4750     2.3010 
   60.7500    91.8540    74.6990    24.5630     1.3300    -0.0620    -0.4820     2.4480 
   60.8750    89.7100    84.3460    24.4150     2.3770     0.0150    -0.3710     2.5250 
   61.0000    87.5350    95.3880    24.1840     5.0570     0.2210    -0.1040     2.5070 
   61.1250    85.3740    96.4330    23.8820     9.2050     0.7200     0.4830     2.4420 
   61.2500    83.2920    92.3690    23.6010    11.3210     1.6230     1.4820     2.4040 
   61.3750    81.3480    91.6160    23.3990    10.9320     2.9910     2.8740     2.4130 
   61.5000    79.5750    94.3460    23.2640    11.2450     4.7420     4.4390     2.4390 
   61.6250    78.0450    91.7960    23.2970    15.3380     6.6510     5.9280     2.4210 
   61.7500    76.7500    85.0400    23.4510    20.0690     8.3730     7.2260     2.3490 
   61.8750    75.6800    79.2750    23.6460    20.2220     9.5830     8.1620     2.2550 
   62.0000    74.7680    75.7600    23.8420    15.5520    10.0340     8.5000     2.1830 
   62.1250    74.0300    73.2680    24.0990    11.3810     9.6800     8.1770     2.1500 
   62.2500    73.3950    71.6750    24.4450     9.7450     9.0380     7.6610     2.1370 
   62.3750    72.8890    71.1130    24.8350     9.2800     8.4720     7.2650     2.1310 
   62.5000    72.4560    70.7490    24.9580     9.2190     8.1460     7.0950     2.1290 
   62.6250    72.1080    70.9520    25.0410     9.3000     8.0330     7.0680     2.1260 
   62.7500    71.8370    71.6240    25.0240     9.4640     8.0020     7.0540     2.1230 
   62.8750    71.6430    70.2200    24.8560     9.6390     8.0880     7.1120     2.1380 
   63.0000    71.4800    66.7220    24.4560     9.7270     8.4180     7.4100     2.1920 
   63.1250    71.3470    66.4290    24.0470     9.9920     9.1500     8.1800     2.2860 
   63.2500    71.2080    71.3820    23.8460    11.2720    10.1730     9.3700     2.3650 
   63.3750    71.0560    76.5580    23.8410    14.1920    11.2330    10.7280     2.3780 
   63.5000    70.9000    76.6730    23.9140    16.0620    11.9010    11.6660     2.3220 
   63.6250    70.7550    72.6050    23.8180    14.6630    11.6740    11.4390     2.2440 
   63.7500    70.6080    69.8870    23.5350    11.8000    10.7830    10.4310     2.1900 
   63.8750    70.4370    69.4680    23.2020    10.3630     9.6350     9.2420     2.1630 
   64.0000    70.3030    69.1570    22.9590     9.9070     8.5960     8.2750     2.1540 
   64.1250    70.2160    68.0850    22.8610     9.6760     7.9170     7.7280     2.1550 
   64.2500    70.1740    68.7570    22.8720     9.4160     7.5560     7.5040     2.1630 
   64.3750    70.1420    73.5110    22.9400     9.0790     7.4290     7.5120     2.1720 
   64.5000    70.1380    79.9630    23.0620     8.6920     7.4460     7.6670     2.1790 
   64.6250    70.1060    80.8280    23.1640     8.6080     7.5720     7.9340     2.1820 
   64.7500    70.1070    76.8850    23.2740     9.1240     7.7760     8.2670     2.1850 
   64.8750    70.1040    72.9170    23.4770     9.9540     8.0260     8.6200     2.1850 
   65.0000    70.0830    71.2720    23.7390    10.5300     8.2750     8.9380     2.1850 
   65.1250    70.0590    69.8770    23.8910    10.6580     8.4550     9.1410     2.1860 
   65.2500    70.0340    67.7290    23.9260    10.6980     8.5260     9.1990     2.1880 
   65.3750    70.0190    66.6200    23.9180    10.7650     8.4730     9.1100     2.1890 
   65.5000    70.0160    67.1530    23.8810    10.7720     8.3150     8.9110     2.1890 
   65.6250    70.0680    68.5800    23.7840    10.4850     8.0950     8.6690     2.1880 
   65.7500    70.1160    70.9780    23.6380     9.9240     7.8830     8.4660     2.1860 
   65.8750    70.2290    74.0650    23.4390     9.4240     7.7330     8.3690     2.1830 
   66.0000    70.3630    75.5640    23.2230     9.2660     7.6840     8.4170     2.1790 
   66.1250    70.4990    72.4750    23.0550     9.5280     7.7560     8.6160     2.1770 
   66.2500    70.6230    69.5320    22.9680     9.7560     7.8970     8.8750     2.1780 
   66.3750    70.7650    71.8940    23.0250     9.8090     8.0630     9.1120     2.1780 
   66.5000    70.9310    76.4030    23.2100     9.8300     8.2130     9.2700     2.1740 
   66.6250    71.1290    76.6100    23.4420     9.9870     8.3160     9.3540     2.1690 
   66.7500    71.3330    75.7480    23.6010    10.2020     8.3750     9.4340     2.1650 
   66.8750    71.5510    77.9280    23.6620    10.2540     8.3630     9.5070     2.1630 
   67.0000    71.7790    81.6090    23.5960    10.0540     8.2220     9.4690     2.1590 
   67.1250    72.0230    82.6660    23.4260     9.7710     7.8260     9.0950     2.1520 
   67.2500    72.2790    82.7270    23.3130     9.4280     7.1950     8.3650     2.1480 
   67.3750    72.5260    85.0780    23.4140     8.7900     6.4250     7.4290     2.1560 
   67.5000    72.7490    91.5570    23.7090     7.6870     5.6890     6.5590     2.1800 
   67.6250    72.9190   100.0270    23.9390     6.6730     5.2060     6.0720     2.2140 
   67.7500    73.0230   104.6360    24.1300     6.4370     5.0480     6.0400     2.2450 
   67.8750    73.0260   103.0630    24.2730     7.6230     5.2380     6.4760     2.2530 
   68.0000    72.9740    97.3400    24.1350    10.4050     5.7480     7.3150     2.2410 
   68.1250    72.8830    90.9530    23.7280    12.0390     6.4880     8.3710     2.2190 
   68.2500    72.7730    85.4130    23.4470    11.5880     7.2070     9.2660     2.2080 
   68.3750    72.6720    80.8840    23.3080    10.4260     7.6920     9.7310     2.2140 
   68.5000    72.5530    78.5040    23.2080    10.0370     7.8270     9.7040     2.2210 
   68.6250    72.4940    78.0790    23.1350    10.1200     7.6200     9.3260     2.2160 
   68.7500    72.4860    78.1700    23.1740     9.8780     7.2860     8.9100     2.1980 
   68.8750    72.5380    78.0930    23.3060     9.3420     6.9620     8.6040     2.1760 
   69.0000    72.6390    78.7480    23.4320     8.8830     6.7100     8.4470     2.1600 
   69.1250    72.8050    80.0570    23.4250     8.4460     6.5340     8.3970     2.1520 
   69.2500    72.9990    80.5640    23.3360     8.1260     6.3720     8.3430     2.1530 
   69.3750    73.2060    80.8140    23.3220     7.8170     6.1800     8.2090     2.1700 
   69.5000    73.4380    83.0960    23.5150     7.3860     5.9400     7.9630     2.2070 
   69.6250    73.6220    89.4810    23.9240     6.8730     5.6660     7.6250     2.2550 
   69.7500    73.7730    97.5300    24.3360     6.6050     5.4050     7.2880     2.2930 
   69.8750    73.8600   104.0110    24.6430     6.6340     5.1930     7.0170     2.3060 
   70.0000    73.8770   106.9800    24.8490     6.7290     5.0560     6.8580     2.3040 
   70.1250    73.7750   105.7360    25.0080     6.6640     5.0310     6.8480     2.3000 
   70.2500    73.6090   102.3440    25.0950     6.6090     5.1130     6.9570     2.2950 
   70.3750    73.3650   100.7770    24.9550     6.8120     5.2960     7.1700     2.2810 
   70.5000    73.0780    99.6330    24.7550     7.5190     5.5680     7.4710     2.2540 
   70.6250    72.7990    93.8800    24.3630     8.4040     5.9040     7.8480     2.2150 
   70.7500    72.5530    85.6740    24.1650     8.9800     6.2520     8.2380     2.1720 
   70.8750    72.3950    79.6860    24.0920     9.1800     6.5610     8.5760     2.1410 
   71.0000    72.3220    76.8610    24.1120     9.2600     6.7870     8.8040     2.1330 
   71.1250    72.3960    74.6440    24.1820     9.3120     6.8740     8.8630     2.1490 
