~V
VERS. 2.00: Ver 2.00
~W
STRT.M 53.0000:
STOP.M 258.0000:
STEP.M 0.1250:
NULL. -999.2500:
UWI. DF32102:
~C
DEPT.M :
SP.MV :
GR.API :
RML.OHMM :
RI. :
RXO.OHMM :
CALI.CM :
DEN.GM/CC :
~A
# ...
  120.5000   -25.2320    69.2010     8.3620     6.8800     7.0520    24.6850     2.2870 
  120.6250   -25.2330    71.1390     8.5720     7.1190     6.9450    24.6050     2.2920 
  120.7500   -25.2860    72.9000     8.6710     7.2960     7.0020    24.3850     2.2980 
  120.8750   -25.3940    73.7700     8.6100     7.3500     7.2060    24.0850     2.3030 
  121.0000   -25.4380    72.4490     8.3760     7.2470     7.5670    23.8870     2.3060 
  121.1250   -25.5830    70.0650     7.9770     6.9720     7.4590    24.0610     2.3040 
  121.2500   -25.7430    71.2820     7.5100     6.6000     6.6660    24.5070     2.3000 
  121.3750   -25.8950    74.8480     7.0640     6.2040     6.4140    24.8780     2.2970 
  121.5000   -26.0430    76.9210     6.7110     5.8530     6.4850    25.0590     2.3000 
  121.6250   -26.2640    77.2460     6.5050     5.6110     6.1920    25.1500     2.3080 
  121.7500   -26.4640    77.3910     6.4100     5.4680     5.5240    25.2240     2.3180 
  121.8750   -26.6180    75.5760     6.3900     5.4040     5.4060    25.2450     2.3240 
  122.0000   -26.9090    73.1280     6.4080     5.3930     5.6820    25.2160     2.3250 
  122.1250   -27.1580    76.4680     6.4450     5.4150     6.1310    25.2030     2.3180 
  122.2500   -27.4310    83.2580     6.5010     5.4570     6.0160    25.2110     2.3080 
  122.3750   -27.7690    86.4260     6.5790     5.5190     5.8110    25.2150     2.2970 
  122.5000   -28.1240    82.5430     6.6830     5.5970     5.8630    25.1750     2.2890 
  122.6250   -28.5440    74.9920     6.8120     5.6910     6.3220    25.1380     2.2860 
  122.7500   -29.0340    71.0380     6.9590     5.7970     6.7630    25.1370     2.2860 
  122.8750   -29.6290    70.8060     7.1270     5.9240     6.9090    25.1630     2.2860 
  123.0000   -30.2360    70.8520     7.3420     6.0920     6.9790    25.1790     2.2810 
  123.1250   -30.9980    70.7320     7.6790     6.3600     7.1870    25.1660     2.2690 
  123.2500   -31.7220    70.1840     8.1880     6.7670     7.6170    25.1060     2.2550 
  123.3750   -32.3830    69.3020     8.9100     7.3510     8.5440    24.9880     2.2480 
  123.5000   -33.0380    69.3600     9.8350     8.1150     9.7160    24.8180     2.2510 
  123.6250   -33.5220    71.9440    10.8940     9.0320    10.9570    24.6450     2.2670 
  123.7500   -33.9840    72.9390    11.9400     9.9880    12.4380    24.5490     2.2850 
  123.8750   -34.3500    68.6810    12.8890    10.9090    13.8780    24.5850     2.2950 
  124.0000   -34.5580    64.1310    13.7450    11.7790    14.0530    24.7210     2.2930 
  124.1250   -34.7030    63.3360    14.6320    12.6790    13.7310    24.7620     2.2860 
  124.2500   -34.8110    62.3440    15.6630    13.7020    14.0060    24.7790     2.2860 
  124.3750   -34.9470    59.6210    16.7920    14.8290    14.6510    24.7670     2.2930 
  124.5000   -35.1250    58.0610    17.7870    15.8910    16.2620    24.7580     2.2980 
  124.6250   -35.3280    58.7710    18.1640    16.4850    19.6900    24.7650     2.2920 
  124.7500   -35.5530    58.4350    17.7340    16.3900    21.8650    24.7290     2.2640 
  124.8750   -35.8410    56.5790    16.5660    15.5870    18.2060    24.5910     2.2190 
  125.0000   -36.1450    56.3070    15.0320    14.3240    13.7960    24.3680     2.1730 
  125.1250   -36.3490    57.9560    13.6850    13.0390    12.4690    24.2310     2.1500 
  125.2500   -36.5750    57.8770    12.8040    12.0620    12.3160    24.1370     2.1520 
  125.3750   -36.7230    56.3310    12.4020    11.4770    12.6490    24.1260     2.1680 
  125.5000   -36.7740    56.0180    12.3360    11.2220    12.7860    24.2200     2.1860 
  125.6250   -36.8380    58.6670    12.3880    11.1500    12.9810    24.4040     2.1940 
  125.7500   -36.8070    60.7340    12.3380    11.0590    13.3040    24.5560     2.1940 
  125.8750   -36.7220    60.1060    12.1160    10.8600    13.1160    24.6230     2.1940 
  126.0000   -36.6760    59.6130    11.7690    10.5610    12.6790    24.6410     2.2010 
  126.1250   -36.6780    62.3890    11.4430    10.2540    11.8800    24.6520     2.2180 
  126.2500   -36.6790    67.1410    11.2650    10.0490    10.9420    24.6710     2.2370 
  126.3750   -36.7450    71.9980    11.2860     9.9990    10.3340    24.7100     2.2470 
  126.5000   -36.8530    73.3200    11.4960    10.1130    11.8710    24.7600     2.2390 
  126.6250   -36.8920    68.4450    11.8390    10.3620    12.7670    24.8030     2.2130 
  126.7500   -37.0180    62.2890    12.1990    10.6510    12.9280    24.8400     2.1820 
  126.8750   -37.1450    60.7250    12.5010    10.9160    12.5270    24.8790     2.1630 
  127.0000   -37.2750    62.7270    12.7030    11.1110    12.2630    24.8480     2.1630 
  127.1250   -37.4760    61.6360    12.7820    11.2020    12.2570    24.6720     2.1860 
  127.2500   -37.5770    58.0950    12.7840    11.2090    12.2560    24.4410     2.2150 
  127.3750   -37.6680    55.9750    12.7420    11.1560    12.2590    24.3740     2.2360 
  127.5000   -37.7630    56.2790    12.6840    11.0670    12.3180    24.4960     2.2410 
  127.6250   -37.8550    57.2200    12.6300    10.9640    12.3760    24.6250     2.2260 
  127.7500   -37.9370    59.6420    12.5920    10.8690    12.4120    24.6480     2.2030 
  127.8750   -38.0290    63.6000    12.5730    10.7990    12.3570    24.5920     2.1780 
  128.0000   -38.0440    65.4140    12.5700    10.7590    12.4300    24.5270     2.1600 
  128.1250   -37.9510    60.1590    12.5830    10.7570    12.6070    24.4740     2.1520 
  128.2500   -37.9460    55.4750    12.6070    10.7820    12.6500    24.4590     2.1510 
  128.3750   -37.8780    57.5890    12.6420    10.8290    12.4890    24.4760     2.1540 
  128.5000   -37.7510    62.4410    12.6790    10.8850    12.4210    24.5200     2.1570 
  128.6250   -37.6460    62.3630    12.7000    10.9320    12.4030    24.5350     2.1590 
  128.7500   -37.4640    59.7050    12.6910    10.9530    12.6250    24.5390     2.1600 
  128.8750   -37.2740    59.8690    12.6460    10.9400    12.8370    24.5370     2.1600 
  129.0000   -37.0920    63.2680    12.5750    10.8980    12.8970    24.5210     2.1610 
  129.1250   -36.8950    65.9970    12.5010    10.8390    12.6990    24.4740     2.1620 
  129.2500   -36.6160    65.5970    12.4480    10.7880    12.7560    24.4590     2.1610 
  129.3750   -36.3510    62.5340    12.4210    10.7550    12.7790    24.4860     2.1630 
  129.5000   -36.0910    60.6800    12.4000    10.7350    12.7610    24.5630     2.1710 
  129.6250   -35.7370    62.3800    12.3330    10.7000    12.6830    24.5960     2.1890 
  129.7500   -35.3920    63.7130    12.1840    10.6170    12.4220    24.5520     2.2110 
  129.8750   -34.9740    63.1560    11.9530    10.4770    11.9510    24.4450     2.2310 
  130.0000   -34.5170    63.0560    11.6950    10.3040    11.7140    24.3310     2.2380 
  130.1250   -34.0410    65.3090    11.5410    10.1830    11.4760    24.3450     2.2260 
  130.2500   -33.4430    66.7570    11.5740    10.1880    10.7800    24.4440     2.2040 
  130.3750   -32.8220    65.7730    11.7730    10.3220    10.5400    24.5390     2.1820 
  130.5000   -32.1240    62.1800    11.9850    10.4890    10.8710    24.6200     2.1750 
  130.6250   -31.4150    59.3340    11.9020    10.4560    11.9880    24.7280     2.1950 
  130.7500   -30.8060    60.4290    11.3630    10.0740    14.0790    24.8240     2.2380 
  130.8750   -30.2380    65.5940    10.3830     9.3160    16.0070    24.8910     2.2890 
  131.0000   -29.7320    71.9940     9.1770     8.3150    14.1530    24.9940     2.3310 
  131.1250   -29.3750    75.8640     8.1150     7.3350     8.9630    25.0460     2.3460 
  131.2500   -29.1980    78.3230     7.4240     6.6020     7.4500    25.0940     2.3380 
  131.3750   -29.0580    79.9610     7.1520     6.2020     7.0060    25.1270     2.3170 
  131.5000   -29.0420    79.5740     7.2180     6.1170     6.8310    25.1660     2.2920 
  131.6250   -29.1950    78.1170     7.4710     6.2700     6.5600    25.1700     2.2700 
