~V
VERS. 2.00: Ver 2.00
~W
STRT.M 60.0000:
STOP.M 266.0000:
STEP.M 0.1250:
NULL. -999.2500:
UWI. DF32129:
~C
DEPT.M :
SP.MV :
GR.API :
CALI.CM :
RXO.OHMM :
RI. :
RML.OHMM :
DEN.GM/CC :
~A
# ...
  116.2500   -29.9020    70.2070    24.8430     8.0500     7.2050     9.5480     2.1730 
  116.3750   -29.7770    71.7250    24.8510     8.1670     7.4890    10.0160     2.1730 
  116.5000   -29.6340    73.5160    24.8740     8.4600     7.7890    10.5310     2.1790 
  116.6250   -29.4370    74.4390    24.9300     8.6940     7.8460    10.6490     2.1910 
  116.7500   -29.2160    77.1510    25.0020     8.5470     7.4720    10.0330     2.2040 
  116.8750   -29.0040    81.4530    25.1510     7.8570     6.6460     8.7140     2.2170 
  117.0000   -28.8410    81.5970    25.4090     6.5760     5.5720     7.1410     2.2350 
  117.1250   -28.7630    78.6010    25.7700     5.3550     4.6040     5.9190     2.2640 
  117.2500   -28.7980    81.6340    25.9830     4.6710     3.9720     5.2630     2.2950 
  117.3750   -28.9290    90.4110    25.8620     4.5550     3.7640     5.2040     2.3160 
  117.5000   -29.1270    95.6580    25.6640     4.9970     3.9980     5.7260     2.3260 
  117.6250   -29.3790    90.2890    25.4810     5.9860     4.7130     6.8660     2.3370 
  117.7500   -29.6550    83.1280    25.1100     6.9710     5.7150     8.3450     2.3430 
  117.8750   -29.9040    79.4430    24.8360     7.4890     6.7740     9.7720     2.3260 
  118.0000   -30.1160    78.4560    24.7390     7.6360     7.6210    10.6920     2.2790 
  118.1250   -30.2640    76.5610    24.7280     7.9200     8.0440    10.8620     2.2240 
  118.2500   -30.3510    73.8520    24.7280     8.3910     8.1690    10.6640     2.1900 
  118.3750   -30.3730    71.9170    24.7280     8.7680     8.1260    10.3670     2.1810 
  118.5000   -30.3720    70.6240    24.7280     8.8430     8.0000    10.1040     2.1880 
  118.6250   -30.3410    70.1820    24.7310     8.5840     7.8110     9.9010     2.2020 
  118.7500   -30.2830    71.2580    24.7540     8.2580     7.5830     9.7330     2.2150 
  118.8750   -30.2300    73.9840    24.8170     7.9830     7.3370     9.5820     2.2260 
  119.0000   -30.2010    76.1030    24.9010     7.9270     7.0990     9.4310     2.2270 
  119.1250   -30.1650    75.3780    24.9500     8.1260     6.9110     9.2890     2.2190 
  119.2500   -30.0880    75.9390    24.9740     8.1860     6.8000     9.1930     2.2090 
  119.3750   -29.9750    79.5610    24.9800     7.9180     6.7970     9.2010     2.2060 
  119.5000   -29.8410    82.3750    24.9810     7.5620     6.9320     9.3840     2.2130 
  119.6250   -29.7240    81.8040    24.9810     7.7610     7.2160     9.8050     2.2180 
  119.7500   -29.6580    82.0280    24.9810     8.4170     7.5320    10.3000     2.2120 
  119.8750   -29.6160    83.6910    24.9810     9.0130     7.7330    10.5990     2.2010 
  120.0000   -29.5970    82.6030    24.9860     9.1830     7.6670    10.4230     2.2000 
  120.1250   -29.6190    79.9710    25.0190     8.8010     7.2430     9.6640     2.2210 
  120.2500   -29.6800    81.9090    25.0510     8.0580     6.6660     8.7420     2.2510 
  120.3750   -29.8050    86.8860    25.0230     7.3030     6.1480     8.0250     2.2740 
  120.5000   -29.9570    89.3820    24.8160     7.0100     5.8500     7.7270     2.2810 
  120.6250   -30.1460    87.9090    24.8540     7.5250     5.8840     7.9530     2.2680 
  120.7500   -30.3440    86.4250    24.7620     8.5260     6.1640     8.5090     2.2490 
  120.8750   -30.5840    83.5890    24.7010     9.3860     6.5760     9.1900     2.2330 
  121.0000   -30.8480    79.7450    24.6430     9.4630     6.9550     9.7280     2.2230 
  121.1250   -31.0860    79.0130    24.6210     8.7080     7.1150     9.8440     2.2190 
  121.2500   -31.2840    78.8850    24.6140     8.0900     7.0610     9.6340     2.2170 
  121.3750   -31.4090    76.1800    24.6230     7.7280     6.8790     9.2870     2.2110 
  121.5000   -31.4820    74.0250    24.6490     7.5340     6.6820     8.9810     2.1970 
  121.6250   -31.4850    76.1300    24.6930     7.4660     6.5730     8.8420     2.1820 
  121.7500   -31.4490    78.2250    24.7120     7.5380     6.5600     8.8540     2.1760 
  121.8750   -31.3620    77.6640    24.7170     7.7070     6.6320     8.9780     2.1800 
  122.0000   -31.2200    76.3580    24.7170     7.9230     6.7730     9.1760     2.1800 
  122.1250   -31.0730    75.1430    24.7170     8.1660     6.9890     9.4330     2.1680 
  122.2500   -30.9330    72.6770    24.7170     8.4500     7.2580     9.7210     2.1610 
  122.3750   -30.8020    71.3160    24.7170     8.8050     7.5570    10.0180     2.1700 
  122.5000   -30.6830    71.7990    24.7170     9.2450     7.8560    10.2920     2.1940 
  122.6250   -30.5760    73.6450    24.7170     9.6560     8.1160    10.4900     2.2190 
  122.7500   -30.4570    76.0580    24.7170     9.7360     8.3230    10.6210     2.2290 
  122.8750   -30.3110    77.8630    24.7170     9.5310     8.4790    10.7180     2.2230 
  123.0000   -30.1340    77.6110    24.7180     9.3380     8.5890    10.8000     2.2050 
  123.1250   -29.9540    74.4720    24.7250     9.2390     8.6080    10.7930     2.1870 
  123.2500   -29.7680    71.8020    24.7450     9.1630     8.4690    10.5720     2.1800 
  123.3750   -29.5910    69.7470    24.7890     8.9810     8.0980    10.0220     2.1850 
  123.5000   -29.4330    69.8190    24.8620     8.5400     7.4730     9.1350     2.2000 
  123.6250   -29.2940    75.6120    25.0260     7.6630     6.6620     8.0650     2.2210 
  123.7500   -29.2130    83.7840    25.3170     6.6840     5.8590     7.0940     2.2480 
  123.8750   -29.2140    89.2600    25.6890     5.9310     5.1910     6.3590     2.2780 
  124.0000   -29.2980    92.1480    25.9210     5.5310     4.7120     5.8830     2.3000 
  124.1250   -29.4310    94.4150    25.8750     5.4600     4.4360     5.6430     2.3040 
  124.2500   -29.6220    94.8830    25.8020     5.5960     4.2870     5.5350     2.2950 
  124.3750   -29.8850    93.6460    25.8020     5.7190     4.2210     5.5010     2.2840 
  124.5000   -30.2250    94.6720    25.8320     5.5830     4.2000     5.5030     2.2810 
  124.6250   -30.6420    97.8680    25.7950     5.3490     4.2020     5.5240     2.2840 
  124.7500   -31.0670    97.8310    25.6190     5.4150     4.2220     5.5660     2.2840 
  124.8750   -31.4790    94.4960    25.3330     5.8330     4.2690     5.6300     2.2770 
  125.0000   -31.8790    91.1030    25.0570     6.1880     4.3540     5.7200     2.2740 
  125.1250   -32.3280    90.1580    24.9410     6.3190     4.5180     5.8920     2.2780 
  125.2500   -32.7810    90.8850    24.8290     6.4130     4.7950     6.1990     2.2780 
  125.3750   -33.2250    93.1360    24.7010     6.6230     5.2230     6.7010     2.2670 
  125.5000   -33.6170    95.2560    24.6270     7.0660     5.8280     7.4500     2.2520 
  125.6250   -33.9590    92.7560    24.6120     8.0330     6.6220     8.4800     2.2460 
  125.7500   -34.3090    85.8740    24.6130     9.1530     7.4810     9.6060     2.2450 
  125.8750   -34.6740    80.4000    24.6130    10.0310     8.2520    10.5870     2.2380 
  126.0000   -35.0440    79.0170    24.6130    10.4030     8.8040    11.2180     2.2210 
  126.1250   -35.3750    77.8980    24.6130    10.3630     9.0620    11.4190     2.2060 
  126.2500   -35.6480    75.3750    24.6130    10.2880     9.1430    11.4110     2.2030 
  126.3750   -35.8530    73.4430    24.6130    10.3750     9.1540    11.3720     2.2120 
  126.5000   -36.0140    73.5980    24.6130    10.6730     9.1840    11.4220     2.2220 
  126.6250   -36.1520    74.8990    24.6130    10.9590     9.2840    11.6060     2.2270 
  126.7500   -36.2460    75.9160    24.6130    10.9850     9.4410    11.8600     2.2300 
  126.8750   -36.3000    75.4400    24.6130    10.8310     9.6310    12.1440     2.2320 
  127.0000   -36.3190    72.1370    24.6130    10.7750     9.8150    12.4230     2.2280 
  127.1250   -36.3010    70.1670    24.6130    10.9570     9.9310    12.6350     2.2200 
  127.2500   -36.2920    71.9210    24.6130    11.1660     9.9490    12.7210     2.2160 
  127.3750   -36.2830    74.7670    24.6130    11.1680     9.8670    12.6400     2.2140 
