~V
VERS. 2.00: Ver 2.00
~W
STRT.M 62.0000:
STOP.M 256.0000:
STEP.M 0.1250:
NULL. -999.2500:
UWI. DF32087:
~C
DEPT.M :
SP.MV :
GR.API :
RML.OHMM :
RI. :
RXO.OHMM :
CALI.CM :
DEN.GM/CC :
~A
# ...
  185.7500   -12.4800    54.0120     4.1150     3.1850     4.9210    24.0430     2.4880 
  185.8750   -12.2910    51.9030     4.3750     3.2370     4.9760    23.9440     2.4420 
  186.0000   -12.2090    49.1860     4.7930     3.4800     4.8040    23.8950     2.4050 
  186.1250   -12.1930    45.7650     5.2340     3.8220     4.6690    23.9290     2.3840 
  186.2500   -12.2330    43.2380     5.5830     4.1570     4.6760    23.9740     2.3740 
  186.3750   -12.2820    43.0030     5.7980     4.4300     4.7790    24.0180     2.3710 
  186.5000   -12.3610    43.8940     5.8950     4.6230     4.8780    24.1050     2.3720 
  186.6250   -12.3900    43.4740     5.9340     4.7450     4.9790    24.1770     2.3760 
  186.7500   -12.3890    41.5710     5.9800     4.8330     5.1360    24.2170     2.3810 
  186.8750   -12.3780    39.9930     6.0470     4.9040     5.3730    24.2350     2.3880 
  187.0000   -12.3430    40.7140     6.1330     4.9640     5.4770    24.2180     2.3930 
  187.1250   -12.3510    43.5810     6.2350     5.0230     5.4410    24.2070     2.3970 
  187.2500   -12.3770    45.9970     6.3560     5.0920     5.4360    24.1980     2.4020 
  187.3750   -12.4070    47.9160     6.5010     5.1790     5.4830    24.1970     2.4110 
  187.5000   -12.4650    52.0850     6.6750     5.2920     5.5560    24.1970     2.4260 
  187.6250   -12.4960    59.6060     6.8790     5.4380     5.5640    24.1980     2.4470 
  187.7500   -12.6480    66.1080     7.0920     5.6060     5.6220    24.2060     2.4680 
  187.8750   -12.7780    70.1100     7.2970     5.7780     5.7200    24.2420     2.4810 
  188.0000   -12.9780    75.2670     7.4750     5.9340     5.8670    24.3470     2.4840 
  188.1250   -13.0920    82.6950     7.6010     6.0440     6.1010    24.5340     2.4750 
  188.2500   -13.2890    86.0110     7.6680     6.0980     6.2750    24.7080     2.4620 
  188.3750   -13.5000    83.2370     7.6780     6.0940     6.3630    24.8150     2.4500 
  188.5000   -13.7530    78.1770     7.6350     6.0370     6.2730    24.8920     2.4420 
  188.6250   -14.1370    72.7570     7.5430     5.9310     6.2430    24.9680     2.4380 
  188.7500   -14.5220    69.9210     7.4140     5.7930     6.1970    25.0260     2.4350 
  188.8750   -15.0070    72.6030     7.2570     5.6350     6.1620    25.0460     2.4320 
  189.0000   -15.5350    77.6270     7.0950     5.4750     6.1090    25.0480     2.4260 
  189.1250   -16.2080    78.4830     6.9920     5.3600     5.9230    25.0440     2.4190 
  189.2500   -16.9050    78.5160     7.0270     5.3450     5.7730    25.0250     2.4130 
  189.3750   -17.6670    81.7510     7.2950     5.5020     5.9420    24.9960     2.4080 
  189.5000   -18.4530    85.1520     7.8780     5.9020     6.6720    24.9950     2.4030 
  189.6250   -19.2950    84.7600     8.8810     6.6490     7.7630    25.0200     2.3970 
  189.7500   -20.1460    83.3150    10.2020     7.6880     9.7060    25.0340     2.3900 
  189.8750   -21.0070    80.8450    11.7090     8.9440    12.1660    25.0370     2.3820 
  190.0000   -21.8580    76.1620    13.2090    10.2770    13.7340    25.0360     2.3730 
  190.1250   -22.7480    71.4560    14.4520    11.4860    14.6820    25.0210     2.3650 
  190.2500   -23.6130    70.7440    15.3760    12.4610    16.2980    24.9900     2.3570 
  190.3750   -24.5290    71.0130    16.0260    13.1870    16.2440    24.9600     2.3520 
  190.5000   -25.4350    68.6660    16.5160    13.7200    14.9810    24.9460     2.3490 
  190.6250   -26.3210    64.9660    16.9280    14.1080    14.3870    24.9430     2.3520 
  190.7500   -27.1870    63.8910    17.3080    14.4000    16.7950    24.9380     2.3610 
  190.8750   -28.0010    64.7350    17.5750    14.6060    18.9130    24.9180     2.3740 
  191.0000   -28.8290    65.1090    17.8390    14.8000    19.6480    24.8650     2.3870 
  191.1250   -29.4600    66.7650    18.5300    15.2950    17.9340    24.7950     2.3990 
  191.2500   -30.0030    69.2930    20.3850    16.7760    16.2560    24.7270     2.4100 
  191.3750   -30.2400    69.4600    24.9860    20.6540    17.8730    24.6350     2.4260 
  191.5000   -30.3670    65.8980    35.4880    29.1540    29.5140    24.3680     2.4460 
  191.6250   -30.4320    60.5610    57.1940    46.2240    54.9770    23.7920     2.4680 
  191.7500   -30.5220    57.5490    90.4760    71.6990   107.1620    23.4560     2.4800 
  191.8750   -30.6720    57.1730   132.4100   103.2820   181.9010    23.7720     2.4710 
  192.0000   -30.8060    57.7670   176.9270   135.2920   228.2960    24.4970     2.4360 
  192.1250   -31.0930    56.9070   209.5070   158.2330   226.0020    24.9930     2.3760 
  192.2500   -31.4500    54.7940   223.1670   168.8720   230.9900    25.2380     2.3100 
  192.3750   -32.0540    54.1060   221.6100   169.3070   217.9510    25.3030     2.2550 
  192.5000   -32.7590    54.8420   214.2160   164.6930   182.6640    25.3100     2.2210 
  192.6250   -33.4870    55.4570   208.2380   159.9650   167.0300    25.3160     2.2120 
  192.7500   -34.1750    56.1620   205.5070   157.4100   175.0240    25.3430     2.2140 
  192.8750   -34.7900    57.9690   205.6430   157.2280   191.6220    25.3910     2.2170 
  193.0000   -35.3290    60.7920   207.7940   158.9970   191.2330    25.4260     2.2140 
  193.1250   -35.8120    62.0370   211.0730   162.2240   186.3010    25.3840     2.2040 
  193.2500   -36.2260    61.7930   214.2140   165.8560   179.1520    25.3340     2.1940 
  193.3750   -36.6170    60.4570   216.3090   169.1110   176.4390    25.3140     2.1860 
  193.5000   -36.8910    57.7510   216.7750   171.3810   190.0760    25.3140     2.1840 
  193.6250   -37.0610    55.2410   215.4310   172.2880   210.7330    25.3120     2.1870 
  193.7500   -37.1990    55.3290   213.4690   172.5130   196.9030    25.3100     2.1930 
  193.8750   -37.2610    57.7140   212.2440   173.0030   167.2920    25.3170     2.2010 
  194.0000   -37.3250    59.6220   213.0690   174.8150   156.9800    25.3420     2.2090 
  194.1250   -37.1960    60.3860   217.1250   179.0210   163.2460    25.3670     2.2140 
  194.2500   -37.0440    62.3780   223.6030   185.1630   183.9150    25.3530     2.2130 
  194.3750   -36.6940    63.3740   231.4260   192.4580   207.1770    25.3280     2.2060 
  194.5000   -36.3660    61.2270   239.2110   199.7940   225.5580    25.3090     2.1970 
  194.6250   -35.9410    56.6470   245.3440   205.8030   237.7960    25.2920     2.1900 
  194.7500   -35.4570    55.0650   249.3440   210.0090   237.9270    25.2540     2.1870 
  194.8750   -34.9270    58.7640   251.2520   212.4040   230.9450    25.2080     2.1890 
  195.0000   -34.3520    62.5430   251.5210   213.3690   220.2050    25.1690     2.1950 
  195.1250   -33.8200    61.0200   250.8020   213.4440   214.3170    25.1780     2.2020 
  195.2500   -33.2510    56.4120   250.0710   213.4250   198.4410    25.2000     2.2070 
  195.3750   -32.7450    54.4310   249.7820   213.6850   195.9060    25.2020     2.2100 
  195.5000   -32.1670    56.4680   249.8910   214.2290   216.0740    25.1430     2.2090 
  195.6250   -31.6940    58.2810   249.7480   214.6270   235.1640    25.0010     2.2070 
  195.7500   -31.2030    57.8430   248.6920   214.3950   238.0510    24.8720     2.2040 
  195.8750   -30.7760    54.6440   246.4970   213.3250   228.9080    24.8370     2.2020 
  196.0000   -30.3480    51.2540   243.4340   211.5560   217.5200    24.8530     2.2020 
  196.1250   -29.9640    50.7860   239.9660   209.4070   213.5420    24.9120     2.2020 
  196.2500   -29.6100    52.6920   236.1140   206.9930   213.3050    25.0140     2.2030 
  196.3750   -29.3150    56.3620   231.1340   203.8140   217.6570    25.0940     2.2070 
  196.5000   -29.0420    59.6900   224.2700   199.2410   231.6280    25.1250     2.2140 
  196.6250   -28.7600    60.6030   215.5330   193.1290   254.5580    25.1250     2.2210 
  196.7500   -28.4200    60.0480   206.7380   186.8880   253.0660    25.1250     2.2250 
  196.8750   -28.0840    59.7960   198.9270   181.8700   211.1000    25.1250     2.2250 
