~V
VERS. 2.00: Ver 2.00
~W
STRT.M 50.0000:
STOP.M 264.0000:
STEP.M 0.1250:
NULL. -999.2500:
UWI. DF32158:
~C
DEPT.M :
GR.API :
RML.OHMM :
RI. :
RXO.OHMM :
CALI.CM :
DEN.GM/CC :
SP.MV :
~A
# ...
  207.5000    50.9680     9.8200     8.1050     8.3040    23.6870     2.4320   -11.9580 
  207.6250    52.7610     9.8870     8.0840     8.3850    23.6470     2.4270   -12.1530 
  207.7500    54.4430     9.9770     8.0800     8.9210    23.6310     2.4230   -12.3480 
  207.8750    55.8200    10.1170     8.1140     9.0910    23.6340     2.4180   -12.5600 
  208.0000    57.9260    10.3070     8.1910     9.2580    23.6440     2.4110   -12.7950 
  208.1250    61.0390    10.5310     8.3090     9.2100    23.7150     2.4030   -13.1060 
  208.2500    65.5470    10.7600     8.4460     9.0200    23.9800     2.3980   -13.4290 
  208.3750    72.4990    10.9980     8.5970     8.7400    24.4910     2.3960   -13.8110 
  208.5000    82.5370    11.2830     8.7870     8.8540    24.9900     2.4000   -14.2940 
  208.6250    93.1670    11.7310     9.0900     9.2530    25.0870     2.4090   -14.7980 
  208.7500   101.1180    12.4100     9.5540     9.7170    24.9300     2.4170   -15.3610 
  208.8750   105.5840    13.3210    10.1950    10.3620    24.7890     2.4190   -16.0160 
  209.0000   105.6270    14.3440    10.9520    11.7790    24.8290     2.4150   -16.6800 
  209.1250   102.4010    15.1830    11.6430    13.2280    25.0350     2.4060   -17.3300 
  209.2500   100.3800    15.5950    12.0750    14.7730    25.1690     2.3990   -17.9770 
  209.3750   102.5820    15.5160    12.1590    14.7450    25.1470     2.3960   -18.5320 
  209.5000   107.0520    15.1040    11.9560    13.3930    25.0310     2.3980   -18.9880 
  209.6250   108.0320    14.6910    11.6620    12.2210    25.0380     2.4020   -19.3530 
  209.7500   104.1960    14.5560    11.4990    12.4490    25.1270     2.4050   -19.6370 
  209.8750    99.2180    14.7830    11.5590    13.2400    25.1850     2.4050   -19.8360 
  210.0000    98.2430    15.3020    11.8350    14.1850    25.1450     2.4000   -19.9480 
  210.1250   100.3510    15.8860    12.2170    14.5140    25.0540     2.3900   -19.9750 
  210.2500   101.3730    16.2190    12.4890    14.7160    24.9970     2.3810   -19.9570 
  210.3750   100.1870    16.0930    12.4900    14.6620    24.8960     2.3760   -19.8750 
  210.5000   100.4430    15.4630    12.1490    14.1810    24.6590     2.3770   -19.6850 
  210.6250   104.8980    14.4750    11.5190    13.1130    24.1410     2.3870   -19.3880 
  210.7500   109.2720    13.5460    10.8710    12.2070    23.6200     2.3990   -18.9880 
  210.8750   109.0880    13.0020    10.4310    11.0350    23.3760     2.4110   -18.4790 
  211.0000   103.7920    13.0570    10.3760     9.8370    23.6030     2.4180   -17.9040 
  211.1250    98.0050    13.8200    10.8480     9.9730    24.0690     2.4180   -17.2600 
  211.2500    98.3120    14.8870    11.6410    11.6060    24.5260     2.4120   -16.6100 
  211.3750   103.7760    15.7180    12.4040    13.7860    24.6900     2.4050   -16.0020 
  211.5000   108.8820    15.7160    12.6540    15.4130    24.3320     2.4000   -15.3890 
  211.6250   106.2140    14.4830    11.9600    13.6080    23.6490     2.3950   -14.7920 
  211.7500    96.1180    12.6750    10.7080    11.4490    23.1970     2.3870   -14.2100 
  211.8750    83.3660    10.9460     9.3740     9.0950    23.2450     2.3740   -13.5850 
  212.0000    71.5460     9.7270     8.3210     7.5650    23.7130     2.3610   -12.9910 
  212.1250    63.1770     9.2080     7.7580     7.1260    24.1090     2.3560   -12.4930 
  212.2500    57.4160     9.1280     7.5670     7.0390    24.0760     2.3640   -11.9800 
  212.3750    54.4180     9.2780     7.6270     6.9180    23.7760     2.3790   -11.4890 
  212.5000    55.1340     9.4730     7.8030     6.6710    23.2800     2.3970   -11.1100 
  212.6250    56.7930     9.5880     7.9800     6.6620    22.8800     2.4080   -10.7970 
  212.7500    55.9370     9.6140     8.1060     6.9280    22.6210     2.4120   -10.5710 
  212.8750    54.4300     9.5850     8.1840     7.2000    22.5090     2.4130   -10.4590 
  213.0000    55.7810     9.5300     8.2320     7.2880    22.4080     2.4110   -10.3800 
  213.1250    59.8250     9.4660     8.2570     7.1920    22.1830     2.4080   -10.2940 
  213.2500    64.9480     9.4040     8.2610     7.0210    21.8980     2.4030   -10.2170 
  213.3750    74.2700     9.3510     8.2460     6.9280    21.5810     2.3970   -10.1650 
  213.5000    87.5260     9.3040     8.2130     7.0270    21.3950     2.3900   -10.0880 
  213.6250    95.6040     9.2560     8.1650     7.0360    21.7360     2.3880   -10.0350 
  213.7500    95.4050     9.2000     8.1100     6.9290    22.7460     2.3920   -10.0240 
  213.8750    92.7080     9.1340     8.0480     7.0770    24.0770     2.3990   -10.0250 
  214.0000    93.8260     9.0460     7.9710     7.3450    24.8460     2.4070   -10.0490 
  214.1250    97.6010     8.9110     7.8610     7.4920    25.0260     2.4100   -10.1120 
  214.2500    99.4360     8.7590     7.7400     7.5800    25.0200     2.4080   -10.2450 
  214.3750    97.8350     8.6850     7.6790     7.6250    25.0230     2.4010   -10.3910 
  214.5000    94.6570     8.8500     7.7930     7.6880    25.0210     2.3880   -10.5820 
  214.6250    94.0760     9.4760     8.2610     7.9200    24.9850     2.3700   -10.8640 
  214.7500    95.9570    10.5050     9.0750     8.6540    24.8760     2.3510   -11.1520 
  214.8750    95.3300    11.7460    10.1310    10.0300    24.6560     2.3370   -11.4650 
  215.0000    91.1510    12.8400    11.1640    12.8910    24.3850     2.3330   -11.8180 
  215.1250    89.9970    13.2660    11.7070    13.8780    24.3240     2.3420   -12.1330 
  215.2500    93.9330    12.9890    11.6300    13.7430    24.4890     2.3600   -12.4210 
  215.3750    97.3070    12.2700    11.0990    11.6290    24.7760     2.3770   -12.7050 
  215.5000    96.1850    11.5350    10.4640    10.3030    25.0000     2.3890   -12.9630 
  215.6250    94.2310    11.3140    10.1620    10.7130    25.1090     2.3900   -13.2060 
  215.7500    94.1110    11.8990    10.4600    11.7970    25.1560     2.3870   -13.4380 
  215.8750    92.3420    13.5630    11.6090    13.2050    25.1990     2.3850   -13.6820 
  216.0000    86.5130    15.4850    12.3390    15.6890    25.2340     2.3840   -13.9400 
  216.1250    79.0670    19.4780    15.3340    20.7780    25.2540     2.3800   -14.2140 
  216.2500    74.2750    24.5590    19.3690    32.3540    25.2630     2.3700   -14.4930 
  216.3750    73.9970    30.2080    24.3160    48.4580    25.2680     2.3540   -14.7980 
  216.5000    76.2400    35.6040    29.6830    55.5130    25.2690     2.3330   -15.1080 
  216.6250    77.2760    39.8770    34.6650    51.0870    25.2490     2.3120   -15.3990 
  216.7500    75.8380    43.3630    39.0270    50.9190    25.2170     2.2900   -15.6950 
  216.8750    73.4760    46.8710    43.1630    59.6950    25.1920     2.2670   -15.9490 
  217.0000    72.6810    51.2060    47.6870    68.8130    25.1410     2.2450   -16.1750 
  217.1250    73.0150    56.9110    53.0870    75.6660    25.0780     2.2300   -16.4000 
  217.2500    73.2040    63.5180    59.1100    76.0960    25.0080     2.2250   -16.5880 
  217.3750    73.7050    70.5940    65.4850    78.3760    24.9390     2.2310   -16.7720 
  217.5000    74.3450    77.8500    72.0800    92.4940    24.8770     2.2450   -16.9390 
  217.6250    73.6250    84.7730    78.6270   105.2550    24.8270     2.2590   -17.0230 
  217.7500    71.0260    89.9610    84.0170   108.3620    24.8350     2.2640   -17.0900 
  217.8750    68.5480    91.1170    86.2690   107.3700    24.8940     2.2600   -17.1700 
  218.0000    68.9040    86.3230    83.4620   109.2910    24.9660     2.2510   -17.1750 
  218.1250    73.5870    75.5350    74.8030    95.6920    24.9920     2.2450   -17.1390 
  218.2500    78.7840    63.2370    63.9080    76.7410    24.9640     2.2440   -17.1070 
  218.3750    80.4380    56.9800    53.7140    59.6460    24.8650     2.2410   -16.9860 
  218.5000    78.5770    50.4090    46.0300    46.2220    24.7310     2.2290   -16.8600 
  218.6250    76.9240    46.7890    42.0250    39.4110    24.6700     2.2120   -16.7580 
