~V
VERS. 2.00: Ver 2.00
~W
STRT.M 60.0000:
STOP.M 276.0000:
STEP.M 0.1250:
NULL. -999.2500:
UWI. DF32145:
~C
DEPT.M :
SP.MV :
GR.API :
CALI.CM :
RXO.OHMM :
RI. :
RML.OHMM :
DEN.GM/CC :
~A
# ...
  116.2500   -33.1810    76.6940    23.2590     8.7740     6.2710     8.7610     2.0770 
  116.3750   -33.4040    71.7320    23.2680     9.0740     6.3700     8.9010     2.0730 
  116.5000   -33.5930    69.0020    23.2750     9.1110     6.4830     9.0140     2.0600 
  116.6250   -33.6900    68.6240    23.2770     9.0630     6.5770     9.0910     2.0520 
  116.7500   -33.7270    69.1130    23.2770     9.1480     6.6240     9.1380     2.0590 
  116.8750   -33.6720    70.2570    23.2770     9.4100     6.6290     9.1510     2.0840 
  117.0000   -33.5130    72.1000    23.2770     9.7620     6.6150     9.1220     2.1210 
  117.1250   -33.2390    73.5250    23.2770     9.9410     6.6070     9.0490     2.1570 
  117.2500   -32.9190    72.8620    23.2680     9.6750     6.6090     8.9530     2.1820 
  117.3750   -32.5620    70.0320    23.2400     9.1850     6.6190     8.8670     2.1920 
  117.5000   -32.2020    67.7410    23.1920     8.8860     6.6340     8.8200     2.1920 
  117.6250   -31.8680    69.0750    23.1690     8.8760     6.6620     8.8460     2.1830 
  117.7500   -31.5310    72.4910    23.1620     8.9710     6.7080     8.9330     2.1670 
  117.8750   -31.1440    76.4070    23.1620     9.0780     6.7650     9.0430     2.1500 
  118.0000   -30.6890    80.5870    23.1620     9.1580     6.7940     9.1090     2.1400 
  118.1250   -30.1100    82.6940    23.1620     9.0450     6.7180     9.0070     2.1430 
  118.2500   -29.4080    81.9690    23.1620     8.6140     6.5040     8.6830     2.1550 
  118.3750   -28.6060    80.6720    23.1580     7.8030     6.1430     8.1330     2.1790 
  118.5000   -27.7120    82.1810    23.1450     6.7590     5.6690     7.4250     2.2150 
  118.6250   -26.7790    86.9310    23.1250     5.8120     5.1540     6.6840     2.2610 
  118.7500   -25.8490    94.2940    23.1650     5.2120     4.6800     6.0320     2.3050 
  118.8750   -25.0100   101.8160    23.3080     4.8780     4.2810     5.5120     2.3350 
  119.0000   -24.2660   106.6790    23.5220     4.7320     3.9780     5.1310     2.3450 
  119.1250   -23.6560   107.9150    23.7380     4.7850     3.8210     4.9300     2.3400 
  119.2500   -23.1530   108.4170    23.8950     4.8870     3.8100     4.9200     2.3390 
  119.3750   -22.8050   108.5550    23.9620     4.9800     3.9430     5.1190     2.3490 
  119.5000   -22.6010   106.8480    23.9740     5.2200     4.1930     5.5170     2.3690 
  119.6250   -22.5680   104.1200    23.9770     5.9080     4.5140     6.0660     2.3910 
  119.7500   -22.6650   102.9180    23.9730     6.6090     4.8290     6.6080     2.3970 
  119.8750   -22.8700   103.1540    23.9490     6.7350     5.0800     7.0020     2.3730 
  120.0000   -23.1680   105.1930    23.8930     6.4110     5.2290     7.1810     2.3260 
  120.1250   -23.5290   105.5350    23.8500     6.6060     5.2640     7.1720     2.2810 
  120.2500   -23.9180   100.6170    23.8410     7.2530     5.2360     7.0940     2.2540 
  120.3750   -24.2430    93.0030    23.8570     7.5300     5.1730     6.9950     2.2410 
  120.5000   -24.5040    89.5780    23.8710     7.0170     5.0940     6.8870     2.2330 
  120.6250   -24.6680    91.8200    23.8750     6.2640     5.0030     6.7640     2.2200 
  120.7500   -24.7570    93.8370    23.8750     5.9800     4.9100     6.6360     2.2060 
  120.8750   -24.7490    93.8960    23.8750     5.8150     4.8250     6.5360     2.2000 
  121.0000   -24.6560    91.6820    23.8750     5.6670     4.7550     6.4680     2.2070 
  121.1250   -24.5100    87.6340    23.8750     5.6780     4.6880     6.3860     2.2220 
  121.2500   -24.3050    85.9280    23.8750     5.7880     4.6210     6.2660     2.2290 
  121.3750   -24.0780    89.3990    23.8750     5.7550     4.5650     6.1430     2.2250 
  121.5000   -23.8690    96.4430    23.8750     5.4040     4.5340     6.0720     2.2190 
  121.6250   -23.6510   101.3260    23.8740     5.1040     4.5310     6.0850     2.2240 
  121.7500   -23.4610   103.4040    23.8660     5.1270     4.5460     6.1510     2.2390 
  121.8750   -23.3070   103.6240    23.8480     5.4450     4.5670     6.2230     2.2540 
  122.0000   -23.2110   102.6070    23.8340     5.5660     4.5790     6.2580     2.2650 
  122.1250   -23.1340   102.0370    23.8290     5.2950     4.5650     6.2470     2.2690 
  122.2500   -23.0760   101.4430    23.8290     5.2230     4.5340     6.2310     2.2640 
  122.3750   -23.0320    99.8040    23.8320     5.4970     4.5010     6.2200     2.2510 
  122.5000   -22.9420    97.7150    23.8550     5.8000     4.4800     6.2010     2.2340 
  122.6250   -22.8220    98.3890    23.9530     5.7560     4.4670     6.1540     2.2210 
  122.7500   -22.6340    99.8580    24.1080     5.5180     4.4430     6.0870     2.2140 
  122.8750   -22.4190    97.6390    24.2250     5.2690     4.4040     6.0380     2.2130 
  123.0000   -22.1980    93.8430    24.2660     5.1210     4.3730     6.0570     2.2230 
  123.1250   -22.0480    95.4860    24.2660     5.3850     4.3780     6.1640     2.2450 
  123.2500   -21.9630    98.2790    24.2660     5.9090     4.4070     6.2620     2.2720 
  123.3750   -21.9460    96.4110    24.2660     6.1840     4.4220     6.2580     2.2960 
  123.5000   -22.0150    91.4570    24.2560     5.9060     4.3920     6.1220     2.3140 
  123.6250   -22.1830    90.0630    24.2090     5.3810     4.3220     5.9250     2.3190 
  123.7500   -22.4110    92.8350    24.1320     5.1360     4.2660     5.8020     2.3080 
  123.8750   -22.6360    95.6260    24.0800     5.1640     4.2680     5.8320     2.2870 
  124.0000   -22.8380    96.6820    24.0550     5.4160     4.3500     6.0270     2.2650 
  124.1250   -22.9650    96.5210    24.0150     5.6950     4.4880     6.3270     2.2500 
  124.2500   -23.0180    94.8630    23.9560     5.8440     4.6130     6.5860     2.2390 
  124.3750   -22.9800    91.3510    23.9300     5.8740     4.6760     6.7170     2.2350 
  124.5000   -22.8510    86.9000    23.9480     5.7500     4.6720     6.7100     2.2360 
  124.6250   -22.6620    85.4200    23.9690     5.5000     4.6240     6.6310     2.2400 
  124.7500   -22.4510    89.5120    23.9780     5.3940     4.5680     6.5530     2.2370 
  124.8750   -22.2450    95.0370    23.9790     5.4630     4.5000     6.4520     2.2270 
  125.0000   -22.0390    96.8970    23.9790     5.5790     4.3980     6.2590     2.2190 
  125.1250   -21.8790    94.5500    23.9790     5.5210     4.2530     5.9310     2.2230 
  125.2500   -21.7920    93.2770    23.9790     5.2600     4.1160     5.5910     2.2350 
  125.3750   -21.8240    94.7160    23.9790     4.9270     4.0430     5.3840     2.2440 
  125.5000   -21.9720    97.5140    23.9680     4.7910     4.0840     5.4230     2.2400 
  125.6250   -22.2130   100.1880    23.9370     5.2290     4.2690     5.7760     2.2210 
  125.7500   -22.5030    99.3020    23.8960     5.9790     4.5210     6.2890     2.1970 
  125.8750   -22.7610    92.8180    23.8780     6.5040     4.7470     6.7550     2.1820 
  126.0000   -22.9420    86.4680    23.8750     6.3710     4.8540     6.9550     2.1870 
  126.1250   -23.0120    87.7010    23.8750     5.7720     4.7720     6.7570     2.2090 
  126.2500   -23.0430    93.0260    23.8750     5.2940     4.5780     6.3640     2.2280 
  126.3750   -23.0410    95.9390    23.8750     5.0850     4.3480     5.9540     2.2370 
  126.5000   -23.0280    95.6220    23.8740     5.0100     4.1370     5.6270     2.2480 
  126.6250   -23.0080    96.7850    23.8200     4.9210     3.9660     5.4000     2.2730 
  126.7500   -22.9880    98.3190    23.6420     4.7660     3.8210     5.2220     2.2980 
  126.8750   -23.0600    97.3590    23.3540     4.5910     3.7010     5.0750     2.3100 
  127.0000   -23.2710    95.8710    23.1400     4.5350     3.6250     4.9820     2.3050 
  127.1250   -23.6630    94.9550    23.0590     4.8020     3.6570     5.0410     2.2780 
  127.2500   -24.1530    91.4370    23.0100     5.3060     3.8490     5.3390     2.2370 
  127.3750   -24.6880    84.8690    22.9580     5.9210     4.2490     5.9640     2.2010 
