~V
VERS. 2.00: Ver 2.00
~W
STRT.M 60.0000:
STOP.M 270.0000:
STEP.M 0.1250:
NULL. -999.2500:
UWI. DF32131:
~C
DEPT.M :
DEN.GM/CC :
GR.API :
CALI.CM :
RXO.OHMM :
RI. :
RML.OHMM :
SP.MV :
~A
# ...
  206.2500     2.2360    74.0290    24.3970    70.8850    80.6780    91.9080   -20.8460 
  206.3750     2.2270    72.6450    24.7090    77.7430    88.0400    99.8890   -21.1230 
  206.5000     2.2250    72.5240    24.8230    86.7240    97.6260   110.3510   -21.3890 
  206.6250     2.2300    71.4330    24.8230   103.5470   109.9510   124.0530   -21.7300 
  206.7500     2.2310    69.6470    24.8230   123.6710   124.1100   140.2070   -22.0600 
  206.8750     2.2260    68.2910    24.8160   141.0440   138.9420   157.5930   -22.4070 
  207.0000     2.2170    67.1850    24.7850   154.0250   152.9670   174.2550   -22.7490 
  207.1250     2.2090    65.5890    24.6680   159.0760   164.1580   187.1770   -23.1150 
  207.2500     2.2040    64.4930    24.4740   150.8700   171.7500   195.1770   -23.4570 
  207.3750     2.2020    64.2840    24.2300   138.1600   175.2950   197.9110   -23.7840 
  207.5000     2.2060    65.6020    23.9740   136.8160   174.8380   195.8120   -24.0480 
  207.6250     2.2120    68.7730    23.7930   141.0610   170.5630   189.5230   -24.2510 
  207.7500     2.2100    69.9860    23.6910   133.8180   164.6080   181.7820   -24.4170 
  207.8750     2.2010    67.5880    23.5840   117.9820   159.0250   174.9190   -24.5700 
  208.0000     2.1910    64.8020    23.4310   105.1930   155.7890   170.9520   -24.7190 
  208.1250     2.1880    65.8570    23.3600    98.1900   157.1730   172.1520   -24.8200 
  208.2500     2.1900    68.6600    23.3390    96.4830   163.4340   178.5950   -24.9180 
  208.3750     2.1920    70.3640    23.3390   100.1680   174.5080   190.1720   -24.9830 
  208.5000     2.1960    72.1510    23.3400   107.1150   189.3010   205.6960   -25.0550 
  208.6250     2.2030    74.9810    23.3750   116.9210   205.9110   222.9350   -25.0930 
  208.7500     2.2080    76.9620    23.4810   127.1870   221.8610   239.1000   -25.1620 
  208.8750     2.2060    75.1410    23.6720   131.0870   235.4220   252.3780   -25.2070 
  209.0000     2.1950    69.3710    23.9340   129.0890   244.4850   260.4950   -25.2130 
  209.1250     2.1740    63.7710    24.1260   125.3410   244.5430   258.0500   -25.2030 
  209.2500     2.1520    61.0090    24.1410   120.1500   234.4760   243.9700   -25.1520 
  209.3750     2.1390    62.4250    23.9930   112.8740   215.3480   220.6740   -25.1160 
  209.5000     2.1420    67.1560    23.7670   106.8380   191.5300   194.2430   -25.0550 
  209.6250     2.1630    71.4140    23.5530    96.8080   169.4110   171.7190   -25.0400 
  209.7500     2.1940    71.7730    23.4150    85.7920   152.9100   155.7640   -24.9480 
  209.8750     2.2250    68.6630    23.4230    83.5930   143.3100   146.9020   -24.8570 
  210.0000     2.2430    66.8370    23.5870    94.3550   140.4310   144.6570   -24.7620 
  210.1250     2.2370    67.2380    23.8060   107.7100   143.8410   148.6410   -24.6770 
  210.2500     2.2190    65.8170    24.0310   107.6590   150.4550   155.9080   -24.5670 
  210.3750     2.2010    62.2460    24.1240    91.3130   157.8950   164.0090   -24.4300 
  210.5000     2.1920    59.3230    23.9990    72.8130   163.9090   170.4560   -24.2370 
  210.6250     2.1950    60.1430    23.6500    69.4670   166.2740   172.7950   -23.9520 
  210.7500     2.1970    63.5710    23.2590    70.9920   164.9100   171.1210   -23.6670 
  210.8750     2.1920    68.1190    22.8260    65.8650   160.1380   165.9850   -23.3270 
  211.0000     2.1780    70.8860    22.4050    55.9280   152.8590   158.5180   -22.9140 
  211.1250     2.1650    70.4510    22.1610    49.8250   144.4490   150.2390   -22.4390 
  211.2500     2.1640    69.5120    22.0850    47.6990   136.5960   142.6670   -21.9470 
  211.3750     2.1720    69.1860    22.0720    47.7010   130.1320   136.4780   -21.4360 
  211.5000     2.1830    67.8930    22.0730    48.1900   125.3070   131.8860   -20.9190 
  211.6250     2.1870    66.9810    22.1380    48.4930   122.2490   129.0880   -20.3850 
  211.7500     2.1810    67.5810    22.3380    50.2980   120.4560   127.6280   -19.8000 
  211.8750     2.1710    67.3830    22.7100    55.1730   119.5440   127.1090   -19.2090 
  212.0000     2.1610    65.5440    23.1320    63.1750   118.8740   126.7960   -18.7350 
  212.1250     2.1600    64.8370    23.6420    77.8100   117.4860   125.5400   -18.2940 
  212.2500     2.1700    66.6130    24.1760    95.4740   114.9560   122.8770   -17.9120 
  212.3750     2.1880    68.4770    24.7450   105.8450   111.3600   118.9280   -17.5520 
  212.5000     2.2070    69.2920    25.1100   103.3320   107.0940   114.2160   -17.2470 
  212.6250     2.2150    69.7800    25.2140    94.2500   102.7000   109.4000   -17.0100 
  212.7500     2.2140    69.2680    25.2250    87.6810    98.5910   104.9280   -16.8200 
  212.8750     2.2160    67.9520    25.2250    83.6370    94.8880   100.8960   -16.6570 
  213.0000     2.2320    67.7490    25.2260    78.8270    91.6240    97.2910   -16.4360 
  213.1250     2.2590    68.6460    25.2280    73.3200    88.9940    94.2950   -16.2100 
  213.2500     2.2740    68.4510    25.2290    70.2880    87.0430    91.9930   -15.9870 
  213.3750     2.2650    68.5270    25.2270    71.3650    85.7090    90.3680   -15.7830 
  213.5000     2.2430    69.8670    25.2250    76.0940    84.6170    89.0410   -15.5880 
  213.6250     2.2260    70.0350    25.2250    82.7570    82.9920    87.1310   -15.3890 
  213.7500     2.2180    69.2910    25.2250    86.2650    80.3230    84.0400   -15.2000 
  213.8750     2.2130    70.1020    25.2250    82.4370    76.5280    79.6980   -15.0340 
  214.0000     2.2090    72.5570    25.2250    72.4820    71.9850    74.5680   -14.8920 
  214.1250     2.2080    73.3370    25.2250    65.2760    67.4610    69.5240   -14.7920 
  214.2500     2.2090    72.0310    25.2250    68.6750    63.6580    65.3270   -14.6940 
  214.3750     2.2090    70.2810    25.2250    80.1970    60.9580    62.3800   -14.6060 
  214.5000     2.2070    68.8230    25.2250    80.6800    59.4660    60.8130   -14.5450 
  214.6250     2.2000    67.1550    25.2250    67.5310    59.1380    60.6050   -14.4990 
  214.7500     2.1900    65.0890    25.2240    58.2350    59.2830    60.9710   -14.4960 
  214.8750     2.1810    64.2170    25.2130    60.2520    59.2930    61.2250   -14.4740 
  215.0000     2.1770    66.0510    25.1820    63.8070    58.7410    60.8500   -14.4900 
  215.1250     2.1850    68.2670    25.1350    60.9140    57.4940    59.6790   -14.5230 
  215.2500     2.2010    67.6930    25.1150    53.7450    56.0510    58.3000   -14.5440 
  215.3750     2.2160    65.7720    25.1100    47.9480    54.9950    57.3800   -14.5930 
  215.5000     2.2190    64.9440    25.1030    47.9390    54.8420    57.5230   -14.6300 
  215.6250     2.2080    66.9910    25.0790    52.6760    56.0170    59.2600   -14.6570 
  215.7500     2.1960    69.1430    25.0440    58.0070    58.1050    62.1280   -14.7490 
  215.8750     2.1910    69.3890    25.0230    61.3850    60.5560    65.4840   -14.9140 
  216.0000     2.1910    67.7160    25.0170    62.4940    62.6840    68.4470   -15.1300 
  216.1250     2.1930    65.1030    24.9980    61.8930    63.6930    69.9700   -15.3150 
  216.2500     2.1980    63.0630    24.9350    61.5910    63.5600    70.0450   -15.5360 
  216.3750     2.2030    62.2140    24.8010    62.3710    62.5660    69.0520   -15.7340 
  216.5000     2.2060    62.9380    24.6020    61.6210    61.1630    67.5740   -15.9230 
  216.6250     2.2040    64.3020    24.4090    58.4870    59.7760    66.2010   -16.0850 
  216.7500     2.2000    64.9020    24.3340    56.0970    58.5880    65.1860   -16.1310 
  216.8750     2.1980    65.7150    24.3560    57.1710    57.5370    64.4270   -16.1080 
  217.0000     2.2010    66.1710    24.4710    59.0560    56.4540    63.6260   -15.9840 
  217.1250     2.2100    66.3420    24.6610    58.3460    55.2360    62.5130   -15.8120 
  217.2500     2.2190    66.9550    24.6300    53.9190    54.1000    61.3200   -15.5780 
  217.3750     2.2210    68.0690    24.3110    48.1850    53.4580    60.5960   -15.2900 
