~V
VERS. 2.00: Ver 2.00
~W
STRT.M 60.0000:
STOP.M 264.0000:
STEP.M 0.1250:
NULL. -999.2500:
UWI. DF32130:
~C
DEPT.M :
SP.MV :
GR.API :
CALI.CM :
RXO.OHMM :
RI. :
RML.OHMM :
DEN.GM/CC :
~A
# ...
  217.5000    -5.8320    58.3070    24.9740     5.9210     5.5610     6.2560     2.3260 
  217.6250    -5.9230    60.8050    24.8290     5.7790     5.4890     6.3590     2.3360 
  217.7500    -6.0690    61.9650    24.4600     5.4360     5.3810     6.3340     2.3460 
  217.8750    -6.2620    60.1970    24.1390     5.0740     5.1340     6.0670     2.3480 
  218.0000    -6.4050    59.8250    23.8080     4.9280     4.8030     5.6320     2.3440 
  218.1250    -6.4860    65.5080    23.5950     4.8420     4.5450     5.2380     2.3380 
  218.2500    -6.4510    72.9170    23.5010     4.7830     4.4490     5.0600     2.3400 
  218.3750    -6.3200    80.7940    23.4500     4.9620     4.5410     5.1750     2.3580 
  218.5000    -6.0330    90.5810    23.4200     5.6520     4.8170     5.5670     2.3820 
  218.6250    -5.5680   101.2530    23.6110     6.5710     5.2570     6.1240     2.3990 
  218.7500    -5.0450   105.9480    23.9790     7.1610     5.7370     6.6510     2.4080 
  218.8750    -4.4900   105.1360    24.2390     7.3040     6.1210     7.0410     2.4130 
  219.0000    -4.0080   101.9880    24.3230     7.2470     6.3100     7.2650     2.4220 
  219.1250    -3.5610   100.0980    24.3230     7.2400     6.2960     7.3540     2.4340 
  219.2500    -3.1990   101.2090    24.3230     7.2690     6.2220     7.3900     2.4410 
  219.3750    -2.9110   104.6670    24.3230     7.3040     6.1720     7.4070     2.4350 
  219.5000    -2.7080   107.8010    24.3230     7.3610     6.1630     7.4210     2.4230 
  219.6250    -2.6890   109.8370    24.3230     7.4950     6.1840     7.4620     2.4110 
  219.7500    -2.7050   114.2570    24.3230     7.6210     6.2390     7.5520     2.4070 
  219.8750    -2.8180   119.2940    24.3190     7.7070     6.3570     7.6840     2.4180 
  220.0000    -2.9160   119.2120    24.3000     7.7920     6.5450     7.8330     2.4330 
  220.1250    -2.9810   114.3380    24.2510     7.8930     6.7460     7.9680     2.4420 
  220.2500    -3.0710   111.8110    24.2050     8.0360     6.8830     8.0760     2.4390 
  220.3750    -3.1290   113.8370    24.1830     8.0730     6.9370     8.1650     2.4250 
  220.5000    -3.2270   117.2350    24.1640     7.8010     6.9420     8.2460     2.4130 
  220.6250    -3.2960   117.7910    24.0870     7.4400     6.9390     8.3030     2.4090 
  220.7500    -3.3890   116.0460    23.9530     7.2960     6.9290     8.3200     2.4190 
  220.8750    -3.4360   113.3520    23.8100     7.3180     6.8840     8.3000     2.4320 
  221.0000    -3.5200   109.8300    23.7360     7.2020     6.7880     8.2520     2.4370 
  221.1250    -3.6190   106.5740    23.7250     6.7630     6.6590     8.1970     2.4300 
  221.2500    -3.7090   105.0420    23.7240     6.4130     6.5350     8.1330     2.4140 
  221.3750    -3.8220   105.5790    23.7220     6.3050     6.4140     8.0310     2.4020 
  221.5000    -3.9160   108.4250    23.7170     6.4380     6.2790     7.8650     2.3990 
  221.6250    -4.0110   112.5550    23.7170     6.7380     6.1610     7.6920     2.4010 
  221.7500    -4.0720   114.8210    23.7470     7.0790     6.1840     7.7020     2.4040 
  221.8750    -4.2010   114.6370    23.8440     7.4860     6.5450     8.1560     2.4110 
  222.0000    -4.3250   113.5210    24.0020     8.4310     7.5290     9.3870     2.4300 
  222.1250    -4.4740   109.2040    24.0870    12.2910     9.9050    12.1900     2.4590 
  222.2500    -4.6270    99.0820    24.1140    23.4400    14.4490    17.2620     2.4810 
  222.3750    -4.7980    87.0740    24.1160    46.4470    22.3830    25.8600     2.4780 
  222.5000    -5.0390    78.8720    24.1160    75.6820    34.7630    39.3800     2.4490 
  222.6250    -5.3220    74.2850    24.1220    91.8760    51.3940    58.3060     2.4000 
  222.7500    -5.6850    71.0950    24.1650    91.2070    68.0630    77.4580     2.3410 
  222.8750    -6.0250    70.4690    24.2710    92.4180    82.0550    92.5690     2.2880 
  223.0000    -6.3440    71.4840    24.3910   105.9530    93.7580   104.2210     2.2510 
  223.1250    -6.6950    70.5800    24.4750   127.0270   105.3530   116.3870     2.2260 
  223.2500    -7.0270    67.8000    24.5020   144.4560   117.6700   130.6710     2.2110 
  223.3750    -7.3870    65.5500    24.5070   154.4380   129.8960   145.7640     2.2120 
  223.5000    -7.6980    63.9960    24.5070   156.5920   140.9620   159.3550     2.2210 
  223.6250    -8.0400    61.2210    24.5070   161.1440   150.3650   169.6260     2.2320 
  223.7500    -8.3570    59.0140    24.5070   167.2000   159.1230   178.1440     2.2370 
  223.8750    -8.7020    60.5970    24.5070   172.7400   167.9270   186.4190     2.2360 
  224.0000    -9.0650    65.0010    24.5070   179.9280   176.5430   194.5470     2.2290 
  224.1250    -9.3420    66.3090    24.5070   192.0270   182.5460   199.2140     2.2180 
  224.2500    -9.6040    63.7930    24.5020   206.2990   182.3760   194.9570     2.2090 
  224.3750    -9.7980    61.1830    24.4690   210.3840   172.3790   177.1070     2.2100 
  224.5000    -9.9920    62.2160    24.3660   194.9630   148.5520   151.7910     2.2200 
  224.6250   -10.0850    65.5700    24.1790   161.5670   118.7810   125.7060     2.2330 
  224.7500   -10.1600    66.7660    23.9880   115.4640    94.9960   101.5180     2.2460 
  224.8750   -10.1660    66.8620    23.8440    75.9160    77.9280    82.6190     2.2560 
  225.0000   -10.1260    67.1360    23.7500    54.8770    66.6310    69.7660     2.2640 
  225.1250   -10.1470    67.9790    23.7210    52.8780    60.6780    63.0280     2.2720 
  225.2500   -10.1630    69.5350    23.7130    53.2630    58.4660    60.5110     2.2760 
  225.3750   -10.2370    72.1800    23.7130    49.9270    59.6670    61.8020     2.2700 
  225.5000   -10.2660    76.3310    23.7130    48.7520    64.2290    66.8760     2.2570 
  225.6250   -10.3620    77.4000    23.7130    66.5620    72.4130    75.8820     2.2440 
  225.7500   -10.4400    75.0330    23.7080    98.3870    82.3640    86.5060     2.2360 
  225.8750   -10.5040    71.1720    23.6780   124.5370    91.2720    95.8330     2.2320 
  226.0000   -10.6320    67.2100    23.5960   126.3590    95.4370   100.6250     2.2360 
  226.1250   -10.7050    64.4800    23.5010   104.5080    92.1700    98.3470     2.2500 
  226.2500   -10.8340    63.9140    23.4370    83.4080    85.6980    92.2600     2.2770 
  226.3750   -10.9210    66.2310    23.3990    71.1490    79.9830    86.0970     2.3040 
  226.5000   -10.9800    69.3000    23.3460    68.3650    77.1740    82.6180     2.3100 
  226.6250   -11.0360    70.6330    23.2520    72.7680    78.3030    83.4040     2.2920 
  226.7500   -11.0440    70.2980    23.2090    80.8340    82.3500    87.3890     2.2650 
  226.8750   -11.0520    69.1420    23.2060    87.7860    88.4450    93.5650     2.2440 
  227.0000   -11.0110    68.1510    23.2130    91.4710    95.4050   100.7030     2.2340 
  227.1250   -10.9860    67.5490    23.2150    97.3490   101.7150   107.4000     2.2370 
  227.2500   -10.8920    67.7950    23.2170   101.4860   106.1270   112.5050     2.2460 
  227.3750   -10.7740    69.7100    23.2180    99.6360   107.7530   115.1260     2.2530 
  227.5000   -10.6750    73.1810    23.2190    91.2030   106.4800   114.8860     2.2540 
  227.6250   -10.5420    73.7960    23.2370    81.1600   102.3970   111.5010     2.2530 
  227.7500   -10.3880    69.8710    23.3130    73.2640    95.7490   105.3190     2.2600 
  227.8750   -10.2250    64.6080    23.4790    69.9880    86.1780    96.0570     2.2700 
  228.0000   -10.0650    62.2340    23.6930    74.5500    74.4970    84.2470     2.2760 
  228.1250    -9.8550    65.7220    23.8460    74.5740    63.1740    71.9840     2.2780 
  228.2500    -9.7050    71.8920    23.9000    62.5100    54.3550    61.9310     2.2810 
  228.3750    -9.5650    76.8380    23.9080    46.1730    49.0150    55.6340     2.2810 
  228.5000    -9.4370    78.9020    23.9050    39.0430    47.5050    53.8230     2.2690 
  228.6250    -9.2570    76.7250    23.8950    47.0470    50.7570    57.7090     2.2470 
