~V
VERS. 2.00: Ver 2.00
~W
STRT.M 63.0000:
STOP.M 291.0000:
STEP.M 0.1250:
NULL. -999.2500:
UWI. DF325:
~C
DEPT.M :
DEN.GM/CC :
SP.MV :
AC.US/MT :
GR.API :
RML.OHMM :
RI. :
RXO.OHMM :
CALI.CM :
~A
   63.0000     1.9330    14.5360   326.3980    54.5330     0.6360     0.2520     0.8030    26.7060 
   63.1250     2.0190    14.7280   347.0950    57.0320     0.4620     0.1390     1.2500    26.6870 
   63.2500     2.1180    14.4200   372.9070    61.0730     0.4370     0.1130     2.2900    26.6570 
   63.3750     2.2030    13.3790   407.1920    69.1750     0.5310     0.2030     4.1480    26.5780 
   63.5000     2.2600    11.6430   441.3920    79.5110     0.7570     0.4730     6.6420    26.3910 
   63.6250     2.2910     9.2350   466.4900    86.9940     1.1680     1.0380     9.6710    26.0490 
   63.7500     2.3110     6.3570   486.5640    91.8780     1.7240     1.8680    12.4950    25.7400 
   63.8750     2.3250     3.0770   508.6350    95.0010     2.3610     2.8830    13.2580    25.4330 
   64.0000     2.3310    -0.4360   535.0010    98.4190     2.9850     3.9420    10.7740    25.0550 
   64.1250     2.3250    -3.8570   556.7870   103.1520     3.5010     4.8800     8.5150    24.8010 
   64.2500     2.3090    -6.8480   563.9000   107.2470     3.9190     5.6600     7.3380    24.6490 
   64.3750     2.2910    -9.2250   553.6860   109.4500     4.2750     6.3150     7.2380    24.5850 
   64.5000     2.2750   -11.0130   531.0580   109.7110     4.5990     6.8910     7.4250    24.6030 
   64.6250     2.2620   -12.2610   504.2390   108.7850     4.8790     7.3860     7.5310    24.6000 
   64.7500     2.2490   -13.2560   482.5070   104.6270     5.0790     7.7580     7.7270    24.5120 
   64.8750     2.2310   -14.0950   470.3880    96.6900     5.1530     7.9300     8.0440    24.4360 
   65.0000     2.2040   -14.7970   466.8120    87.6070     5.0810     7.8530     8.3350    24.3950 
   65.1250     2.1700   -15.3630   466.3860    81.3140     4.9120     7.5840     8.5360    24.4170 
   65.2500     2.1440   -15.8870   462.8600    78.6880     4.8340     7.4420     8.7500    24.4650 
   65.3750     2.1470   -16.3190   447.6270    79.0040     5.0770     7.8270     9.1140    24.4720 
   65.5000     2.1940   -16.6830   419.5260    81.0620     5.8670     9.1150    10.3750    24.4090 
   65.6250     2.2930   -17.0270   369.8740    81.8510     7.4300    11.6180    13.3730    24.3720 
   65.7500     2.4090   -17.2850   313.1710    80.6970     9.4790    14.7870    17.4970    24.3740 
   65.8750     2.4970   -17.5100   283.2800    80.5010    11.5330    17.8150    21.5150    24.3730 
   66.0000     2.5220   -17.7760   281.0100    83.2640    12.9100    19.6980    23.2580    24.3590 
   66.1250     2.4750   -18.0800   289.8610    88.1570    12.8750    19.4440    19.3150    24.3090 
   66.2500     2.3970   -18.3950   302.4490    92.3010    11.9210    17.7550    13.8350    24.2250 
   66.3750     2.3180   -18.7980   311.8760    93.7480    10.7750    15.6230    10.4110    24.1610 
   66.5000     2.2510   -19.2530   318.9940    90.1140     9.9160    13.8330     9.2250    24.1310 
   66.6250     2.2030   -19.7050   325.3020    84.3840     9.4880    12.7650     8.9630    24.1280 
   66.7500     2.1690   -20.1440   331.0400    83.6490     9.2620    12.1750     8.8340    24.1470 
   66.8750     2.1510   -20.5290   336.1240    85.7700     9.0320    11.7970     8.7740    24.1990 
   67.0000     2.1510   -20.8580   341.8520    85.1930     8.6540    11.3930     8.6910    24.2270 
   67.1250     2.1690   -21.1080   360.1410    82.8940     8.1300    10.8370     8.4790    24.2300 
   67.2500     2.1910   -21.3010   394.6180    84.5280     7.6520    10.2480     8.1290    24.1560 
   67.3750     2.2040   -21.4560   432.5820    90.1730     7.3510     9.7760     7.6970    24.0400 
   67.5000     2.2000   -21.6760   457.8070    92.8190     7.2600     9.5210     7.3890    23.9520 
   67.6250     2.1800   -21.9890   470.1760    85.3700     7.3500     9.5170     7.6510    23.9390 
   67.7500     2.1590   -22.3570   474.2170    73.0740     7.5190     9.6530     8.1780    24.0330 
   67.8750     2.1480   -22.7650   471.7470    64.5370     7.7130     9.8460     8.5410    24.2250 
   68.0000     2.1470   -23.1530   465.0330    63.1240     7.8990    10.0290     8.6230    24.5090 
   68.1250     2.1520   -23.5700   454.0210    63.5260     8.0450    10.1470     8.5110    24.6450 
   68.2500     2.1540   -23.9920   438.4730    62.4490     8.1420    10.1910     8.3780    24.5460 
   68.3750     2.1510   -24.3510   421.3960    61.6280     8.1960    10.1750     8.2980    24.3670 
   68.5000     2.1430   -24.6120   409.9520    63.6520     8.2260    10.1210     8.3450    24.2330 
   68.6250     2.1350   -24.7740   408.5480    67.0260     8.2510    10.0500     8.5090    24.1360 
   68.7500     2.1300   -24.8470   409.9200    69.7570     8.2720     9.9700     8.7200    24.0540 
   68.8750     2.1270   -24.8470   408.7190    72.6410     8.2770     9.8740     8.9250    23.9470 
   69.0000     2.1250   -24.8500   402.4320    75.0620     8.2580     9.7570     9.1460    23.8550 
   69.1250     2.1250   -24.8350   391.7600    75.1230     8.2400     9.6370     9.3080    23.8280 
   69.2500     2.1320   -24.8320   378.9400    72.8290     8.2820     9.5580     9.5010    23.9100 
   69.3750     2.1490   -24.8510   363.4350    69.8320     8.4420     9.5700     9.6810    24.0530 
   69.5000     2.1720   -24.8800   346.3690    67.1030     8.7410     9.7100     9.8020    24.1310 
   69.6250     2.1910   -24.8860   337.0470    66.5830     9.1570     9.9870     9.8050    24.0030 
   69.7500     2.1950   -24.8960   342.8330    68.2820     9.5820    10.3170     9.7290    23.7690 
   69.8750     2.1820   -24.9320   361.6850    69.3370     9.9300    10.6170     9.6640    23.5640 
   70.0000     2.1560   -25.0020   384.7390    67.8810    10.1430    10.8160     9.7260    23.4680 
   70.1250     2.1280   -25.0680   400.3300    65.1290    10.1980    10.8600     9.7110    23.5470 
   70.2500     2.1100   -25.0850   401.9150    63.6860    10.1580    10.7960     9.5990    23.7880 
   70.3750     2.1080   -25.0970   388.6220    64.7380    10.0650    10.6700     9.5540    24.0920 
   70.5000     2.1200   -25.0570   367.5080    67.3630     9.9450    10.5210     9.7640    24.3770 
   70.6250     2.1420   -24.9670   350.9730    68.4380     9.8160    10.3700    10.1010    24.4810 
   70.7500     2.1650   -24.8710   344.8280    68.0480     9.6940    10.2190    10.2710    24.3560 
   70.8750     2.1830   -24.7060   349.5600    68.2130     9.6020    10.0680    10.2190    24.0730 
   71.0000     2.1940   -24.4160   362.9320    69.6580     9.5710     9.9280    10.0790    23.8360 
   71.1250     2.1970   -24.0690   379.5880    71.1900     9.6690     9.8460    10.1400    23.9040 
   71.2500     2.1940   -23.7150   392.7360    71.6300     9.9160     9.8640    10.3790    24.1680 
   71.3750     2.1850   -23.2920   399.8610    69.9550    10.3120    10.0080    10.5640    24.3600 
   71.5000     2.1680   -22.8420   401.2500    66.0240    10.8030    10.2620    10.5940    24.3130 
   71.6250     2.1480   -22.3490   397.8560    63.4220    11.2390    10.5320    10.4440    24.1070 
   71.7500     2.1350   -21.8100   392.1620    64.0010    11.4360    10.6560    10.1570    23.9520 
   71.8750     2.1360   -21.2760   386.0730    68.6820    11.2480    10.4960     9.8060    23.9170 
   72.0000     2.1550   -20.7240   382.8610    75.3220    10.6130     9.9750     9.4030    23.9370 
   72.1250     2.1900   -20.1590   386.5280    81.6340     9.5670     9.0850     8.8490    23.9430 
   72.2500     2.2280   -19.6070   391.7490    87.8070     8.4190     8.0520     8.1070    23.9810 
   72.3750     2.2640   -19.1280   391.8180    93.1500     7.4480     7.0980     7.2410    24.0750 
   72.5000     2.3000   -18.7950   383.9210    97.9620     6.8760     6.4250     6.5520    24.1840 
   72.6250     2.3450   -18.7170   371.2910   100.6800     6.8570     6.2180     6.3640    24.3040 
   72.7500     2.3900   -18.8500   361.1020    99.4930     7.2120     6.3930     6.6530    24.4110 
   72.8750     2.4170   -19.2210   355.7920    91.8790     7.7650     6.8440     7.4440    24.5340 
