~V
VERS. 2.00: Ver 2.00
~W
STRT.M 50.0000:
STOP.M 264.0000:
STEP.M 0.1250:
NULL. -999.2500:
UWI. DF32158:
~C
DEPT.M :
GR.API :
RML.OHMM :
RI. :
RXO.OHMM :
CALI.CM :
DEN.GM/CC :
SP.MV :
~A
# ...
  241.2500    67.8830   169.0810   150.6060   170.8120    24.5330     2.2610   -15.0040 
  241.3750    68.8140   172.5840   154.7460   161.1080    24.5560     2.2500   -14.9990 
  241.5000    68.3930   177.0820   159.8040   147.1580    24.6100     2.2500   -14.9960 
  241.6250    67.1370   184.7630   167.4000   147.8390    24.6370     2.2810   -14.9350 
  241.7500    67.3530   195.0860   177.0610   161.2390    24.6380     2.3320   -14.8080 
  241.8750    66.9590   205.8460   187.2110   181.5470    24.6120     2.3830   -14.7300 
  242.0000    63.2990   213.5740   195.2100   213.7430    24.5590     2.4100   -14.6480 
  242.1250    60.6890   214.2340   197.7580   248.9710    24.5360     2.3940   -14.4780 
  242.2500    61.6530   208.9120   195.1990   233.8040    24.5350     2.3500   -14.3560 
  242.3750    63.9910   199.8600   188.7730   197.2060    24.5590     2.2970   -14.2630 
  242.5000    65.0310   189.3780   180.1060   177.1050    24.6110     2.2520   -14.1540 
  242.6250    63.1950   178.9410   170.4900   182.1690    24.6410     2.2260   -14.1340 
  242.7500    60.7370   169.0390   160.8740   194.8680    24.6300     2.2140   -14.1200 
  242.8750    58.3550   159.7730   151.6720   203.3840    24.5030     2.2080   -14.0550 
  243.0000    57.0180   151.3290   143.3530   178.6110    24.1990     2.2030   -14.0020 
  243.1250    57.9540   144.2940   136.6990   150.7600    23.8820     2.1960   -13.9300 
  243.2500    59.7610   138.7320   131.7450   141.4140    23.7010     2.1890   -13.8390 
  243.3750    61.9210   134.5750   128.3970   143.4190    23.6720     2.1840   -13.6970 
  243.5000    64.5190   131.5250   126.2060   141.3980    23.8490     2.1880   -13.5530 
  243.6250    67.9070   129.1750   124.5530   137.4400    24.1440     2.2040   -13.3950 
  243.7500    70.3230   126.9570   122.9960   140.5790    24.2420     2.2280   -13.1990 
  243.8750    71.3300   124.5450   121.4000   146.1180    24.1820     2.2520   -13.0070 
  244.0000    71.4130   121.3890   119.3790   145.3260    24.1020     2.2670   -12.8400 
  244.1250    70.2700   116.1840   115.8040   138.3020    24.0750     2.2680   -12.7130 
  244.2500    68.5290   108.5710   109.9950   134.1940    24.0730     2.2600   -12.5640 
  244.3750    68.3400    98.9680   101.8570   126.6230    24.0860     2.2520   -12.4790 
  244.5000    69.7150    88.5210    92.1950   114.8240    24.1310     2.2470   -12.4020 
  244.6250    70.0310    78.8130    82.5070    95.3840    24.2230     2.2500   -12.2510 
  244.7500    70.7200    70.8050    74.1320    78.5060    24.2530     2.2570   -12.1770 
  244.8750    72.4440    64.8210    67.7210    72.6900    24.2250     2.2630   -12.1150 
  245.0000    71.8490    60.7600    63.3630    71.0970    24.2600     2.2670   -11.9750 
  245.1250    68.0660    58.5330    60.9340    67.3340    24.3590     2.2650   -11.9130 
  245.2500    67.4040    57.3460    59.5720    62.8240    24.2930     2.2590   -11.8910 
  245.3750    70.4720    56.4690    58.6180    63.0760    24.1560     2.2520   -11.8130 
  245.5000    72.8030    55.0860    57.3500    62.9590    24.0580     2.2500   -11.7730 
  245.6250    72.3090    52.4870    55.1170    59.8470    24.0000     2.2600   -11.7670 
  245.7500    72.4740    48.9930    52.0470    58.4510    24.0010     2.2760   -11.7390 
  245.8750    76.0870    45.2040    48.4760    55.4270    24.0360     2.2930   -11.7320 
  246.0000    81.6930    41.8210    44.9580    46.2360    24.0320     2.3010   -11.7390 
  246.1250    85.1460    39.5060    42.2620    37.9820    23.9840     2.2960   -11.6880 
  246.2500    85.1950    38.1330    40.6050    37.7680    23.9750     2.2870   -11.6460 
  246.3750    84.6870    37.4090    39.9040    42.6060    24.0660     2.2790   -11.6130 
  246.5000    86.9470    37.0070    39.8570    41.6790    24.1050     2.2780   -11.5650 
  246.6250    88.7480    36.7100    40.0600    37.3750    24.0100     2.2810   -11.5610 
  246.7500    87.0810    36.4850    40.1800    35.8920    23.8630     2.2820   -11.5680 
  246.8750    84.8350    36.4510    40.1840    36.1470    23.7630     2.2770   -11.5960 
  247.0000    85.0730    36.6910    40.1310    36.7050    23.7280     2.2690   -11.6600 
  247.1250    87.5900    37.2140    40.1360    36.8320    23.6840     2.2650   -11.7250 
  247.2500    88.2580    37.9600    40.3740    38.2260    23.5060     2.2730   -11.8090 
  247.3750    87.6950    39.0920    41.0800    42.7750    23.1760     2.2910   -11.9190 
  247.5000    89.8050    40.9320    42.5230    46.7340    22.8740     2.3110   -11.9920 
  247.6250    94.1780    44.1460    45.1590    42.2110    22.6740     2.3250   -12.0600 
  247.7500    94.8690    48.9750    49.1260    38.1980    22.6490     2.3300   -12.1180 
  247.8750    90.6420    55.5300    54.6740    43.5810    23.1300     2.3330   -12.0740 
  248.0000    85.2710    63.3680    61.6520    59.7740    23.8400     2.3410   -12.0250 
  248.1250    82.9560    70.8340    68.7980    70.6970    23.6910     2.3670   -12.0030 
  248.2500    82.2340    75.4800    73.6990    76.9870    23.5710     2.4090   -11.8910 
  248.3750    82.9110    75.6130    74.5240    77.2060    23.8080     2.4600   -11.7610 
  248.5000    84.4060    71.4620    71.1800    69.9540    24.2710     2.5070   -11.6830 
  248.6250    83.8120    65.1650    65.3860    57.8140    24.5800     2.5280   -11.5590 
  248.7500    81.3750    59.5300    59.9360    54.2100    24.7260     2.5180   -11.4500 
  248.8750    79.4350    55.7110    56.0980    49.0330    24.7800     2.4850   -11.3990 
  249.0000    79.6790    54.1060    54.3220    45.1450    24.9250     2.4450   -11.3400 
  249.1250    82.8180    55.0060    54.8880    48.6460    25.0010     2.4160   -11.2950 
  249.2500    86.4210    57.7470    57.1440    65.1700    24.9850     2.4000   -11.2760 
  249.3750    87.3460    62.0910    60.8640    71.0610    24.8030     2.3930   -11.2690 
  249.5000    84.9400    67.8590    65.9480    67.6550    24.6000     2.3860   -11.2390 
  249.6250    82.9880    74.7900    72.3960    71.6750    24.4050     2.3770   -11.2200 
  249.7500    84.4110    81.8050    79.3570    91.7710    24.3500     2.3720   -11.2280 
  249.8750    87.6740    87.7970    85.6850   110.8640    24.3220     2.3730   -11.2280 
  250.0000    90.3320    91.7550    90.1410   109.9900    24.2300     2.3790   -11.2340 
  250.1250    90.2790    92.8160    91.5810   106.8920    24.3210     2.3800   -11.2280 
  250.2500    88.3220    91.9600    90.7920    99.1330    24.6350     2.3760   -11.2640 
  250.3750    85.7050    90.1190    88.7110   103.5260    24.8830     2.3720   -11.2840 
  250.5000    82.1490    87.9180    86.1690   119.6000    24.9410     2.3790   -11.3010 
  250.6250    78.8220    85.6700    83.7030    98.4280    24.8010     2.4030   -11.3430 
  250.7500    79.2550    83.6350    81.6200    78.5370    24.6310     2.4270   -11.3010 
  250.8750    84.6310    81.9380    80.0600    69.5680    24.3880     2.4330   -11.2170 
  251.0000    90.1430    80.5450    79.0270    70.9490    24.1640     2.4100   -11.1330 
  251.1250    88.1110    79.2480    78.3970    74.5650    24.2500     2.3640   -10.9740 
  251.2500    82.3520    77.6480    77.7280    80.7660    24.4050     2.3190   -10.7700 
  251.3750    81.0500    75.4870    76.6410    80.6160    24.3980     2.2890   -10.5500 
  251.5000    84.6960    73.0490    75.1980    75.2200    24.1690     2.2790   -10.2570 
  251.6250    86.8750    71.7630    74.5740    68.0210    23.8760     2.2950    -9.9210 
  251.7500    86.3080    73.0760    76.2420    65.1620    23.7460     2.3390    -9.5860 
  251.8750    86.8220    77.7500    81.1660    70.0640    24.0410     2.4070    -9.2290 
  252.0000    88.2450    84.9370    88.8110    83.2860    24.5360     2.4830    -8.8420 
  252.1250    85.8640    90.0300    94.9880   104.5330    24.6840     2.5370    -8.4180 
  252.2500    81.3910    86.5840    92.8550   155.1110    24.6000     2.5550    -7.9370 
  252.3750    78.4660    72.1230    78.4200   182.7210    24.5390     2.5480    -7.4320 
