~V
VERS. 2.00: Ver 2.00
~W
STRT.M 60.0000:
STOP.M 232.0000:
STEP.M 0.1250:
NULL. -999.2500:
UWI. DF323:
~C
DEPT.M :
GR.API :
RML.OHMM :
RI. :
RXO.OHMM :
CALI.CM :
SP.MV :
DEN.GM/CC :
AC.US/MT :
~A
# ...
   90.0000    69.2140    10.5460     9.4710    13.3450    24.0750    -9.4260     2.1310   453.9240 
   90.1250    72.2690     9.1150     8.4480    12.0600    24.0350   -10.5290     2.1410   453.8690 
   90.2500    78.7660     8.5190     7.9110    10.6510    24.0290   -11.3460     2.1550   447.5210 
   90.3750    83.8220     8.5390     7.8000    10.3330    24.0400   -11.8770     2.1600   441.4580 
   90.5000    85.7320     8.8830     7.9630    11.1980    24.0890   -12.1320     2.1500   435.6740 
   90.6250    86.9330     9.3630     8.2810    11.7800    24.2030   -12.1500     2.1260   427.3250 
   90.7500    86.4020     9.8740     8.6470    11.4050    24.3550   -12.1760     2.1000   416.2330 
   90.8750    80.7750    10.3600     9.0020    11.0780    24.4650   -12.3670     2.0800   404.8210 
   91.0000    73.5420    10.7440     9.2830    11.4970    24.4200   -12.8570     2.0740   397.2010 
   91.1250    71.8160    10.8920     9.4080    12.3760    24.1910   -13.6760     2.0830   397.6430 
   91.2500    73.7460    10.7820     9.3710    13.0540    23.9480   -14.6430     2.1010   404.3400 
   91.3750    75.7470    10.4720     9.1910    13.2320    23.8170   -15.6450     2.1190   414.5030 
   91.5000    77.1210    10.1020     8.9230    12.8830    23.7960   -16.6370     2.1300   424.8040 
   91.6250    77.8000     9.8660     8.6670    12.5130    23.8020   -17.6560     2.1330   431.1900 
   91.7500    75.9660     9.8250     8.5010    12.6130    23.8030   -18.6910     2.1310   432.8740 
   91.8750    74.0380     9.9400     8.4430    13.1160    23.8020   -19.7020     2.1270   431.8490 
   92.0000    74.4810    10.1280     8.4690    13.6190    23.8020   -20.6050     2.1240   431.4160 
   92.1250    74.1260    10.2990     8.5280    13.9020    23.8020   -21.3480     2.1240   434.0270 
   92.2500    72.6970    10.3980     8.5630    14.0880    23.8020   -21.9710     2.1240   438.6930 
   92.3750    72.7310    10.4120     8.5530    14.1010    23.8020   -22.4780     2.1240   444.3600 
   92.5000    74.1950    10.3630     8.5100    13.9160    23.8020   -22.8940     2.1210   449.8350 
   92.6250    72.7550    10.3130     8.4650    13.7690    23.8030   -23.1750     2.1140   452.6520 
   92.7500    68.2280    10.3160     8.4470    13.8230    23.8010   -23.2740     2.1060   451.6250 
   92.8750    64.3820    10.3880     8.4670    13.9930    23.7940   -23.2320     2.1030   447.3450 
   93.0000    62.7350    10.5130     8.5190    14.1950    23.7900   -23.1430     2.1080   441.9420 
   93.1250    63.3970    10.6590     8.5900    14.4340    23.7940   -23.1040     2.1220   438.0520 
   93.2500    63.3710    10.7980     8.6620    14.7120    23.8010   -23.1390     2.1390   436.5460 
   93.3750    61.7190    10.9150     8.7320    14.9820    23.8030   -23.2400     2.1520   436.6140 
   93.5000    61.3140    11.0020     8.8010    15.1650    23.8020   -23.3440     2.1560   436.0070 
   93.6250    63.0070    11.0670     8.8660    15.2630    23.8020   -23.4040     2.1510   431.7150 
   93.7500    63.2850    11.1330     8.9180    15.2130    23.8030   -23.4250     2.1420   424.7110 
   93.8750    61.6590    11.2050     8.9450    15.0090    23.8010   -23.3990     2.1330   418.7090 
   94.0000    60.7530    11.2640     8.9370    14.7120    23.7870   -23.3100     2.1250   417.9350 
   94.1250    62.6570    11.2810     8.8810    14.5210    23.7530   -23.1510     2.1200   424.1340 
   94.2500    64.7220    11.2670     8.8020    14.5600    23.7150   -22.9450     2.1170   431.8760 
   94.3750    66.0840    11.2320     8.7140    14.7590    23.6920   -22.7230     2.1150   436.6210 
   94.5000    67.0680    11.1820     8.6300    14.8180    23.6860   -22.5250     2.1140   437.3760 
   94.6250    68.1810    11.0620     8.5440    14.4560    23.6860   -22.3420     2.1130   437.0170 
   94.7500    70.4910    10.8010     8.4290    14.0540    23.6880   -22.1620     2.1130   438.6620 
   94.8750    73.5870    10.3550     8.2440    13.8730    23.6950   -21.9580     2.1110   443.0360 
   95.0000    76.0480     9.7630     7.9780    13.7910    23.6990   -21.6920     2.1050   449.8730 
   95.1250    75.4440     9.2830     7.7390    13.4860    23.6950   -21.2930     2.1010   457.1810 
   95.2500    70.9460     9.2920     7.7500    13.0580    23.6890   -20.7460     2.1150   458.9640 
   95.3750    65.0570    10.0610     8.1960    12.7580    23.6880   -19.9770     2.1680   447.1700 
   95.5000    62.9380    11.6270     9.1400    13.2360    23.6730   -18.9200     2.2600   415.5310 
   95.6250    66.7210    13.6280    10.4190    18.0360    23.6880   -17.5000     2.3670   366.4690 
   95.7500    72.0280    14.9820    11.3780    31.3260    23.8650   -15.7810     2.4410   323.8210 
   95.8750    78.7770    14.6880    11.3410    37.6350    24.1960   -13.8360     2.4600   311.1390 
   96.0000    90.4650    12.6080    10.1160    21.1190    24.5180   -11.7630     2.4280   337.7040 
   96.1250   103.9180     9.7780     8.2650    10.2000    24.6740    -9.6960     2.3770   389.6480 
   96.2500   111.6920     7.4770     6.6330     6.9160    24.7200    -7.7510     2.3400   434.1490 
   96.3750   112.5250     6.0910     5.5250     7.0250    24.7100    -6.0220     2.3290   457.1660 
   96.5000   109.0810     5.6000     4.9950     7.7040    24.6490    -4.5650     2.3400   460.0940 
   96.6250   105.0700     5.8700     5.0350     7.3790    24.5780    -3.4910     2.3640   448.3810 
   96.7500   101.1780     6.4810     5.4030     7.0800    24.5410    -2.7690     2.3820   429.2200 
   96.8750    96.6140     7.1850     5.9360     8.0810    24.5220    -2.3800     2.3860   409.3670 
   97.0000    90.1730     7.7860     6.4740    10.4140    24.4540    -2.2760     2.3700   398.9540 
   97.1250    84.3040     8.1090     6.8470    11.2560    24.2580    -2.4150     2.3370   405.9290 
   97.2500    82.4410     8.1790     7.0050    10.1800    24.0180    -2.6620     2.3020   420.6330 
   97.3750    84.1080     8.0750     6.9860     9.2780    23.8510    -2.9540     2.2730   432.7460 
   97.5000    85.9080     7.9140     6.8860     9.2600    23.8010    -3.2900     2.2530   437.6330 
   97.6250    83.9870     7.8020     6.8180     9.3390    23.8110    -3.6930     2.2370   436.6820 
   97.7500    80.0270     7.7620     6.8310     9.2640    23.8140    -4.1390     2.2220   434.5240 
   97.8750    77.2320     7.7880     6.9160     9.3070    23.8080    -4.6110     2.2110   432.7690 
   98.0000    76.5960     7.8930     7.0540     9.7020    23.8030    -5.0960     2.2020   431.9870 
   98.1250    75.1820     8.1390     7.2570    10.2880    23.8020    -5.5910     2.1940   432.4480 
   98.2500    71.7910     8.5180     7.5300    10.5540    23.7940    -6.1630     2.1850   432.9160 
   98.3750    70.5390     8.9960     7.8750    10.5300    23.7820    -6.8870     2.1740   432.5280 
   98.5000    73.2750     9.4930     8.2480    10.7220    23.7810    -7.7610     2.1640   431.4600 
   98.6250    76.1580     9.7890     8.4940    11.3210    23.7820    -8.6660     2.1670   431.0420 
   98.7500    75.2590     9.6780     8.4500    11.8510    23.8270    -9.4230     2.1830   432.7210 
   98.8750    72.0890     9.0600     8.0280    11.8920    23.9810    -9.8980     2.2070   437.7500 
   99.0000    71.9430     8.0340     7.2890    10.7670    24.2230    -9.9700     2.2280   446.5910 
   99.1250    77.6650     6.9090     6.4390     8.3750    24.5660    -9.5350     2.2350   457.9090 
   99.2500    86.9110     6.0550     5.7260     6.2920    25.0460    -8.7280     2.2310   467.3720 
   99.3750    93.5400     5.6440     5.2730     5.4370    25.5590    -7.6340     2.2230   471.2300 
   99.5000    93.3740     5.6840     5.1120     5.5860    25.8750    -6.3650     2.2170   467.6520 
   99.6250    89.0770     6.0610     5.2320     6.0690    25.8170    -5.0450     2.2180   457.8360 
   99.7500    85.5490     6.4950     5.4840     6.6440    25.6140    -3.8540     2.2260   447.6520 
   99.8750    84.7010     6.8160     5.7560     7.3310    25.4290    -2.9190     2.2410   441.0480 
