~V
VERS. 2.00: Ver 2.00
~W
STRT.M 60.0000:
STOP.M 227.0000:
STEP.M 0.1250:
NULL. -999.2500:
UWI. DF32025:
~C
DEPT.M :
DEN.GM/CC :
GR.API :
RML.OHMM :
RI. :
RXO.OHMM :
CALI.CM :
SP.MV :
~A
# ...
  206.2500     2.4720    69.3860    13.5760    11.1820    16.7390    24.1450   -11.3800 
  206.3750     2.4800    68.0160    13.2790    10.9990    13.2700    24.2390   -11.0920 
  206.5000     2.4730    67.0370    12.7780    10.6110     9.5600    24.2360   -10.8030 
  206.6250     2.4620    67.3620    12.2770    10.1760     8.4090    24.1200   -10.5180 
  206.7500     2.4590    68.8160    11.9350     9.8440    10.3660    23.9920   -10.2360 
  206.8750     2.4660    71.2460    11.8280     9.6930    14.8530    23.9950   -10.0220 
  207.0000     2.4790    70.9770    11.9830     9.7570    18.7570    24.0610    -9.7960 
  207.1250     2.4940    69.7700    12.4070    10.0610    21.8600    24.1130    -9.7410 
  207.2500     2.5070    71.7910    12.9650    10.5100    30.7730    24.1370    -9.6710 
  207.3750     2.5180    75.1200    13.5360    11.0170    44.4530    24.1670    -9.6560 
  207.5000     2.5290    75.4080    13.9990    11.4850    48.6410    24.1770    -9.6740 
  207.6250     2.5330    74.1830    14.2480    11.8160    70.4490    24.1760    -9.7030 
  207.7500     2.5270    76.2710    14.3230    12.0060    58.2890    24.1690    -9.7660 
  207.8750     2.5040    79.0750    14.2890    12.0840    32.4070    24.1600    -9.7960 
  208.0000     2.4680    78.7420    14.2070    12.0890    25.2480    24.1310    -9.8940 
  208.1250     2.4250    76.4240    14.0820    12.0250    36.0650    24.0680    -9.9080 
  208.2500     2.3920    74.5120    13.8880    11.8870    37.5920    23.9550    -9.9730 
  208.3750     2.3750    75.3180    13.5980    11.6510    27.7440    23.8240   -10.0660 
  208.5000     2.3760    77.1970    13.2180    11.3170    19.4580    23.7250   -10.1500 
  208.6250     2.3920    76.3230    12.7720    10.8950    14.3270    23.6900   -10.3290 
  208.7500     2.4150    73.5610    12.3030    10.4340    10.7240    23.6800   -10.4490 
  208.8750     2.4430    71.9400    11.8280     9.9580     7.8330    23.6810   -10.6110 
  209.0000     2.4720    72.6890    11.3590     9.4880     6.7170    23.6900   -10.7120 
  209.1250     2.4940    72.3900    10.9370     9.0610     6.3490    23.7030   -10.8760 
  209.2500     2.5050    70.1840    10.6110     8.7150     6.2460    23.6930   -11.0170 
  209.3750     2.5040    68.9610    10.4310     8.4880     6.1070    23.6860   -11.1800 
  209.5000     2.4970    69.1220    10.4220     8.4000     5.6600    23.6950   -11.3340 
  209.6250     2.4890    69.6650    10.5700     8.4530     5.2150    23.7150   -11.5100 
  209.7500     2.4790    70.9020    10.7550     8.5590     5.1530    23.7110   -11.6180 
  209.8750     2.4650    72.7390    10.8690     8.6400     5.9400    23.7080   -11.7400 
  210.0000     2.4430    72.5880    10.8350     8.6280     7.7890    23.7130   -11.8650 
  210.1250     2.4140    68.4970    10.6350     8.4870     9.6000    23.7030   -11.9020 
  210.2500     2.3850    65.9410    10.3980     8.2910     8.2130    23.6870   -11.9690 
  210.3750     2.3580    67.4290    10.2450     8.1240     6.6340    23.6690   -11.9030 
  210.5000     2.3340    68.8190    10.2620     8.0570     7.1100    23.6260   -11.8530 
  210.6250     2.3140    66.8910    10.4670     8.1290     9.0630    23.6590   -11.6550 
  210.7500     2.3060    65.9310    10.7390     8.2720    11.7480    23.7900   -11.5170 
  210.8750     2.3140    67.2230    10.9690     8.4170    11.3890    23.9260   -11.3340 
  211.0000     2.3420    66.7790    11.0810     8.5010     9.1590    23.9870   -11.1390 
  211.1250     2.3830    63.1040    11.0480     8.4920     7.8530    23.9200   -11.0440 
  211.2500     2.4190    62.4640    10.9590     8.4350     8.1230    23.7790   -10.8670 
  211.3750     2.4360    67.0880    10.8830     8.3790    10.3570    23.7040   -10.7960 
  211.5000     2.4300    71.4590    10.8590     8.3610    11.5720    23.7450   -10.7060 
  211.6250     2.4100    70.3380    10.8930     8.3970    13.2190    23.7940   -10.7250 
  211.7500     2.3910    66.2830    10.9520     8.4640    13.9090    23.8040   -10.7420 
  211.8750     2.3800    61.4690    11.0130     8.5360    15.6950    23.7850   -10.8140 
  212.0000     2.3740    57.7080    11.0600     8.5920    17.8470    23.7180   -10.9010 
  212.1250     2.3650    57.9520    11.0780     8.6120    11.5930    23.6220   -10.9590 
  212.2500     2.3520    61.5830    11.0540     8.5940     8.6810    23.6320   -11.0930 
  212.3750     2.3360    65.0120    10.9790     8.5350     7.4440    23.7320   -11.2270 
  212.5000     2.3240    65.7720    10.8470     8.4370     6.5850    23.7970   -11.3770 
  212.6250     2.3210    66.3690    10.6620     8.3040     6.0120    23.8030   -11.4910 
  212.7500     2.3260    68.0590    10.4610     8.1620     5.7730    23.8030   -11.5910 
  212.8750     2.3370    70.4000    10.2840     8.0360     5.7060    23.8030   -11.6710 
  213.0000     2.3520    71.2990    10.1770     7.9570     5.1630    23.8090   -11.7980 
  213.1250     2.3680    69.3650    10.1940     7.9660     5.0550    23.8420   -11.8150 
  213.2500     2.3800    67.4590    10.3220     8.0670     5.4410    23.8990   -11.8740 
  213.3750     2.3850    67.2470    10.5360     8.2490     6.1630    23.9480   -11.9110 
  213.5000     2.3790    67.4890    10.7910     8.4880     6.6530    23.9830   -11.9080 
  213.6250     2.3640    64.8280    11.0360     8.7430     7.1440    23.9940   -11.9550 
  213.7500     2.3520    61.6260    11.2380     8.9720     7.7160    23.9980   -11.9690 
  213.8750     2.3550    61.6100    11.3870     9.1590     7.9020    23.9980   -11.9050 
  214.0000     2.3770    65.0590    11.4870     9.2990     8.2750    23.9980   -11.8530 
  214.1250     2.4130    68.1760    11.5460     9.3950     9.4620    24.0080   -11.9580 
  214.2500     2.4470    68.1500    11.5870     9.4660     9.9200    24.0320   -11.9200 
  214.3750     2.4670    67.3700    11.6240     9.5190     9.4540    24.0560   -11.9090 
  214.5000     2.4700    68.8560    11.6640     9.5620     8.8960    24.0590   -12.0060 
  214.6250     2.4560    71.0340    11.7100     9.6030     8.5860    24.0390   -11.9870 
  214.7500     2.4360    71.0260    11.7560     9.6550     7.8230    24.0120   -12.0510 
  214.8750     2.4130    68.2710    11.8100     9.7320     6.9550    24.0080   -12.2620 
  215.0000     2.3920    64.8520    11.8950     9.8550     6.4690    23.9450   -12.4760 
  215.1250     2.3730    62.7960    12.0630    10.0620     6.5700    23.9210   -12.5410 
  215.2500     2.3610    63.5110    12.3300    10.3580     6.5960    23.9020   -12.6400 
  215.3750     2.3610    65.0010    12.6820    10.7300     7.1600    23.8910   -12.8170 
  215.5000     2.3750    64.7450    13.0560    11.1300     8.5940    23.8920   -12.9820 
  215.6250     2.3970    63.7910    13.3250    11.4550    11.3700    23.9060   -13.2280 
  215.7500     2.4140    62.6880    13.4010    11.6240    12.5350    23.9280   -13.4250 
  215.8750     2.4130    60.8290    13.2540    11.5980    11.9530    23.9570   -13.5020 
  216.0000     2.3930    59.2230    12.9230    11.3930    12.0490    23.9920   -13.5620 
  216.1250     2.3660    59.2230    12.5070    11.0730    13.2280    24.0330   -13.6900 
  216.2500     2.3500    59.2230    12.1400    10.7600    12.2230    24.0740   -13.8370 
  216.3750     2.3550    59.2230    11.8860    10.5220    10.2110    24.1130   -13.8140 
  216.5000     2.3800    59.2230    11.7600    10.3860     9.0970    24.1520   -13.7270 
  216.6250     2.4120    59.2230    11.7450    10.3560     9.5490    24.1880   -13.6460 
  216.7500     2.4340    59.2230    11.7760    10.3810    10.4470    24.2240   -13.5620 
  216.8750     2.4420    59.2230    11.8170    10.4300    10.6710    24.2560   -13.4870 
  217.0000     2.4400    59.2230    11.8480    10.4800     9.0410    24.2880   -13.4520 
  217.1250     2.4410    59.2230    11.8560    10.5190     6.8330    24.3180   -13.4600 
  217.2500     2.4500    59.2230    11.8450    10.5400     6.5650    24.3480   -13.4830 
  217.3750     2.4620    59.2230    11.8090    10.5350     7.4230    24.3800   -13.5510 
