~V
VERS. 2.00: Ver 2.00
~W
STRT.M 60.0000:
STOP.M 227.0000:
STEP.M 0.1250:
NULL. -999.2500:
UWI. DF32025:
~C
DEPT.M :
DEN.GM/CC :
GR.API :
RML.OHMM :
RI. :
RXO.OHMM :
CALI.CM :
SP.MV :
~A
   60.0000     2.1120    48.3160    11.7870     0.4030  2066.8190    25.4240     6.4940 
   60.1250     2.2370    50.4070     5.0390     0.2690  2066.8200    25.4240     5.2890 
   60.2500     2.3590    53.0440     1.8860     0.1570  2066.8200    25.4240     4.0100 
   60.3750     2.4300    55.2880     0.5910     0.0840   540.7350    25.4240     2.5710 
   60.5000     2.4320    57.2140     0.1440     0.0530     3.3290    25.4140     0.8480 
   60.6250     2.3870    61.2460     0.2710     0.0780    -0.6770    25.3040    -1.3110 
   60.7500     2.3420    68.7740     0.8190     0.1760    -0.7620    25.0310    -3.7410 
   60.8750     2.3170    76.6420     1.7390     0.3790    -0.3620    24.6800    -6.3140 
   61.0000     2.3150    82.8710     2.8710     0.7120     4.0460    24.4590    -8.9660 
   61.1250     2.3290    88.9420     3.8680     1.2030     4.6080    24.3620   -11.5740 
   61.2500     2.3470    94.7320     4.4290     1.8180     4.7230    24.3360   -14.0500 
   61.3750     2.3710   100.0800     4.6280     2.5650     4.7440    24.3300   -16.3210 
   61.5000     2.4090   103.6870     4.9420     3.5030     4.7450    24.3230   -18.2980 
   61.6250     2.4570   101.5240     5.9500     4.7770     5.7230    24.2740   -19.7830 
   61.7500     2.4880    91.5410     7.6060     6.3510     8.7490    24.1590   -20.9470 
   61.8750     2.4800    78.4120     9.6050     8.0700    13.3680    24.0110   -21.9970 
   62.0000     2.4260    70.2860    11.4120     9.6320    15.0870    23.8770   -23.0770 
   62.1250     2.3410    66.7500    12.2570    10.5740    15.4680    23.8120   -24.2630 
   62.2500     2.2600    63.9050    12.1070    10.8200    13.1660    23.7940   -25.4970 
   62.3750     2.2010    62.3280    11.3990    10.5260    11.0670    23.7920   -26.7230 
   62.5000     2.1680    62.1770    10.6980    10.0070    10.7600    23.7990   -27.8870 
   62.6250     2.1580    63.0540    10.3460     9.5700    12.0270    23.8850   -28.9340 
   62.7500     2.1570    62.7100    10.2670     9.3100    12.2440    24.0960   -29.8920 
   62.8750     2.1570    60.8050    10.3430     9.2080    10.1600    24.3450   -30.6990 
   63.0000     2.1570    57.9230    10.4800     9.2050     8.8040    24.4910   -31.2740 
   63.1250     2.1570    55.3630    10.6290     9.2450     8.6320    24.5220   -31.5900 
   63.2500     2.1570    54.4460    10.7790     9.2780     8.5900    24.5170   -31.7690 
   63.3750     2.1540    54.2860    10.9300     9.2870     8.6630    24.5030   -31.8650 
   63.5000     2.1490    55.7590    11.0860     9.2730     8.7940    24.4920   -31.9030 
   63.6250     2.1450    60.9910    11.2730     9.2540     8.8210    24.5010   -31.9670 
   63.7500     2.1480    67.1320    11.5200     9.2650     8.8950    24.4890   -32.0430 
   63.8750     2.1620    69.8120    11.8430     9.3260     8.9560    24.4770   -32.1430 
   64.0000     2.1870    67.6980    12.2120     9.4320     9.0540    24.4800   -32.2880 
   64.1250     2.2110    63.0240    12.5190     9.5350     9.2770    24.4060   -32.5240 
   64.2500     2.2230    59.1170    12.6560     9.5740     9.6820    24.1360   -32.7880 
   64.3750     2.2160    57.7540    12.5570     9.5090    10.0300    23.7800   -33.0660 
   64.5000     2.1940    58.9710    12.2350     9.3430     9.7730    23.5360   -33.3620 
   64.6250     2.1670    59.6360    11.7890     9.1300     9.2230    23.3900   -33.6590 
   64.7500     2.1460    57.9500    11.3830     8.9620     8.9150    23.2930   -33.8930 
   64.8750     2.1340    56.8910    11.1130     8.8910     8.9480    23.2400   -33.9930 
   65.0000     2.1310    59.8580    11.0060     8.9270     9.2690    23.2160   -33.9540 
   65.1250     2.1370    63.2290    11.0190     9.0320     9.6270    23.2060   -33.7360 
   65.2500     2.1470    62.4470    11.0110     9.1140     9.7540    23.1930   -33.4230 
   65.3750     2.1580    59.0410    10.8680     9.0990     9.3730    23.1840   -33.0500 
   65.5000     2.1700    57.8960    10.5220     8.9430     8.9810    23.1900   -32.5870 
   65.6250     2.1840    61.0580     9.9500     8.6130     8.4900    23.2270   -31.9850 
   65.7500     2.2030    65.8820     9.2800     8.1750     7.8200    23.2700   -31.3140 
   65.8750     2.2230    72.3240     8.6200     7.6920     7.0880    23.3230   -30.6380 
   66.0000     2.2420    79.5020     8.0530     7.2340     6.6610    23.3570   -29.9990 
   66.1250     2.2520    85.7130     7.6480     6.8750     6.3650    23.3730   -29.4310 
   66.2500     2.2530    90.1830     7.3900     6.6300     5.9960    23.3600   -28.8730 
   66.3750     2.2500    92.7580     7.2580     6.4980     5.8400    23.3200   -28.3190 
   66.5000     2.2470    92.2990     7.2150     6.4540     6.0080    23.3200   -27.8620 
   66.6250     2.2490    89.3620     7.2140     6.4680     6.0500    23.3840   -27.5240 
   66.7500     2.2520    87.9370     7.2190     6.4950     6.1650    23.4170   -27.2670 
   66.8750     2.2530    87.1350     7.2360     6.5230     6.2960    23.4750   -27.1030 
   67.0000     2.2470    85.5370     7.3020     6.5610     6.2530    23.6530   -27.0200 
   67.1250     2.2360    83.2280     7.4710     6.6340     6.1040    23.9120   -27.0140 
   67.2500     2.2270    81.8640     7.7020     6.7380     5.9740    24.0560   -27.1180 
   67.3750     2.2240    82.4740     7.8980     6.8350     6.1060    23.9950   -27.3180 
   67.5000     2.2310    84.8080     7.9300     6.8580     6.6390    23.6950   -27.5210 
   67.6250     2.2420    86.3560     7.6680     6.7190     7.5060    23.3570   -27.7680 
   67.7500     2.2450    85.0990     7.2250     6.4510     7.8000    23.2290   -28.1100 
   67.8750     2.2390    84.5090     6.8200     6.1530     7.1600    23.3510   -28.5020 
   68.0000     2.2350    86.9540     6.7230     5.9880     6.1680    23.6490   -28.9310 
   68.1250     2.2570    87.3950     7.2280     6.1830     5.7420    23.8730   -29.3430 
   68.2500     2.3090    82.2860     8.2450     6.7530     6.4530    23.8170   -29.7730 
   68.3750     2.3740    73.9300     9.5520     7.6100     9.0700    23.5620   -30.2350 
   68.5000     2.4190    65.8700    10.7700     8.5350    12.3940    23.3390   -30.7430 
   68.6250     2.4040    59.8920    11.3460     9.1520    14.2340    23.1840   -31.2930 
   68.7500     2.3450    56.6830    11.1630     9.2720    11.2490    23.0620   -31.7440 
   68.8750     2.2720    57.1100    10.4220     8.9180     9.5560    22.9840   -32.1230 
   69.0000     2.2130    59.2970     9.5310     8.3050     9.1020    22.9470   -32.4520 
   69.1250     2.1820    61.0260     8.8750     7.7200     9.0130    22.9320   -32.7150 
   69.2500     2.1720    61.1590     8.5070     7.3040     9.0030    22.9500   -32.9220 
   69.3750     2.1730    61.2280     8.3510     7.0510     8.8670    22.9950   -32.9700 
   69.5000     2.1790    62.6520     8.2960     6.9030     8.6660    23.0260   -32.8550 
   69.6250     2.1830    65.4460     8.2600     6.7990     8.4290    23.0360   -32.7470 
   69.7500     2.1860    69.1820     8.2160     6.6990     8.1200    23.0510   -32.6630 
   69.8750     2.1860    72.2770     8.1810     6.6060     7.9650    23.0720   -32.6060 
   70.0000     2.1870    71.7500     8.1730     6.5330     7.8610    23.0680   -32.5190 
   70.1250     2.1850    67.0980     8.2070     6.4930     8.0880    23.0050   -32.3380 
   70.2500     2.1820    62.6850     8.2640     6.4800     7.8940    22.8970   -32.1840 
   70.3750     2.1750    62.6680     8.3290     6.4870     7.5920    22.7190   -32.0890 
   70.5000     2.1650    67.4670     8.3960     6.5080     7.3070    22.4740   -32.0920 
   70.6250     2.1540    71.9620     8.4900     6.5540     7.6400    22.3340   -32.0280 
   70.7500     2.1420    72.1870     8.6510     6.6460     7.8860    22.3000   -31.9790 
   70.8750     2.1300    70.4540     8.9110     6.8040     8.0070    22.3060   -31.9670 
   71.0000     2.1210    69.9930     9.2660     7.0360     8.2410    22.2880   -31.9340 
   71.1250     2.1200    71.3570     9.6500     7.3160     9.0380    22.2640   -32.0820 
