~V
VERS. 2.00: Ver 2.00
~W
STRT.M 60.0000:
STOP.M 271.0000:
STEP.M 0.1250:
NULL. -999.2500:
UWI. DF324:
~C
DEPT.M :
SP.MV :
AC.US/MT :
DEN.GM/CC :
GR.API :
CALI.CM :
RXO.OHMM :
RI. :
RML.OHMM :
~A
# ...
   90.0000   -17.2730   500.4820     2.3160   115.5640    22.4990     3.8360     4.6050     4.5550 
   90.1250   -17.2920   504.5940     2.2960   112.0640    22.4810     3.9360     4.5930     4.6340 
   90.2500   -17.4200   494.9840     2.2850   109.6640    22.4640     4.0870     4.6640     4.7440 
   90.3750   -17.6490   475.6320     2.2940   109.3560    22.4660     4.1710     4.7590     4.8470 
   90.5000   -17.9570   455.3780     2.3140   109.1750    22.4740     4.1650     4.8510     4.9420 
   90.6250   -18.3140   442.5450     2.3260   108.5120    22.4880     4.1540     4.9420     5.0520 
   90.7500   -18.6850   435.5040     2.3250   108.5620    22.5110     4.1970     5.0390     5.1790 
   90.8750   -19.0540   431.4740     2.3080   108.0480    22.5490     4.3320     5.1370     5.3100 
   91.0000   -19.4110   431.0380     2.2780   104.6080    22.6020     4.6400     5.2280     5.4280 
   91.1250   -19.7440   437.3710     2.2420    98.4300    22.6870     5.2960     5.3070     5.5200 
   91.2500   -20.0790   446.2830     2.2150    93.6830    22.7790     6.1150     5.3970     5.6140 
   91.3750   -20.4320   450.5520     2.2080    92.2740    22.8590     6.6610     5.5270     5.7540 
   91.5000   -20.8020   445.7320     2.2230    92.7390    22.9550     6.6880     5.7330     5.9930 
   91.6250   -21.1730   432.6360     2.2460    91.7130    23.1420     6.4870     6.0680     6.3990 
   91.7500   -21.5470   414.4290     2.2550    88.3460    23.3920     6.9270     6.5190     6.9430 
   91.8750   -21.9430   389.2620     2.2440    83.8620    23.5610     8.4020     7.0450     7.5600 
   92.0000   -22.3710   357.9140     2.2180    80.5950    23.6090    10.7780     7.5640     8.1420 
   92.1250   -22.8230   331.9830     2.1970    81.2710    23.5460    12.3570     7.9340     8.5240 
   92.2500   -23.2390   324.5450     2.1890    85.1640    23.4040    11.9630     8.0800     8.6380 
   92.3750   -23.5680   340.5410     2.1930    88.9150    23.2410    10.4210     7.9890     8.4850 
   92.5000   -23.7900   375.2170     2.2000    88.7650    23.2090     9.4430     7.7160     8.1460 
   92.6250   -23.9060   415.1720     2.1920    83.7040    23.3690     9.7410     7.3720     7.7770 
   92.7500   -23.9460   444.8260     2.1660    77.7470    23.5330    10.2640     7.1090     7.5540 
   92.8750   -23.9170   458.0020     2.1370    73.7650    23.6100    10.2880     7.0350     7.5930 
   93.0000   -23.8370   455.2660     2.1300    72.6930    23.5960     9.8310     7.2310     7.9630 
   93.1250   -23.7480   435.0610     2.1740    73.9030    23.4950     9.5930     7.7840     8.7170 
   93.2500   -23.7110   398.1900     2.2600    75.1240    23.3330     9.9310     8.6050     9.7280 
   93.3750   -23.7640   347.3500     2.3650    75.2890    23.1890    11.3450     9.5860    10.8480 
   93.5000   -23.9110   293.0460     2.4570    74.4970    23.1750    14.6880    10.5460    11.8450 
   93.6250   -24.1420   252.9520     2.5070    73.2480    23.3970    19.8530    11.1670    12.3310 
   93.7500   -24.4270   236.6980     2.5190    72.2140    23.7330    22.8870    11.2760    12.1680 
   93.8750   -24.7510   250.1490     2.4940    72.1580    23.8670    21.0160    10.8410    11.4430 
   94.0000   -25.0860   292.6740     2.4300    73.6500    23.7230    15.5870     9.9980    10.4380 
   94.1250   -25.3650   352.3880     2.3350    75.6380    23.4140    10.9670     8.9880     9.5150 
   94.2500   -25.5500   405.0340     2.2420    76.3520    23.2450     8.9400     8.0670     8.6260 
   94.3750   -25.6330   438.7870     2.1730    75.6520    23.1840     8.7590     7.3480     7.8960 
   94.5000   -25.6210   454.2960     2.1350    74.0870    23.1420     9.2150     6.8660     7.3890 
   94.6250   -25.5090   458.5740     2.1230    72.2350    23.1010     9.4950     6.6330     7.1450 
   94.7500   -25.3200   460.4120     2.1230    70.3110    23.1360     9.4610     6.5570     7.0640 
   94.8750   -25.0670   462.2960     2.1250    68.9270    23.2250     9.1260     6.5750     7.0840 
   95.0000   -24.7670   463.7240     2.1280    68.6690    23.3090     8.6900     6.6350     7.1470 
   95.1250   -24.4470   462.5710     2.1330    69.4540    23.3390     8.5210     6.7010     7.2160 
   95.2500   -24.1290   458.6940     2.1370    70.5110    23.3340     8.5810     6.7570     7.2750 
   95.3750   -23.8130   453.4390     2.1350    71.8260    23.3140     8.6270     6.7980     7.3180 
   95.5000   -23.4970   448.6510     2.1320    73.8820    23.2700     8.5470     6.8180     7.3390 
   95.6250   -23.2020   445.6650     2.1370    76.8800    23.1560     8.3180     6.8050     7.3250 
   95.7500   -22.9410   443.9320     2.1570    80.0330    22.9390     8.0390     6.7610     7.2790 
   95.8750   -22.7180   442.6370     2.1810    82.7600    22.6740     7.7550     6.6920     7.2060 
   96.0000   -22.5390   441.2410     2.1930    84.1680    22.4900     7.4320     6.6050     7.1160 
   96.1250   -22.4020   440.2330     2.1800    83.0930    22.4050     7.1130     6.5130     7.0180 
   96.2500   -22.2880   440.6790     2.1620    80.5050    22.3450     7.0240     6.4260     6.9280 
   96.3750   -22.1880   442.8740     2.1510    78.2480    22.2690     7.2290     6.3560     6.8530 
   96.5000   -22.1000   445.7420     2.1490    77.1410    22.2460     7.5480     6.3040     6.7990 
   96.6250   -22.0100   447.1620     2.1460    76.4370    22.2710     7.8220     6.2760     6.7700 
   96.7500   -21.9070   446.5980     2.1430    76.1080    22.2240     8.2240     6.2760     6.7700 
   96.8750   -21.7880   445.0210     2.1410    77.0830    22.1410     8.7590     6.3100     6.8060 
   97.0000   -21.6430   443.7050     2.1360    78.5180    22.0610     9.2830     6.3760     6.8750 
   97.1250   -21.4590   441.9070     2.1300    77.8300    21.9710     9.4850     6.4680     6.9710 
   97.2500   -21.2410   436.5120     2.1430    75.8670    21.8650     9.4600     6.5640     7.0720 
   97.3750   -21.0000   425.7690     2.1880    75.0150    21.8080     9.3430     6.6430     7.1550 
   97.5000   -20.7520   412.6440     2.2520    75.8550    21.7930     9.2350     6.6800     7.1940 
   97.6250   -20.5130   406.0610     2.2910    76.6550    21.7920     9.2660     6.6460     7.1590 
   97.7500   -20.2930   409.8280     2.2860    76.4000    21.8010     9.3400     6.5520     7.0590 
   97.8750   -20.0970   420.5430     2.2520    76.2170    21.8380     9.2590     6.4110     6.9120 
   98.0000   -19.9250   431.0430     2.2190    77.6880    21.9180     8.8960     6.2550     6.7470 
   98.1250   -19.7970   435.6870     2.2070    81.2180    22.0210     8.4940     6.1180     6.6040 
   98.2500   -19.7150   436.4230     2.2070    83.9620    22.0760     8.3460     6.0170     6.4980 
   98.3750   -19.6700   436.1970     2.2110    83.8480    22.1030     8.3890     5.9540     6.4310 
   98.5000   -19.6460   436.7010     2.2170    82.0480    22.1450     8.3710     5.9190     6.3950 
   98.6250   -19.6440   438.0170     2.2220    82.0430    22.2360     8.1280     5.8890     6.3630 
   98.7500   -19.6630   439.2690     2.2220    83.4740    22.3570     7.9150     5.8360     6.3080 
   98.8750   -19.7020   439.9740     2.2180    84.0350    22.4890     7.7400     5.7520     6.2190 
   99.0000   -19.7740   440.0590     2.2160    83.3070    22.7020     7.4980     5.6420     6.1040 
   99.1250   -19.9040   439.8150     2.2140    83.6100    22.9700     7.0440     5.5210     5.9770 
   99.2500   -20.0940   439.7870     2.2030    85.1900    23.1290     6.5790     5.4120     5.8620 
   99.3750   -20.3470   440.2410     2.1870    86.6370    23.1580     6.2520     5.3310     5.7780 
   99.5000   -20.6630   440.9590     2.1790    87.3700    23.1190     6.0880     5.2920     5.7370 
   99.6250   -21.0440   441.0450     2.1870    87.7820    23.0850     6.0590     5.3160     5.7610 
   99.7500   -21.4660   439.9420     2.1990    87.5400    23.1130     6.1370     5.3960     5.8460 
   99.8750   -21.9120   437.7700     2.2060    86.3310    23.2050     6.3190     5.5320     5.9890 
