~V
VERS. 2.00: Ver 2.00
~W
STRT.M 60.0000:
STOP.M 227.0000:
STEP.M 0.1250:
NULL. -999.2500:
UWI. DF32025:
~C
DEPT.M :
DEN.GM/CC :
GR.API :
RML.OHMM :
RI. :
RXO.OHMM :
CALI.CM :
SP.MV :
~A
# ...
   82.5000     2.1970    61.1450     8.0650     6.6400     7.2970    23.4590   -33.8010 
   82.6250     2.2020    63.2850     7.9860     6.5100     6.9680    23.4210   -33.7190 
   82.7500     2.2000    65.4020     8.0730     6.4850     7.0130    23.4290   -33.6270 
   82.8750     2.1950    64.2420     8.3060     6.5660     7.4920    23.4390   -33.4940 
   83.0000     2.1880    59.2770     8.6250     6.7280     8.1140    23.4330   -33.4470 
   83.1250     2.1840    56.4140     8.9310     6.9160     8.6320    23.4100   -33.3800 
   83.2500     2.1820    57.9910     9.1390     7.0660     8.8910    23.3780   -33.3950 
   83.3750     2.1820    60.6420     9.2150     7.1430     9.2490    23.3580   -33.3970 
   83.5000     2.1830    61.9880     9.1750     7.1440     9.4720    23.3390   -33.2950 
   83.6250     2.1840    64.7630     9.0730     7.0860     9.4270    23.3140   -33.2230 
   83.7500     2.1860    68.0890     8.9860     7.0170     9.2650    23.3070   -33.0810 
   83.8750     2.1890    67.8360     8.9510     6.9660     9.1880    23.2980   -32.9440 
   84.0000     2.1900    63.6900     8.9740     6.9430     9.1590    23.2800   -32.7030 
   84.1250     2.1860    61.7710     9.0390     6.9450     9.0350    23.2510   -32.5330 
   84.2500     2.1780    65.2050     9.1060     6.9520     8.8890    23.2390   -32.3610 
   84.3750     2.1690    69.3180     9.1500     6.9500     8.6770    23.2360   -32.1750 
   84.5000     2.1650    70.9970     9.1660     6.9370     8.5050    23.2360   -32.0920 
   84.6250     2.1680    71.6530     9.1680     6.9200     8.4930    23.2380   -31.9690 
   84.7500     2.1750    72.0270     9.1860     6.9160     8.5190    23.2510   -31.8970 
   84.8750     2.1850    70.8500     9.2480     6.9420     8.5360    23.2940   -31.8570 
   85.0000     2.1930    68.1420     9.3710     7.0080     8.5630    23.3670   -31.9270 
   85.1250     2.1970    65.6130     9.5640     7.1190     8.7120    23.4440   -31.8860 
   85.2500     2.2000    63.9790     9.7880     7.2550     8.9540    23.4920   -31.9000 
   85.3750     2.2000    63.2480     9.9980     7.3880     9.3260    23.5080   -31.9550 
   85.5000     2.1990    61.9750    10.1440     7.4890     9.7370    23.5100   -31.9820 
   85.6250     2.1970    59.4260    10.1760     7.5240     9.9270    23.4960   -32.1180 
   85.7500     2.1920    57.4660    10.1150     7.5010     9.7550    23.4630   -32.2570 
   85.8750     2.1850    58.1120     9.9970     7.4360     9.4970    23.4730   -32.3960 
   86.0000     2.1760    60.2990     9.8670     7.3540     9.2520    23.4710   -32.4520 
   86.1250     2.1650    59.6290     9.7640     7.2800     9.1410    23.4680   -32.5670 
   86.2500     2.1540    57.1550     9.6940     7.2250     9.3640    23.4670   -32.7540 
   86.3750     2.1450    56.4630     9.6480     7.1870     9.5970    23.4670   -32.8960 
   86.5000     2.1410    59.7940     9.6110     7.1560     9.5830    23.4670   -33.0570 
   86.6250     2.1430    63.9930     9.5750     7.1270     9.3060    23.4670   -33.1530 
   86.7500     2.1510    64.2190     9.5370     7.0960     9.1960    23.4720   -33.2730 
   86.8750     2.1600    61.1190     9.5000     7.0630     9.2820    23.4850   -33.3850 
   87.0000     2.1660    58.9930     9.4620     7.0280     9.3040    23.5160   -33.4590 
   87.1250     2.1660    60.3250     9.4170     6.9870     9.2350    23.5750   -33.6290 
   87.2500     2.1600    62.4040     9.3550     6.9390     9.1550    23.6530   -33.7100 
   87.3750     2.1500    61.6870     9.2730     6.8840     9.1070    23.7430   -33.8410 
   87.5000     2.1420    57.2460     9.1770     6.8240     9.1000    23.8350   -33.9480 
   87.6250     2.1380    53.0280     9.0820     6.7670     9.0320    23.9200   -34.0680 
   87.7500     2.1390    51.5980     9.0140     6.7270     8.9670    23.9860   -34.1190 
   87.8750     2.1420    52.7340     8.9950     6.7140     8.9370    24.0220   -34.1600 
   88.0000     2.1440    54.5890     9.0410     6.7370     9.0290    24.0160   -34.1980 
   88.1250     2.1450    56.4240     9.1460     6.7980     9.2130    23.9560   -34.1550 
   88.2500     2.1440    59.0370     9.2610     6.8700     9.2980    23.8610   -34.0360 
   88.3750     2.1420    60.4060     9.3300     6.9200     9.2360    23.7430   -33.7940 
   88.5000     2.1400    58.5710     9.2990     6.9150     9.0820    23.6130   -33.5570 
   88.6250     2.1380    55.4800     9.1200     6.8160     8.7670    23.4850   -33.1800 
   88.7500     2.1380    55.9330     8.8330     6.6390     8.3040    23.3730   -32.8150 
   88.8750     2.1400    60.7940     8.4910     6.4100     7.8020    23.2880   -32.3500 
   89.0000     2.1450    65.4800     8.1610     6.1690     7.0630    23.2330   -31.8360 
   89.1250     2.1570    65.7770     7.9260     5.9660     6.5730    23.2090   -31.3700 
   89.2500     2.1730    64.9150     7.8160     5.8300     5.9770    23.2020   -30.9420 
   89.3750     2.1880    65.2080     7.8370     5.7720     5.7430    23.2060   -30.6410 
   89.5000     2.1980    66.4170     7.9620     5.7810     5.9210    23.2200   -30.3400 
   89.6250     2.2000    67.7450     8.1190     5.8300     6.7070    23.2580   -30.0690 
   89.7500     2.1980    69.0410     8.2120     5.8640     7.1800    23.3180   -29.8770 
   89.8750     2.1950    68.7030     8.1840     5.8490     7.4920    23.3970   -29.7210 
   90.0000     2.1960    66.4680     8.0360     5.7750     7.4230    23.4890   -29.6020 
   90.1250     2.2020    67.7190     7.8540     5.6710     7.2030    23.5870   -29.3900 
   90.2500     2.2080    71.2280     7.7760     5.6060     6.6100    23.6780   -29.3150 
   90.3750     2.2110    71.5680     7.8900     5.6370     6.0810    23.7550   -29.2950 
   90.5000     2.2070    68.8930     8.2110     5.7880     6.1680    23.8110   -29.3520 
   90.6250     2.1960    67.3090     8.6710     6.0510     7.0380    23.8370   -29.5530 
   90.7500     2.1830    65.4530     9.0980     6.3350     7.9960    23.8420   -29.7240 
   90.8750     2.1740    61.3060     9.3640     6.5660     8.6310    23.8320   -29.9180 
   91.0000     2.1730    59.6520     9.4210     6.6940     8.7940    23.8080   -30.1020 
   91.1250     2.1790    61.9900     9.3180     6.7090     8.6990    23.7720   -30.3570 
   91.2500     2.1870    62.0810     9.2290     6.6930     8.3670    23.7230   -30.4380 
   91.3750     2.1910    58.0540     9.2660     6.7110     7.9840    23.6720   -30.4460 
   91.5000     2.1880    54.2890     9.4490     6.8010     8.1980    23.6280   -30.3160 
   91.6250     2.1750    54.3870     9.6890     6.9480     8.6770    23.5970   -30.0400 
   91.7500     2.1570    55.8460     9.8180     7.0760     9.2390    23.6110   -29.7640 
   91.8750     2.1380    58.4520     9.7310     7.1210     9.4050    23.6320   -29.4460 
   92.0000     2.1250    61.4780     9.4430     7.0670     9.2440    23.6180   -29.1010 
   92.1250     2.1280    63.9100     9.1490     6.9850     8.9990    23.6010   -28.5540 
   92.2500     2.1530    66.8260     9.1020     7.0090     8.8090    23.6210   -27.9810 
   92.3750     2.2000    70.8610     9.4040     7.2170     8.6530    23.6680   -27.3310 
   92.5000     2.2570    74.5750     9.9610     7.5850     9.8690    23.6980   -26.6110 
   92.6250     2.3030    74.0290    10.4580     7.9600    15.9020    23.7160   -25.9020 
   92.7500     2.3220    72.7710    10.5530     8.1320    23.8310    23.7380   -25.1490 
   92.8750     2.3120    74.7110    10.0940     7.9690    18.1580    23.7450   -24.5350 
   93.0000     2.2860    78.4570     9.1990     7.4820     9.3860    23.7220   -23.9810 
   93.1250     2.2590    80.0450     8.2390     6.8320     6.3540    23.6820   -23.5370 
   93.2500     2.2420    79.0880     7.5430     6.2590     5.8930    23.6740   -23.2450 
   93.3750     2.2380    80.7610     7.1750     5.8650     5.9360    23.6700   -23.0180 
   93.5000     2.2450    86.0820     7.0380     5.6500     6.0320    23.6550   -22.9610 
   93.6250     2.2600    89.5980     6.9700     5.5500     6.1270    23.6360   -22.8900 
