~V
VERS. 2.00: Ver 2.00
~W
STRT.M 60.0000:
STOP.M 271.0000:
STEP.M 0.1250:
NULL. -999.2500:
UWI. DF324:
~C
DEPT.M :
SP.MV :
AC.US/MT :
DEN.GM/CC :
GR.API :
CALI.CM :
RXO.OHMM :
RI. :
RML.OHMM :
~A
# ...
  190.0000   -22.9730   462.3050     2.3910   124.1270    23.5590     8.3670     8.1300     8.6470 
  190.1250   -23.0880   472.6350     2.4110   119.8380    23.4340     5.2820     7.0750     7.5460 
  190.2500   -23.2800   473.6740     2.4190   113.1620    23.3910     4.6080     6.7400     7.1970 
  190.3750   -23.5380   467.9660     2.4180   107.3350    23.3880     4.7740     6.8770     7.3400 
  190.5000   -23.8480   458.3620     2.4190   102.2160    23.3910     5.1580     7.2750     7.7560 
  190.6250   -24.1990   446.4000     2.4310    97.5480    23.3950     5.5690     7.7030     8.2020 
  190.7500   -24.5580   434.4220     2.4530    95.6770    23.4140     5.8460     7.9580     8.4680 
  190.8750   -24.9170   424.9220     2.4800    98.3810    23.4500     5.8130     7.9660     8.4760 
  191.0000   -25.2870   419.2440     2.5100   104.2340    23.4570     5.4880     7.7700     8.2720 
  191.1250   -25.6960   416.0520     2.5280   109.6550    23.4490     5.2500     7.5120     8.0030 
  191.2500   -26.1510   412.6580     2.5200   112.5380    23.4280     5.4860     7.3960     7.8820 
  191.3750   -26.6510   409.8690     2.4970   112.3430    23.3940     6.0320     7.6050     8.0990 
  191.5000   -27.1930   410.4480     2.4740   108.6020    23.3390     6.5290     8.3480     8.8760 
  191.6250   -27.7660   415.4300     2.4490   100.8390    23.2790     7.0580    10.0630    10.6650 
  191.7500   -28.3390   419.8660     2.4020    91.1750    23.2130     9.0770    12.9120    13.6400 
  191.8750   -28.8950   419.5990     2.3400    82.0930    23.1430    15.8630    17.0710    17.9820 
  192.0000   -29.4190   414.0700     2.2900    76.1530    23.0960    29.7870    22.5810    23.7340 
  192.1250   -29.8870   406.3950     2.2670    74.6290    23.0760    46.3060    29.4210    30.8760 
  192.2500   -30.2970   400.3790     2.2500    74.6790    23.0710    56.8750    36.9040    38.6880 
  192.3750   -30.6350   397.0250     2.2270    73.9700    23.0750    62.2500    44.5600    46.6810 
  192.5000   -30.8910   396.1850     2.2050    72.4400    23.1090    72.0010    52.2850    54.7450 
  192.6250   -31.0630   398.2400     2.2000    71.3780    23.1930    94.1260    60.7320    63.5650 
  192.7500   -31.1830   402.4250     2.2070    70.2290    23.2990   121.7720    70.5440    73.8080 
  192.8750   -31.2640   406.8470     2.2160    67.9220    23.3700   152.8780    81.7250    85.4810 
  193.0000   -31.3030   408.7820     2.2170    65.4660    23.4340   186.6220    93.1590    97.4180 
  193.1250   -31.2960   406.9180     2.2060    65.3250    23.5390   214.7890   101.8770   106.5200 
  193.2500   -31.2580   404.5170     2.1940    66.6290    23.6860   224.8900   105.5600   110.3640 
  193.3750   -31.2010   404.1310     2.1900    67.7100    23.8440   212.8670   103.0870   107.7820 
  193.5000   -31.1300   405.6620     2.1960    68.5500    23.9470   184.1130    95.0860    99.4290 
  193.6250   -31.0480   406.8890     2.2110    71.3170    23.9840   145.3120    83.5680    87.4050 
  193.7500   -30.9630   407.1120     2.2240    76.6220    23.9900   106.5320    72.1150    75.4490 
  193.8750   -30.8860   407.4860     2.2310    82.5040    23.9910    75.2630    62.7940    65.7170 
  194.0000   -30.8290   408.8350     2.2350    85.6180    23.9930    56.1400    56.6100    59.2610 
  194.1250   -30.7970   410.4350     2.2420    84.1750    23.9970    49.3500    54.1230    56.6640 
  194.2500   -30.7760   411.1070     2.2470    81.9820    23.9980    48.7810    54.3620    56.9140 
  194.3750   -30.7620   410.6940     2.2480    81.6090    23.9960    52.9510    56.8550    59.5170 
  194.5000   -30.7590   409.5510     2.2470    82.4580    23.9850    61.1610    61.0860    63.9340 
  194.6250   -30.7710   407.7220     2.2460    82.7340    23.9500    72.2870    66.3700    69.4500 
  194.7500   -30.7840   405.2120     2.2420    82.8270    23.8930    85.1730    71.5130    74.8200 
  194.8750   -30.7870   402.4150     2.2320    82.8440    23.8450    96.9190    75.6360    79.1240 
  195.0000   -30.7720   400.3850     2.2230    81.8060    23.8400   102.9610    78.0930    81.6890 
  195.1250   -30.7350   400.3820     2.2220    79.5270    23.8630   102.4790    78.1820    81.7810 
  195.2500   -30.6820   401.6500     2.2250    78.4080    23.8640   102.5770    76.4040    79.9260 
  195.3750   -30.6140   403.0160     2.2290    78.9220    23.7970   104.7030    73.3060    76.6910 
  195.5000   -30.5340   404.0470     2.2320    79.4220    23.6680   101.5660    69.5120    72.7310 
  195.6250   -30.4460   405.3700     2.2330    78.9440    23.5250    91.2180    65.6290    68.6770 
  195.7500   -30.3670   406.9520     2.2340    79.1180    23.4530    79.6960    62.3700    65.2740 
  195.8750   -30.3110   407.6780     2.2400    80.8080    23.4200    70.4850    60.3930    63.2110 
  196.0000   -30.2880   406.4640     2.2580    83.4860    23.4110    61.2610    60.4790    63.3000 
  196.1250   -30.3040   402.8400     2.2860    85.6960    23.4560    51.9300    64.3880    67.3820 
  196.2500   -30.3480   397.9450     2.3070    85.3660    23.5500    45.7780    72.7930    76.1560 
  196.3750   -30.4100   393.1860     2.3020    80.8800    23.6430    48.7120    85.9560    89.8980 
  196.5000   -30.4700   390.7410     2.2700    73.2380    23.6950    70.7630   103.0500   107.7440 
  196.6250   -30.5050   393.6110     2.2290    67.2270    23.7530   131.2070   122.0600   127.5910 
  196.7500   -30.5090   400.8330     2.1970    65.9670    23.8510   211.5940   139.1250   145.4070 
  196.8750   -30.4820   409.7490     2.1770    68.2180    23.9430   268.2600   150.7200   157.5120 
  197.0000   -30.4190   417.3190     2.1660    70.5200    23.9820   260.6870   154.5980   161.5600 
  197.1250   -30.3140   421.4600     2.1660    69.8940    23.9340   201.7560   149.9540   156.7120 
  197.2500   -30.1780   422.9730     2.1700    67.6560    23.8020   151.9980   140.8970   147.2570 
  197.3750   -30.0200   422.5730     2.1720    65.7190    23.6310   129.7910   130.6480   136.5570 
  197.5000   -29.8540   420.7700     2.1710    65.2480    23.5310   124.5830   121.4090   126.9110 
  197.6250   -29.6920   418.0970     2.1770    66.5590    23.4530   124.1520   113.1500   118.2880 
  197.7500   -29.5270   415.6910     2.1880    68.9840    23.4160   127.2900   104.0510   108.7890 
  197.8750   -29.3540   414.4370     2.1980    71.9520    23.4010   133.5360    93.0250    97.2780 
  198.0000   -29.1760   414.6690     2.2070    74.7230    23.4220   136.0090    80.1030    83.7880 
  198.1250   -28.9980   415.7260     2.2210    76.9150    23.5110   124.6590    66.4650    69.5500 
  198.2500   -28.8200   415.7700     2.2440    78.7740    23.6530   100.7540    53.9270    56.4590 
  198.3750   -28.6380   413.4650     2.2690    80.3990    23.7970    72.6740    43.6080    45.6870 
  198.5000   -28.4600   408.7780     2.2950    81.8740    23.8830    49.2990    36.0150    37.7590 
  198.6250   -28.3010   403.2560     2.3210    83.2960    23.9080    36.0630    31.6180    33.1700 
  198.7500   -28.1680   398.6890     2.3400    84.0650    23.9080    31.1010    29.6660    31.1310 
  198.8750   -28.0650   395.3990     2.3460    83.6250    23.8960    33.4460    29.7070    31.1740 
  199.0000   -27.9970   393.2360     2.3380    82.4680    23.8800    40.9540    31.1640    32.6950 
  199.1250   -27.9680   392.6030     2.3220    81.2680    23.8840    45.1410    33.2360    34.8580 
  199.2500   -27.9680   393.2180     2.3050    80.0400    23.9000    43.9860    34.7100    36.3980 
  199.3750   -27.9970   394.1800     2.2910    79.1850    23.9060    42.1550    34.6460    36.3300 
  199.5000   -28.0480   394.6160     2.2840    79.4800    23.8870    43.5140    32.6210    34.2160 
  199.6250   -28.1220   395.0040     2.2890    81.8440    23.8330    41.5400    28.9170    30.3490 
  199.7500   -28.2210   396.9650     2.3020    85.6650    23.7740    33.6550    24.9300    26.1870 
  199.8750   -28.3540   401.4880     2.3220    89.7170    23.7530    23.6480    21.6490    22.7610 
