~V
VERS. 2.00: Ver 2.00
~W
STRT.M 60.0000:
STOP.M 276.0000:
STEP.M 0.1250:
NULL. -999.2500:
UWI. DF32145:
~C
DEPT.M :
SP.MV :
GR.API :
CALI.CM :
RXO.OHMM :
RI. :
RML.OHMM :
DEN.GM/CC :
~A
# ...
  127.5000   -25.2360    80.2100    22.9020     6.6600     4.8710     6.9540     2.2030 
  127.6250   -25.7890    78.6060    22.8820     8.1880     5.6730     8.2500     2.2600 
  127.7500   -26.3700    75.5270    22.8750    10.5350     6.4560     9.4790     2.3300 
  127.8750   -26.9650    73.4670    22.8670    11.7510     7.0090    10.2130     2.3680 
  128.0000   -27.5480    75.8960    22.8020    10.4800     7.1940    10.2160     2.3540 
  128.1250   -28.0540    80.0650    22.5970     8.5380     7.0140     9.6320     2.3020 
  128.2500   -28.4780    81.6640    22.3410     7.7590     6.7300     8.9910     2.2530 
  128.3750   -28.8240    80.9970    22.2510     7.9020     6.5240     8.5780     2.2180 
  128.5000   -29.0910    80.8190    22.4100     8.2770     6.5200     8.5390     2.1910 
  128.6250   -29.2630    80.5980    22.7950     8.5020     6.8200     8.9950     2.1650 
  128.7500   -29.3200    79.4780    23.2600     8.6750     7.3490     9.8010     2.1480 
  128.8750   -29.2530    77.5160    23.7270     9.0210     7.9690    10.7400     2.1460 
  129.0000   -29.0300    75.0360    24.0980     9.7700     8.4370    11.4070     2.1490 
  129.1250   -28.6270    73.1320    24.4950    10.3950     8.3690    11.1150     2.1520 
  129.2500   -28.0630    72.1820    24.8110    10.1110     7.7290     9.8610     2.1710 
  129.3750   -27.3800    72.3010    24.8380     8.6060     6.7140     8.1270     2.2190 
  129.5000   -26.6690    74.8980    24.5650     6.5210     5.6630     6.5510     2.2800 
  129.6250   -26.0260    81.9470    24.0910     5.2140     4.9410     5.6500     2.3050 
  129.7500   -25.4580    89.3000    23.8260     5.0770     4.6600     5.4360     2.2890 
  129.8750   -24.9780    90.5580    23.7140     5.9660     4.8420     5.8860     2.2520 
  130.0000   -24.6320    84.7990    23.6950     7.3740     5.4340     6.9070     2.2110 
  130.1250   -24.4840    78.3920    23.7330     8.6240     6.2560     8.2090     2.1730 
  130.2500   -24.4790    75.0210    23.8110     9.2790     6.9050     9.1130     2.1480 
  130.3750   -24.5520    72.8660    23.9060     8.9370     7.1050     9.1490     2.1440 
  130.5000   -24.6200    71.7240    24.0450     7.7970     6.8290     8.4350     2.1610 
  130.6250   -24.5750    73.8060    24.0780     6.5760     6.3060     7.5530     2.1910 
  130.7500   -24.4920    77.4870    23.9690     5.8890     5.8600     6.9750     2.2210 
  130.8750   -24.3660    80.5700    23.8740     5.8490     5.6420     6.8220     2.2370 
  131.0000   -24.2410    80.5750    23.8470     6.3290     5.6990     7.0700     2.2310 
  131.1250   -24.1380    77.9370    23.8650     6.9330     6.0280     7.6490     2.2130 
  131.2500   -24.0860    75.0030    23.8720     7.3140     6.4750     8.3320     2.2060 
  131.3750   -24.1440    73.9070    23.8730     7.5130     6.9030     8.9280     2.2210 
  131.5000   -24.2600    75.4050    23.8640     7.6110     7.1740     9.2570     2.2580 
  131.6250   -24.4150    76.8140    23.8460     7.6160     7.1750     9.1750     2.3080 
  131.7500   -24.5860    75.5300    23.8190     7.4280     7.0040     8.8480     2.3570 
  131.8750   -24.7660    72.8090    23.8080     6.8840     6.8070     8.5070     2.3980 
  132.0000   -24.9250    72.2870    23.8060     6.1510     6.7540     8.4040     2.4280 
  132.1250   -25.0370    75.9570    23.8060     5.6530     7.0330     8.8140     2.4510 
  132.2500   -25.1720    79.6320    23.8060     5.8060     7.6160     9.7050     2.4780 
  132.3750   -25.3380    79.8950    23.8040     7.2220     8.3780    10.9180     2.5070 
  132.5000   -25.6440    75.3670    23.8010    10.3290     9.0780    12.0510     2.5200 
  132.6250   -26.1200    69.1250    23.7990    12.5460     9.3390    12.3970     2.4870 
  132.7500   -26.6510    67.9240    23.7870    11.8790     9.1020    11.8610     2.4160 
  132.8750   -27.2040    71.5170    23.7670     9.8460     8.5330    10.8500     2.3340 
  133.0000   -27.7670    74.7590    23.7530     8.8200     7.9410     9.9270     2.2640 
  133.1250   -28.3100    74.3920    23.7510     9.0330     7.6590     9.5630     2.2200 
  133.2500   -28.7520    72.7620    23.7560     9.7860     7.7770     9.7900     2.1940 
  133.3750   -29.0210    71.0310    23.7490    10.9250     8.2910    10.5490     2.1810 
  133.5000   -29.1090    67.4610    23.7140    12.8910     9.1070    11.6700     2.1800 
  133.6250   -29.0440    62.3900    23.6570    14.6780    10.0460    12.8550     2.1880 
  133.7500   -28.9170    61.3520    23.6440    14.8210    10.8860    13.8060     2.1920 
  133.8750   -28.7400    65.5720    23.6510    13.5870    11.4780    14.3850     2.1860 
  134.0000   -28.5110    70.0180    23.6480    12.9130    11.6980    14.5030     2.1730 
  134.1250   -28.2610    68.7190    23.6200    13.3040    11.3220    13.8990     2.1670 
  134.2500   -27.9960    65.7250    23.5830    12.9820    10.4030    12.5970     2.1790 
  134.3750   -27.7630    67.1810    23.5700    11.1000     9.0980    10.7930     2.2170 
  134.5000   -27.5290    74.8080    23.5750     8.3670     7.6880     8.8990     2.2760 
  134.6250   -27.3360    84.2630    23.5910     6.3550     6.5110     7.4160     2.3280 
  134.7500   -27.1910    90.5570    23.5980     5.5490     5.7040     6.5030     2.3470 
  134.8750   -27.1690    92.7170    23.5990     5.5900     5.2880     6.1700     2.3330 
  135.0000   -27.2360    91.8290    23.5990     6.0370     5.2130     6.3170     2.3020 
  135.1250   -27.3710    89.1650    23.5990     6.4300     5.4010     6.7780     2.2740 
  135.2500   -27.5780    86.0120    23.5990     6.5610     5.6710     7.2440     2.2520 
  135.3750   -27.8500    84.0640    23.5990     6.5520     5.9230     7.5590     2.2370 
  135.5000   -28.1580    82.4890    23.5990     6.5900     6.1320     7.7420     2.2290 
  135.6250   -28.4560    80.2170    23.6000     6.7780     6.3480     7.9700     2.2260 
  135.7500   -28.6970    78.9450    23.6050     7.1700     6.6310     8.3710     2.2190 
  135.8750   -28.8470    78.7440    23.6300     7.9300     6.9960     8.9450     2.2120 
  136.0000   -28.9510    77.5030    23.6860     9.0750     7.3910     9.5740     2.2080 
  136.1250   -28.9980    75.4530    23.7440     9.8410     7.6820    10.0000     2.2050 
  136.2500   -28.9900    74.8890    23.7610     9.7200     7.8010    10.1000     2.1940 
  136.3750   -28.9140    74.9150    23.7340     9.2460     7.8000     9.9810     2.1800 
  136.5000   -28.7980    74.2240    23.6580     9.1110     7.8360     9.9260     2.1760 
  136.6250   -28.5970    73.5040    23.5400     9.6320     8.1880    10.3650     2.1860 
  136.7500   -28.3770    72.9130    23.3850    10.4390     8.9990    11.4800     2.1960 
  136.8750   -28.0940    70.9740    23.2380    12.1860    10.2650    13.2730     2.1950 
  137.0000   -27.7180    67.8580    23.1670    14.7130    11.6970    15.3120     2.1920 
  137.1250   -27.2400    66.5470    23.1250    16.3720    12.4770    16.2470     2.2180 
  137.2500   -26.7000    67.0000    23.0520    16.2350    12.0830    15.2720     2.2780 
  137.3750   -26.1370    70.6100    23.0050    14.2300    10.6470    12.8680     2.3440 
  137.5000   -25.5710    78.7700    23.0690    10.8300     8.8070    10.2310     2.3780 
  137.6250   -25.0730    87.9010    23.2830     8.0770     7.2320     8.3120     2.3640 
  137.7500   -24.6010    91.7220    23.4770     6.5040     6.1160     7.1320     2.3370 
  137.8750   -24.1940    89.6340    23.5770     6.0840     5.4240     6.5280     2.3180 
  138.0000   -23.8750    86.7900    23.6180     6.0220     5.0550     6.2890     2.3100 
  138.1250   -23.6270    85.8400    23.6440     5.8920     4.9110     6.2240     2.3090 
  138.2500   -23.4360    85.8460    23.6540     5.6600     4.8650     6.1850     2.3150 
  138.3750   -23.2780    88.3920    23.6570     5.4530     4.8770     6.1700     2.3250 
  138.5000   -23.1370    95.6350    23.6560     5.3970     4.9330     6.2170     2.3310 
  138.6250   -23.0210   101.4660    23.6400     5.5990     5.0260     6.3480     2.3220 
