~V
VERS. 2.00: Ver 2.00
~W
STRT.M 55.0000:
STOP.M 285.0000:
STEP.M 0.1250:
NULL. -999.2500:
UWI. DF32159:
~C
DEPT.M :
GR.API :
CALI.CM :
RXO.OHMM :
RI. :
RML.OHMM :
DEN.GM/CC :
SP.MV :
~A
# ...
  145.0000    70.9080    25.6080     8.0000     7.7030     9.0590     2.1630   -24.0980 
  145.1250    71.3520    25.6300     7.7570     7.3540     8.6520     2.1720   -24.1010 
  145.2500    74.3420    25.6620     7.3410     7.0700     8.2410     2.1930   -24.0760 
  145.3750    76.2180    25.6940     7.0050     6.9040     7.9000     2.2160   -23.9650 
  145.5000    73.9220    25.7100     7.2030     6.8870     7.7530     2.2310   -23.7470 
  145.6250    69.0400    25.7040     8.0400     7.0330     7.9550     2.2360   -23.3930 
  145.7500    67.7640    25.6930     8.8420     7.2650     8.4220     2.2320   -22.9340 
  145.8750    70.8640    25.6900     9.2170     7.5210     8.9850     2.2210   -22.3950 
  146.0000    74.2300    25.6960     9.2430     7.7450     9.4740     2.2070   -21.8340 
  146.1250    75.5350    25.7090     9.2340     7.9000     9.7550     2.1990   -21.3890 
  146.2500    76.7050    25.7250     9.2590     7.9870     9.8170     2.1950   -21.1390 
  146.3750    77.0240    25.7420     9.2440     7.9870     9.6610     2.1940   -21.1190 
  146.5000    76.5820    25.7630     9.2290     7.8640     9.3120     2.1940   -21.3610 
  146.6250    78.4410    25.8070     9.1750     7.5880     8.8310     2.2010   -21.8660 
  146.7500    82.3060    25.8830     8.7340     7.2420     8.3680     2.2100   -22.4710 
  146.8750    83.5530    25.9650     7.8280     6.9340     8.0440     2.2210   -23.0580 
  147.0000    79.9920    26.0050     7.0260     6.7650     7.9390     2.2390   -23.5320 
  147.1250    75.1430    25.9730     7.2340     6.8310     8.1310     2.2620   -23.7360 
  147.2500    71.7670    25.9180     8.2070     7.0960     8.5640     2.2660   -23.6150 
  147.3750    68.3910    25.8790     9.2140     7.4950     9.1430     2.2350   -23.1540 
  147.5000    65.0540    25.8700     9.6960     7.9060     9.6650     2.1830   -22.3460 
  147.6250    66.3300    25.8880     9.6060     8.1260     9.8420     2.1440   -21.2150 
  147.7500    71.2800    25.9270     9.3580     8.0600     9.6080     2.1300   -19.9580 
  147.8750    77.4860    25.9870     8.9760     7.7200     9.0300     2.1330   -18.6810 
  148.0000    82.8410    26.0570     8.2490     7.2000     8.2630     2.1420   -17.4760 
  148.1250    86.6200    26.1210     7.1960     6.6300     7.4950     2.1570   -16.4660 
  148.2500    90.0640    26.1760     6.3280     6.1280     6.8610     2.1790   -15.6850 
  148.3750    94.7030    26.2400     5.9030     5.7460     6.4140     2.2040   -15.1090 
  148.5000   100.4770    26.3230     5.7640     5.4990     6.1560     2.2290   -14.7240 
  148.6250   101.8790    26.4020     5.6090     5.3950     6.0620     2.2570   -14.5100 
  148.7500    97.8350    26.4500     5.4410     5.3800     6.0340     2.2910   -14.4020 
  148.8750    92.8720    26.4680     5.4690     5.4120     6.0290     2.3270   -14.3740 
  149.0000    91.2660    26.4720     5.7900     5.4540     6.0230     2.3590   -14.3870 
  149.1250    90.5530    26.4720     6.1660     5.4750     6.0150     2.3900   -14.4030 
  149.2500    88.3050    26.4680     6.2150     5.4670     6.0100     2.4270   -14.4020 
  149.3750    87.3420    26.4530     5.9220     5.4320     6.0060     2.4510   -14.3710 
  149.5000    88.7280    26.4210     5.5840     5.3750     6.0030     2.4360   -14.3090 
  149.6250    89.9260    26.3800     5.4740     5.3000     5.9850     2.3780   -14.2190 
  149.7500    91.7780    26.3480     5.4670     5.2040     5.9220     2.3210   -14.1020 
  149.8750    94.8520    26.3370     5.4080     5.0700     5.7680     2.2910   -13.9700 
  150.0000    97.6030    26.3440     5.2810     4.9040     5.5170     2.2900   -13.8400 
  150.1250    98.9880    26.3560     5.1910     4.7620     5.2830     2.2990   -13.7340 
  150.2500    99.7040    26.3630     5.1410     4.7380     5.2470     2.3050   -13.6530 
  150.3750    99.1620    26.3670     5.2160     4.9080     5.5410     2.3110   -13.6070 
  150.5000    95.8770    26.3700     5.9090     5.3120     6.2090     2.3290   -13.5920 
  150.6250    90.8770    26.3740     8.1120     5.9340     7.1650     2.3720   -13.5980 
  150.7500    88.5200    26.3790    10.8260     6.5650     8.0390     2.4320   -13.6430 
  150.8750    90.1020    26.3860    11.9400     6.9710     8.4700     2.4890   -13.7320 
  151.0000    94.4190    26.3990    10.4940     6.9880     8.2860     2.5100   -13.8650 
  151.1250    98.1370    26.4230     8.0330     6.6220     7.6320     2.4640   -14.0520 
  151.2500    99.7480    26.4510     6.5420     6.1540     6.9620     2.3840   -14.3020 
  151.3750   100.3110    26.4680     6.0230     5.7660     6.5060     2.3150   -14.6210 
  151.5000    99.6480    26.4620     5.9210     5.5440     6.3310     2.2830   -15.0170 
  151.6250    98.2580    26.4250     5.9240     5.5160     6.4120     2.2780   -15.5030 
  151.7500    97.1430    26.3630     6.0110     5.5970     6.6050     2.2770   -16.0560 
  151.8750    95.7450    26.2800     6.1980     5.7320     6.8300     2.2740   -16.6560 
  152.0000    94.1320    26.1930     6.4340     5.8780     7.0470     2.2690   -17.2710 
  152.1250    92.2860    26.1280     6.6120     6.0060     7.2530     2.2540   -17.8730 
  152.2500    90.7800    26.0900     6.7290     6.1100     7.4440     2.2330   -18.4150 
  152.3750    90.3340    26.0660     6.8670     6.1930     7.5820     2.2170   -18.8820 
  152.5000    89.8960    26.0450     7.0690     6.2620     7.6200     2.2100   -19.2430 
  152.6250    88.0150    26.0300     7.2580     6.3230     7.5360     2.2080   -19.4340 
  152.7500    86.8060    26.0230     7.3560     6.3820     7.4270     2.2010   -19.4480 
  152.8750    88.3690    26.0220     7.3700     6.4390     7.3880     2.1930   -19.2820 
  153.0000    92.7720    26.0220     7.3390     6.4940     7.4760     2.1900   -18.9690 
  153.1250    94.6380    26.0220     7.2930     6.5470     7.6780     2.1950   -18.5060 
  153.2500    92.6180    26.0220     7.2510     6.5900     7.8760     2.1980   -17.9860 
  153.3750    88.3280    26.0230     7.2330     6.6050     7.9890     2.1970   -17.4590 
  153.5000    85.3190    26.0350     7.2430     6.5670     7.9730     2.1960   -16.9690 
  153.6250    86.6270    26.0880     7.1540     6.4500     7.8140     2.2030   -16.5680 
  153.7500    89.7970    26.1820     6.8540     6.2760     7.5740     2.2140   -16.2560 
  153.8750    91.4040    26.2840     6.3990     6.0810     7.3170     2.2260   -16.0210 
  154.0000    91.0070    26.3450     5.9910     5.9070     7.1090     2.2360   -15.8410 
  154.1250    91.1640    26.3310     5.8740     5.8050     7.0350     2.2400   -15.7190 
  154.2500    92.1010    26.2700     6.0260     5.7900     7.1090     2.2400   -15.6290 
  154.3750    91.7170    26.1960     6.3110     5.8680     7.3270     2.2350   -15.5570 
  154.5000    89.6840    26.1400     6.6070     6.0270     7.6460     2.2300   -15.5000 
  154.6250    89.0070    26.1470     6.9180     6.2480     7.9840     2.2230   -15.4610 
  154.7500    88.5080    26.2170     7.2950     6.4820     8.2560     2.2170   -15.4460 
  154.8750    86.2050    26.3180     7.6880     6.6990     8.4310     2.2160   -15.4530 
  155.0000    85.1630    26.4030     8.0070     6.8850     8.5260     2.2150   -15.4800 
  155.1250    88.4450    26.4400     8.2010     7.0650     8.6400     2.2060   -15.5240 
  155.2500    91.0220    26.4510     8.3640     7.3040     8.9080     2.1880   -15.5310 
  155.3750    89.2310    26.4550     8.6220     7.6790     9.4510     2.1720   -15.4870 
  155.5000    84.5220    26.4580     9.1430     8.2520    10.3540     2.1670   -15.3730 
  155.6250    80.4410    26.4630    10.1880     9.0430    11.6040     2.1770   -15.1680 
  155.7500    78.4720    26.4660    11.5860     9.8340    12.7640     2.1920   -14.9070 
  155.8750    80.0750    26.4690    12.7620    10.2630    13.1820     2.2090   -14.6160 
  156.0000    84.0330    26.4710    13.0220     9.9690    12.3300     2.2240   -14.3380 
  156.1250    87.1750    26.4710    11.8260     8.9060    10.4110     2.2270   -14.1140 
