~V
VERS. 2.00: Ver 2.00
~W
STRT.M 63.0000:
STOP.M 291.0000:
STEP.M 0.1250:
NULL. -999.2500:
UWI. DF325:
~C
DEPT.M :
DEN.GM/CC :
SP.MV :
AC.US/MT :
GR.API :
RML.OHMM :
RI. :
RXO.OHMM :
CALI.CM :
~A
# ...
  243.0000     2.2520   -17.1960   382.5050    75.5920    62.9960    56.5700    53.5520    24.9490 
  243.1250     2.2560   -17.2020   379.4590    75.6070    61.3490    55.6630    54.6140    24.8510 
  243.2500     2.2510   -17.1990   377.8070    77.2780    59.3630    54.3760    56.9250    24.6150 
  243.3750     2.2370   -17.1870   377.7310    78.9720    57.1250    52.7540    59.6400    24.3970 
  243.5000     2.2180   -17.1780   379.2260    78.2870    54.8290    50.9450    63.9600    24.3380 
  243.6250     2.2030   -17.1960   381.4230    77.6280    52.8790    49.2690    67.7120    24.5400 
  243.7500     2.1960   -17.2140   382.5440    79.4830    51.6350    48.0860    63.3380    24.9550 
  243.8750     2.1960   -17.1910   381.5240    81.8250    51.3370    47.6850    51.8210    25.3010 
  244.0000     2.2000   -17.1660   378.8100    80.8660    51.9810    48.1630    46.4780    25.4470 
  244.1250     2.2050   -17.2200   376.6980    75.8100    53.3100    49.3880    47.5660    25.4620 
  244.2500     2.2100   -17.3060   376.7780    72.4640    54.6260    50.7290    49.5940    25.4590 
  244.3750     2.2160   -17.3680   378.6060    72.7120    55.3610    51.6330    50.7120    25.4600 
  244.5000     2.2230   -17.4400   380.6820    74.6960    55.1260    51.6820    51.2000    25.4570 
  244.6250     2.2310   -17.5850   382.4910    76.6300    53.8250    50.6880    50.4340    25.4430 
  244.7500     2.2360   -17.7640   385.2060    78.8100    52.2020    49.2640    48.7690    25.4240 
  244.8750     2.2360   -17.9560   389.5300    81.1250    50.9740    48.0340    46.8310    25.4070 
  245.0000     2.2290   -18.1730   394.6370    80.9320    50.6710    47.5240    45.7260    25.3830 
  245.1250     2.2210   -18.3830   397.9140    77.5800    51.6330    48.1590    47.1070    25.3690 
  245.2500     2.2170   -18.5820   397.7970    74.7460    53.5570    49.7520    50.4750    25.3870 
  245.3750     2.2200   -18.7940   394.2210    74.8420    56.2980    52.1750    54.6360    25.4150 
  245.5000     2.2280   -19.0210   389.0850    76.3630    59.7580    55.3010    57.6720    25.4100 
  245.6250     2.2390   -19.1950   386.4460    75.2650    63.9170    59.0590    58.9770    25.3340 
  245.7500     2.2480   -19.3290   388.3830    73.5000    68.4320    63.1330    61.3040    25.2690 
  245.8750     2.2520   -19.4590   393.8000    74.0830    72.9350    67.2550    66.2850    25.2690 
  246.0000     2.2510   -19.5640   399.2760    75.7360    76.9580    71.0980    73.2260    25.3090 
  246.1250     2.2470   -19.6600   401.4000    74.3050    79.8780    74.1780    81.0430    25.3450 
  246.2500     2.2440   -19.7780   400.4930    71.4990    81.7480    76.4090    84.1140    25.3430 
  246.3750     2.2420   -19.8820   397.5150    69.9950    82.9480    77.9560    83.9780    25.3540 
  246.5000     2.2410   -19.9360   393.6700    71.1210    84.1830    79.2890    82.8930    25.3820 
  246.6250     2.2360   -19.9580   391.2640    72.4960    86.2600    81.1360    80.9820    25.3830 
  246.7500     2.2270   -20.0250   392.1340    71.8660    89.0730    83.7200    78.6960    25.4010 
  246.8750     2.2160   -20.1330   395.7570    69.1080    91.9380    86.5570    80.1700    25.4300 
  247.0000     2.2140   -20.2230   399.0060    67.6510    93.2150    88.4130    86.2940    25.4490 
  247.1250     2.2280   -20.2450   397.8320    71.4870    91.1720    87.1150    88.1920    25.4440 
  247.2500     2.2550   -20.2690   392.3560    75.6090    85.4640    82.2230    86.3470    25.3950 
  247.3750     2.2870   -20.3030   385.1820    77.3410    77.7890    74.5250    81.5710    25.3130 
  247.5000     2.3100   -20.3150   380.3290    77.2520    70.6810    66.1250    72.5350    25.2300 
  247.6250     2.3110   -20.3330   381.3870    74.5140    64.8370    60.0860    59.0320    25.2130 
  247.7500     2.2950   -20.3670   385.3640    71.4970    63.5090    57.7840    51.3420    25.1940 
  247.8750     2.2740   -20.4000   386.7660    70.3080    66.6750    59.5990    55.0170    25.1730 
  248.0000     2.2630   -20.4310   380.3250    71.0950    73.8060    65.2430    69.5410    25.1370 
  248.1250     2.2750   -20.4750   362.0120    71.0580    84.4530    74.4270    89.7910    25.0230 
  248.2500     2.3050   -20.5070   337.8950    69.6310    96.9460    85.5760   108.0330    24.8640 
  248.3750     2.3390   -20.5350   316.5450    69.4030   110.1880    97.6460   116.5660    24.7940 
  248.5000     2.3590   -20.5590   307.1730    72.2540   123.0740   109.5870   112.8570    24.9730 
  248.6250     2.3480   -20.5150   314.9070    77.7150   133.9490   119.9360   109.3430    25.1010 
  248.7500     2.3140   -20.3910   330.8670    80.0970   141.5670   127.5720   112.8890    25.0520 
  248.8750     2.2750   -20.2170   348.3100    75.5560   144.7670   131.4080   121.3490    24.8600 
  249.0000     2.2480   -20.0400   363.4050    66.7710   143.4140   131.1010   128.9780    24.6710 
  249.1250     2.2440   -19.8270   373.6190    61.6640   138.9810   127.5200   128.4050    24.5770 
  249.2500     2.2540   -19.5210   378.3190    61.7980   134.7480   123.5800   115.3380    24.5440 
  249.3750     2.2620   -19.1570   379.0770    64.7760   131.8990   120.7670    96.3050    24.6210 
  249.5000     2.2580   -18.8130   379.9250    68.7350   129.4210   118.8060    87.5170    24.7120 
  249.6250     2.2390   -18.4960   383.7930    72.4400   124.2110   115.3870    92.8850    24.7630 
  249.7500     2.2200   -18.1480   388.7460    73.6960   115.0840   108.8810   105.0520    24.8600 
  249.8750     2.2120   -17.7770   392.2800    72.5740   103.4880    99.7120   106.6910    25.1280 
  250.0000     2.2180   -17.4100   393.3320    71.2290    92.6380    90.1310    92.7750    25.3500 
  250.1250     2.2320   -17.0530   392.2070    72.2050    85.2440    82.7800    74.1790    25.4180 
  250.2500     2.2430   -16.7140   390.1780    72.0020    79.6470    77.1640    61.4610    25.4040 
  250.3750     2.2460   -16.4210   387.8500    70.4260    73.1780    71.2420    55.5260    25.3460 
  250.5000     2.2450   -16.1460   385.4750    69.7890    63.8830    63.0540    54.2960    25.1950 
  250.6250     2.2520   -15.8670   382.1160    72.2990    52.0950    52.2900    50.4460    25.0220 
  250.7500     2.2770   -15.6120   375.9750    77.9490    41.3260    41.8560    39.7430    25.0230 
  250.8750     2.3200   -15.3940   364.8830    85.3030    34.0160    34.2040    29.3620    25.1580 
  251.0000     2.3700   -15.2120   347.8990    90.3420    30.8810    30.4280    29.5430    25.2610 
  251.1250     2.4100   -15.0830   327.5500    88.3410    31.8800    30.8970    38.8810    25.2800 
  251.2500     2.4360   -14.9990   310.5810    82.2710    35.2470    34.0610    51.8110    25.3160 
  251.3750     2.4600   -14.9510   300.0540    76.4120    39.7300    38.7300    64.2540    25.3080 
  251.5000     2.4890   -14.9560   293.1100    70.1590    44.0040    43.4920    71.2980    25.2500 
  251.6250     2.5120   -15.0920   283.5570    63.6880    46.7320    46.7330    72.2660    25.2450 
  251.7500     2.5060   -15.3380   273.5170    61.9880    48.0100    48.2190    70.4960    25.3000 
  251.8750     2.4590   -15.6240   272.5750    65.5270    48.6310    48.6020    62.1430    25.3100 
  252.0000     2.3840   -15.9140   288.0860    69.1900    49.5400    48.9040    49.7830    25.2150 
  252.1250     2.3110   -16.2450   317.3700    69.5110    51.2250    49.8490    47.6150    25.1270 
  252.2500     2.2620   -16.6190   344.7270    69.3530    53.1780    51.1740    55.9610    25.0760 
  252.3750     2.2410   -16.9520   361.1060    71.2450    54.8410    52.3810    62.8290    25.0810 
  252.5000     2.2400   -17.1840   365.2970    73.9930    55.9300    53.1110    61.6290    25.0890 
  252.6250     2.2500   -17.3260   360.7300    74.7580    56.5560    53.3290    56.0750    25.1260 
  252.7500     2.2600   -17.3970   354.2550    72.5760    57.2350    53.4660    52.3670    25.1590 
  252.8750     2.2650   -17.3910   349.0230    70.7050    58.3150    53.8700    52.0100    25.1900 
