~V
VERS. 2.00: Ver 2.00
~W
STRT.M 50.0000:
STOP.M 264.0000:
STEP.M 0.1250:
NULL. -999.2500:
UWI. DF32158:
~C
DEPT.M :
GR.API :
RML.OHMM :
RI. :
RXO.OHMM :
CALI.CM :
DEN.GM/CC :
SP.MV :
~A
# ...
  106.2500    88.9580     9.2970     7.6350     9.4280    23.5040     2.1610   -19.0920 
  106.3750    91.2270     8.9760     7.3770     8.8920    23.6710     2.1650   -18.8830 
  106.5000    92.6780     8.7460     7.1690     8.2510    23.7100     2.1670   -18.7130 
  106.6250    94.6120     8.6590     7.0440     8.0100    23.6530     2.1680   -18.5950 
  106.7500    95.6660     8.6620     6.9820     7.9930    23.6240     2.1680   -18.5330 
  106.8750    94.2690     8.6980     6.9630     7.7940    23.6150     2.1690   -18.5180 
  107.0000    91.2500     8.7250     6.9750     7.7490    23.6130     2.1750   -18.5670 
  107.1250    88.9070     8.7440     7.0150     7.9020    23.5990     2.1850   -18.7430 
  107.2500    86.8180     8.8030     7.0890     8.0480    23.5070     2.1970   -19.0110 
  107.3750    83.4000     8.9380     7.2110     8.4310    23.2960     2.2080   -19.3590 
  107.5000    79.4770     9.1480     7.3870     8.7540    23.1050     2.2150   -19.7520 
  107.6250    76.9420     9.4090     7.6200     8.8560    23.0340     2.2150   -20.2190 
  107.7500    76.2160     9.6770     7.8870     9.1560    23.0250     2.2060   -20.7370 
  107.8750    76.4990     9.9280     8.1690     9.7280    23.0340     2.1930   -21.3520 
  108.0000    76.1990    10.1340     8.4300    10.3290    23.0740     2.1780   -21.9700 
  108.1250    74.7200    10.2540     8.6140    10.5400    23.1770     2.1670   -22.6070 
  108.2500    73.6260    10.2810     8.6980    10.5650    23.3200     2.1600   -23.2420 
  108.3750    74.2850    10.2160     8.6760    10.5200    23.5130     2.1510   -23.8220 
  108.5000    75.4790    10.0860     8.5720    10.4190    23.6770     2.1410   -24.3280 
  108.6250    75.1920     9.9420     8.4370     9.9960    23.7390     2.1280   -24.7130 
  108.7500    73.1410     9.8280     8.3180     9.7710    23.7490     2.1190   -25.0160 
  108.8750    70.8730     9.7500     8.2250     9.8410    23.7520     2.1140   -25.1930 
  109.0000    69.9000     9.6960     8.1530     9.9450    23.7730     2.1130   -25.3110 
  109.1250    71.9110     9.6470     8.0950    10.0110    23.8350     2.1160   -25.3240 
  109.2500    75.1690     9.6040     8.0500     9.6840    23.9120     2.1210   -25.2630 
  109.3750    77.3750     9.5940     8.0300     9.3410    23.9280     2.1300   -25.1780 
  109.5000    78.5910     9.6510     8.0510     9.3320    23.8610     2.1410   -25.0920 
  109.6250    81.5900     9.7960     8.1290     9.7340    23.7840     2.1510   -25.0530 
  109.7500    84.3480     9.9710     8.2340    10.1590    23.7540     2.1550   -25.0300 
  109.8750    83.3080    10.0990     8.3260    10.3220    23.7480     2.1540   -25.0460 
  110.0000    79.8910    10.1190     8.3420    10.3330    23.7480     2.1500   -25.1090 
  110.1250    78.2320    10.0820     8.3490    10.2670    23.7460     2.1460   -25.1970 
  110.2500    77.9600     9.8950     8.2610    10.3210    23.7290     2.1400   -25.3110 
  110.3750    75.9740     9.6320     8.1030    10.1630    23.6980     2.1250   -25.4200 
  110.5000    73.1620     9.4500     7.9720     9.8500    23.7270     2.1010   -25.5130 
  110.6250    73.4570     9.5940     8.0490     9.7420    23.9310     2.0840   -25.5450 
  110.7500    76.2000    10.1150     8.4070     9.7080    24.2870     2.1080   -25.4990 
  110.8750    78.4480    10.9410     9.0320     9.8280    24.6040     2.1870   -25.3940 
  111.0000    77.2780    11.8370     9.7910    10.1930    24.7810     2.3060   -25.2040 
  111.1250    73.4450    12.3310    10.3330    10.7010    24.5870     2.4100   -25.0570 
  111.2500    70.6410    12.1620    10.3710    10.9710    24.1550     2.4510   -24.9520 
  111.3750    69.3060    11.4080     9.8840    10.5970    23.6200     2.4180   -24.9140 
  111.5000    69.9900    10.4390     9.1230    10.3790    23.3240     2.3390   -24.9240 
  111.6250    74.3390     9.7220     8.4460    10.5490    23.2660     2.2610   -25.0340 
  111.7500    80.5040     9.4220     8.0460    10.5140    23.2610     2.2110   -25.2490 
  111.8750    84.2080     9.5050     7.9600    10.4330    23.2360     2.1860   -25.5520 
  112.0000    82.7700     9.8170     8.1230    10.7520    23.1700     2.1740   -25.9170 
  112.1250    77.6210    10.1690     8.4190    10.8890    23.1130     2.1650   -26.2470 
  112.2500    72.3980    10.4500     8.7120    10.9300    23.1500     2.1570   -26.5180 
  112.3750    68.8860    10.6330     8.9410    10.9190    23.3480     2.1510   -26.6970 
  112.5000    68.9870    10.6820     9.0500    10.9390    23.6080     2.1470   -26.7820 
  112.6250    72.2480    10.5000     8.9460    10.8780    23.7800     2.1440   -26.7080 
  112.7500    77.1730    10.1120     8.6560    10.6500    23.9360     2.1430   -26.5070 
  112.8750    83.7090     9.6130     8.2510    10.1630    24.1280     2.1450   -26.1630 
  113.0000    90.1040     9.1500     7.8470     9.2340    24.3480     2.1470   -25.7710 
  113.1250    91.4970     8.9190     7.5930     7.9180    24.4600     2.1410   -25.4220 
  113.2500    86.8320     8.9580     7.5440     7.5230    24.5500     2.1230   -25.1680 
  113.3750    78.9780     9.2190     7.6880     8.6680    24.7490     2.1000   -25.0060 
  113.5000    71.5680     9.5740     7.9530    10.0160    24.7930     2.0830   -24.9460 
  113.6250    68.1500     9.8450     8.2130    10.5130    24.2950     2.0880   -24.9660 
  113.7500    70.1580     9.9490     8.3680    10.6010    23.7480     2.1120   -25.0810 
  113.8750    75.8740     9.9160     8.4080    10.3970    23.5910     2.1450   -25.2720 
  114.0000    81.6070     9.8450     8.3880    10.1070    23.5830     2.1740   -25.4790 
  114.1250    84.3720     9.8410     8.3890    10.0270    23.5040     2.1870   -25.6620 
  114.2500    84.8690     9.8930     8.4370    10.2380    23.4730     2.1830   -25.7430 
  114.3750    83.4110     9.9450     8.5040    10.5580    23.6700     2.1670   -25.7780 
  114.5000    79.2800     9.9470     8.5510    10.6440    23.9560     2.1460   -25.7430 
  114.6250    75.5210     9.8960     8.5570    10.4880    24.0760     2.1290   -25.7010 
  114.7500    75.9880     9.8350     8.5320    10.1830    24.0620     2.1230   -25.6090 
  114.8750    78.1110     9.7830     8.4880     9.8120    23.8960     2.1270   -25.5070 
  115.0000    77.3490     9.7370     8.4340     9.4410    23.5900     2.1390   -25.4060 
  115.1250    76.4410     9.6900     8.3860     9.3480    23.3450     2.1510   -25.2550 
  115.2500    78.6580     9.6610     8.3560     9.2950    23.4150     2.1580   -25.0700 
  115.3750    79.8780     9.6780     8.3590     9.0630    23.5220     2.1570   -24.8420 
  115.5000    76.4610     9.7330     8.3840     8.8250    23.4820     2.1470   -24.5920 
  115.6250    73.2280     9.7220     8.3680     9.0910    23.2730     2.1350   -24.2990 
  115.7500    74.0430     9.5310     8.2370     9.3810    23.1500     2.1250   -23.9300 
  115.8750    75.7990     9.1580     7.9800     9.4890    23.0730     2.1240   -23.4590 
  116.0000    78.5180     8.7580     7.6950     9.1360    23.0340     2.1310   -22.8290 
  116.1250    83.7040     8.6510     7.6040     8.3420    22.9620     2.1450   -22.0470 
  116.2500    87.3150     8.9700     7.8310     7.9000    22.8290     2.1630   -21.1980 
  116.3750    86.3310     9.6470     8.3650     8.7740    22.7990     2.1840   -20.2600 
  116.5000    83.3030    10.3900     9.0180    11.8530    23.1980     2.2100   -19.2350 
  116.6250    85.1570    10.6310     9.3260    17.9350    23.8340     2.2400   -18.0730 
  116.7500    92.9520    10.1210     8.9980    19.3310    24.1630     2.2670   -16.9110 
  116.8750   103.9100     9.0370     8.1180    12.2110    24.1730     2.2810   -15.7900 
  117.0000   114.4220     7.8550     7.0630     6.9390    24.1300     2.2770   -14.7990 
  117.1250   120.0320     7.0590     6.2490     5.7340    24.0630     2.2590   -13.9810 
  117.2500   120.3610     6.7050     5.7770     5.8180    23.8810     2.2420   -13.2830 
  117.3750   117.4840     6.6860     5.6100     6.1780    23.5980     2.2370   -12.7120 
