~V
VERS. 2.00: Ver 2.00
~W
STRT.M 53.0000:
STOP.M 258.0000:
STEP.M 0.1250:
NULL. -999.2500:
UWI. DF32102:
~C
DEPT.M :
SP.MV :
GR.API :
RML.OHMM :
RI. :
RXO.OHMM :
CALI.CM :
DEN.GM/CC :
~A
   53.0000    49.0670  -999.2500  -999.2500  -999.2500  -999.2500  -999.2500  -999.2500 
   53.1250    49.4760  -999.2500  -999.2500  -999.2500  -999.2500  -999.2500  -999.2500 
   53.2500    50.0070  -999.2500  -999.2500  -999.2500  -999.2500  -999.2500  -999.2500 
   53.3750    50.6710  -999.2500  -999.2500  -999.2500  -999.2500  -999.2500  -999.2500 
   53.5000    51.4290  -999.2500  -999.2500  -999.2500  -999.2500  -999.2500  -999.2500 
   53.6250    52.1980  -999.2500  -999.2500  -999.2500  -999.2500  -999.2500  -999.2500 
   53.7500    52.9760  -999.2500  -999.2500  -999.2500  -999.2500  -999.2500  -999.2500 
   53.8750    53.8000  -999.2500  -999.2500  -999.2500  -999.2500  -999.2500  -999.2500 
   54.0000    54.6700  -999.2500  -999.2500  -999.2500  -999.2500  -999.2500  -999.2500 
   54.1250    55.5350  -999.2500  -999.2500  -999.2500  -999.2500  -999.2500  -999.2500 
   54.2500    56.2570  -999.2500  -999.2500  -999.2500  -999.2500  -999.2500  -999.2500 
   54.3750    56.7540  -999.2500  -999.2500  -999.2500  -999.2500  -999.2500  -999.2500 
   54.5000    57.0680  -999.2500  -999.2500  -999.2500  -999.2500  -999.2500  -999.2500 
   54.6250    57.2880  -999.2500  -999.2500  -999.2500  -999.2500  -999.2500  -999.2500 
   54.7500    57.4560  -999.2500  -999.2500  -999.2500  -999.2500  -999.2500  -999.2500 
   54.8750    57.5370  -999.2500  -999.2500  -999.2500  -999.2500  -999.2500  -999.2500 
   55.0000    57.5440  -999.2500  -999.2500  -999.2500  -999.2500  -999.2500  -999.2500 
   55.1250    57.4940  -999.2500  -999.2500  -999.2500  -999.2500  -999.2500  -999.2500 
   55.2500    57.4950  -999.2500  -999.2500  -999.2500  -999.2500  -999.2500  -999.2500 
   55.3750    57.5930  -999.2500  -999.2500  -999.2500  -999.2500  -999.2500  -999.2500 
   55.5000    57.7520  -999.2500  -999.2500  -999.2500  -999.2500  -999.2500  -999.2500 
   55.6250    57.8690  -999.2500  -999.2500  -999.2500  -999.2500  -999.2500  -999.2500 
   55.7500    57.8920  -999.2500  -999.2500  -999.2500  -999.2500  -999.2500  -999.2500 
   55.8750    57.8830  -999.2500  -999.2500  -999.2500  -999.2500  -999.2500  -999.2500 
   56.0000    57.7880  -999.2500  -999.2500  -999.2500  -999.2500  -999.2500  -999.2500 
   56.1250    57.5040  -999.2500  -999.2500  -999.2500  -999.2500  -999.2500  -999.2500 
   56.2500    57.0400  -999.2500  -999.2500  -999.2500  -999.2500  -999.2500  -999.2500 
   56.3750    56.3980  -999.2500  -999.2500  -999.2500  -999.2500  -999.2500  -999.2500 
   56.5000    55.5790  -999.2500  -999.2500  -999.2500  -999.2500  -999.2500  -999.2500 
   56.6250    54.6310  -999.2500  -999.2500  -999.2500  -999.2500  -999.2500  -999.2500 
   56.7500    53.6280  -999.2500  -999.2500  -999.2500  -999.2500  -999.2500  -999.2500 
   56.8750    52.5570  -999.2500  -999.2500  -999.2500  -999.2500  -999.2500  -999.2500 
   57.0000    51.4770  -999.2500  -999.2500  -999.2500  -999.2500  -999.2500  -999.2500 
   57.1250    50.4010  -999.2500  -999.2500  -999.2500  -999.2500  -999.2500  -999.2500 
   57.2500    49.2770  -999.2500  -999.2500  -999.2500  -999.2500  -999.2500     2.1540 
   57.3750    48.0790  -999.2500  -999.2500  -999.2500  -999.2500  -999.2500     2.1540 
   57.5000    46.7590    47.7680    10.2740     1.3560     0.3910    25.5590     2.1540 
   57.6250    45.2820    47.7680    10.2740     1.3560     0.3910    25.5590     2.1550 
   57.7500    43.7980    47.0350    10.1440     1.3500     0.4150    25.5670     2.1550 
   57.8750    42.3060    46.4850     9.7510     1.3320     0.4790    25.5840     2.1520 
   58.0000    40.8020    49.8400     9.4000     1.3190     0.5020    25.5950     2.1440 
   58.1250    39.3440    56.4620     9.1670     1.3140     0.4310    25.6000     2.1310 
   58.2500    38.0120    60.5330     8.9730     1.3130     0.3650    25.6000     2.1190 
   58.3750    36.9230    59.5870     8.7750     1.3120     0.4050    25.6000     2.1180 
   58.5000    36.2300    57.1190     8.5580     1.3090     0.5040    25.6000     2.1320 
   58.6250    35.9540    58.0420     8.3310     1.3040     0.5650    25.6000     2.1620 
   58.7500    35.8240    60.3380     8.1170     1.2990     0.5870    25.6000     2.2000 
   58.8750    35.7080    60.1870     7.9380     1.2970     0.6280    25.6000     2.2370 
   59.0000    35.4850    57.5910     7.8030     1.3000     0.6630    25.6000     2.2610 
   59.1250    35.1880    55.2860     7.7120     1.3090     0.6510    25.6000     2.2540 
   59.2500    34.8560    51.7870     7.6490     1.3230     0.6920    25.6000     2.2160 
   59.3750    34.4700    46.7220     7.6420     1.3370     0.6420    25.6000     2.1560 
   59.5000    33.9840    43.4040     7.7140     1.3490     0.5740    25.6000     2.0940 
   59.6250    33.3620    42.9590     7.8140     1.3440     0.5760    25.6000     2.0480 
   59.7500    32.6900    42.8160     7.7350     1.3060     0.5880    25.6000     2.0250 
   59.8750    32.1260    42.5420     7.2060     1.2140     0.5180    25.6000     2.0320 
   60.0000    31.7370    43.2800     6.0010     1.0510     0.4400    25.6000     2.0770 
   60.1250    31.3570    43.2140     4.0980     0.8150     0.4450    25.6000     2.1780 
   60.2500    30.7420    42.6790     2.2120     0.5590     0.5360    25.6000     2.3170 
   60.3750    29.5870    44.1520     0.9140     0.3380     0.5760    25.5760     2.4630 
   60.5000    27.5260    46.5480     0.2450     0.1860     0.5270    25.4870     2.5660 
   60.6250    24.2980    47.9750     0.0380     0.1190     0.4490    25.3020     2.5700 
   60.7500    20.2660    50.8020     0.1590     0.1460     0.7340    25.0440     2.4990 
   60.8750    15.6330    56.3930     0.6760     0.3310     1.8930    24.2920     2.3950 
   61.0000    10.6370    60.6540     1.7090     0.7660     5.1540    23.7320     2.2930 
   61.1250     5.4930    61.4700     3.2280     1.5820     9.9100    23.5870     2.2230 
   61.2500     0.4750    62.0490     4.8380     2.7040    11.3540    23.5570     2.1860 
   61.3750    -4.1230    63.3810     6.0560     3.9850    11.3260    23.5390     2.1720 
   61.5000    -7.9850    65.3940     6.7250     5.2000    11.2250    23.4990     2.1710 
   61.6250   -10.7830    68.3080     6.8540     6.1280    11.2800    23.4790     2.1730 
   61.7500   -12.8070    71.0990     6.9150     6.8080    11.4750    23.4730     2.1740 
   61.8750   -14.2670    72.2670     7.0810     7.3190    11.6750    23.4730     2.1760 
   62.0000   -15.3580    71.3180     7.3530     7.7210    11.8230    23.4730     2.1820 
   62.1250   -16.2110    67.7290     7.6770     8.0390    11.9240    23.4600     2.1880 
   62.2500   -16.9270    63.0130     7.9960     8.3130    12.0630    23.4290     2.1910 
   62.3750   -17.5550    62.0260     8.2800     8.5570    12.4280    23.4050     2.1860 
   62.5000   -18.0860    65.2860     8.5100     8.7640    13.3210    23.4200     2.1730 
   62.6250   -18.5150    68.3320     8.6530     8.9000    14.1730    23.4860     2.1580 
   62.7500   -18.9650    69.0800     8.7140     8.9600    14.2340    23.5360     2.1480 
   62.8750   -19.4890    69.4750     8.7040     8.9520    13.0580    23.5280     2.1460 
   63.0000   -20.0760    70.5730     8.6580     8.9040    12.3920    23.4410     2.1510 
   63.1250   -20.6670    71.1630     8.6140     8.8530    12.6760    23.3290     2.1590 
   63.2500   -21.2730    71.7480     8.5950     8.8230    12.8870    23.2830     2.1650 
   63.3750   -21.9060    71.4020     8.6020     8.8210    12.9420    23.2930     2.1700 
   63.5000   -22.5970    68.7880     8.6400     8.8550    12.9350    23.3020     2.1750 
   63.6250   -23.3550    65.9380     8.7400     8.9560    12.7980    23.3010     2.1860 
   63.7500   -24.1110    66.1550     8.9220     9.1430    12.9110    23.2750     2.2040 
   63.8750   -24.8480    67.7070     9.1880     9.4130    13.6460    23.2360     2.2280 
   64.0000   -25.5510    68.0360     9.4850     9.7160    15.3610    23.2470     2.2520 
   64.1250   -26.1480    68.5460     9.6930     9.9360    16.9170    23.3830     2.2630 
