~V
VERS. 2.00: Ver 2.00
~W
STRT.M 62.0000:
STOP.M 272.0000:
STEP.M 0.1250:
NULL. -999.2500:
UWI. DF32143:
~C
DEPT.M :
SP.MV :
GR.API :
CALI.CM :
RXO.OHMM :
RI. :
RML.OHMM :
DEN.GM/CC :
~A
# ...
   73.2500   -31.7860    58.0150    24.9980    10.0780     6.5830     8.5300     2.0920 
   73.3750   -31.6660    58.3750    25.1300     9.9900     6.5720     8.4510     2.0960 
   73.5000   -31.4860    60.1970    25.1410     9.8910     6.5420     8.3410     2.1100 
   73.6250   -31.2530    61.1250    25.0700     9.9810     6.4890     8.1960     2.1320 
   73.7500   -30.9930    59.8530    25.0090    10.1650     6.4140     8.0240     2.1480 
   73.8750   -30.7440    59.1850    24.9950    10.1050     6.3150     7.8280     2.1500 
   74.0000   -30.5200    62.2670    25.0350     9.6240     6.2010     7.6190     2.1370 
   74.1250   -30.3500    66.3920    25.0700     9.0520     6.1000     7.4340     2.1170 
   74.2500   -30.2290    67.2750    25.0060     8.7940     6.0430     7.3150     2.1030 
   74.3750   -30.1630    65.5420    24.8560     8.8470     6.0560     7.3040     2.1080 
   74.5000   -30.1000    63.8900    24.7190     9.1110     6.1590     7.4330     2.1300 
   74.6250   -29.9770    64.0400    24.6570     9.6050     6.3730     7.7240     2.1520 
   74.7500   -29.7460    65.5210    24.6300    10.1780     6.6500     8.0900     2.1560 
   74.8750   -29.3470    65.6820    24.6470    10.6290     6.9150     8.4100     2.1430 
   75.0000   -28.7430    64.1960    24.7930    10.8950     7.0720     8.5460     2.1270 
   75.1250   -27.8780    66.0870    25.1730    10.8890     7.0080     8.3680     2.1260 
   75.2500   -26.8420    72.1100    25.7470    10.3120     6.7490     7.9610     2.1460 
   75.3750   -25.6640    79.2020    26.3630     9.0030     6.3590     7.4400     2.1830 
   75.5000   -24.4050    84.7010    26.7320     7.4330     5.9270     6.9200     2.2250 
   75.6250   -23.1400    88.7390    26.5610     6.4230     5.5370     6.5110     2.2580 
   75.7500   -21.9620    92.9510    25.9910     5.9610     5.2260     6.2440     2.2810 
   75.8750   -20.9540    97.4380    25.3460     5.6660     5.0030     6.1290     2.2990 
   76.0000   -20.1640   101.9990    24.9590     5.3220     4.8650     6.1500     2.3090 
   76.1250   -19.6300   102.6610    24.9440     5.0830     4.8010     6.2630     2.3080 
   76.2500   -19.2440   100.9740    24.9980     5.0740     4.7740     6.3920     2.3010 
   76.3750   -18.9610   100.0240    24.9660     5.1770     4.7660     6.4970     2.2970 
   76.5000   -18.7590    99.6480    24.8400     5.2070     4.7620     6.5640     2.3000 
   76.6250   -18.6610    98.6510    24.6070     5.1200     4.7500     6.5880     2.3050 
   76.7500   -18.6270    99.8260    24.4130     5.0690     4.7310     6.5890     2.3060 
   76.8750   -18.6400   105.3270    24.3930     5.1070     4.7110     6.5850     2.3060 
   77.0000   -18.7200   109.5860    24.4890     5.1780     4.7000     6.5840     2.3080 
   77.1250   -18.9400   106.0090    24.5950     5.2590     4.7000     6.5860     2.3080 
   77.2500   -19.3080    99.3580    24.6750     5.4220     4.7190     6.6060     2.3020 
   77.3750   -19.8250    95.1280    24.6120     5.6460     4.7750     6.6870     2.2920 
   77.5000   -20.5110    94.3400    24.3220     5.9130     4.8990     6.8930     2.2880 
   77.6250   -21.3410    94.2250    24.0240     6.7950     5.1400     7.3300     2.2960 
   77.7500   -22.2310    92.0400    23.9160     8.8070     5.4970     7.9790     2.3040 
   77.8750   -23.0910    86.5840    24.2240    11.2260     5.9430     8.7660     2.2940 
   78.0000   -23.8290    80.0340    25.0950    12.3200     6.3980     9.5140     2.2550 
   78.1250   -24.3430    76.3440    25.8540    11.3200     6.6950     9.9010     2.1970 
   78.2500   -24.6640    75.9680    25.7810     9.9880     6.7390     9.8060     2.1550 
   78.3750   -24.8530    77.5070    25.2050     9.0660     6.5340     9.3050     2.1460 
   78.5000   -24.9510    81.0170    24.8860     8.1900     6.1850     8.6390     2.1660 
   78.6250   -25.0080    83.4790    24.8940     7.1130     5.8490     8.1080     2.1950 
   78.7500   -25.0780    80.9790    24.6480     6.4410     5.6360     7.8540     2.2160 
   78.8750   -25.2000    75.2080    24.3740     6.6540     5.5800     7.8970     2.2200 
   79.0000   -25.4300    72.0780    24.3790     7.5230     5.6630     8.1720     2.2070 
   79.1250   -25.8020    73.7100    24.6160     8.2730     5.8360     8.5410     2.1860 
   79.2500   -26.2670    74.6790    24.8020     8.6060     6.0090     8.8260     2.1670 
   79.3750   -26.7570    73.6240    24.8960     8.6650     6.1280     8.9440     2.1520 
   79.5000   -27.1910    72.2730    24.9530     8.4380     6.1760     8.9120     2.1390 
   79.6250   -27.4460    70.2180    24.8680     7.9300     6.1870     8.8620     2.1280 
   79.7500   -27.5040    66.8120    24.6920     7.5510     6.2290     8.9330     2.1200 
   79.8750   -27.3230    64.2210    24.6450     7.4990     6.3320     9.1520     2.1160 
   80.0000   -26.8690    63.6180    24.8710     7.6290     6.4740     9.4380     2.1080 
   80.1250   -26.1040    62.9630    25.3520     7.7120     6.5680     9.5750     2.0930 
   80.2500   -25.1370    64.7930    25.8340     7.6430     6.5240     9.3910     2.0920 
   80.3750   -24.0490    72.7940    26.1500     7.3190     6.3010     8.8570     2.1220 
   80.5000   -22.8870    83.7680    26.1120     6.6950     5.9380     8.1200     2.1770 
   80.6250   -21.7340    89.1560    25.4650     6.0430     5.5500     7.4610     2.2210 
   80.7500   -20.6300    88.5590    24.5130     5.7250     5.2660     7.0820     2.2350 
   80.8750   -19.6250    86.0260    23.7290     5.7320     5.1510     7.0530     2.2300 
   81.0000   -18.7290    84.3760    23.3650     5.7900     5.2140     7.3280     2.2310 
   81.1250   -17.9570    83.5070    23.2970     5.8400     5.3990     7.7440     2.2630 
   81.2500   -17.2900    84.4060    23.3180     6.0110     5.5570     8.0140     2.3210 
   81.3750   -16.6880    86.2250    23.4440     6.0780     5.5650     7.9380     2.3810 
   81.5000   -16.1630    88.6500    23.8220     5.6370     5.3710     7.4770     2.4110 
   81.6250   -15.7040    91.9560    24.6110     4.7580     5.0180     6.7950     2.3920 
   81.7500   -15.3210    97.1360    25.2750     4.0670     4.6550     6.1920     2.3550 
   81.8750   -15.0510   103.4740    25.2770     3.7750     4.3720     5.8070     2.3250 
   82.0000   -14.9570   108.2530    24.6400     3.7830     4.2110     5.6720     2.3090 
   82.1250   -15.1210   107.0210    23.9720     4.0400     4.1870     5.7450     2.3000 
   82.2500   -15.4960   101.3830    23.6100     4.4210     4.2400     5.8830     2.2930 
   82.3750   -16.0770    95.2300    23.4530     4.7250     4.3420     6.0290     2.2870 
   82.5000   -16.8410    92.0410    23.4390     4.8430     4.4910     6.2120     2.2810 
   82.6250   -17.7860    89.7750    23.4940     4.9830     4.7420     6.5640     2.2790 
   82.7500   -18.8220    83.6780    23.4390     5.4790     5.1280     7.1600     2.2860 
   82.8750   -19.8690    74.8380    23.2100     6.4400     5.6710     8.0290     2.2960 
   83.0000   -20.8230    67.8210    22.9070     7.6560     6.3590     9.1170     2.2920 
   83.1250   -21.5440    65.6800    22.7140     8.5010     7.0900    10.1930     2.2540 
   83.2500   -22.0110    66.4760    22.6410     8.6930     7.6470    10.8910     2.2020 
   83.3750   -22.2040    68.9050    22.6350     8.4560     7.8310    10.9350     2.1620 
   83.5000   -22.1210    73.3430    22.6910     7.9770     7.5580    10.2900     2.1510 
   83.6250   -21.7440    79.1250    22.8860     7.0280     6.8880     9.1680     2.1730 
   83.7500   -21.1770    83.6330    23.2260     5.8320     6.1020     7.9990     2.2090 
   83.8750   -20.4890    86.0300    23.6690     4.9330     5.3530     6.9630     2.2420 
   84.0000   -19.7690    87.4410    24.1130     4.6130     4.7150     6.0990     2.2600 
   84.1250   -19.1640    90.4210    24.4790     4.6110     4.2460     5.4660     2.2620 
   84.2500   -18.7470    92.6830    24.8160     4.4770     3.9650     5.1320     2.2670 
   84.3750   -18.5710    92.7310    25.1700     4.1890     3.9270     5.2300     2.2880 
