~V
VERS. 2.00: Ver 2.00
~W
STRT.M 53.0000:
STOP.M 258.0000:
STEP.M 0.1250:
NULL. -999.2500:
UWI. DF32102:
~C
DEPT.M :
SP.MV :
GR.API :
RML.OHMM :
RI. :
RXO.OHMM :
CALI.CM :
DEN.GM/CC :
~A
# ...
  109.2500   -24.7460    88.1900     7.0750     5.5810     5.5600    24.3060     2.3220 
  109.3750   -25.2560    86.5580     7.1070     5.5990     6.0970    24.1660     2.3160 
  109.5000   -25.8700    87.8040     7.0930     5.6050     6.8030    24.0070     2.3090 
  109.6250   -26.6390    90.9870     7.1080     5.6410     6.6320    23.8730     2.2970 
  109.7500   -27.3370    91.4510     7.2450     5.7680     6.3450    23.7330     2.2770 
  109.8750   -27.9450    87.6690     7.5680     6.0320     6.8550    23.5720     2.2510 
  110.0000   -28.4330    81.1060     8.0820     6.4450     8.3860    23.4590     2.2210 
  110.1250   -28.7600    74.3910     8.7310     6.9830     9.7600    23.4950     2.1920 
  110.2500   -28.8450    68.4370     9.3480     7.5290    10.2880    23.6090     2.1690 
  110.3750   -28.7380    63.5890     9.7700     7.9600    10.3660    23.8090     2.1580 
  110.5000   -28.3660    61.4370     9.8630     8.1590    10.2430    24.1280     2.1600 
  110.6250   -27.6470    63.4130     9.5140     8.0070    10.5010    24.4780     2.1800 
  110.7500   -26.8620    67.5430     8.8820     7.5880    10.4880    24.7270     2.2080 
  110.8750   -25.9940    71.3160     8.1400     7.0190     9.6400    24.8670     2.2330 
  111.0000   -25.1860    75.1100     7.4780     6.4450     7.6690    24.9610     2.2490 
  111.1250   -24.4860    81.2910     7.0850     6.0300     6.1040    25.0430     2.2510 
  111.2500   -23.8710    85.7160     6.9640     5.8180     6.0870    25.0890     2.2440 
  111.3750   -23.4160    85.7110     7.0490     5.7900     6.5100    25.1010     2.2370 
  111.5000   -23.1110    82.4620     7.2160     5.8740     6.6660    25.1000     2.2360 
  111.6250   -22.9570    81.6330     7.3040     5.9610     6.9410    25.0970     2.2440 
  111.7500   -22.8520    85.6750     7.2330     5.9630     6.7570    25.1020     2.2590 
  111.8750   -22.8790    90.7620     7.0140     5.8570     6.0820    25.1130     2.2780 
  112.0000   -22.9160    91.7640     6.7230     5.6710     5.5440    25.1380     2.2980 
  112.1250   -22.8800    87.6810     6.4560     5.4570     5.3210    25.1730     2.3210 
  112.2500   -23.0110    84.9200     6.2470     5.2580     5.2390    25.1880     2.3460 
  112.3750   -23.1650    86.8140     6.0870     5.0850     5.1980    25.1920     2.3710 
  112.5000   -23.3440    90.7060     5.9600     4.9370     5.2040    25.1920     2.3880 
  112.6250   -23.7510    92.3020     5.8670     4.8220     5.1150    25.1730     2.3840 
  112.7500   -24.1890    90.2190     5.8250     4.7570     5.0080    25.1230     2.3600 
  112.8750   -24.6770    85.4880     5.8680     4.7680     4.9910    25.0450     2.3230 
  113.0000   -25.2720    80.8500     6.0280     4.8820     5.1620    24.9180     2.2880 
  113.1250   -25.9320    79.0530     6.3570     5.1460     5.9180    24.6110     2.2670 
  113.2500   -26.5760    77.9580     6.8430     5.5540     6.9120    24.2330     2.2590 
  113.3750   -27.1970    75.1470     7.4680     6.0980     7.4530    23.9830     2.2570 
  113.5000   -27.8240    71.8430     8.1830     6.7400     7.6950    23.9030     2.2530 
  113.6250   -28.3460    71.1680     8.8850     7.4060     8.6650    23.9180     2.2410 
  113.7500   -28.8070    72.6770     9.4520     7.9890     9.7400    23.9470     2.2290 
  113.8750   -29.2030    73.0140     9.7930     8.4050    10.2830    23.9620     2.2220 
  114.0000   -29.5020    70.2170     9.8700     8.6100    10.2210    23.9450     2.2210 
  114.1250   -29.7820    65.7880     9.7030     8.5900     9.9290    23.9380     2.2240 
  114.2500   -29.9820    62.0110     9.4580     8.4640     9.6180    23.9860     2.2230 
  114.3750   -30.1170    60.8190     9.2750     8.3430     9.2780    24.1320     2.2150 
  114.5000   -30.1980    62.6970     9.2720     8.3310     9.2590    24.4450     2.1990 
  114.6250   -30.1510    64.4520     9.5410     8.5180     9.6110    24.8770     2.1770 
  114.7500   -30.0370    63.7190     9.9600     8.8470    10.1460    25.0810     2.1570 
  114.8750   -29.8170    62.5220    10.3620     9.1990    10.7000    25.1160     2.1440 
  115.0000   -29.4840    62.7010    10.5400     9.3960    11.0160    25.0880     2.1450 
  115.1250   -29.0800    61.0240    10.2160     9.1830    10.9150    25.0120     2.1670 
  115.2500   -28.7460    58.4880     9.5030     8.5570    10.4710    24.8980     2.2030 
  115.3750   -28.4990    60.4510     8.6080     7.6500     9.4750    24.7480     2.2430 
  115.5000   -28.2940    68.2920     7.8170     6.7050     7.8310    24.6090     2.2730 
  115.6250   -28.3630    76.8080     7.4590     6.0410     6.0660    24.5600     2.2790 
  115.7500   -28.5480    80.4320     7.3690     5.7860     5.4400    24.5170     2.2680 
  115.8750   -28.8280    78.3530     7.8450     5.9780     6.2030    24.4440     2.2470 
  116.0000   -29.2770    72.6760     8.7710     6.5690     7.5900    24.3850     2.2260 
  116.1250   -29.7350    67.7960     9.9440     7.4660     9.3650    24.3810     2.2140 
  116.2500   -30.1590    65.0740    11.0470     8.4300    10.7850    24.4300     2.2130 
  116.3750   -30.5330    64.5700    11.8980     9.3000    11.1210    24.4960     2.2240 
  116.5000   -30.8950    66.3170    12.4610     9.9900    10.9330    24.5230     2.2470 
  116.6250   -31.0320    68.9530    12.8280    10.4800    10.9970    24.4760     2.2800 
  116.7500   -31.1330    68.8970    13.1390    10.8470    11.2010    24.4390     2.3120 
  116.8750   -31.2020    64.5080    13.3730    11.0850    11.4850    24.4670     2.3310 
  117.0000   -31.1880    58.3320    13.4320    11.1470    11.6640    24.6110     2.3280 
  117.1250   -31.2500    56.0180    13.1860    10.9460    11.5130    24.6920     2.3010 
  117.2500   -31.2150    58.8320    12.7050    10.5370    10.9370    24.7050     2.2660 
  117.3750   -31.2350    65.9960    12.1130    10.0060    10.1380    24.6700     2.2400 
  117.5000   -31.2550    73.6770    11.5650     9.4750     9.8810    24.6440     2.2290 
  117.6250   -31.2400    75.7440    11.2210     9.0920    10.3950    24.6350     2.2330 
  117.7500   -31.2890    71.8420    11.1070     8.9110    10.6580    24.6350     2.2400 
  117.8750   -31.3380    67.7330    11.2190     8.9480    10.0680    24.6280     2.2420 
  118.0000   -31.3470    67.4260    11.5220     9.1820     9.8170    24.6080     2.2360 
  118.1250   -31.3210    68.1350    11.9600     9.5760    10.7570    24.5700     2.2230 
  118.2500   -31.2740    66.0840    12.4130    10.0160    11.8410    24.5720     2.2090 
  118.3750   -31.0890    62.5060    12.7730    10.4090    12.2310    24.6070     2.1980 
  118.5000   -30.8530    59.9030    12.9330    10.6630    12.1790    24.6410     2.1930 
  118.6250   -30.6150    58.3900    12.7710    10.6570    12.0400    24.6700     2.1960 
  118.7500   -30.2360    57.5000    12.3530    10.4140    12.0340    24.6970     2.2030 
  118.8750   -29.8260    57.5820    11.8010    10.0040    12.0480    24.7160     2.2110 
  119.0000   -29.4240    58.2210    11.2790     9.5490    11.6360    24.7230     2.2190 
  119.1250   -28.9850    59.7620    10.9490     9.1870    10.3820    24.7290     2.2220 
  119.2500   -28.5430    61.7550    10.7930     8.9530     9.3370    24.7460     2.2210 
  119.3750   -28.0730    63.7720    10.7100     8.8020     9.9870    24.7720     2.2210 
  119.5000   -27.5750    64.2920    10.5480     8.6370    10.9740    24.7980     2.2280 
  119.6250   -27.0700    64.3070    10.1480     8.3380    11.1820    24.8650     2.2450 
  119.7500   -26.6450    66.5450     9.5540     7.9050     9.9890    24.9190     2.2660 
  119.8750   -26.2550    71.6970     8.8950     7.4070     8.0950    24.9240     2.2830 
  120.0000   -25.8730    77.2520     8.3350     6.9520     6.8000    24.8750     2.2900 
  120.1250   -25.5630    78.1340     8.0410     6.6730     6.7280    24.7600     2.2880 
  120.2500   -25.3080    74.1320     7.9940     6.5880     7.2200    24.6700     2.2840 
  120.3750   -25.2360    69.9130     8.1310     6.6750     7.3510    24.6730     2.2840 
