~V
VERS. 2.00: Ver 2.00
~W
STRT.M 62.0000:
STOP.M 318.0000:
STEP.M 0.1250:
NULL. -999.2500:
UWI. DF321:
~C
DEPT.M :
DEN.GM/CC :
SP.MV :
AC.US/MT :
GR.API :
CALI.CM :
RXO.OHMM :
RI. :
RML.OHMM :
~A
# ...
  132.0000     2.4070   -17.4280   426.0460   118.6640    24.0890     4.2650     3.7550     4.2480 
  132.1250     2.4130   -17.6050   425.3940   121.6910    24.0210     4.3350     3.7750     4.3240 
  132.2500     2.4100   -17.7970   425.1410   120.8830    24.0610     4.4060     3.7860     4.4030 
  132.3750     2.3970   -18.0530   424.2520   116.3050    24.1300     4.4340     3.7810     4.4670 
  132.5000     2.3770   -18.4040   421.1840   112.1740    24.2620     4.4180     3.7690     4.5080 
  132.6250     2.3550   -18.8000   414.6300   112.0430    24.3560     4.3950     3.7710     4.5360 
  132.7500     2.3340   -19.3160   406.7840   113.8230    24.1170     4.3990     3.8160     4.5910 
  132.8750     2.3170   -19.9500   401.1390   114.1670    23.7340     4.5290     3.9360     4.7290 
  133.0000     2.3040   -20.6300   401.0870   111.3550    23.5840     4.8650     4.1580     5.0020 
  133.1250     2.2950   -21.4170   408.5810   107.0870    23.6050     5.4360     4.5240     5.4840 
  133.2500     2.2840   -22.2440   419.6470   102.3220    23.5600     6.2970     5.0050     6.1420 
  133.3750     2.2680   -23.0470   430.1660    94.0810    23.3200     7.6310     5.5570     6.9060 
  133.5000     2.2440   -23.7660   437.0160    83.2470    23.0900     9.1430     6.1020     7.6400 
  133.6250     2.2160   -24.3890   438.7460    75.8900    23.1180    10.1070     6.5210     8.1380 
  133.7500     2.1900   -24.8360   437.5460    72.9990    23.3250    10.4870     6.7690     8.3470 
  133.8750     2.1680   -25.0910   435.1570    72.9120    23.4700    10.5670     6.8510     8.3110 
  134.0000     2.1550   -25.1930   432.7440    73.0070    23.5060    10.4780     6.8460     8.1750 
  134.1250     2.1490   -25.0190   430.0750    70.8580    23.4150    10.2920     6.9170     8.1910 
  134.2500     2.1230   -24.6380   424.9910    68.6580    23.3170    10.1900     7.1690     8.4950 
  134.3750     2.0710   -24.0830   414.5410    69.2260    23.3020    10.1920     7.5970     9.0610 
  134.5000     2.0270   -23.3750   397.1620    71.7800    23.3720    10.8720     8.0520     9.6630 
  134.6250     2.0640   -22.5200   375.5420    70.5660    23.4600    14.5170     8.1820     9.7750 
  134.7500     2.1860   -21.6370   358.4750    69.9530    23.4960    19.4400     7.7930     9.1160 
  134.8750     2.3380   -20.7490   353.2450    75.7120    23.6490    18.9660     6.9180     7.8070 
  135.0000     2.4490   -19.8310   362.4750    84.1290    23.9040    12.2110     5.8190     6.3140 
  135.1250     2.4760   -19.0640   382.9650    87.9230    24.3260     6.3550     4.8370     5.1460 
  135.2500     2.4520   -18.4130   404.3100    88.2430    24.7970     4.5890     4.1220     4.4120 
  135.3750     2.4150   -17.8440   420.6090    90.4200    25.5040     4.1950     3.6970     4.0710 
  135.5000     2.3900   -17.4830   430.1780    95.0680    26.5950     4.1280     3.5190     4.0200 
  135.6250     2.3890   -17.3000   434.1790    98.1690    27.1310     4.0980     3.5200     4.1300 
  135.7500     2.4050   -17.1870   435.9080    98.5000    26.5630     4.0660     3.5700     4.2370 
  135.8750     2.4280   -17.2020   436.4260    97.0540    25.4660     4.0170     3.5980     4.2710 
  136.0000     2.4470   -17.3120   436.1060    97.1050    24.8030     3.9850     3.5710     4.2110 
  136.1250     2.4460   -17.5020   435.3960    99.7200    24.7260     4.0140     3.4820     4.0610 
  136.2500     2.4290   -17.7850   434.9550   103.0480    24.6730     4.0610     3.3860     3.8970 
  136.3750     2.4110   -18.1490   434.8780   105.9240    24.5040     4.0520     3.3520     3.8130 
  136.5000     2.4020   -18.5740   434.6780   105.4820    24.3940     4.1060     3.4490     3.9060 
  136.6250     2.3860   -19.0720   433.5180   102.3190    24.3830     4.4750     3.7540     4.2920 
  136.7500     2.3540   -19.6600   431.5460    99.7060    24.1580     5.4920     4.2370     4.9470 
  136.8750     2.3190   -20.3040   429.5880    95.2020    23.8890     7.2280     4.8480     5.8090 
  137.0000     2.2950   -20.9530   428.6690    87.1860    23.7640     9.0880     5.4900     6.7210 
  137.1250     2.2780   -21.5990   429.5370    79.8690    23.7280     9.4980     6.0030     7.4060 
  137.2500     2.2510   -22.2530   431.5100    76.8890    23.7140     8.9040     6.3250     7.7530 
  137.3750     2.2150   -22.8480   433.8690    75.0920    23.7340     8.3830     6.4790     7.8270 
  137.5000     2.1800   -23.4060   436.0870    71.1560    23.7590     8.3320     6.5480     7.7970 
  137.6250     2.1630   -23.9300   437.8930    67.9540    23.7370     8.4860     6.6280     7.8280 
  137.7500     2.1620   -24.3240   439.3010    68.5400    23.6630     8.5670     6.7610     7.9530 
  137.8750     2.1680   -24.6390   440.2160    70.8990    23.5730     8.6450     6.9370     8.1310 
  138.0000     2.1700   -24.8940   440.4660    71.3510    23.5010     8.8290     7.1260     8.3100 
  138.1250     2.1670   -25.0530   439.7080    68.7120    23.4730     9.0980     7.3080     8.4620 
  138.2500     2.1620   -25.1170   438.0000    67.4910    23.4400     9.2730     7.4840     8.6150 
  138.3750     2.1600   -25.0800   435.4480    68.1170    23.3870     9.3260     7.6740     8.8210 
  138.5000     2.1610   -24.9190   432.3580    68.8640    23.3340     9.2750     7.8890     9.1200 
  138.6250     2.1700   -24.6820   429.3150    70.8460    23.3710     9.0410     8.0910     9.4760 
  138.7500     2.1830   -24.3240   427.0210    73.1200    23.4220     8.8380     8.1490     9.6820 
  138.8750     2.1920   -23.8600   426.1180    73.3580    23.4630     8.9480     7.8870     9.4590 
  139.0000     2.1900   -23.3940   427.2410    72.5950    23.5060     9.0560     7.1880     8.5950 
  139.1250     2.1840   -22.8370   431.2610    75.3180    23.6190     8.1670     6.0800     7.1220 
  139.2500     2.1880   -22.3410   437.0300    80.7990    23.8030     6.4490     4.9210     5.6010 
  139.3750     2.1990   -22.0150   441.7080    84.6830    24.2220     4.8150     3.9970     4.4510 
  139.5000     2.2080   -21.8200   440.3210    85.4690    24.7820     3.9450     3.5000     3.9110 
  139.6250     2.2220   -21.8350   425.1730    84.1860    25.1580     4.0970     3.6410     4.2240 
  139.7500     2.2630   -22.0940   397.1480    82.9530    25.3520     5.7230     4.4220     5.3740 
  139.8750     2.3390   -22.5870   362.3370    80.8020    24.9680     9.7940     5.8830     7.4280 
  140.0000     2.4330   -22.9660   331.9410    76.8780    24.3890    16.1100     7.9010    10.1940 
  140.1250     2.4870   -23.4090   321.1160    73.2560    24.1450    20.3820     9.8450    12.6080 
  140.2500     2.4650   -24.3240   331.4900    70.3540    23.7940    19.8380    10.8500    13.3830 
  140.3750     2.3750   -25.2750   357.7170    67.4760    23.5270    16.2670    10.6920    12.4830 
  140.5000     2.2670   -26.1750   389.4710    65.2900    23.3260    13.1620     9.8390    10.9260 
  140.6250     2.1930   -27.0340   415.1060    67.3970    23.2100    12.0690     8.9370     9.7370 
  140.7500     2.1580   -27.7760   430.7100    71.1530    23.1280    11.6770     8.3050     9.1380 
  140.8750     2.1530   -28.3860   437.4650    73.1850    23.0920    11.4630     7.9740     9.0260 
  141.0000     2.1660   -28.8900   438.8170    73.1010    23.0820    11.1740     7.8840     9.2120 
  141.1250     2.1860   -29.2880   437.9970    70.9480    23.0940    11.0340     7.9610     9.5080 
  141.2500     2.1970   -29.5450   437.0790    68.1910    23.1190    11.1630     8.0850     9.7720 
  141.3750     2.1930   -29.7800   436.3370    66.1310    23.1730    11.4650     8.2040     9.9700 
  141.5000     2.1790   -29.9880   435.6220    65.3790    23.3340    11.7370     8.3010    10.1140 
  141.6250     2.1720   -30.1020   434.7910    64.6000    23.7120    11.8500     8.3730    10.2130 
  141.7500     2.1760   -30.2190   433.9500    64.0040    24.1240    11.8990     8.4350    10.2810 
  141.8750     2.1810   -30.3050   433.2740    65.3560    24.3400    11.9600     8.4860    10.3250 
