~V
VERS. 2.00: Ver 2.00
~W
STRT.M 60.0000:
STOP.M 229.0000:
STEP.M 0.1250:
NULL. -999.2500:
UWI. DF32026:
~C
DEPT.M :
SP.MV :
GR.API :
CALI.CM :
RXO.OHMM :
RI. :
RML.OHMM :
DEN.GM/CC :
~A
# ...
  127.5000    81.1240    66.2820    24.6720    27.2810    19.3100    22.5800     2.5730 
  127.6250    81.1250    68.5800    24.6530    25.9970    19.0800    22.0190     2.5750 
  127.7500    81.1540    71.5670    24.6510    23.9760    18.6020    21.3450     2.5770 
  127.8750    81.1830    72.4390    24.6590    22.2920    18.0230    20.7360     2.5750 
  128.0000    81.2280    70.9250    24.6810    21.3140    17.4030    20.2020     2.5630 
  128.1250    81.2660    69.9760    24.7230    20.7020    16.7500    19.6630     2.5420 
  128.2500    81.3070    71.0620    24.7470    19.9990    16.1010    19.0800     2.5210 
  128.3750    81.3430    71.8960    24.7710    19.1220    15.5010    18.4840     2.5080 
  128.5000    81.3500    70.1110    24.7940    18.1540    15.0050    17.9480     2.4980 
  128.6250    81.3680    66.7410    24.7530    17.0420    14.7200    17.6180     2.4870 
  128.7500    81.3650    64.7260    24.6940    16.5490    14.6570    17.5510     2.4740 
  128.8750    81.3570    64.9240    24.6840    16.6420    14.8220    17.7660     2.4680 
  129.0000    81.3680    66.4940    24.6920    17.0540    15.1800    18.2260     2.4780 
  129.1250    81.3760    66.8290    24.6610    17.6360    15.6580    18.8330     2.4980 
  129.2500    81.3470    65.5560    24.6330    18.2900    16.1310    19.4050     2.5200 
  129.3750    81.3180    64.2340    24.6100    18.7740    16.5130    19.8220     2.5340 
  129.5000    81.3130    62.6400    24.6010    19.0200    16.7660    20.0350     2.5380 
  129.6250    81.3040    60.9240    24.6240    18.7550    16.9040    20.0640     2.5310 
  129.7500    81.2980    60.6480    24.6290    18.6840    17.0100    20.0470     2.5200 
  129.8750    81.2830    62.4760    24.6330    19.2830    17.1540    20.0830     2.5170 
  130.0000    81.2400    65.8850    24.6730    20.5330    17.3740    20.2390     2.5250 
  130.1250    81.2060    68.9760    24.6940    21.2880    17.6900    20.5560     2.5320 
  130.2500    81.2030    70.1580    24.6660    21.5990    18.0570    20.9600     2.5260 
  130.3750    81.2090    70.1040    24.6470    21.8010    18.3780    21.3190     2.5080 
  130.5000    81.2280    70.8310    24.6430    22.0750    18.5120    21.4420     2.4920 
  130.6250    81.2720    74.0020    24.6610    21.9780    18.2710    21.0830     2.4860 
  130.7500    81.3010    77.2590    24.7040    22.1640    17.6790    20.2970     2.4900 
  130.8750    81.3390    78.7800    24.7510    21.8680    16.8290    19.2160     2.5020 
  131.0000    81.3740    77.3030    24.7560    19.8330    15.8470    18.0200     2.5170 
  131.1250    81.3890    75.0410    24.6960    17.0330    14.8870    16.9240     2.5270 
  131.2500    81.4010    75.2260    24.6160    15.2650    14.0510    16.0390     2.5260 
  131.3750    81.4090    77.6690    24.5930    14.7510    13.3750    15.3770     2.5160 
  131.5000    81.3980    79.6620    24.6170    14.0820    12.8750    14.8990     2.5090 
  131.6250    81.3680    75.2860    24.6120    13.2270    12.6040    14.6070     2.5120 
  131.7500    81.3500    68.2530    24.7400    12.8660    12.5550    14.5130     2.5240 
  131.8750    81.3360    64.6520    25.0740    13.3440    12.7560    14.6740     2.5370 
  132.0000    81.3130    67.6710    25.3460    14.4760    13.2030    15.1300     2.5410 
  132.1250    81.3050    72.7920    25.3910    15.7250    13.8690    15.8670     2.5330 
  132.2500    81.2950    74.4000    25.1910    16.7740    14.5830    16.6660     2.5180 
  132.3750    81.2660    72.9900    24.8130    17.4300    15.2040    17.3350     2.5030 
  132.5000    81.2400    70.4550    24.5280    17.6900    15.6460    17.7560     2.4960 
  132.6250    81.2230    69.2210    24.5390    17.8510    15.8540    17.8860     2.4960 
  132.7500    81.1910    69.5500    24.6810    17.9910    15.9180    17.8620     2.4980 
  132.8750    81.1450    72.0290    24.8170    18.1530    15.9010    17.7820     2.4990 
  133.0000    81.1060    75.7240    24.7700    18.0110    15.8240    17.6810     2.5000 
  133.1250    81.0420    77.0240    24.9690    17.7670    15.6320    17.4980     2.5040 
  133.2500    80.9960    74.3480    25.0330    17.7260    15.2850    17.1690     2.5080 
  133.3750    80.9680    71.2700    24.8970    17.9400    14.7990    16.6640     2.5040 
  133.5000    80.9350    71.8940    24.7700    17.7910    14.2700    16.0410     2.4960 
  133.6250    80.8980    74.9660    24.7510    16.6730    13.8780    15.4930     2.4880 
  133.7500    80.8680    75.3930    24.7680    15.9320    13.7660    15.2350     2.4830 
  133.8750    80.8510    72.8810    24.7780    16.2960    13.9960    15.4040     2.4820 
  134.0000    80.8310    71.7810    24.7690    17.3910    14.5580    16.0250     2.4840 
  134.1250    80.8140    72.3100    24.7370    18.3910    15.3900    17.0040     2.4850 
  134.2500    80.7610    70.7920    24.6900    19.2750    16.2640    17.9970     2.4800 
  134.3750    80.6800    69.0390    24.6610    20.0400    16.9930    18.7380     2.4670 
  134.5000    80.5930    71.1570    24.6290    20.6300    17.4390    19.0870     2.4560 
  134.6250    80.4910    75.9470    24.6420    20.6310    17.5230    19.0170     2.4500 
  134.7500    80.3740    76.4610    24.7250    20.2640    17.3760    18.7460     2.4450 
  134.8750    80.2380    73.1500    24.7590    19.7970    17.0960    18.4210     2.4400 
  135.0000    80.0930    69.7270    24.7330    19.4590    16.8060    18.1460     2.4410 
  135.1250    79.9280    67.1090    24.6940    19.3610    16.6480    18.0070     2.4480 
  135.2500    79.7640    65.9740    24.6770    19.4940    16.6700    18.0230     2.4580 
  135.3750    79.5850    68.1680    24.6240    19.3920    16.8870    18.1980     2.4680 
  135.5000    79.3920    73.9090    24.5880    19.0310    17.2650    18.5030     2.4740 
  135.6250    79.1920    77.7440    24.6110    19.3900    17.7090    18.8330     2.4720 
  135.7500    78.9800    76.5790    24.7040    20.2950    18.0790    19.0310     2.4670 
  135.8750    78.7540    73.3240    24.8530    20.9100    18.2930    19.0210     2.4710 
  136.0000    78.5070    72.2000    24.9300    20.6070    18.3490    18.8380     2.4890 
  136.1250    78.2360    72.5820    24.9310    19.7570    18.2860    18.5980     2.5120 
  136.2500    77.9430    72.1020    24.9240    19.1590    18.1950    18.4360     2.5310 
  136.3750    77.6320    69.8450    24.9680    19.0840    18.1480    18.4250     2.5430 
  136.5000    77.3050    66.0220    24.9970    19.2130    18.1760    18.5770     2.5480 
  136.6250    76.9410    62.2720    24.9940    19.1670    18.2430    18.8220     2.5480 
  136.7500    76.5490    60.2970    24.9750    18.9740    18.2680    19.0100     2.5420 
  136.8750    76.1390    61.5530    24.9680    19.2610    18.1720    19.0130     2.5310 
  137.0000    75.7130    63.4590    24.9700    19.9550    17.9450    18.8000     2.5180 
  137.1250    75.2970    63.4170    24.9650    20.3760    17.8190    18.6390     2.5080 
  137.2500    74.8870    61.5710    24.9630    20.4890    18.2080    19.0530     2.5010 
  137.3750    74.4810    59.5310    24.9750    20.8580    19.6330    20.6490     2.4840 
  137.5000    74.0850    59.5550    25.0030    22.5450    22.9080    24.2300     2.4410 
  137.6250    73.7120    61.2610    25.0670    30.1230    30.3430    31.7760     2.3730 
  137.7500    73.3710    63.3690    25.1600    53.2970    43.9950    44.9360     2.3020 
  137.8750    73.0340    66.5250    25.1970    97.4390    66.1160    66.3170     2.2530 
  138.0000    72.7180    71.7700    25.1260   154.3890    96.3280    97.5210     2.2280 
  138.1250    72.4210    74.4810    25.0740   203.5470   126.6840   132.6830     2.2200 
  138.2500    72.1330    71.2620    25.0570   235.7940   144.8860   154.3400     2.2150 
  138.3750    71.8630    66.1390    25.0540   235.3960   147.1830   155.3540     2.2120 
  138.5000    71.6080    65.4270    25.0450   197.7300   139.2510   144.6870     2.2110 
  138.6250    71.3720    69.9930    25.0250   146.6910   129.9540   134.5160     2.2120 
