~V
VERS. 2.00: Ver 2.00
~W
STRT.M 60.0000:
STOP.M 227.0000:
STEP.M 0.1250:
NULL. -999.2500:
UWI. DF32025:
~C
DEPT.M :
DEN.GM/CC :
GR.API :
RML.OHMM :
RI. :
RXO.OHMM :
CALI.CM :
SP.MV :
~A
# ...
  127.5000     2.2390    78.9980     9.1630     7.5180     7.7210    24.3170   -17.3950 
  127.6250     2.2030    81.7360    11.2870     8.8510    10.6740    24.3290   -17.1110 
  127.7500     2.1800    81.3020    14.0700    10.5950    14.7460    24.3410   -16.8460 
  127.8750     2.1880    79.1940    16.9630    12.4870    16.3600    24.3440   -16.7540 
  128.0000     2.2350    76.8310    18.9620    14.1690    15.8390    24.3250   -16.6260 
  128.1250     2.3160    74.1900    19.8550    15.2070    16.4940    24.2810   -16.5760 
  128.2500     2.3960    70.0550    19.8820    15.5890    18.2410    24.1860   -16.5310 
  128.3750     2.4520    66.1340    19.3170    15.4580    17.9400    24.0930   -16.4410 
  128.5000     2.4770    65.2170    18.5160    15.0540    14.5830    24.0570   -16.4060 
  128.6250     2.4800    67.1030    17.8670    14.6500    14.1630    24.0650   -16.3210 
  128.7500     2.4790    67.4650    17.6050    14.4660    16.9900    24.0670   -16.3420 
  128.8750     2.4810    65.4710    17.8460    14.6300    18.4060    24.0620   -16.3310 
  129.0000     2.4860    64.0830    18.6120    15.2050    16.9970    24.0700   -16.3820 
  129.1250     2.4950    63.2980    19.8560    16.2110    15.1940    24.0590   -16.4030 
  129.2500     2.5080    61.3140    21.2720    17.4280    17.5770    24.0490   -16.4730 
  129.3750     2.5240    59.6170    22.5890    18.6420    20.8730    24.0410   -16.5390 
  129.5000     2.5370    60.4740    23.5580    19.6360    21.6990    24.0380   -16.6200 
  129.6250     2.5430    61.0870    23.9200    20.1690    20.7400    24.0440   -16.6980 
  129.7500     2.5400    59.0400    23.7650    20.2610    19.8220    24.0460   -16.7600 
  129.8750     2.5300    55.2950    23.2560    20.0070    19.2220    24.0190   -16.7820 
  130.0000     2.5180    52.2820    22.6260    19.5840    19.7780    23.9980   -16.7970 
  130.1250     2.5110    52.6920    22.1140    19.1800    19.5430    24.0050   -16.8490 
  130.2500     2.5150    55.0990    21.8410    18.9140    18.8850    24.0340   -16.8240 
  130.3750     2.5330    56.6900    21.8630    18.8390    19.0480    24.0510   -16.8320 
  130.5000     2.5570    56.0730    22.1620    18.9610    19.2450    24.0420   -16.7660 
  130.6250     2.5750    54.3530    22.6310    19.2320    20.0540    23.9680   -16.7540 
  130.7500     2.5760    53.1760    23.0460    19.4990    19.5000    23.9170   -16.6780 
  130.8750     2.5600    53.2050    23.2480    19.6390    19.1550    23.9210   -16.6520 
  131.0000     2.5320    54.6440    23.1640    19.5820    18.3680    23.9240   -16.6260 
  131.1250     2.5040    54.4950    22.8050    19.3140    17.4390    23.9360   -16.5420 
  131.2500     2.4830    53.4220    22.3480    18.9650    17.2130    23.9620   -16.5310 
  131.3750     2.4720    54.8140    21.9160    18.6410    17.0730    23.9860   -16.4700 
  131.5000     2.4680    58.0960    21.6220    18.4390    16.9650    24.0230   -16.4670 
  131.6250     2.4710    60.0620    21.6420    18.5040    16.9500    24.0590   -16.4020 
  131.7500     2.4750    60.8740    22.0580    18.8920    17.7740    24.0610   -16.3730 
  131.8750     2.4770    62.0900    22.9160    19.6480    18.3520    24.0180   -16.2980 
  132.0000     2.4780    63.1550    24.1300    20.7180    18.6620    23.9910   -16.2050 
  132.1250     2.4790    63.6140    25.3700    21.8680    20.0610    24.0110   -16.1530 
  132.2500     2.4830    66.7050    26.1210    22.6810    22.3780    24.0490   -16.0610 
  132.3750     2.4900    70.4910    25.9640    22.7850    24.2670    24.0590   -16.0060 
  132.5000     2.5000    72.0020    24.7320    21.9770    24.0770    24.0550   -15.9550 
  132.6250     2.5080    70.3440    22.5830    20.2870    22.5010    24.0640   -15.8780 
  132.7500     2.5120    68.5240    20.2590    18.3050    18.7700    24.0850   -15.8170 
  132.8750     2.5110    68.3250    18.2710    16.4810    14.5060    24.0880   -15.7740 
  133.0000     2.5090    67.9910    16.9190    15.1200    11.7900    24.0690   -15.7230 
  133.1250     2.5060    65.9890    16.3760    14.4360    11.6890    23.9730   -15.7210 
  133.2500     2.5020    62.5110    16.3940    14.2690    12.4770    23.8770   -15.6430 
  133.3750     2.4950    60.6890    16.7830    14.4860    12.7030    23.8370   -15.6070 
  133.5000     2.4870    62.1410    17.3590    14.9390    13.3560    23.8360   -15.5030 
  133.6250     2.4810    64.9340    17.9970    15.5190    15.2070    23.8520   -15.4590 
  133.7500     2.4760    68.3880    18.6490    16.1430    15.7790    23.8820   -15.3960 
  133.8750     2.4720    71.6260    19.3140    16.7900    14.7290    23.9290   -15.3340 
  134.0000     2.4680    72.8290    19.9530    17.4220    13.8660    24.0210   -15.3260 
  134.1250     2.4650    71.6270    20.4090    17.9130    14.9630    23.9790   -15.1960 
  134.2500     2.4660    71.8890    20.5460    18.1540    18.1820    24.0140   -15.2040 
  134.3750     2.4740    73.7520    20.2940    18.0770    21.8590    24.0710   -15.1700 
  134.5000     2.4840    74.5360    19.7040    17.7030    21.2280    24.1410   -15.2160 
  134.6250     2.4860    70.7030    18.9640    17.1490    17.6640    24.2280   -15.2270 
  134.7500     2.4770    64.0330    18.3320    16.6340    16.3850    24.3300   -15.2530 
  134.8750     2.4610    59.4320    17.9340    16.2820    16.1690    24.4360   -15.3150 
  135.0000     2.4510    59.4280    17.7860    16.1370    15.9240    24.5370   -15.3380 
  135.1250     2.4560    60.3480    17.8390    16.1870    15.4110    24.6240   -15.4970 
  135.2500     2.4680    59.5380    17.9470    16.3080    15.8610    24.6970   -15.5670 
  135.3750     2.4790    59.5850    18.0020    16.3980    16.1590    24.7580   -15.6880 
  135.5000     2.4800    62.1990    17.9060    16.3610    15.9400    24.8030   -15.7410 
  135.6250     2.4730    65.0120    17.5350    16.0810    15.6540    24.8350   -15.8260 
  135.7500     2.4680    67.1210    16.9130    15.5710    15.6900    24.8490   -15.9030 
  135.8750     2.4700    68.1510    16.1300    14.8980    14.7580    24.8350   -15.9840 
  136.0000     2.4790    66.7570    15.3730    14.2150    13.1880    24.7960   -16.0220 
  136.1250     2.4880    63.8190    14.9250    13.7600    12.1580    24.7180   -16.0550 
  136.2500     2.4900    62.0100    14.8970    13.6560    12.0580    24.6150   -16.0950 
  136.3750     2.4820    63.7660    15.2880    13.9350    13.1370    24.4930   -16.0930 
  136.5000     2.4650    67.5150    15.9780    14.5320    14.7700    24.3640   -16.1010 
  136.6250     2.4430    68.8830    16.7600    15.3000    15.9080    24.2400   -16.1280 
  136.7500     2.4210    67.7830    17.4190    16.0210    15.9000    24.1330   -16.2020 
  136.8750     2.4050    67.5970    17.8760    16.5820    15.4270    24.0540   -16.2150 
  137.0000     2.3970    69.6890    18.1680    16.9650    15.7480    23.9970   -16.2900 
  137.1250     2.3990    68.4940    18.4150    17.2370    15.4000    23.9670   -16.2490 
  137.2500     2.4070    66.0860    18.7250    17.5210    15.9480    23.9510   -16.2170 
  137.3750     2.4180    66.5450    19.1060    17.8540    16.5970    23.9420   -16.2490 
  137.5000     2.4300    69.5740    19.4910    18.2090    16.7450    23.9360   -16.2480 
  137.6250     2.4400    71.2880    19.7850    18.4990    18.0260    23.9370   -16.2400 
  137.7500     2.4480    71.2970    19.9180    18.6960    18.4160    23.9480   -16.2200 
  137.8750     2.4530    71.9270    19.9670    18.8660    18.0460    23.9650   -16.1680 
  138.0000     2.4490    74.2390    20.2450    19.1750    17.4310    23.9890   -16.1860 
  138.1250     2.4350    77.4770    21.2350    19.9530    16.5940    24.0200   -16.1570 
  138.2500     2.4120    80.0500    23.4380    21.3580    18.1430    24.0590   -16.2480 
  138.3750     2.3870    80.6170    26.9360    23.4560    21.6690    24.1040   -16.3190 
  138.5000     2.3670    79.6500    31.4240    26.1220    27.1600    24.1540   -16.4250 
  138.6250     2.3560    77.3100    36.1970    28.9980    29.5280    24.2100   -16.5630 
