~V
VERS. 2.00: Ver 2.00
~W
STRT.M 55.0000:
STOP.M 285.0000:
STEP.M 0.1250:
NULL. -999.2500:
UWI. DF32159:
~C
DEPT.M :
GR.API :
CALI.CM :
RXO.OHMM :
RI. :
RML.OHMM :
DEN.GM/CC :
SP.MV :
~A
# ...
  223.7500    69.5720    25.9980    72.7980    57.5690    63.9800     2.3100   -21.9340 
  223.8750    65.4680    26.2110    74.7700    60.1780    66.4420     2.3100   -21.8120 
  224.0000    62.5770    26.4490    74.7400    62.0970    68.0360     2.2840   -21.6290 
  224.1250    64.3480    26.5990    73.8240    62.9130    68.3650     2.2470   -21.4750 
  224.2500    69.6350    26.6490    72.8350    62.8350    67.8170     2.2220   -21.4310 
  224.3750    73.9660    26.6390    71.7930    62.2820    67.0010     2.2120   -21.5260 
  224.5000    74.4340    26.6120    69.3730    61.9470    66.7540     2.2050   -21.8190 
  224.6250    72.8110    26.6030    65.4690    62.9320    68.2780     2.1940   -22.3390 
  224.7500    70.4530    26.6260    64.6080    65.8560    72.0660     2.1890   -23.0030 
  224.8750    67.9120    26.6760    70.4490    71.1280    78.4480     2.1990   -23.7690 
  225.0000    65.7410    26.7250    82.0440    78.7160    87.2950     2.2150   -24.5760 
  225.1250    65.3090    26.7300    92.1820    88.0760    97.8460     2.2160   -25.3330 
  225.2500    65.6710    26.6920    93.7860    97.4030   107.9730     2.2040   -25.9670 
  225.3750    65.8260    26.6460    87.9580   105.1570   115.9000     2.1990   -26.4410 
  225.5000    65.8240    26.6220    82.8990   110.4870   120.8890     2.2180   -26.7040 
  225.6250    66.3470    26.6180    88.6550   113.6850   123.7440     2.2490   -26.6930 
  225.7500    67.8340    26.6100   103.0310   116.7000   126.8240     2.2660   -26.4800 
  225.8750    69.6470    26.6000   117.5910   120.8390   131.4820     2.2660   -26.1010 
  226.0000    70.3120    26.6020   126.4530   126.6300   138.1280     2.2600   -25.6260 
  226.1250    67.8910    26.6170   134.5920   133.6690   146.1680     2.2550   -25.1510 
  226.2500    65.3980    26.6210   148.2730   140.2370   153.5720     2.2450   -24.7330 
  226.3750    64.5750    26.6070   161.0130   144.7610   158.5090     2.2260   -24.4090 
  226.5000    64.1300    26.5850   163.5610   146.2740   159.9630     2.2040   -24.2010 
  226.6250    63.4040    26.5740   156.6730   144.6070   158.0890     2.1950   -24.1710 
  226.7500    62.3710    26.5740   149.6870   141.7620   155.3690     2.2030   -24.2860 
  226.8750    61.8840    26.5760   143.6840   139.5600   153.8310     2.2160   -24.5030 
  227.0000    60.8320    26.5740   138.1560   139.5330   154.9980     2.2210   -24.7380 
  227.1250    59.3880    26.5690   137.6710   142.9260   160.0780     2.2150   -24.9000 
  227.2500    60.0360    26.5730   145.8250   148.8280   168.0160     2.2100   -24.9690 
  227.3750    61.5520    26.5980   163.7470   156.0510   177.5120     2.2180   -24.9220 
  227.5000    62.4570    26.6540   186.3900   163.0950   186.8230     2.2300   -24.7130 
  227.6250    61.0700    26.7430   198.6140   168.2970   193.8690     2.2330   -24.2960 
  227.7500    60.5180    26.8280   196.8380   171.4080   198.2540     2.2220   -23.7300 
  227.8750    62.7410    26.8550   191.9720   172.6930   200.2710     2.2050   -23.0580 
  228.0000    63.8750    26.7890   195.8520   172.5670   200.3780     2.1870   -22.3320 
  228.1250    60.1730    26.6570   210.0700   170.8790   198.2900     2.1770   -21.6070 
  228.2500    55.4430    26.5540   221.5730   167.5980   194.0580     2.1840   -20.9340 
  228.3750    54.2570    26.5150   214.9060   162.8790   188.0920     2.2080   -20.3330 
  228.5000    56.8940    26.5180   186.1050   157.6360   181.7100     2.2360   -19.8530 
  228.6250    59.5100    26.5310   154.3260   152.8860   175.9650     2.2520   -19.5320 
  228.7500    60.4900    26.5450   142.2670   147.5450   168.9320     2.2540   -19.3210 
  228.8750    61.7410    26.5500   153.2260   138.8930   156.9610     2.2430   -19.1760 
  229.0000    65.6770    26.5150   172.3690   124.6990   137.9490     2.2180   -19.0820 
  229.1250    67.7130    26.4660   168.9810   115.1450   126.0320     2.1880   -18.9950 
  229.2500    69.1380    26.3850   151.3810   101.3320   109.4700     2.1660   -18.8520 
  229.3750    68.0510    26.2560   104.3290    82.2270    87.9440     2.1620   -18.6250 
  229.5000    66.1550    26.1530    63.4320    66.7380    71.4420     2.1710   -18.3060 
  229.6250    67.1890    26.0960    48.5210    56.7100    61.1470     2.1840   -17.8590 
  229.7500    70.2710    26.0770    45.5770    50.6650    55.0820     2.1980   -17.3030 
  229.8750    73.6070    26.1140    45.9210    47.5660    52.0800     2.2160   -16.6700 
  230.0000    75.8430    26.2180    45.5400    46.4630    51.0700     2.2410   -16.0070 
  230.1250    73.3640    26.3480    45.4070    46.5060    51.0340     2.2660   -15.3980 
  230.2500    69.5590    26.4350    47.1530    46.6100    50.8700     2.2770   -14.8770 
  230.3750    69.3740    26.4620    49.3750    46.2710    50.1300     2.2770   -14.4740 
  230.5000    71.8430    26.4580    49.5210    45.3500    48.7580     2.2760   -14.2060 
  230.6250    71.5940    26.4570    46.4070    43.9130    46.8800     2.2810   -14.1100 
  230.7500    67.0250    26.4660    42.8390    42.2280    44.7910     2.2850   -14.1670 
  230.8750    62.1700    26.4720    41.0040    40.3860    42.6040     2.2770   -14.3530 
  231.0000    60.3720    26.4640    40.7450    38.4060    40.3570     2.2540   -14.5770 
  231.1250    62.0980    26.4310    39.7330    36.3040    38.0880     2.2320   -14.7270 
  231.2500    64.4010    26.3840    36.8510    34.2360    35.9450     2.2270   -14.7950 
  231.3750    66.4190    26.3320    33.2530    32.4380    34.1770     2.2420   -14.7740 
  231.5000    69.3470    26.2860    30.7230    31.1690    33.0700     2.2660   -14.6260 
  231.6250    71.7540    26.2570    30.2870    30.7300    32.9760     2.2840   -14.3270 
  231.7500    70.6670    26.2420    31.1950    30.9430    33.6610     2.2890   -13.9330 
  231.8750    67.0230    26.2300    33.0220    31.4920    34.7210     2.2800   -13.5030 
  232.0000    65.9550    26.2180    36.3090    31.8640    35.4970     2.2660   -13.1040 
  232.1250    69.1030    26.2070    41.2450    31.3120    35.0300     2.2710   -12.8450 
  232.2500    72.8220    26.2030    43.0050    29.7280    33.2010     2.3030   -12.7500 
  232.3750    75.4960    26.2050    38.0450    27.4170    30.4320     2.3550   -12.8160 
  232.5000    77.5150    26.2130    29.3610    24.9640    27.5190     2.4030   -13.0650 
  232.6250    78.0360    26.2210    23.7030    23.0820    25.4170     2.4230   -13.4990 
  232.7500    77.3070    26.2110    21.8180    22.0830    24.4780     2.4190   -14.0230 
  232.8750    75.2140    26.1800    21.9810    22.1090    24.8130     2.4030   -14.5550 
  233.0000    71.4010    26.1440    23.3020    23.1570    26.3670     2.3820   -15.0460 
  233.1250    68.6900    26.1270    26.1670    25.1580    29.0200     2.3500   -15.4010 
  233.2500    70.1420    26.1320    29.8650    27.4830    32.0140     2.3110   -15.5750 
  233.3750    71.8830    26.1530    32.6700    29.4620    34.5070     2.2810   -15.5560 
  233.5000    69.6690    26.1830    33.0090    30.4290    35.6400     2.2720   -15.3390 
  233.6250    68.2540    26.2170    30.6790    29.8670    34.7640     2.2780   -14.9180 
  233.7500    71.9670    26.2460    27.7420    28.3220    32.6960     2.2800   -14.3650 
  233.8750    75.1580    26.2600    25.2530    26.3850    30.2930     2.2720   -13.7390 
  234.0000    74.0550    26.2480    23.3970    24.5830    28.2450     2.2630   -13.1130 
  234.1250    73.2630    26.2100    22.2950    23.3440    27.0700     2.2600   -12.5860 
  234.2500    74.5970    26.1680    22.0420    22.7230    26.7870     2.2680   -12.2010 
  234.3750    73.7860    26.1370    22.4620    22.7300    27.3990     2.2840   -11.9800 
  234.5000    69.3150    26.1130    23.1610    23.3150    28.8120     2.3010   -11.9420 
  234.6250    66.1470    26.0770    24.3170    24.4050    30.8380     2.3040   -12.1470 
  234.7500    66.4860    26.0180    26.2060    25.6470    32.9070     2.2910   -12.5450 
  234.8750    69.1230    25.9400    28.2770    26.7000    34.4840     2.2700   -13.0850 
