~V
VERS. 2.00: Ver 2.00
~W
STRT.M 61.0000:
STOP.M 238.0000:
STEP.M 0.1250:
NULL. -999.2500:
UWI. DF32044:
~C
DEPT.M :
DEN.GM/CC :
SP.MV :
GR.API :
RML.OHMM :
RI. :
RXO.OHMM :
CALI.CM :
~A
# ...
  229.7500     2.5010   -13.1500    60.2830    13.6050    12.1050     9.7420    24.1820 
  229.8750     2.5030   -13.1410    60.2830    13.7150    12.2170    10.3850    24.1820 
  230.0000     2.5100   -13.1230    60.2830    13.8510    12.3440    11.3020    24.1820 
  230.1250     2.5230   -13.1610    60.2830    14.0400    12.5080    12.9770    24.1820 
  230.2500     2.5370   -13.2780    60.2830    14.2960    12.7260    15.3900    24.1820 
  230.3750     2.5510   -13.4090    60.2830    14.6250    13.0120    17.2570    24.1830 
  230.5000     2.5580   -13.5380    60.2830    15.0180    13.3620    17.4160    24.1850 
  230.6250     2.5550   -13.7530    60.2830    15.4430    13.7530    17.1740    24.1890 
  230.7500     2.5440   -13.9590    60.2830    15.8430    14.1270    17.8300    24.1860 
  230.8750     2.5250   -14.1230    60.2830    16.1710    14.4390    18.5450    24.1740 
  231.0000     2.5060   -14.2640    60.2830    16.4010    14.6610    18.8220    24.1570 
  231.1250     2.4960   -14.3980    60.2830    16.5130    14.7770    19.7830    24.1320 
  231.2500     2.4970   -14.4740    60.2830    16.5510    14.8290    21.1980    24.1060 
  231.3750     2.5090   -14.5640    60.2830    16.5480    14.8450    22.0750    24.0930 
  231.5000     2.5270   -14.5870    60.2830    16.5340    14.8470    22.5800    24.0880 
  231.6250     2.5450   -14.4120    60.2830    16.5320    14.8440    23.5030    24.0860 
  231.7500     2.5610   -14.1850    60.2830    16.5460    14.8400    23.9740    24.0890 
  231.8750     2.5710   -13.9070    60.2830    16.5680    14.8350    22.9990    24.0980 
  232.0000     2.5770   -13.6410    60.2830    16.5930    14.8300    21.0530    24.1060 
  232.1250     2.5750   -13.3350    60.2830    16.6100    14.8260    19.9140    24.1070 
  232.2500     2.5690   -12.9550    60.2830    16.6190    14.8230    20.2880    24.1100 
  232.3750     2.5610   -12.5560    60.2830    16.6220    14.8230    21.6390    24.1130 
  232.5000     2.5530   -12.1890    60.2830    16.6190    14.8250    22.8840    24.1140 
  232.6250     2.5420   -11.9280    60.2830    16.6150    14.8300    23.5290    24.1140 
  232.7500     2.5290   -11.7800    60.2830    16.6120    14.8360    24.0050    24.1140 
  232.8750     2.5160   -11.6870    60.2830    16.6120    14.8430    25.0110    24.1140 
  233.0000     2.5080   -11.5910    60.2830    16.6140    14.8480    25.8700    24.1120 
  233.1250     2.5100   -11.4440    60.2830    16.6160    14.8490    23.1340    24.1030 
  233.2500     2.5200   -11.4410    60.2830    16.6180    14.8480    17.8870    24.0870 
  233.3750     2.5340   -11.4430    60.2830    16.6190    14.8460    13.7550    24.0750 
  233.5000     2.5450   -11.4990    60.2830    16.6200    14.8460    12.0670    24.0730 
  233.6250     2.5490   -11.6070    60.2830    16.6200    14.8460    12.1250    24.0930 
  233.7500     2.5480   -11.6910    60.2830    16.6200    14.8460    12.3810    24.1490 
  233.8750     2.5410   -11.7750    60.2830    16.6200    14.8460    12.4040    24.2320 
  234.0000     2.5310   -11.9140    60.2830    16.6200    14.8460    12.4890    24.2960 
  234.1250     2.5170   -12.0730    60.2830    16.6200    14.8460    13.1070    24.3110 
  234.2500     2.5010   -12.1520    60.2830    16.6200    14.8460    13.7340    24.3050 
  234.3750     2.4870   -12.3280    60.2830    16.6200    14.8460    13.6420    24.3030 
  234.5000     2.4790   -12.4450    60.2830    16.6200    14.8460    12.9600    24.3390 
  234.6250     2.4790   -12.4880    60.2830    16.6200    14.8460    12.4560    24.4080 
  234.7500     2.4990   -12.4880    60.2830    16.6200    14.8460    12.1490    24.4940 
  234.8750     2.5190   -12.4880    60.2830    16.6200    14.8460    12.2830    24.4340 
  235.0000     2.5390   -12.4880    60.2830    16.6200    14.8460    13.3010    24.3490 
  235.1250     2.5560  -999.2500    60.2830    16.6200    14.8460    15.7770    24.3450 
  235.2500     2.5680  -999.2500    60.2830    16.6200    14.8460    19.2270    24.4010 
  235.3750     2.5710  -999.2500    60.2830    16.6200    14.8460    21.2980    24.4200 
  235.5000     2.5620  -999.2500    60.2830    16.6200    14.8460    20.8780    24.4130 
  235.6250     2.5330  -999.2500    60.2830    16.6200    14.8460    18.9970    24.3930 
  235.7500     2.4710  -999.2500    60.2830    16.6200    14.8460    16.7550    24.3320 
  235.8750     2.3570  -999.2500    60.2830    16.6200    14.8460    13.3140    24.1250 
  236.0000     2.2050  -999.2500    60.2830    16.6200    14.8460     9.0510    23.3610 
  236.1250     2.0450  -999.2500    60.2830    16.6200    14.8460     5.9510    21.6130 
  236.2500     1.9050  -999.2500    60.2830    16.6200    14.8460     4.8320    18.9760 
  236.3750     1.8070  -999.2500    60.2830    16.6200    14.8460     4.6030    17.1150 
  236.5000     1.7480  -999.2500    60.2830    16.6200    14.8460     4.6150    16.3700 
  236.6250     1.7190  -999.2500    60.2830    16.6200    14.8460     4.6200    16.2370 
  236.7500     1.7090  -999.2500    60.2830    16.6200    14.8460     4.6180    16.2350 
  236.8750     1.7060  -999.2500    60.2830    16.6200    14.8460     4.6180    16.2340 
  237.0000     1.7050  -999.2500    60.2830    16.6200    14.8460     4.6200    16.2330 
  237.1250     1.7030  -999.2500    60.2830    16.6200    14.8460     4.6210    16.2330 
  237.2500     1.7010  -999.2500    60.2830    16.6200    14.8460     4.6220    16.2330 
  237.3750     1.6990  -999.2500    60.2830    16.6200    14.8460     4.6220    16.2330 
  237.5000     1.6980  -999.2500    60.2830    16.6200    14.8460     4.6220    16.2330 
  237.6250     1.6930  -999.2500    60.2830    16.6200    14.8460     4.6220    16.2330 
  237.7500  -999.2500  -999.2500    60.2830    16.6200    14.8460     4.6210    16.2320 
  237.8750  -999.2500  -999.2500    60.2830    16.6200    14.8460     4.6210    16.2300 
  238.0000  -999.2500  -999.2500    60.2830    16.6200    14.8460     4.6190    16.2290 
