~V
VERS. 2.00: Ver 2.00
~W
STRT.M 61.0000:
STOP.M 257.0000:
STEP.M 0.1250:
NULL. -999.2500:
UWI. DF32086:
~C
DEPT.M :
SP.MV :
GR.API :
CALI.CM :
RXO.OHMM :
RI. :
RML.OHMM :
DEN.GM/CC :
~A
# ...
  241.0000   -22.3870    73.4470    23.9070     9.9710    10.3170    14.6540     2.5080 
  241.1250   -21.3070    71.8850    24.1290    10.5770    10.4440    14.8180     2.4920 
  241.2500   -20.1880    72.0130    24.1990    12.9610    10.6390    15.0750     2.5010 
  241.3750   -19.1100    72.9230    24.2020    16.5810    10.8530    15.3470     2.5250 
  241.5000   -18.0740    73.8350    24.3220    19.7570    11.0430    15.5660     2.5450 
  241.6250   -17.1990    73.2470    24.5540    21.0360    11.1740    15.6750     2.5430 
  241.7500   -16.4760    72.1850    24.6980    22.5580    11.2440    15.6880     2.5310 
  241.8750   -15.8770    71.8270    24.5660    25.2170    11.2570    15.6290     2.5260 
  242.0000   -15.4330    71.1200    24.4580    27.2710    11.2290    15.5320     2.5350 
  242.1250   -15.1710    70.7870    24.4630    25.0750    11.1670    15.4220     2.5450 
  242.2500   -15.0090    73.0110    24.4590    20.7570    11.0880    15.3020     2.5400 
  242.3750   -14.8980    75.9610    24.4680    16.9510    11.0010    15.1530     2.5200 
  242.5000   -14.7860    75.6760    24.5470    14.4680    10.9000    14.9620     2.5020 
  242.6250   -14.7190    73.4420    24.4390    12.7610    10.7780    14.7280     2.4920 
  242.7500   -14.6520    73.3660    24.3760    11.2860    10.6440    14.4850     2.4810 
  242.8750   -14.6350    75.3590    24.3480    10.0790    10.5210    14.2680     2.4670 
  243.0000   -14.6460    76.7660    24.3510     9.2550    10.4430    14.1120     2.4580 
  243.1250   -14.6780    75.4950    24.3400     8.7240    10.4290    14.0410     2.4660 
  243.2500   -14.6980    72.5230    24.3020     8.4440    10.4530    14.0270     2.4840 
  243.3750   -14.7450    69.3340    24.2480     8.5070    10.4820    14.0340     2.4990 
  243.5000   -14.8470    67.9700    24.2020     9.1440    10.4750    14.0160     2.5020 
  243.6250   -14.9690    68.3650    24.1860    10.5650    10.4160    13.9300     2.4970 
  243.7500   -15.1190    68.2610    24.1650    12.0750    10.3200    13.7880     2.4920 
  243.8750   -15.2730    67.9640    24.1460    12.4720    10.2060    13.6220     2.4880 
  244.0000   -15.4570    67.8480    24.1380    11.4840    10.0940    13.4710     2.4830 
  244.1250   -15.6010    67.2810    24.1330    10.4890    10.0020    13.3850     2.4830 
  244.2500   -15.7500    66.1260    24.1180     9.7240     9.9430    13.3660     2.4940 
  244.3750   -15.8720    65.7020    24.1050     9.2620     9.9040    13.3960     2.5160 
  244.5000   -15.9700    68.1050    24.1070     9.0410     9.8690    13.4380     2.5420 
  244.6250   -16.0230    68.1060    24.1300     9.0990     9.8250    13.4580     2.5610 
  244.7500   -16.0310    68.1060    24.1550     9.2090     9.7750    13.4550     2.5670 
  244.8750   -15.9790    68.1060    24.1810     9.0700     9.7360    13.4500     2.5560 
  245.0000   -15.8420    68.1060    24.2170     8.6790     9.7220    13.4700     2.5370 
  245.1250   -15.6910    68.1060    24.3910     8.3300     9.7400    13.5370     2.5220 
  245.2500   -15.5030    68.1060    24.6650     7.7580     9.7760    13.6240     2.5130 
  245.3750   -15.2610    68.1060    24.7860     7.0880     9.8090    13.6980     2.5080 
  245.5000   -14.9510    68.1060    24.6350     6.9010     9.8370    13.7440     2.5090 
  245.6250   -14.6050    68.1060    24.5310     7.6610     9.8710    13.7830     2.5150 
  245.7500   -14.2770    68.1060    24.4870     8.6810     9.9340    13.8620     2.5170 
  245.8750   -13.9540    68.1060    24.3690     9.3760    10.0500    14.0200     2.5090 
  246.0000   -13.6580    68.1060    24.1640     9.9970    10.2230    14.2710     2.4970 
  246.1250   -13.4080    68.1060    24.0560    11.2380    10.4240    14.5700     2.4980 
  246.2500   -13.1970    68.1060    24.0250    12.9380    10.5840    14.8050     2.5110 
  246.3750   -13.0740    68.1060    24.0510    13.7280    10.6480    14.8920     2.5230 
  246.5000   -13.0240    68.1060    24.1710    12.9680    10.5940    14.8010     2.5230 
  246.6250   -13.0620    68.1060    24.3800    11.4180    10.4330    14.5530     2.5070 
  246.7500   -13.0570    68.1060    24.4550    10.0940    10.2440    14.2670     2.4810 
  246.8750   -13.0480    68.1060    24.3530     9.3070    10.0850    14.0360     2.4480 
  247.0000   -13.0910    68.1060    24.3590     9.0820     9.9810    13.9200     2.4180 
  247.1250   -13.1270    68.1060    24.9030     9.4430     9.9500    13.9510     2.4090 
  247.2500   -13.1420    68.1060    25.8290    10.0010     9.9760    14.0720     2.4180 
  247.3750   -13.1070    68.1060    26.2020    10.3940    10.0420    14.2280     2.4310 
  247.5000   -12.9990    68.1060    25.4090    10.4260    10.1230    14.3540     2.4410 
  247.6250   -12.8080    68.1060    24.5520    10.2420    10.1790    14.3950     2.4540 
  247.7500   -12.6670    68.1060    24.1250    10.1210    10.2060    14.3810     2.4750 
  247.8750   -12.5480    68.1060    24.0310    10.0690    10.2180    14.3630     2.4970 
  248.0000   -12.3710    68.1060    24.0220     9.9460    10.2450    14.3800     2.5130 
  248.1250   -12.2050    68.1060    24.0220     9.6580    10.3350    14.4510     2.5230 
  248.2500   -12.0570    68.1060    24.0220     9.3640    10.4690    14.5470     2.5330 
  248.3750   -11.9130    68.1060    24.0220     9.2120    10.6070    14.6340     2.5400 
  248.5000   -11.8580    68.1060    24.0220     9.4400    10.7010    14.6850     2.5420 
  248.6250   -11.8250    68.1060    24.0220     9.9140    10.7120    14.6850     2.5420 
  248.7500   -11.7820    68.1060    24.0220    10.0810    10.6630    14.6460     2.5480 
  248.8750   -11.7670    68.1060    24.0220     9.8310    10.5890    14.5740     2.5560 
  249.0000   -11.7910    68.1060    24.0220     9.5210    10.5350    14.4820     2.5570 
  249.1250   -11.7960    68.1060    24.0220     9.3220    10.5230    14.3970     2.5460 
  249.2500   -11.7760    68.1060    24.0170     9.0770    10.5330    14.3430     2.5320 
  249.3750   -11.7970    68.1060    23.9990     8.7970    10.5500    14.3210     2.5280 
  249.5000   -11.7790    68.1060    23.9810     8.6730    10.5590    14.3150     2.5400 
  249.6250   -11.7150    68.1060    24.0150     8.9310    10.5570    14.3120     2.5550 
  249.7500   -11.6450    68.1060    23.9990     9.2500    10.5530    14.3080     2.5500 
  249.8750   -11.5790    68.1060    23.8520     9.3110    10.5510    14.3050     2.5260 
  250.0000   -11.4990    68.1060    23.6490     9.1210    10.5570    14.3050     2.5050 
  250.1250   -11.4540    68.1060    23.5220     9.3280    10.5650    14.3120     2.5080 
  250.2500   -11.4410    68.1060    23.4710    10.3140    10.5740    14.3230     2.5230 
  250.3750   -11.3950    68.1060    23.4600    11.7720    10.5780    14.3270     2.5350 
  250.5000   -11.3280    68.1060    23.4620    12.3770    10.5780    14.3270     2.5390 
  250.6250   -11.2880    68.1060    23.4670    11.2430    10.5780    14.3270     2.5390 
  250.7500   -11.3060    68.1060    23.4630    10.0750    10.5780    14.3270     2.5380 
  250.8750   -11.3020    68.1060    23.4470     9.4990    10.5780    14.3270     2.5350 
  251.0000   -11.2550    68.1060    23.4250     9.6330    10.5780    14.3270     2.5290 
  251.1250   -11.1830    68.1060    23.3900    10.6240    10.5780    14.3270     2.5170 
  251.2500   -11.1080    68.1060    23.3730    11.9490    10.5780    14.3270     2.5060 
  251.3750   -11.0470    68.1060    23.3660    12.7600    10.5780    14.3270     2.5020 
  251.5000   -11.0040    68.1060    23.3640    12.5470    10.5780    14.3270     2.5060 
  251.6250   -11.0000    68.1060    23.3580    11.6930    10.5780    14.3270     2.5170 
  251.7500   -10.9650    68.1060    23.3280    10.9820    10.5780    14.3270     2.5250 
  251.8750   -10.9210    68.1060    23.2480    10.6140    10.5780    14.3270     2.5270 
  252.0000   -10.9490    68.1060    23.1700    10.5650    10.5780    14.3270     2.5300 
  252.1250   -10.9500    68.1060    23.1050    10.5190    10.5780    14.3270     2.5380 
