~V
VERS. 2.00: Ver 2.00
~W
STRT.M 60.0000:
STOP.M 258.0000:
STEP.M 0.1250:
NULL. -999.2500:
UWI. DF32100:
~C
DEPT.M :
SP.MV :
GR.API :
CALI.CM :
RXO.OHMM :
RI. :
RML.OHMM :
DEN.GM/CC :
~A
# ...
  161.2500   -29.5150    68.9760    23.7890    90.2740   133.9820   134.3480     2.2350 
  161.3750   -29.5270    70.7370    23.7890   124.5550   153.1910   151.3450     2.2260 
  161.5000   -29.4930    70.4670    23.7890   194.2490   183.4640   179.4600     2.2150 
  161.6250   -29.3900    66.7820    23.7890   266.0160   220.1740   219.6960     2.2020 
  161.7500   -29.2590    62.7680    23.7890   293.0060   251.4430   260.2840     2.1920 
  161.8750   -29.1000    60.6520    23.7880   282.9390   271.3350   279.6490     2.1880 
  162.0000   -28.9570    60.4030    23.7850   273.2700   266.0050   277.3160     2.1890 
  162.1250   -28.8240    61.2300    23.7620   262.6830   240.9110   255.7070     2.1980 
  162.2500   -28.6550    63.0660    23.7230   223.6490   210.3290   227.0740     2.2090 
  162.3750   -28.4400    65.6760    23.6680   169.4610   178.8350   196.5540     2.2160 
  162.5000   -28.2060    68.1800    23.5820   131.2130   148.7250   166.5750     2.2140 
  162.6250   -27.9500    68.7220    23.4310   108.8060   122.6640   139.2800     2.2130 
  162.7500   -27.6970    68.1070    23.3250    87.0800   101.2800   115.7340     2.2220 
  162.8750   -27.4670    68.6380    23.2870    63.7710    84.7410    96.7610     2.2370 
  163.0000   -27.2430    71.1980    23.2830    48.8300    72.6450    82.5680     2.2520 
  163.1250   -27.0240    74.4030    23.2830    46.0430    64.4990    73.0490     2.2680 
  163.2500   -26.8030    76.5580    23.2830    45.1070    58.5260    66.2130     2.2810 
  163.3750   -26.6100    77.1600    23.2830    44.6980    54.0420    61.2400     2.2870 
  163.5000   -26.4920    76.5480    23.2830    44.4540    50.8330    57.8200     2.2820 
  163.6250   -26.4720    74.3280    23.2830    41.5670    49.2600    56.2520     2.2740 
  163.7500   -26.4800    72.6200    23.2830    37.4840    49.3980    56.5450     2.2700 
  163.8750   -26.5380    73.9170    23.2830    38.0600    51.5890    59.0880     2.2690 
  164.0000   -26.6080    77.2370    23.2830    46.6840    56.0600    64.1740     2.2690 
  164.1250   -26.7030    79.6970    23.2830    58.9420    62.9460    71.8760     2.2670 
  164.2500   -26.8000    79.8600    23.2830    65.1780    70.8280    80.4540     2.2620 
  164.3750   -26.9160    78.4800    23.2840    67.9550    77.7070    87.7160     2.2580 
  164.5000   -27.0170    76.9840    23.3240    72.3520    81.1530    91.2970     2.2550 
  164.6250   -27.1280    74.5060    23.4870    75.8090    79.1740    89.2650     2.2540 
  164.7500   -27.2390    72.5770    23.7500    72.8750    73.9590    83.7260     2.2550 
  164.8750   -27.3370    71.9250    23.9270    63.0170    67.7630    76.9840     2.2670 
  165.0000   -27.4190    72.8230    23.9850    51.6270    62.4080    71.0620     2.2900 
  165.1250   -27.5230    76.4980    23.9850    46.9000    59.4900    67.7770     2.3070 
  165.2500   -27.6730    80.6420    23.9850    47.2560    59.2120    67.4250     2.3080 
  165.3750   -27.8810    82.1220    23.9850    51.5360    61.4850    69.9170     2.2980 
  165.5000   -28.1210    81.3350    23.9850    58.6170    65.4930    74.3380     2.2860 
  165.6250   -28.3800    82.9450    23.9850    65.3390    68.9190    78.2700     2.2790 
  165.7500   -28.6450    88.4170    23.9850    69.2150    69.0250    78.9110     2.2780 
  165.8750   -28.9250    93.2480    23.9850    67.8540    64.8580    75.0690     2.2830 
  166.0000   -29.2370    94.9310    23.9850    59.8890    57.8860    67.8140     2.2930 
  166.1250   -29.5790    91.8700    23.9850    47.0330    51.0170    59.9840     2.3070 
  166.2500   -29.9300    86.7080    23.9850    35.7350    46.1740    54.0630     2.3260 
  166.3750   -30.2480    83.2540    23.9850    30.4380    43.8350    50.8530     2.3460 
  166.5000   -30.5610    81.6980    23.9850    31.7680    43.9110    50.3790     2.3580 
  166.6250   -30.8570    79.0790    23.9830    39.9370    46.5400    52.8600     2.3550 
  166.7500   -31.1530    76.3160    23.9790    52.4070    51.2550    57.8190     2.3380 
  166.8750   -31.4440    77.4740    23.9760    63.3050    58.1380    65.3660     2.3140 
  167.0000   -31.7440    82.1840    23.9770    66.4200    67.4360    75.7490     2.2930 
  167.1250   -32.0330    82.4360    23.9800    66.6090    80.1230    89.9620     2.2840 
  167.2500   -32.3270    78.1830    23.9770    75.6990    96.0670   107.5670     2.2860 
  167.3750   -32.5940    74.0900    23.9580    96.7960   114.9350   127.7660     2.2910 
  167.5000   -32.8360    72.3740    23.9090   122.4150   135.3980   148.7230     2.2920 
  167.6250   -33.0370    71.7360    23.8260   141.9280   154.3720   167.1190     2.2790 
  167.7500   -33.2360    70.1070    23.7810   152.1980   168.9560   180.7070     2.2550 
  167.8750   -33.4570    68.8900    23.7670   155.4710   178.2270   188.9170     2.2300 
  168.0000   -33.6470    69.6440    23.7660   154.4020   183.5320   193.0080     2.2110 
  168.1250   -33.8290    72.4300    23.7660   151.4630   186.8540   194.8830     2.2050 
  168.2500   -33.9830    74.5860    23.7660   149.5250   189.5840   196.2690     2.2060 
  168.3750   -34.1320    74.5120    23.7620   148.8610   191.8230   197.5860     2.2090 
  168.5000   -34.2330    73.0370    23.7460   147.9400   193.4690   198.9020     2.2140 
  168.6250   -34.3550    71.3800    23.7030   141.9770   194.5600   200.2600     2.2180 
  168.7500   -34.4770    69.8850    23.6380   130.7440   195.6770   201.9290     2.2170 
  168.8750   -34.5810    69.0760    23.5100   116.3490   197.4730   204.3310     2.2150 
  169.0000   -34.6600    68.9180    23.2840   102.3730   200.5350   207.8680     2.2140 
  169.1250   -34.7230    69.7330    22.9530    91.7370   205.3980   212.9990     2.2200 
  169.2500   -34.7580    71.2520    22.6850    83.5590   211.3870   219.1090     2.2300 
  169.3750   -34.7840    73.1490    22.5830    78.0000   217.3410   225.1480     2.2380 
  169.5000   -34.8310    73.5320    22.5700    75.3030   221.5070   229.4790     2.2400 
  169.6250   -34.8550    73.6510    22.5700    74.6430   221.0880   229.3500     2.2360 
  169.7500   -34.8490    75.8310    22.5700    75.5160   215.4460   224.0880     2.2330 
  169.8750   -34.8060    78.5250    22.5700    76.6980   205.4080   214.3970     2.2340 
  170.0000   -34.8000    78.2460    22.5310    74.4900   193.5720   202.7520     2.2360 
  170.1250   -34.7820    73.8640    22.3940    68.0560   183.7480   193.0900     2.2300 
  170.2500   -34.7790    70.2450    22.1340    59.9560   178.0980   187.8280     2.2180 
  170.3750   -34.7900    69.1170    21.8030    54.1600   177.1660   187.5400     2.2060 
  170.5000   -34.8370    68.5050    21.1810    51.9340   179.9030   190.9110     2.2020 
  170.6250   -34.8980    67.0340    20.2850    53.0420   183.3860   194.7640     2.2090 
  170.7500   -34.9990    66.4940    19.3380    55.1660   183.8650   195.6380     2.2200 
  170.8750   -35.0900    67.6350    18.9470    57.0620   179.7150   192.0810     2.2270 
  171.0000   -35.1730    69.5980    18.8900    58.2770   171.8780   184.7910     2.2280 
  171.1250   -35.2270    70.2910    18.8920    59.0650   163.5040   176.4950     2.2230 
  171.2500   -35.3100    69.8900    18.9520    59.1260   157.6690   170.4380     2.2170 
  171.3750   -35.3600    69.6020    19.2410    57.7200   155.6070   168.1970     2.2160 
  171.5000   -35.3920    69.7480    19.9200    56.8980   157.2990   169.9220     2.2250 
  171.6250   -35.3770    68.2430    20.6370    59.6200   161.7760   174.5480     2.2380 
  171.7500   -35.3370    64.9750    20.9860    63.0660   166.1910   179.0650     2.2440 
  171.8750   -35.3160    62.6950    21.0530    64.0540   168.2690   181.2180     2.2400 
  172.0000   -35.3310    63.1780    21.0040    63.1120   166.8440   179.8890     2.2280 
  172.1250   -35.4170    66.7610    20.9300    62.9000   162.3430   175.3870     2.2170 
  172.2500   -35.4870    70.4750    20.8980    63.2330   157.5520   170.4360     2.2090 
  172.3750   -35.5800    72.4210    20.8910    62.9060   154.6080   167.3280     2.2080 
