~V
VERS. 2.00: Ver 2.00
~W
STRT.M 62.0000:
STOP.M 243.0000:
STEP.M 0.1250:
NULL. -999.2500:
UWI. DF32072:
~C
DEPT.M :
SP.MV :
GR.API :
CALI.CM :
RXO.OHMM :
RI. :
RML.OHMM :
DEN.GM/CC :
~A
# ...
  230.7500   -14.6670    75.0750    23.8980    11.7550    10.5470    12.1680     2.4340 
  230.8750   -14.6750    77.2680    23.8860    11.7210    10.5960    12.2390     2.4310 
  231.0000   -14.6950    78.6550    23.8660    11.8500    10.5570    12.2090     2.4310 
  231.1250   -14.6580    77.4650    23.8280    11.9030    10.4250    12.0690     2.4300 
  231.2500   -14.5760    75.6060    23.7490    11.4600    10.2350    11.8630     2.4280 
  231.3750   -14.5120    75.1590    23.6710    10.6590    10.0170    11.6260     2.4340 
  231.5000   -14.4450    76.6470    23.6870     9.8430     9.8030    11.4000     2.4490 
  231.6250   -14.4040    75.9330    23.7210     9.4140     9.6410    11.2360     2.4650 
  231.7500   -14.3410    72.1040    23.6770     9.3940     9.5550    11.1640     2.4800 
  231.8750   -14.2650    69.2300    23.6070     9.3870     9.5640    11.2090     2.5020 
  232.0000   -14.1640    70.2270    23.5580     9.2110     9.6740    11.3760     2.5300 
  232.1250   -14.0790    72.8290    23.6030     9.5650     9.8860    11.6580     2.5480 
  232.2500   -14.0120    72.9200    23.7120    10.6410    10.1490    11.9850     2.5480 
  232.3750   -13.9220    73.3180    23.7850    12.0790    10.4230    12.3020     2.5340 
  232.5000   -13.8170    76.0830    23.7710    13.3080    10.6730    12.5750     2.5130 
  232.6250   -13.6950    77.4950    23.7450    13.7680    10.8680    12.7890     2.4920 
  232.7500   -13.5760    77.4950    23.7260    13.1880    11.0280    12.9730     2.4830 
  232.8750   -13.4470    77.4950    23.7180    12.2730    11.1880    13.1640     2.4870 
  233.0000   -13.3290    77.4950    23.7020    11.5920    11.3840    13.4030     2.4950 
  233.1250   -13.2600    77.4950    23.6350    11.4020    11.6590    13.7470     2.4950 
  233.2500   -13.2000    77.4950    23.5220    11.3230    12.0150    14.1970     2.4900 
  233.3750   -13.1460    77.4950    23.4450    11.3270    12.4310    14.7240     2.4950 
  233.5000   -13.0300    77.4950    23.4120    11.2990    12.8480    15.2580     2.5120 
  233.6250   -12.9500    77.4950    23.4330    11.0850    13.1830    15.6810     2.5230 
  233.7500   -12.9110    77.4950    23.5570    10.8450    13.3930    15.9200     2.5160 
  233.8750   -12.8760    77.4950    23.7650    10.7480    13.4570    15.9540     2.5020 
  234.0000   -12.8470    77.4950    23.8560    10.9250    13.3950    15.8140     2.4980 
  234.1250   -12.7580    77.4950    23.8740    11.2610    13.2730    15.5950     2.5150 
  234.2500   -12.6790    77.4950    23.8590    11.4970    13.2050    15.4430     2.5410 
  234.3750   -12.6090    77.4950    23.8450    12.2760    13.2700    15.4650     2.5630 
  234.5000   -12.5840    77.4950    23.8170    14.8000    13.5140    15.7120     2.5720 
  234.6250   -12.5430    77.4950    23.7630    19.1720    13.9520    16.1840     2.5640 
  234.7500   -12.5390    77.4950    23.7180    20.3730    14.4790    16.7410     2.5540 
  234.8750   -12.5340    77.4950    23.6650    17.8080    14.9940    17.2590     2.5560 
  235.0000   -12.4930    77.4950    23.6300    14.7860    15.4100    17.6310     2.5710 
  235.1250   -12.5020    77.4950    23.6170    13.0430    15.6570    17.7900     2.5840 
  235.2500   -12.5540    77.4950    23.6030    12.1980    15.7880    17.8420     2.5830 
  235.3750   -12.5920    77.4950    23.5670    11.6330    15.8660    17.8810     2.5770 
  235.5000   -12.5900    77.4950    23.5300    11.2290    15.9360    17.9590     2.5780 
  235.6250   -12.6130    77.4950    23.5130    10.9110    15.9810    18.0410     2.5850 
  235.7500   -12.6120    77.4950    23.5110    10.7390    15.9380    18.0200     2.5840 
  235.8750   -12.5740    77.4950    23.5080    10.8980    15.7600    17.8070     2.5680 
  236.0000   -12.5900    77.4950    23.5070    11.5570    15.4550    17.3870     2.5440 
  236.1250   -12.6420    77.4950    23.5090    12.6510    15.0940    16.8410     2.5280 
  236.2500   -12.6510    77.4950    23.5090    13.8050    14.7770    16.3280     2.5200 
  236.3750   -12.6880    77.4950    23.5090    14.4440    14.5520    15.9470     2.5190 
  236.5000   -12.7790    77.4950    23.5110    14.2700    14.4310    15.7280     2.5190 
  236.6250   -12.8220    77.4950    23.5100    13.5040    14.3970    15.6480     2.5230 
  236.7500   -12.8370    77.4950    23.5080    12.7340    14.3940    15.6080     2.5290 
  236.8750   -12.8760    77.4950    23.5540    12.0350    14.3940    15.5640     2.5320 
  237.0000   -12.8890    77.4950    23.6610    11.3370    14.3910    15.5100     2.5280 
  237.1250   -12.9120    77.4950    23.8390    10.7760    14.3840    15.4590     2.5150 
  237.2500   -12.9230    77.4950    23.8560    10.5110    14.3660    15.4050     2.5000 
  237.3750   -12.8920    77.4950    23.8630    10.6200    14.3290    15.3160     2.4820 
  237.5000   -12.8650    77.4950    23.9290    11.0730    14.2760    15.1880     2.4610 
  237.6250   -12.8980    77.4950    24.0750    11.8790    14.2280    15.0800     2.4510 
  237.7500   -12.9110    77.4950    24.1680    12.9140    14.2120    15.0620     2.4610 
  237.8750   -12.9550    77.4950    24.1860    13.8890    14.2350    15.1490     2.4880 
  238.0000   -13.0110    77.4950    24.1840    14.3230    14.2890    15.2890     2.5150 
  238.1250   -13.0190    77.4950    24.1920    14.1960    14.3670    15.3880     2.5250 
  238.2500   -13.0390    77.4950    24.2050    14.1640    14.4590    15.4000     2.5250 
  238.3750   -13.0910    77.4950    24.2510    14.9350    14.5440    15.3410     2.5270 
  238.5000   -13.1270    77.4950    24.3200    16.9850    14.5600    15.3260     2.5390 
  238.6250   -13.0980    77.4950    24.3610    20.2610    14.5600    15.3260     2.5560 
  238.7500   -13.1090    77.4950    24.3800    22.8960    14.5600    15.3260     2.5680 
  238.8750   -13.1060    77.4950    24.3790    24.1650    14.5600    15.3260     2.5700 
  239.0000   -13.1390    77.4950    24.3750    24.2500    14.5600    15.3260     2.5660 
  239.1250   -13.1700    77.4950    24.4000    23.9340    14.5600    15.3260     2.5600 
  239.2500   -13.2000    77.4950    24.4430    23.3210    14.5600    15.3260     2.5560 
  239.3750   -13.2260    77.4950    24.4620    22.8300    14.5600    15.3260     2.5530 
  239.5000   -13.2490    77.4950    24.4610    22.9930    14.5600    15.3260     2.5490 
  239.6250   -13.2670    77.4950    24.4530    24.1580    14.5600    15.3260     2.5360 
  239.7500   -13.2550    77.4950    24.4500    24.2450    14.5600    15.3260     2.5180 
  239.8750   -13.2070    77.4950    24.4260    24.0150    14.5600    15.3260     2.5000 
  240.0000   -13.1270    77.4950    24.3810    24.2400    14.5600    15.3260     2.4850 
  240.1250   -13.1010    77.4950    24.3400    23.0960    14.5600    15.3260     2.4800 
  240.2500   -13.1490    77.4950    24.2930    21.4350    14.5600    15.3260     2.4800 
  240.3750   -13.1820    77.4950    24.2550    20.1220    14.5600    15.3260     2.4810 
  240.5000   -13.1820    77.4950    24.2290    20.0350    14.5600    15.3260     2.4870 
  240.6250  -999.2500    77.4950    24.1920    20.6010    14.5600    15.3260     2.4980 
  240.7500  -999.2500    77.4950    24.1280    20.8290    14.5600    15.3260     2.4490 
  240.8750  -999.2500    77.4950    24.0590    21.2020    14.5600    15.3260     2.2710 
  241.0000  -999.2500    77.4950    23.8360    24.4180    14.5600    15.3260     1.9900 
  241.1250  -999.2500    77.4950    22.9950    34.6700    14.5600    15.3260     1.7630 
  241.2500  -999.2500    77.4950    21.6060    47.6670    14.5600    15.3260     1.6740 
  241.3750  -999.2500    77.4950    20.4850    56.7700    14.5600    15.3260     1.6790 
  241.5000  -999.2500    77.4950    20.0050    59.8420    14.5600    15.3260     1.7020 
  241.6250  -999.2500    77.4950    19.8990    59.7860    14.5600    15.3260     1.7110 
  241.7500  -999.2500    77.4950    19.8370    59.7590    14.5600    15.3260     1.7100 
  241.8750  -999.2500    77.4950    19.8190    59.7710    14.5600    15.3260     1.7040 
