~V
VERS. 2.00: Ver 2.00
~W
STRT.M 61.0000:
STOP.M 262.0000:
STEP.M 0.1250:
NULL. -999.2500:
UWI. DF32115:
~C
DEPT.M :
GR.API :
CALI.CM :
RXO.OHMM :
RI. :
RML.OHMM :
DEN.GM/CC :
SP.MV :
~A
# ...
  162.2500    71.2790    25.2010    18.2780    20.5690    23.3380     2.4140   -23.3580 
  162.3750    72.6340    25.1880    16.8260    19.4920    22.1080     2.3990   -23.3420 
  162.5000    76.6000    25.1870    16.1420    18.6680    21.2430     2.3930   -23.3700 
  162.6250    77.9150    25.2040    16.3340    18.4880    21.3140     2.3980   -23.4690 
  162.7500    76.2440    25.2140    16.4410    19.3440    22.8850     2.3920   -23.6480 
  162.8750    72.7650    25.2280    16.7590    21.9310    26.7970     2.3620   -23.9160 
  163.0000    68.8840    25.2690    19.8530    27.4590    34.1780     2.3080   -24.2880 
  163.1250    66.8400    25.3340    34.3150    38.8480    47.6810     2.2500   -24.7760 
  163.2500    66.8320    25.3980    67.3820    57.0580    68.3360     2.2140   -25.3590 
  163.3750    66.1310    25.4570   106.9300    81.3460    96.0680     2.2090   -25.9860 
  163.5000    64.5280    25.5060   125.7490   106.7580   125.6310     2.2290   -26.6350 
  163.6250    65.4340    25.5150   112.5410   123.5530   143.8980     2.2540   -27.3130 
  163.7500    68.1290    25.4890    96.1980   130.2660   149.0580     2.2670   -27.9920 
  163.8750    70.4240    25.4570    89.1030   132.1080   149.0360     2.2650   -28.6480 
  164.0000    70.8690    25.4440    93.7990   135.2900   151.4280     2.2520   -29.2600 
  164.1250    69.7500    25.4450   108.1730   142.9530   158.8510     2.2390   -29.8290 
  164.2500    66.7820    25.4470   122.8120   152.3230   167.4410     2.2280   -30.3710 
  164.3750    63.0860    25.4430   130.2740   159.1930   171.8030     2.2230   -30.8940 
  164.5000    61.0080    25.4250   128.0880   158.3520   165.4100     2.2240   -31.4030 
  164.6250    61.6680    25.3970   120.4090   143.9840   143.1040     2.2270   -31.9030 
  164.7500    65.2320    25.3790   109.4700   120.6000   114.0770     2.2270   -32.4010 
  164.8750    70.1870    25.3750    89.9060    95.2260    87.5230     2.2320   -32.8880 
  165.0000    73.9470    25.3610    63.4040    74.1960    68.4260     2.2510   -33.3650 
  165.1250    72.4810    25.3130    44.2140    61.9010    58.8100     2.2810   -33.8530 
  165.2500    69.5600    25.2530    38.8140    57.5300    56.4970     2.3030   -34.3430 
  165.3750    69.2880    25.2130    44.7970    61.0110    61.1690     2.3020   -34.8480 
  165.5000    68.1150    25.2040    57.5040    72.8300    73.3720     2.2820   -35.3650 
  165.6250    63.6050    25.2080    71.5640    96.0650    96.4960     2.2570   -35.8520 
  165.7500    61.0660    25.2140    84.5670   130.3590   131.2680     2.2360   -36.3020 
  165.8750    62.4040    25.2320    98.1900   174.8360   178.0590     2.2200   -36.7380 
  166.0000    62.9620    25.2690   115.5650   225.8420   233.5870     2.2050   -37.1660 
  166.1250    59.7580    25.3270   138.9830   276.8660   290.4950     2.1960   -37.5260 
  166.2500    57.3670    25.3820   156.8470   320.4650   340.0440     2.1920   -37.8220 
  166.3750    56.7780    25.4070   158.7360   349.9610   374.3510     2.1900   -38.0860 
  166.5000    56.6270    25.3950   148.6170   361.6090   388.9190     2.1840   -38.3230 
  166.6250    57.4140    25.3740   139.8490   356.2570   385.2920     2.1790   -38.5150 
  166.7500    59.0800    25.3670   135.8240   344.1550   374.9380     2.1830   -38.6940 
  166.8750    60.3710    25.3660   135.7360   331.7890   364.5700     2.1940   -38.8530 
  167.0000    60.2490    25.3630   140.1360   323.4170   358.2240     2.1990   -38.9860 
  167.1250    59.5280    25.3620   149.6130   321.6680   358.2540     2.1850   -39.0800 
  167.2500    59.2630    25.3650   159.9980   325.5400   363.6350     2.1660   -39.1420 
  167.3750    58.6330    25.3680   168.3970   334.6730   374.0000     2.1610   -39.1350 
  167.5000    57.4870    25.3660   173.7420   348.5070   388.7920     2.1700   -39.0450 
  167.6250    55.5830    25.3630   175.4550   366.0460   406.7040     2.1800   -38.8910 
  167.7500    54.2040    25.3620   176.6680   382.2760   421.3890     2.1820   -38.6540 
  167.8750    55.2860    25.3650   182.3900   388.2360   420.5930     2.1790   -38.3340 
  168.0000    56.7500    25.3700   195.9350   372.0840   389.6940     2.1770   -37.9180 
  168.1250    56.6930    25.3670   205.0420   323.8790   323.5580     2.1810   -37.4280 
  168.2500    57.7370    25.3300   186.4780   259.6070   248.5800     2.1930   -36.8680 
  168.3750    63.5380    25.2570   141.8120   196.1530   183.4730     2.2160   -36.2750 
  168.5000    71.5680    25.1680    97.1460   144.8500   135.4370     2.2450   -35.6630 
  168.6250    74.9630    25.0660    73.7700   111.0600   105.5360     2.2650   -35.0480 
  168.7500    74.9200    24.9640    62.1310    89.6550    86.9880     2.2700   -34.4480 
  168.8750    72.5560    24.9140    54.9990    77.4020    76.5850     2.2650   -33.8810 
  169.0000    68.9080    24.9420    50.8510    71.6840    71.9930     2.2570   -33.3600 
  169.1250    66.5740    24.9520    51.9710    71.1380    72.0610     2.2500   -32.9080 
  169.2500    66.7240    24.8480    56.5340    73.5830    74.8550     2.2390   -32.5280 
  169.3750    68.5920    24.6600    61.0030    78.1070    79.5430     2.2270   -32.2090 
  169.5000    69.6690    24.4790    63.3740    83.9110    85.3770     2.2200   -31.9590 
  169.6250    68.6820    24.3850    65.5860    90.1020    91.5160     2.2240   -31.7790 
  169.7500    66.7600    24.3430    70.4270    95.6540    97.0100     2.2350   -31.6440 
  169.8750    64.8200    24.3180    77.6640    99.8410   101.1860     2.2430   -31.5470 
  170.0000    63.9590    24.2930    83.8310   102.2310   103.6330     2.2420   -31.4960 
  170.1250    66.0750    24.2640    84.0140   102.3330   103.8440     2.2370   -31.4590 
  170.2500    69.0750    24.2220    80.6850   100.5040   102.1660     2.2450   -31.4200 
  170.3750    70.0730    24.1750    78.1130    97.0870    98.9760     2.2670   -31.3770 
  170.5000    68.1640    24.1350    76.5050    92.6020    94.7310     2.2900   -31.3300 
  170.6250    67.4190    24.0810    71.3600    87.0050    89.1310     2.3020   -31.2280 
  170.7500    69.1720    23.9790    63.5090    80.3150    82.1550     2.3110   -31.1120 
  170.8750    70.6670    23.8470    55.9340    73.0210    74.5130     2.3210   -30.9970 
  171.0000    70.2390    23.7070    48.1800    66.2970    67.6890     2.3300   -30.8810 
  171.1250    68.9640    23.5610    39.6680    61.9630    63.8080     2.3320   -30.7620 
  171.2500    67.9410    23.4380    35.4860    60.8650    63.6640     2.3240   -30.6730 
  171.3750    66.3780    23.4510    40.1280    63.5800    67.6430     2.3030   -30.6170 
  171.5000    64.3530    23.7730    52.5960    69.8190    75.1920     2.2710   -30.5830 
  171.6250    64.7580    24.4190    63.9330    78.1170    84.5430     2.2410   -30.6170 
  171.7500    68.0670    25.0220    68.5540    85.4930    92.5290     2.2260   -30.6980 
  171.8750    72.3830    25.3520    67.4940    90.0130    97.2110     2.2210   -30.7890 
  172.0000    74.5020    25.4290    62.9820    91.4920    98.7780     2.2180   -30.8760 
  172.1250    72.4390    25.4170    57.9920    92.1100   100.1080     2.2140   -30.9840 
  172.2500    68.6320    25.4000    58.7520    94.9070   104.3740     2.2090   -31.0710 
  172.3750    65.6080    25.3780    68.0110   101.0260   112.5420     2.2080   -31.1210 
  172.5000    64.5180    25.3650    81.8360   109.6980   123.5440     2.2130   -31.1540 
  172.6250    63.5160    25.3700    89.6630   118.1630   134.0560     2.2200   -31.1390 
  172.7500    63.0430    25.3870    88.4610   123.2940   140.3510     2.2220   -31.0860 
  172.8750    63.8820    25.3990    82.4160   123.7420   140.9240     2.2160   -31.0320 
  173.0000    63.1290    25.3990    75.9090   120.4180   137.1260     2.2100   -30.9980 
  173.1250    60.0290    25.4710    71.7000   115.8200   132.0880     2.2140   -30.9780 
  173.2500    59.3490    25.8320    71.1710   112.3230   128.3410     2.2260   -30.9950 
  173.3750    61.9060    26.4990    74.1050   110.4800   126.2520     2.2380   -31.0640 
