~V
VERS. 2.00: Ver 2.00
~W
STRT.M 60.0000:
STOP.M 229.0000:
STEP.M 0.1250:
NULL. -999.2500:
UWI. DF32026:
~C
DEPT.M :
SP.MV :
GR.API :
CALI.CM :
RXO.OHMM :
RI. :
RML.OHMM :
DEN.GM/CC :
~A
# ...
  183.7500    79.8760    76.8000    24.8420    64.9930    51.4800    56.5540     2.2630 
  183.8750    79.7820    79.4050    24.8010    67.8380    53.4870    57.5020     2.2860 
  184.0000    79.7030    78.0940    24.7640    70.0250    47.5030    49.1520     2.3130 
  184.1250    79.6000    74.7130    24.9220    61.7590    38.3200    38.4810     2.3270 
  184.2500    79.4800    76.8270    25.3380    43.1280    31.1200    30.8470     2.3160 
  184.3750    79.3550    83.1450    25.7800    27.2570    27.1510    27.0200     2.2850 
  184.5000    79.2090    88.3380    25.8840    24.7910    26.6110    26.9140     2.2470 
  184.6250    79.0410    88.4430    25.5660    38.5660    29.9390    30.9100     2.2160 
  184.7500    78.8670    84.6190    25.1130    58.0790    35.6970    37.4750     2.2050 
  184.8750    78.6700    79.2070    24.9060    72.9920    41.2840    43.5950     2.2250 
  185.0000    78.4520    74.5950    24.8730    79.9770    42.8980    44.7340     2.2720 
  185.1250    78.2450    73.8190    24.8720    71.4530    38.9520    39.5200     2.3190 
  185.2500    78.0340    75.6010    24.8530    51.1900    33.8970    33.6190     2.3400 
  185.3750    77.8150    77.9060    24.7910    32.2390    30.6700    30.1560     2.3280 
  185.5000    77.6100    78.5420    24.7740    29.9390    30.4810    30.1050     2.2950 
  185.6250    77.4070    75.7460    25.0170    46.2140    34.2900    34.2910     2.2600 
  185.7500    77.1890    71.2420    25.2810    63.0360    41.7550    42.3310     2.2320 
  185.8750    76.9800    69.4570    25.1080    70.5360    52.4630    53.8620     2.2160 
  186.0000    76.7930    71.9300    24.8340    72.0670    64.3830    66.7210     2.2210 
  186.1250    76.6070    75.2020    24.6880    77.9310    73.5190    76.2610     2.2480 
  186.2500    76.4450    73.9080    24.6250    84.1660    78.8950    81.4540     2.2680 
  186.3750    76.3020    70.2250    24.5750    86.0450    82.0920    84.4780     2.2620 
  186.5000    76.1650    68.5800    24.5410    83.4020    84.8950    87.5070     2.2290 
  186.6250    76.0590    68.6470    24.5670    83.2620    88.3730    91.6710     2.1980 
  186.7500    76.0030    68.6310    24.7540    90.8590    92.8100    97.1420     2.1890 
  186.8750    75.9740    69.4740    25.0740   105.2760    98.1070   103.8020     2.1980 
  187.0000    75.9690    71.3120    25.0300   117.7330   103.8330   111.1460     2.2110 
  187.1250    75.9980    73.9620    24.9320   118.0550   109.5210   118.5390     2.2170 
  187.2500    76.0490    76.0900    24.9840   116.4210   115.1540   125.7030     2.2220 
  187.3750    76.0900    76.4350    25.4000   121.3670   121.0940   132.8470     2.2270 
  187.5000    76.1590    73.7550    25.8090   134.5020   127.6800   140.3340     2.2250 
  187.6250    76.2290    69.8140    25.8580   148.5390   134.6330   147.9200     2.2110 
  187.7500    76.3050    68.2660    25.5390   157.4160   140.5530   154.0930     2.1930 
  187.8750    76.3860    68.6780    25.0990   157.8740   143.8170   156.9320     2.1820 
  188.0000    76.4570    69.8760    24.8970   153.3150   143.2030   155.0440     2.1770 
  188.1250    76.5150    70.9010    25.0740   145.7180   138.0950   148.0540     2.1730 
  188.2500    76.5700    71.1060    25.4340   133.4790   130.7570   139.0050     2.1700 
  188.3750    76.6430    69.9840    25.4690   124.6610   123.2550   130.3710     2.1710 
  188.5000    76.7010    66.2990    25.0860   118.7650   117.3080   123.8580     2.1760 
  188.6250    76.7580    62.5300    24.8910   112.3630   115.1950   119.8410     2.1790 
  188.7500    76.7960    61.8360    24.8290   110.3600   117.1860   116.8310     2.1760 
  188.8750    76.8340    65.0640    24.8030   117.5660   118.0360   118.1740     2.1690 
  189.0000    76.8840    70.4680    24.7720   129.0800   118.8450   119.8520     2.1620 
  189.1250    76.9270    72.4610    24.7560   133.1310   118.2880   120.5410     2.1630 
  189.2500    76.9760    70.7370    24.7430   130.0190   116.4470   120.0590     2.1730 
  189.3750    77.0200    69.2800    24.7290   123.2820   113.6210   118.5260     2.1780 
  189.5000    77.0610    71.2160    24.7110   118.6020   109.8310   115.8970     2.1590 
  189.6250    77.0920    72.6690    24.6730   128.9960   104.4660   111.5430     2.1190 
  189.7500    77.1250    68.7120    24.6300   145.9280    97.5290   105.4120     2.0910 
  189.8750    77.1630    63.7820    24.6040   143.6560    89.3740    97.7520     2.0960 
  190.0000    77.1890    63.7150    24.5780   114.5880    80.7030    89.2420     2.1260 
  190.1250    77.2120    68.2550    24.5660    82.4180    72.2480    80.6410     2.1590 
  190.2500    77.2110    73.5680    24.7250    68.9230    64.2770    72.3260     2.1840 
  190.3750    77.2000    76.6090    25.0990    66.6080    56.8530    64.4070     2.2030 
  190.5000    77.1830    75.2000    25.3700    63.9720    50.1960    57.1980     2.2150 
  190.6250    77.1540    70.9100    25.4920    54.2140    45.0310    51.5880     2.2150 
  190.7500    77.1130    69.6200    25.4380    44.4980    41.6280    47.9100     2.2080 
  190.8750    77.0260    73.0460    25.2130    39.2020    40.2100    46.3940     2.2030 
  191.0000    76.9210    76.5980    25.0600    39.3900    40.8450    47.0940     2.2060 
  191.1250    76.7990    76.5370    25.0970    46.8360    43.6020    50.1170     2.2170 
  191.2500    76.6590    73.6540    25.2920    57.5930    47.3980    54.3260     2.2280 
  191.3750    76.4770    70.5980    25.4020    63.6610    51.1240    58.5260     2.2370 
  191.5000    76.2800    69.6930    25.6860    62.9610    53.8150    61.6230     2.2380 
  191.6250    76.0850    71.9120    25.8600    63.9210    55.1090    63.0950     2.2290 
  191.7500    75.8780    75.7890    25.9310    65.4410    56.0190    63.9600     2.2170 
  191.8750    75.6800    78.1230    25.7940    62.6150    57.5980    65.3510     2.2060 
  192.0000    75.4630    76.4510    25.5260    58.2690    60.7290    68.2770     2.1990 
  192.1250    75.2300    72.4490    25.1010    65.3790    66.2670    73.7050     2.1980 
  192.2500    74.9900    72.0690    24.9490    77.4600    73.9300    81.2770     2.1960 
  192.3750    74.7830    75.9320    25.0520    86.8940    83.4240    90.5200     2.1880 
  192.5000    74.5850    78.3090    25.4110    94.5960    94.0110   100.5510     2.1750 
  192.6250    74.3970    74.6090    25.7930   107.5260   104.3820   110.1250     2.1650 
  192.7500    74.2190    69.6390    25.7770   121.0630   113.6210   118.6060     2.1610 
  192.8750    74.0490    68.2600    25.3750   129.8030   121.6910   126.0260     2.1570 
  193.0000    73.8890    70.1000    25.0200   136.4680   128.9020   132.6270     2.1500 
  193.1250    73.7700    70.9990    24.9080   142.8230   135.0210   138.1370     2.1470 
  193.2500    73.6790    69.7360    24.8980   148.3460   139.5060   142.0950     2.1530 
  193.3750    73.6150    67.7070    24.8830   151.0390   141.6500   143.8990     2.1660 
  193.5000    73.5660    66.1930    24.8620   152.6260   141.3170   143.4600     2.1780 
  193.6250    73.5570    64.8080    24.8440   152.0630   139.2030   141.4420     2.1780 
  193.7500    73.5900    64.3550    24.8070   146.8890   137.0990   139.5080     2.1700 
  193.8750    73.6740    65.9440    24.7340   138.8720   136.1690   138.7670     2.1650 
  194.0000    73.8340    69.4930    24.7740   138.6710   136.9460   139.7070     2.1680 
  194.1250    74.0370    70.8700    25.0970   154.0720   139.2220   142.0470     2.1740 
  194.2500    74.2890    67.4720    25.4560   170.5370   141.4910   144.2980     2.1780 
  194.3750    74.5770    62.8840    25.3640   169.4540   142.1230   144.9930     2.1810 
  194.5000    74.9200    62.1350    24.9930   154.4130   139.6230   142.8520     2.1860 
  194.6250    75.3290    66.0820    24.7850   147.7750   133.4110   137.2190     2.1950 
  194.7500    75.7620    69.3850    24.6940   140.5510   126.0580   130.2090     2.2040 
  194.8750    76.2230    69.4430    24.6550   127.1050   119.8580   123.9670     2.2100 
