~V
VERS. 2.00: Ver 2.00
~W
STRT.M 61.0000:
STOP.M 262.0000:
STEP.M 0.1250:
NULL. -999.2500:
UWI. DF32115:
~C
DEPT.M :
GR.API :
CALI.CM :
RXO.OHMM :
RI. :
RML.OHMM :
DEN.GM/CC :
SP.MV :
~A
# ...
  128.5000    68.3610    24.6060     8.7690     7.8550     9.6930     2.1550   -33.1250 
  128.6250    67.7550    24.6060     8.7780     7.7670     9.6640     2.1290   -33.3600 
  128.7500    69.2260    24.6250     8.5970     7.6990     9.6410     2.1010   -33.5770 
  128.8750    70.9700    24.7270     8.3710     7.6420     9.6130     2.0850   -33.7830 
  129.0000    72.2440    24.8970     8.2630     7.6010     9.5940     2.0840   -33.9600 
  129.1250    74.2330    24.9010     8.2590     7.5930     9.6200     2.1010   -34.0930 
  129.2500    75.0940    24.6690     8.2420     7.6240     9.7010     2.1310   -34.1840 
  129.3750    73.9200    24.4020     8.1970     7.6880     9.8250     2.1670   -34.2360 
  129.5000    72.9730    24.3390     8.1530     7.7680     9.9620     2.1900   -34.2330 
  129.6250    72.6250    24.5030     8.1750     7.8350    10.0720     2.1920   -34.1770 
  129.7500    69.8620    24.6790     8.2660     7.8780    10.1380     2.1860   -34.0820 
  129.8750    66.8830    24.7940     8.3550     7.8910    10.1610     2.1860   -33.9650 
  130.0000    67.2710    24.8400     8.3730     7.8800    10.1520     2.1890   -33.8280 
  130.1250    70.1980    24.8400     8.3340     7.8520    10.1230     2.1890   -33.6820 
  130.2500    70.8410    24.8210     8.3160     7.8190    10.0830     2.1830   -33.5300 
  130.3750    68.4100    24.7940     8.3390     7.7830    10.0290     2.1780   -33.3680 
  130.5000    65.2990    24.7720     8.3780     7.7480     9.9600     2.1770   -33.2180 
  130.6250    65.6350    24.7670     8.3780     7.7240     9.9000     2.1810   -33.0740 
  130.7500    68.6640    24.7670     8.3170     7.7290     9.8900     2.1870   -32.9470 
  130.8750    71.0250    24.7650     8.2610     7.7770     9.9660     2.1950   -32.8310 
  131.0000    72.0850    24.7610     8.4760     7.8790    10.1440     2.2060   -32.7110 
  131.1250    72.5230    24.7610     9.3170     8.0230    10.3980     2.2200   -32.5510 
  131.2500    72.2530    24.7980    10.2190     8.1450    10.6030     2.2290   -32.3450 
  131.3750    71.4180    24.8880    10.3140     8.1620    10.6060     2.2290   -32.0800 
  131.5000    71.4980    24.9960     9.4270     7.9890    10.2620     2.2210   -31.7400 
  131.6250    71.2470    25.0600     8.3180     7.5540     9.4770     2.2140   -31.3150 
  131.7500    72.2340    25.0930     7.4680     6.9560     8.4620     2.2150   -30.8320 
  131.8750    77.6900    25.1520     6.6740     6.3050     7.4230     2.2220   -30.3010 
  132.0000    84.9050    25.2480     5.8740     5.7080     6.5350     2.2310   -29.7530 
  132.1250    88.9170    25.3390     5.3690     5.2750     5.9500     2.2320   -29.2230 
  132.2500    91.4990    25.3850     5.2090     5.0170     5.6460     2.2300   -28.7360 
  132.3750    94.8000    25.3860     5.2300     4.9260     5.5770     2.2420   -28.3110 
  132.5000    95.9560    25.3710     5.3800     4.9580     5.6590     2.2810   -27.9530 
  132.6250    93.3110    25.3920     5.7570     5.0420     5.7690     2.3340   -27.6880 
  132.7500    93.0840    25.4540     6.0850     5.0870     5.7760     2.3640   -27.4740 
  132.8750    95.4030    25.5250     5.9850     5.0350     5.6140     2.3600   -27.2870 
  133.0000    96.4020    25.5890     5.4850     4.8760     5.2980     2.3330   -27.0790 
  133.1250    95.5520    25.6520     5.0300     4.6400     4.9120     2.3080   -26.8010 
  133.2500    96.0320    25.6880     4.7620     4.4050     4.5720     2.2960   -26.4280 
  133.3750    97.7540    25.7090     4.5580     4.2180     4.3440     2.2970   -25.9520 
  133.5000    99.6350    25.8410     4.4130     4.1100     4.2530     2.3060   -25.3320 
  133.6250   102.0410    26.4440     4.4390     4.0880     4.2910     2.3200   -24.5120 
  133.7500   102.1740    27.3030     4.5430     4.1030     4.3740     2.3350   -23.5460 
  133.8750   100.0480    27.6260     4.6120     4.1160     4.4340     2.3390   -22.4880 
  134.0000    99.6650    26.9880     4.5990     4.0930     4.4140     2.3290   -21.4130 
  134.1250   104.8930    26.0580     4.5110     4.0050     4.2740     2.3160   -20.4340 
  134.2500   108.7630    25.7080     4.3910     3.8790     4.0720     2.3150   -19.5790 
  134.3750   107.7300    25.8690     4.2620     3.7540     3.8890     2.3230   -18.8660 
  134.5000   103.0580    25.9900     4.1520     3.6780     3.8040     2.3300   -18.3680 
  134.6250    98.0900    25.8360     4.1590     3.7020     3.8950     2.3320   -18.1650 
  134.7500    94.8610    25.5350     4.3800     3.8260     4.1420     2.3260   -18.1880 
  134.8750    95.6190    25.2630     4.8040     4.0370     4.5020     2.3080   -18.3900 
  135.0000    99.2270    25.1260     5.2610     4.3010     4.9070     2.2780   -18.7340 
  135.1250   100.4210    25.0590     5.5280     4.5760     5.2840     2.2420   -19.1710 
  135.2500    99.1060    24.9930     5.6320     4.8360     5.6110     2.2130   -19.6660 
  135.3750    95.0920    24.9440     5.7290     5.0780     5.9020     2.2050   -20.2240 
  135.5000    88.8680    24.9190     6.0970     5.3070     6.1820     2.2170   -20.8380 
  135.6250    81.8930    24.8920     6.9360     5.5250     6.4570     2.2280   -21.4780 
  135.7500    77.6600    24.8350     7.6250     5.7180     6.6980     2.2210   -22.1160 
  135.8750    77.9680    24.7750     7.5480     5.8680     6.8690     2.2000   -22.7360 
  136.0000    79.1450    24.7580     6.8560     5.9680     6.9630     2.1830   -23.2920 
  136.1250    80.1380    24.8440     6.3940     6.0300     7.0140     2.1840   -23.7410 
  136.2500    80.9370    25.0180     6.4070     6.0880     7.0830     2.1910   -24.1020 
  136.3750    81.5610    25.2160     6.6300     6.1580     7.1950     2.1960   -24.3650 
  136.5000    80.7130    25.3440     6.8140     6.2430     7.3460     2.1960   -24.5120 
  136.6250    77.9780    25.3670     6.8750     6.3220     7.4970     2.1950   -24.5620 
  136.7500    78.8550    25.3630     6.8590     6.3720     7.6130     2.1960   -24.5490 
  136.8750    83.1750    25.3770     6.8420     6.3810     7.6800     2.2000   -24.4840 
  137.0000    86.7370    25.3940     6.8720     6.3480     7.6930     2.2040   -24.3850 
  137.1250    86.2020    25.3690     6.9430     6.2690     7.6180     2.2050   -24.2660 
  137.2500    83.3560    25.3020     7.0170     6.1570     7.4550     2.2020   -24.1170 
  137.3750    80.1290    25.2130     7.0820     6.0460     7.2600     2.1970   -23.9170 
  137.5000    77.0650    25.1320     7.1300     6.0130     7.1790     2.1990   -23.6630 
  137.6250    75.5040    25.0820     7.3200     6.2400     7.5280     2.2270   -23.3530 
  137.7500    74.1850    25.0570     8.2520     6.8790     8.5380     2.2880   -23.0210 
  137.8750    72.4140    25.0660    10.9810     8.1380    10.4780     2.3840   -22.6900 
  138.0000    70.3600    25.1230    16.4230    10.2570    13.6150     2.4980   -22.3940 
  138.1250    69.3330    25.2280    23.7120    13.5940    18.2950     2.6010   -22.1910 
  138.2500    69.3240    25.3270    29.1530    17.6550    23.6690     2.6660   -22.0870 
  138.3750    68.2660    25.3850    31.3590    21.2840    27.9180     2.6850   -22.1110 
  138.5000    67.2300    25.3680    31.9340    22.8460    28.7650     2.6600   -22.2870 
  138.6250    67.8330    25.2200    30.8740    21.2280    25.3780     2.5890   -22.6020 
  138.7500    68.0750    25.0050    25.9450    18.0760    20.6570     2.4860   -22.9990 
  138.8750    65.9670    24.8340    18.2840    14.7750    16.4090     2.3710   -23.4340 
  139.0000    63.9420    24.7480    11.9360    12.0960    13.3370     2.2720   -23.8440 
  139.1250    67.3740    24.6810     9.2730    10.3470    11.5970     2.2190   -24.1410 
  139.2500    73.5090    24.5980     8.4050     9.2500    10.6780     2.1990   -24.3270 
  139.3750    78.4060    24.5260     8.1150     8.6080    10.2510     2.1980   -24.3910 
  139.5000    81.0020    24.4800     7.8640     8.2060     9.9740     2.2080   -24.3020 
  139.6250    81.9900    24.4720     7.4690     7.8290     9.4980     2.2300   -24.1000 
