~V
VERS. 2.00: Ver 2.00
~W
STRT.M 60.0000:
STOP.M 271.0000:
STEP.M 0.1250:
NULL. -999.2500:
UWI. DF324:
~C
DEPT.M :
SP.MV :
AC.US/MT :
DEN.GM/CC :
GR.API :
CALI.CM :
RXO.OHMM :
RI. :
RML.OHMM :
~A
# ...
  210.0000   -19.9150   405.6460     2.4200    94.3370    22.4530     5.5610     5.3400     5.7350 
  210.1250   -20.2310   402.3950     2.4010    94.6280    22.7790     5.2030     5.7770     6.1920 
  210.2500   -20.5640   396.4330     2.3890    96.4690    23.1320     5.6750     6.4970     6.9430 
  210.3750   -20.9090   390.2490     2.3800    97.3450    23.4810     7.0930     7.5910     8.0790 
  210.5000   -21.2550   386.2200     2.3680    95.9160    23.6910     9.4200     9.1570     9.6940 
  210.6250   -21.5730   384.4520     2.3480    92.0340    23.7490    12.9710    11.4180    12.0080 
  210.7500   -21.8480   382.4300     2.3320    87.2320    23.7590    17.7820    14.4010    15.0880 
  210.8750   -22.0790   379.4740     2.3240    83.2930    23.7600    22.9240    18.1900    19.0130 
  211.0000   -22.2730   377.3590     2.3200    81.1880    23.7600    27.7940    22.8060    23.8000 
  211.1250   -22.4210   379.4240     2.3070    79.7400    23.7600    34.4330    28.3030    29.5000 
  211.2500   -22.5240   384.9590     2.2820    77.0850    23.7600    42.7480    34.2280    35.6440 
  211.3750   -22.5780   390.9210     2.2550    73.8470    23.7590    52.2470    39.9020    41.5280 
  211.5000   -22.5880   394.2870     2.2380    71.7680    23.7570    61.1660    44.3550    46.1460 
  211.6250   -22.5520   394.4960     2.2320    71.5360    23.7510    68.7360    46.1010    47.9560 
  211.7500   -22.4760   394.5780     2.2250    71.6270    23.7400    71.7980    44.8890    46.7000 
  211.8750   -22.3570   396.2640     2.2190    72.1580    23.7240    71.3750    40.9690    42.6350 
  212.0000   -22.1950   399.3080     2.2240    74.5650    23.6810    66.4820    35.3020    36.7590 
  212.1250   -21.9990   401.9340     2.2500    79.6590    23.5820    52.8230    29.2360    30.4680 
  212.2500   -21.8000   403.0320     2.2830    85.0530    23.4620    35.7790    23.9130    24.9480 
  212.3750   -21.6140   402.8840     2.3110    89.1070    23.3680    22.6260    19.8520    20.7360 
  212.5000   -21.4440   402.6440     2.3270    91.7730    23.2560    15.7490    17.2370    18.0250 
  212.6250   -21.2970   403.6440     2.3330    93.4460    23.0410    12.6070    16.3400    17.0950 
  212.7500   -21.1800   405.3830     2.3330    93.9140    22.8310    10.8010    16.9890    17.7670 
  212.8750   -21.0960   406.0440     2.3250    92.5180    22.7010    11.8120    19.3400    20.2060 
  213.0000   -21.0530   403.4510     2.3100    88.7760    22.7020    19.1180    23.5410    24.5620 
  213.1250   -21.0550   396.1400     2.2970    82.4870    22.8650    35.7750    29.8440    31.0980 
  213.2500   -21.0790   386.8350     2.2920    75.7180    23.1440    53.8230    37.4720    39.0080 
  213.3750   -21.1080   378.9820     2.2890    71.3750    23.4450    65.4150    45.5480    47.3830 
  213.5000   -21.1350   375.4280     2.2840    70.8450    23.6310    68.8110    52.8720    54.9780 
  213.6250   -21.1550   377.2930     2.2790    72.2000    23.6940    67.7810    57.8530    60.1430 
  213.7500   -21.1640   381.6590     2.2730    72.6450    23.7070    66.0980    60.3380    62.7210 
  213.8750   -21.1620   386.5670     2.2590    72.3950    23.7320    65.1790    60.8120    63.2120 
  214.0000   -21.1560   391.3720     2.2310    72.5060    23.8010    66.0440    60.2360    62.6150 
  214.1250   -21.1420   396.3830     2.2020    72.9720    23.9220    68.2360    59.5570    61.9110 
  214.2500   -21.1210   401.3550     2.1860    72.9050    23.9880    69.8940    59.3270    61.6720 
  214.3750   -21.1000   405.2500     2.1820    71.9010    24.0130    69.7530    59.7260    62.0860 
  214.5000   -21.1000   406.8690     2.1850    70.1150    24.0190    67.0140    60.9020    63.3050 
  214.6250   -21.1410   405.4270     2.1880    69.1540    24.0000    62.9370    63.2710    65.7620 
  214.7500   -21.2180   402.6540     2.1910    70.7430    23.9340    62.4210    66.8770    69.5010 
  214.8750   -21.3140   400.3500     2.1910    74.5540    23.8270    69.2670    71.6620    74.4630 
  215.0000   -21.4120   399.2930     2.1910    77.9270    23.7460    87.3130    77.2840    80.2940 
  215.1250   -21.5070   398.4340     2.1880    78.1480    23.7180   117.6890    83.1110    86.3370 
  215.2500   -21.6060   396.6260     2.1850    76.4740    23.7250   149.3810    88.2910    91.7080 
  215.3750   -21.7100   394.5980     2.1850    75.1730    23.7540   164.9880    92.0830    95.6400 
  215.5000   -21.8090   393.9620     2.1880    74.9150    23.7960   159.9370    93.9630    97.5890 
  215.6250   -21.8960   395.5500     2.1920    74.6090    23.7810   146.4750    93.5180    97.1280 
  215.7500   -21.9730   397.7680     2.1970    73.7650    23.7180   132.2650    91.5610    95.0990 
  215.8750   -22.0460   399.3770     2.2030    73.3460    23.5990   114.4660    88.8130    92.2490 
  216.0000   -22.1230   399.9120     2.2040    73.7980    23.4330    93.1530    85.9190    89.2470 
  216.1250   -22.2050   399.2180     2.1990    74.1010    23.2390    75.1450    83.2650    86.4950 
  216.2500   -22.2870   397.7970     2.1950    73.6790    23.0390    65.3860    80.9230    84.0670 
  216.3750   -22.3670   396.6160     2.1990    72.8820    22.9440    65.7970    78.9360    82.0070 
  216.5000   -22.4420   397.0970     2.2130    72.2980    22.9840    73.7230    77.3100    80.3200 
  216.6250   -22.5100   400.3290     2.2210    72.3280    23.1690    80.5170    76.0970    79.0630 
  216.7500   -22.5680   404.6200     2.2120    73.0570    23.2320    80.7620    75.3770    78.3160 
  216.8750   -22.6180   407.7660     2.1920    74.4200    23.0890    76.8070    75.3660    78.3050 
  217.0000   -22.6630   408.1810     2.1760    76.1390    22.9250    73.3690    76.2480    79.2200 
  217.1250   -22.7040   405.5640     2.1810    77.4840    22.8190    74.9090    78.2580    81.3040 
  217.2500   -22.7450   401.7680     2.1950    77.7320    22.6930    80.0900    81.1690    84.3220 
  217.3750   -22.7830   397.9480     2.2040    76.6380    22.6600    86.2990    84.8160    88.1040 
  217.5000   -22.8180   394.7140     2.2030    74.4340    22.8350    92.7060    88.8900    92.3290 
  217.6250   -22.8450   392.6230     2.1970    71.3420    23.1980    96.6290    92.6530    96.2310 
  217.7500   -22.8690   391.8940     2.1960    68.4670    23.5880    97.9330    95.1820    98.8530 
  217.8750   -22.8930   392.6470     2.2020    66.7600    23.8590    95.8210    95.7460    99.4380 
  218.0000   -22.9150   394.5690     2.2130    65.9420    23.9400    94.5980    94.0310    97.6600 
  218.1250   -22.9360   396.7470     2.2230    65.3560    23.8660   100.6580    89.9160    93.3930 
  218.2500   -22.9670   397.8320     2.2250    66.0010    23.7570   109.2040    84.4330    87.7070 
  218.3750   -23.0220   397.0060     2.2160    68.7280    23.7180   111.2740    78.5140    81.5690 
  218.5000   -23.1120   394.6330     2.1980    71.9310    23.7770   102.1720    73.2260    76.0850 
  218.6250   -23.2450   392.9600     2.1830    72.3410    23.9190    92.3910    69.8130    72.5460 
  218.7500   -23.4110   394.1490     2.1770    70.5310    24.0200    91.4760    68.4160    71.0970 
  218.8750   -23.6020   398.3710     2.1760    68.4420    24.0740    97.0710    68.9340    71.6340 
  219.0000   -23.8130   403.9530     2.1720    67.2790    24.0920    99.3070    70.9840    73.7610 
  219.1250   -24.0340   408.6960     2.1640    67.5630    24.0830    93.1140    74.0790    76.9700 
  219.2500   -24.2460   412.2890     2.1590    68.8040    24.0620    89.0110    77.2690    80.2780 
  219.3750   -24.4370   415.3060     2.1610    70.3840    24.0410    90.2440    79.8750    82.9800 
  219.5000   -24.5950   417.9060     2.1680    71.9710    24.0300    93.1260    81.4340    84.5970 
  219.6250   -24.7080   419.5060     2.1730    73.8020    24.0290    92.6270    81.7880    84.9640 
  219.7500   -24.7790   420.0790     2.1710    75.3550    24.0280    90.7410    81.5340    84.7000 
  219.8750   -24.8250   419.8380     2.1660    75.5290    24.0270    89.7880    81.0750    84.2250 
