~V
VERS. 2.00: Ver 2.00
~W
STRT.M 60.0000:
STOP.M 264.0000:
STEP.M 0.1250:
NULL. -999.2500:
UWI. DF32130:
~C
DEPT.M :
SP.MV :
GR.API :
CALI.CM :
RXO.OHMM :
RI. :
RML.OHMM :
DEN.GM/CC :
~A
# ...
  183.7500   -17.0650    53.2090    23.7540   132.4210   142.3930   153.8460     2.2310 
  183.8750   -16.8010    57.0960    23.7490   119.5640   125.9020   136.2910     2.2410 
  184.0000   -16.5130    61.6780    23.7480    92.9750   110.6600   118.0990     2.2500 
  184.1250   -16.2960    65.6670    23.7480    71.1640   102.3150   106.5160     2.2520 
  184.2500   -16.0520    68.4290    23.7480    63.3000   100.7460   103.2220     2.2470 
  184.3750   -15.8130    69.1040    23.7480    72.1940   105.3240   107.7300     2.2390 
  184.5000   -15.5370    68.0280    23.7480    95.8580   114.5730   117.7020     2.2330 
  184.6250   -15.2390    65.6570    23.7480   117.0200   124.7020   128.5360     2.2280 
  184.7500   -14.8540    63.0000    23.7480   115.1760   130.0310   135.0850     2.2290 
  184.8750   -14.3720    62.2140    23.7480    98.5580   128.8210   135.8860     2.2500 
  185.0000   -13.8650    64.4200    23.7480    86.4020   124.4650   133.5120     2.3020 
  185.1250   -13.3330    67.1260    23.7480    88.7260   122.6030   132.8950     2.3890 
  185.2500   -12.7890    65.8810    23.7480   100.1950   125.4950   136.3420     2.4980 
  185.3750   -12.1800    62.1680    23.7550   119.3950   132.5480   143.0160     2.5910 
  185.5000   -11.5110    59.5900    23.7750   143.5870   137.1300   147.5800     2.6480 
  185.6250   -10.8280    58.3320    23.8170   146.4970   117.7890   134.4230     2.6760 
  185.7500   -10.1570    56.8230    23.8350   125.9870    78.9500   100.6270     2.6920 
  185.8750    -9.4580    55.8040    23.8400    95.0410    44.4410    61.4420     2.6900 
  186.0000    -8.6800    55.3690    23.8400    59.3620    23.6490    32.3870     2.6600 
  186.1250    -7.7650    54.9180    23.8530    28.8740    13.7420    17.2680     2.6030 
  186.2500    -6.8470    53.9440    23.9750    10.8730     8.8500     9.1850     2.5350 
  186.3750    -5.9200    55.6920    24.2870     5.8200     6.0590     5.5970     2.4750 
  186.5000    -5.0810    60.4900    24.6590     4.8700     4.3400     4.4510     2.4380 
  186.6250    -4.2590    61.9850    24.7720     4.5960     3.8110     4.2950     2.4220 
  186.7500    -3.5260    57.8920    24.8760     4.3670     3.8720     4.5960     2.4100 
  186.8750    -2.8930    53.5190    24.9840     4.2000     4.2520     5.0560     2.3820 
  187.0000    -2.3670    54.7630    24.8820     4.1640     4.6910     5.4340     2.3470 
  187.1250    -2.0130    58.3690    24.7250     4.2450     4.9810     5.5950     2.3200 
  187.2500    -1.7200    58.7420    24.7480     4.3600     5.1310     5.6230     2.3090 
  187.3750    -1.5330    56.4660    24.8150     4.4100     5.1950     5.5860     2.3190 
  187.5000    -1.3660    53.5580    24.6870     4.3970     5.2100     5.5220     2.3360 
  187.6250    -1.2900    51.2830    24.4600     4.3860     5.1910     5.4810     2.3410 
  187.7500    -1.2170    50.4400    24.4170     4.4160     5.1590     5.5090     2.3270 
  187.8750    -1.2030    51.2990    24.6800     4.5100     5.1430     5.6130     2.3160 
  188.0000    -1.2810    51.7540    25.4010     4.6520     5.1770     5.7670     2.3270 
  188.1250    -1.4430    50.4410    26.3500     4.8170     5.2660     5.9540     2.3520 
  188.2500    -1.6560    49.9780    26.8310     5.0620     5.3680     6.2040     2.3720 
  188.3750    -1.9250    52.2940    26.4350     5.4100     5.4600     6.5520     2.3800 
  188.5000    -2.2570    57.1710    25.3490     5.7270     5.5570     6.9760     2.3860 
  188.6250    -2.6980    63.2410    24.5760     5.8440     5.6920     7.3910     2.3920 
  188.7500    -3.2020    68.2780    24.0970     5.9290     5.8570     7.7270     2.4000 
  188.8750    -3.7440    71.7300    23.8830     6.1860     6.0230     7.9690     2.4120 
  189.0000    -4.3000    76.4500    23.6890     6.7580     6.1640     8.1400     2.4210 
  189.1250    -4.9030    85.1510    23.4960     7.3390     6.2630     8.2900     2.4200 
  189.2500    -5.5630    95.3940    23.5720     7.6260     6.3660     8.4990     2.4100 
  189.3750    -6.2370   104.2650    23.8600     7.7140     6.5730     8.8930     2.4000 
  189.5000    -6.9110   110.6220    24.0690     8.1290     7.0130     9.6540     2.3970 
  189.6250    -7.5270   111.6980    24.1270     9.6490     7.8440    11.0230     2.4010 
  189.7500    -8.1340   105.8600    24.1230    12.5290     8.9470    12.8550     2.4120 
  189.8750    -8.6410    97.0550    24.0600    16.2020    10.0480    14.7330     2.4250 
  190.0000    -9.1070    89.6420    23.7970    17.9060    10.7240    15.8890     2.4310 
  190.1250    -9.4370    86.6370    23.3480    15.7220    10.5680    15.5330     2.4240 
  190.2500    -9.7050    89.1770    23.2380    12.3460     9.9020    14.3100     2.4100 
  190.3750    -9.9000    94.9080    23.7700    10.6600     9.1500    13.0500     2.4000 
  190.5000   -10.0530    98.9590    24.5610    10.6100     8.6380    12.3350     2.3990 
  190.6250   -10.1530    96.5110    25.0650    11.2760     8.5970    12.5050     2.4080 
  190.7500   -10.1930    91.6300    25.0010    12.4370     8.9840    13.3420     2.4240 
  190.8750   -10.2740    87.2410    24.6690    13.9430     9.6900    14.5290     2.4400 
  191.0000   -10.2970    82.4690    24.4120    15.3050    10.4880    15.6160     2.4510 
  191.1250   -10.2950    79.5640    24.3680    16.3040    11.0580    16.1510     2.4530 
  191.2500   -10.1870    80.1100    24.4290    16.8120    11.2800    16.1850     2.4470 
  191.3750    -9.9920    82.3640    24.5420    16.6230    11.1860    15.8810     2.4370 
  191.5000    -9.7230    85.8070    24.6250    15.7400    10.8680    15.3850     2.4220 
  191.6250    -9.3700    90.7750    24.6750    14.4410    10.3700    14.7050     2.4010 
  191.7500    -8.9460    94.8850    24.7300    13.2680     9.7260    13.8410     2.3750 
  191.8750    -8.4260    95.5730    24.8160    12.2060     8.9620    12.8540     2.3580 
  192.0000    -7.8390    93.6450    24.9820    11.0340     8.1900    11.9030     2.3600 
  192.1250    -7.2290    93.4760    25.1350     9.4800     7.6010    11.2410     2.3760 
  192.2500    -6.5850    90.8190    25.3420     7.9130     7.2790    10.9770     2.3950 
  192.3750    -5.9690    82.8260    25.6710     7.1200     7.2450    11.1210     2.4040 
  192.5000    -5.3500    74.9090    25.8790     7.8920     7.4360    11.5650     2.4070 
  192.6250    -4.7600    76.3320    25.4970     9.7910     7.6690    11.9470     2.4130 
  192.7500    -4.1820    84.8500    25.2200    10.7640     7.6680    11.7900     2.4260 
  192.8750    -3.5300    91.9970    24.9860     9.7680     7.2930    10.8980     2.4280 
  193.0000    -2.8790    93.3850    24.6950     7.6060     6.6110     9.5110     2.4010 
  193.1250    -2.2200    87.7510    24.6820     5.9160     5.8640     8.1870     2.3510 
  193.2500    -1.6590    78.1380    25.1560     5.1140     5.2790     7.2920     2.3100 
  193.3750    -1.1160    68.1910    25.9200     4.7870     4.9230     6.8940     2.3040 
  193.5000    -0.6410    60.1830    26.5260     4.6770     4.7780     6.9240     2.3230 
  193.6250    -0.2200    54.4920    26.4110     4.7090     4.8040     7.2220     2.3470 
  193.7500     0.0790    50.8140    26.1090     4.8390     4.8920     7.5080     2.3610 
  193.8750     0.2270    49.3550    26.0280     4.9990     4.9720     7.6270     2.3490 
  194.0000     0.2810    48.6750    26.3970     5.0870     4.9920     7.5510     2.3120 
  194.1250     0.2290    47.6660    27.3320     4.9840     4.9340     7.3620     2.2620 
  194.2500     0.0980    47.2980    28.5810     4.8320     4.8720     7.1900     2.2260 
  194.3750    -0.1750    50.0280    29.4680     4.7590     4.8630     7.1010     2.2330 
  194.5000    -0.5430    55.6940    29.9690     4.7500     4.9180     7.1220     2.2680 
  194.6250    -1.0320    60.7730    30.2600     4.7430     4.9910     7.2320     2.3070 
  194.7500    -1.5400    65.3560    30.0740     4.7500     5.0270     7.3530     2.3450 
  194.8750    -2.0940    71.0280    28.9070     4.8110     5.0260     7.4230     2.3870 
