~V
VERS. 2.00: Ver 2.00
~W
STRT.M 62.0000:
STOP.M 260.0000:
STEP.M 0.1250:
NULL. -999.2500:
UWI. DF32117:
~C
DEPT.M :
GR.API :
CALI.CM :
RXO.OHMM :
RI. :
RML.OHMM :
DEN.GM/CC :
SP.MV :
~A
# ...
  219.5000    98.1880    26.6310    11.5970     8.2980    12.1890     2.3780   -28.0600 
  219.6250    99.2820    26.5440    10.6820     7.7460    11.4790     2.3710   -27.6010 
  219.7500   103.5230    26.4680    10.1200     7.3380    10.8750     2.3600   -27.0590 
  219.8750   105.5810    26.4260     9.5180     6.9870    10.1850     2.3470   -26.4780 
  220.0000   102.3180    26.4170     8.5380     6.6160     9.3520     2.3370   -25.8910 
  220.1250    98.1200    26.3690     7.4140     6.2200     8.4770     2.3350   -25.3270 
  220.2500    97.6590    26.2550     6.9860     5.8650     7.6960     2.3380   -24.8120 
  220.3750   100.2360    26.1360     7.5920     5.6140     7.0740     2.3410   -24.3590 
  220.5000   101.3400    26.0810     8.6050     5.5230     6.6690     2.3430   -23.9780 
  220.6250   100.8190    26.0760     8.8280     5.6830     6.6070     2.3430   -23.6860 
  220.7500   101.3710    26.0500     7.5290     6.1230     6.9510     2.3420   -23.4720 
  220.8750   102.7140    25.9920     5.7240     6.9430     7.8730     2.3460   -23.3240 
  221.0000   102.9760    25.9280     5.6920     8.3140     9.6110     2.3570   -23.2260 
  221.1250   103.1410    25.8690     8.2110    10.6270    12.5890     2.3630   -23.1440 
  221.2500   104.0550    25.8030    13.6590    13.8290    16.5710     2.3580   -23.0470 
  221.3750   104.2630    25.7330    21.4170    17.3850    20.7460     2.3470   -22.9240 
  221.5000   104.3080    25.6760    26.9820    19.8280    23.2580     2.3370   -22.7740 
  221.6250   105.0580    25.6730    24.2810    18.9680    21.5980     2.3300   -22.6070 
  221.7500   104.2550    25.7370    17.0900    15.7440    17.2440     2.3240   -22.4380 
  221.8750   101.3890    25.8550    11.0800    12.0230    12.6190     2.3240   -22.2830 
  222.0000    98.5820    25.9740     9.1000     9.1010     9.2890     2.3310   -22.1540 
  222.1250    96.9960    25.9950     7.0330     7.5410     7.9290     2.3430   -22.0950 
  222.2500    92.0250    25.8920     7.8260     7.1610     8.2680     2.3480   -22.1290 
  222.3750    82.6830    25.6650    10.9170     8.2160    10.5470     2.3360   -22.2590 
  222.5000    72.8340    25.2890    19.0460    11.5560    15.4610     2.3070   -22.4660 
  222.6250    66.9990    24.8150    35.7960    19.9480    25.4170     2.2780   -22.7610 
  222.7500    65.2930    24.4410    50.8560    35.5330    42.4760     2.2610   -23.1130 
  222.8750    64.8440    24.2900    56.8760    59.8390    69.1730     2.2520   -23.4880 
  223.0000    63.4670    24.2860    61.2940    90.4940   104.5240     2.2470   -23.8750 
  223.1250    61.6430    24.2520    80.8410   118.7360   137.3090     2.2450   -24.2530 
  223.2500    62.1160    24.2720   107.8940   137.5170   156.2840     2.2380   -24.5930 
  223.3750    64.4180    24.5580   127.4190   145.6950   161.4330     2.2250   -24.8900 
  223.5000    65.0230    25.1710   136.3850   144.6460   156.7580     2.2120   -25.1310 
  223.6250    63.6040    25.9220   139.4530   134.8720   143.7510     2.2090   -25.2890 
  223.7500    63.6610    26.4990   132.6830   119.7860   125.7740     2.2120   -25.3800 
  223.8750    66.7120    26.8010   114.2800   101.5900   104.8600     2.2180   -25.4270 
  224.0000    70.9570    26.8840    93.1080    82.4100    83.3810     2.2260   -25.4170 
  224.1250    75.0700    26.8680    74.9190    64.9800    64.9320     2.2370   -25.3750 
  224.2500    80.8510    26.8610    56.7220    51.1800    51.2950     2.2490   -25.3380 
  224.3750    85.1770    26.8620    39.6390    41.9810    42.9260     2.2610   -25.3130 
  224.5000    83.5590    26.8610    28.9770    37.5820    39.5520     2.2750   -25.3400 
  224.6250    75.5290    26.8630    31.5460    38.7720    41.6770     2.2830   -25.4650 
  224.7500    68.4430    26.8760    49.9280    45.0770    48.7290     2.2800   -25.6940 
  224.8750    66.6770    26.9010    83.7400    56.8180    61.2030     2.2680   -26.0230 
  225.0000    66.7290    26.9280   117.9930    73.4260    79.0370     2.2550   -26.4630 
  225.1250    63.1940    26.9380   132.6900    91.9030    99.5920     2.2460   -27.0290 
  225.2500    59.0530    26.9360   132.3980   106.7540   116.1570     2.2430   -27.6820 
  225.3750    56.8610    26.9320   126.7410   115.2330   125.1800     2.2470   -28.3900 
  225.5000    57.4790    26.9330   121.5070   118.4060   128.4510     2.2520   -29.1100 
  225.6250    58.7210    26.9390   123.9690   119.0680   129.7130     2.2440   -29.7940 
  225.7500    60.4460    26.9380   134.3060   119.1210   130.5870     2.2250   -30.4190 
  225.8750    61.9870    26.9190   145.2700   118.0650   130.0720     2.2080   -30.9700 
  226.0000    60.5240    26.8880   144.3690   115.1310   127.1590     2.2000   -31.4330 
  226.1250    60.9390    26.8660   125.0970   110.2270   121.9290     2.2020   -31.7690 
  226.2500    65.4240    26.8610   104.0840   104.9980   116.5160     2.2110   -31.9800 
  226.3750    68.6850    26.8620    95.2210   100.9640   112.6360     2.2250   -32.0810 
  226.5000    67.0670    26.8620   102.0760    99.1710   111.2630     2.2360   -32.1040 
  226.6250    63.3360    26.8620   116.8490   100.0120   112.5400     2.2350   -32.0250 
  226.7500    62.8300    26.8620   125.3920   101.9490   114.5940     2.2280   -31.8560 
  226.8750    64.1780    26.8620   123.9300   103.3390   115.4540     2.2240   -31.6070 
  227.0000    65.0310    26.8620   116.4450   102.6620   113.4220     2.2240   -31.3010 
  227.1250    65.2750    26.8610   107.1470    98.9030   107.7320     2.2250   -30.9160 
  227.2500    63.7920    26.8590    97.6980    93.4520   100.5520     2.2260   -30.4810 
  227.3750    62.4850    26.8590    88.3090    87.9130    93.8880     2.2320   -30.0230 
  227.5000    63.5790    26.8610    79.4950    83.8110    89.3130     2.2390   -29.5630 
  227.6250    66.4530    26.8620    75.2600    82.8040    88.4190     2.2410   -29.1610 
  227.7500    67.6000    26.8620    78.9740    85.1670    91.2220     2.2360   -28.8260 
  227.8750    65.4720    26.8610    91.2270    90.9820    97.6870     2.2290   -28.5680 
  228.0000    61.3510    26.8680   109.4090    99.3710   106.7870     2.2250   -28.3670 
  228.1250    59.8720    26.8590   128.1730   107.2780   114.7250     2.2210   -28.2570 
  228.2500    63.9030    26.7320   138.1360   110.2690   116.0430     2.2190   -28.2140 
  228.3750    71.3460    26.4950   131.8320   105.6040   108.1320     2.2260   -28.2050 
  228.5000    77.2750    26.3190   109.7300    94.3750    94.0650     2.2440   -28.2050 
  228.6250    81.5810    26.3430    82.1310    81.4040    80.6150     2.2650   -28.1800 
  228.7500    83.5260    26.4240    61.0470    71.6530    71.8510     2.2810   -28.1350 
  228.8750    79.9050    26.4390    51.8370    67.1180    68.7640     2.2840   -28.0660 
  229.0000    71.8020    26.4180    57.1590    68.3060    71.3120     2.2790   -27.9910 
  229.1250    66.2710    26.3650    81.3900    75.5110    79.6650     2.2760   -27.8960 
  229.2500    66.3550    26.2100   112.6660    86.1690    91.3410     2.2820   -27.7800 
  229.3750    67.3770    26.0480   133.7200    97.5530   103.4150     2.2880   -27.6510 
  229.5000    66.3240    26.1000   137.2690   106.2740   112.0270     2.2800   -27.5220 
  229.6250    65.0070    26.4310   131.0380   108.5510   113.0340     2.2680   -27.4030 
  229.7500    66.7010    26.7210   123.7110   105.1740   108.0460     2.2720   -27.2810 
  229.8750    69.9750    26.7900   115.2610    98.1970    99.8540     2.2870   -27.1510 
  230.0000    70.9350    26.7120   104.1460    90.1000    91.2270     2.2960   -26.9970 
  230.1250    68.6450    26.6440    89.8590    83.1720    84.4560     2.2900   -26.8260 
  230.2500    65.7660    26.6060    78.5160    78.5190    80.3050     2.2840   -26.6550 
  230.3750    64.8260    26.5680    76.7890    76.5610    78.9500     2.2860   -26.4940 
  230.5000    65.8550    26.5290    86.1120    77.0900    79.9690     2.2900   -26.3430 
  230.6250    65.8380    26.5130    97.4070    79.5010    82.5210     2.2820   -26.1910 
