~V
VERS. 2.00: Ver 2.00
~W
STRT.M 62.0000:
STOP.M 235.0000:
STEP.M 0.1250:
NULL. -999.2500:
UWI. DF32059:
~C
DEPT.M :
SP.MV :
GR.API :
CALI.CM :
RXO.OHMM :
RI. :
RML.OHMM :
DEN.GM/CC :
~A
# ...
  107.0000   -18.5620    98.4930    23.9460     4.9240     3.9830     5.4030     2.3800 
  107.1250   -18.7120    98.1660    24.0860     5.0070     3.8750     5.2220     2.3870 
  107.2500   -18.9500   100.1980    23.8450     4.8520     3.8510     5.1000     2.3860 
  107.3750   -19.2740   100.9290    23.6410     4.5970     3.9560     5.1690     2.3790 
  107.5000   -19.6850    99.8810    23.5760     4.5960     4.2190     5.5250     2.3790 
  107.6250   -20.1770    97.6010    23.6380     5.1530     4.6430     6.2170     2.3920 
  107.7500   -20.7130    92.2480    23.7500     6.0040     5.1160     7.0350     2.3940 
  107.8750   -21.2840    83.0150    23.7240     6.6700     5.5100     7.7120     2.3660 
  108.0000   -21.8680    74.4550    23.5420     6.8560     5.7260     8.0050     2.3190 
  108.1250   -22.4340    71.2220    23.3270     6.6530     5.7500     7.8520     2.2820 
  108.2500   -23.0000    72.0190    23.2350     6.3220     5.7380     7.6000     2.2590 
  108.3750   -23.5570    73.9450    23.0790     6.2200     5.8160     7.5250     2.2430 
  108.5000   -24.0770    74.5900    22.9770     6.9570     6.0550     7.7830     2.2340 
  108.6250   -24.5710    72.8540    23.1270     9.1760     6.4650     8.4050     2.2320 
  108.7500   -25.0190    72.5520    23.4630    11.4080     6.9310     9.1600     2.2350 
  108.8750   -25.4400    75.7210    23.5650    11.5550     7.3510     9.8310     2.2380 
  109.0000   -25.8030    78.2200    23.5710     9.8270     7.6510    10.2410     2.2350 
  109.1250   -26.0770    74.4280    23.8200     8.9750     7.7730    10.2680     2.2260 
  109.2500   -26.2570    69.2640    23.9820     8.7590     7.7450    10.0190     2.2170 
  109.3750   -26.3140    66.8510    24.0340     8.7250     7.5840     9.5980     2.2110 
  109.5000   -26.2540    67.0580    24.0400     8.6050     7.3580     9.1660     2.2000 
  109.6250   -26.0200    67.2950    24.0490     8.3960     7.2720     9.0490     2.1750 
  109.7500   -25.6750    66.4530    24.0490     8.2090     7.5160     9.4830     2.1540 
  109.8750   -25.1930    64.8480    24.0340     8.4920     8.1640    10.5530     2.1710 
  110.0000   -24.6380    62.5490    23.9520    10.1900     9.0630    12.0410     2.2480 
  110.1250   -24.0400    61.0710    23.8670    15.2430     9.6310    13.0260     2.3690 
  110.2500   -23.4420    62.4570    23.7120    18.2950     9.3130    12.5280     2.4650 
  110.3750   -22.9220    68.7560    23.6640    15.0750     8.1010    10.5470     2.4940 
  110.5000   -22.5210    79.4620    23.7440     8.5300     6.5430     8.1110     2.4560 
  110.6250   -22.3690    88.8630    23.4960     5.0450     5.3150     6.3600     2.3900 
  110.7500   -22.4360    92.7140    23.2200     4.2990     4.6290     5.5090     2.3340 
  110.8750   -22.7550    92.2970    23.1320     4.5940     4.5020     5.5130     2.2840 
  111.0000   -23.2650    89.5830    23.2540     5.4970     4.8860     6.2730     2.2350 
  111.1250   -23.9240    82.9910    23.5700     6.6410     5.7290     7.6620     2.1950 
  111.2500   -24.6440    73.4120    23.6660     7.5690     6.7430     9.1770     2.1740 
  111.3750   -25.3680    65.3010    23.5800     8.1500     7.6720    10.3630     2.1700 
  111.5000   -26.0350    62.4950    23.3420     8.4460     8.3110    10.9540     2.1700 
  111.6250   -26.5810    63.9630    23.2830     8.5910     8.5580    10.9910     2.1680 
  111.7500   -27.0080    65.3120    23.2650     8.8570     8.5930    10.8860     2.1640 
  111.8750   -27.3110    65.5420    23.3830     9.7260     8.5560    10.8540     2.1590 
  112.0000   -27.5110    64.6610    23.6490    11.3930     8.5420    10.9610     2.1580 
  112.1250   -27.6250    63.3690    23.7010    12.1540     8.5850    11.1600     2.1620 
  112.2500   -27.7030    63.4850    23.4860    11.3510     8.6340    11.3420     2.1680 
  112.3750   -27.7530    64.1630    23.2600    10.0120     8.6350    11.4560     2.1710 
  112.5000   -27.8160    63.5050    23.0800     9.3900     8.5570    11.4940     2.1730 
  112.6250   -27.8180    61.5870    23.0740     9.4110     8.4110    11.4660     2.1740 
  112.7500   -27.7790    61.6350    22.9440     9.4540     8.2630    11.4000     2.1760 
  112.8750   -27.6960    64.6710    22.8820     9.3490     8.1530    11.3030     2.1760 
  113.0000   -27.5900    68.0930    22.8780     9.1710     8.0860    11.1770     2.1720 
  113.1250   -27.4450    69.0170    22.9000     9.0100     8.0360    11.0390     2.1650 
  113.2500   -27.2730    67.0820    22.9470     8.8600     7.9760    10.9280     2.1610 
  113.3750   -27.0600    64.5110    23.0770     8.8040     7.9080    10.8620     2.1650 
  113.5000   -26.7970    63.7890    23.4100     8.8710     7.8550    10.8310     2.1730 
  113.6250   -26.5260    63.4690    23.5860     8.9960     7.8460    10.7970     2.1820 
  113.7500   -26.2270    61.8120    23.6320     9.0590     7.8700    10.7260     2.1850 
  113.8750   -25.9010    62.1150    23.6260     9.0590     7.8980    10.6150     2.1790 
  114.0000   -25.5290    65.8720    23.6350     8.9970     7.9000    10.4990     2.1610 
  114.1250   -25.1140    68.6710    23.6590     8.8790     7.8720    10.4400     2.1430 
  114.2500   -24.6470    68.6200    23.6780     8.7630     7.8410    10.4460     2.1380 
  114.3750   -24.1390    68.5200    23.6930     8.6670     7.8030    10.4400     2.1450 
  114.5000   -23.5950    68.9990    23.7190     8.5470     7.7010    10.2810     2.1530 
  114.6250   -22.9800    68.2970    23.7830     8.3480     7.4140     9.7870     2.1550 
  114.7500   -22.3350    68.0740    23.8980     8.0150     6.9220     9.0100     2.1660 
  114.8750   -21.6900    70.7330    23.9790     7.4430     6.2800     8.0770     2.2010 
  115.0000   -21.0760    75.8840    23.9110     6.6090     5.6060     7.1570     2.2510 
  115.1250   -20.5570    81.9090    23.6260     5.8690     5.0580     6.4320     2.2830 
  115.2500   -20.1360    88.0910    23.3830     5.5500     4.7030     5.9510     2.2880 
  115.3750   -19.8160    91.6760    23.3470     5.4260     4.5530     5.7280     2.2810 
  115.5000   -19.5810    92.6420    23.4880     5.2350     4.5770     5.7430     2.2800 
  115.6250   -19.4620    93.3320    23.6870     5.1170     4.7160     5.9490     2.2810 
  115.7500   -19.4070    92.4860    23.5140     5.2700     4.8750     6.1960     2.2690 
  115.8750   -19.3840    88.0160    23.2770     5.6200     5.0000     6.3730     2.2460 
  116.0000   -19.3800    82.2930    23.3430     5.9310     5.0630     6.4000     2.2300 
  116.1250   -19.3310    82.3080    23.5950     5.8590     5.0270     6.2230     2.2430 
  116.2500   -19.2550    87.7200    23.7930     5.4480     4.9020     5.9240     2.2730 
  116.3750   -19.1780    93.6760    23.8570     5.1440     4.7110     5.5950     2.2940 
  116.5000   -19.1230    96.8810    23.6670     5.2250     4.5040     5.3210     2.2960 
  116.6250   -19.0850    95.3030    23.4890     5.2240     4.3670     5.1810     2.2910 
  116.7500   -19.0900    92.9840    23.3120     5.1220     4.3510     5.1840     2.2930 
  116.8750   -19.1450    91.8670    23.3070     5.0210     4.4570     5.3210     2.2970 
  117.0000   -19.2330    90.0950    23.4980     5.0480     4.6320     5.5460     2.2940 
  117.1250   -19.3930    87.9740    23.9240     5.3220     4.7740     5.7780     2.2800 
  117.2500   -19.5500    87.6530    24.2010     5.6160     4.8150     5.9280     2.2690 
  117.3750   -19.6620    90.0470    24.3030     5.7020     4.7420     5.9330     2.2740 
  117.5000   -19.7460    93.1680    24.3150     5.3930     4.5850     5.7810     2.3030 
  117.6250   -19.8360    96.4280    24.3270     4.9620     4.3910     5.5160     2.3370 
  117.7500   -19.9440    99.7250    24.3650     4.7900     4.2020     5.2400     2.3490 
  117.8750   -20.0980   100.4490    24.3950     4.9130     4.0350     5.0070     2.3360 
  118.0000   -20.2950    97.1070    24.3340     5.1120     3.9340     4.8880     2.3160 
  118.1250   -20.5590    91.4670    24.1380     5.2940     4.0640     5.0810     2.3140 
