~V
VERS. 2.00: Ver 2.00
~W
STRT.M 62.0000:
STOP.M 235.0000:
STEP.M 0.1250:
NULL. -999.2500:
UWI. DF32059:
~C
DEPT.M :
SP.MV :
GR.API :
CALI.CM :
RXO.OHMM :
RI. :
RML.OHMM :
DEN.GM/CC :
~A
# ...
  219.5000   -14.4570    69.9290    23.9180    39.6280    34.3980    37.1750     2.2660 
  219.6250   -14.4840    71.0970    24.1690    34.9110    33.1800    35.7130     2.2670 
  219.7500   -14.4970    71.3910    24.3190    31.8320    31.9820    34.3080     2.2500 
  219.8750   -14.4950    70.7770    24.3470    30.7420    31.3670    33.6380     2.2220 
  220.0000   -14.4810    68.5770    24.2950    32.6200    31.6090    34.0100     2.2150 
  220.1250   -14.4660    65.5860    24.1800    37.3990    32.7730    35.4490     2.2550 
  220.2500   -14.4540    63.9570    24.1240    40.5800    34.3610    37.2970     2.3150 
  220.3750   -14.4230    63.7950    24.1410    40.7840    35.9680    39.0420     2.3610 
  220.5000   -14.3660    63.8570    24.1270    39.8270    37.2970    40.3620     2.3730 
  220.6250   -14.3880    63.1480    23.9500    39.6330    38.1880    41.1460     2.3550 
  220.7500   -14.5060    63.0600    23.9920    40.4230    38.8350    41.6990     2.3290 
  220.8750   -14.5910    63.6040    24.0300    41.9350    39.3920    42.2400     2.3060 
  221.0000   -14.6640    63.2400    24.1900    44.5900    39.7430    42.6360     2.2910 
  221.1250   -14.8050    63.2340    24.2780    45.2010    39.1950    42.0450     2.2820 
  221.2500   -14.9330    64.9770    24.1700    43.7280    37.4320    40.0170     2.2700 
  221.3750   -15.0150    66.4360    23.8570    39.8120    34.6640    36.7760     2.2560 
  221.5000   -15.1280    66.3650    23.7130    33.7220    31.5650    33.1290     2.2430 
  221.6250   -15.2390    67.3790    23.9650    27.8310    28.9960    30.1510     2.2410 
  221.7500   -15.2590    69.0180    24.1670    24.9170    27.3720    28.3590     2.2460 
  221.8750   -15.2700    69.4810    24.2410    25.6490    26.7890    27.8410     2.2500 
  222.0000   -15.3170    69.4880    24.2710    27.5990    27.0150    28.2760     2.2450 
  222.1250   -15.3540    70.3220    24.2950    28.8870    27.4860    28.9340     2.2330 
  222.2500   -15.3570    70.9560    24.3080    29.0260    27.5160    29.0150     2.2290 
  222.3750   -15.3640    70.4220    24.3110    28.9670    26.8750    28.2800     2.2370 
  222.5000   -15.3170    68.9210    24.3120    27.7290    25.7500    26.9820     2.2490 
  222.6250   -15.2070    68.1010    24.3250    24.3270    24.4950    25.5930     2.2500 
  222.7500   -15.1430    68.1010    24.3840    22.0240    23.3320    24.3760     2.2390 
  222.8750   -15.1340    68.1010    24.4480    23.2220    22.2520    23.2890     2.2260 
  223.0000   -15.0610    68.1010    24.4140    25.3850    21.2440    22.2580     2.2220 
  223.1250   -14.9270    68.1010    24.0590    23.0710    20.4880    21.4430     2.2390 
  223.2500   -14.8290    68.1010    24.0000    18.9320    20.1840    21.1080     2.2790 
  223.3750   -14.7360    68.1010    24.1280    16.9800    20.4880    21.4890     2.3440 
  223.5000   -14.7310    68.1010    24.0670    18.2270    21.4390    22.6730     2.4220 
  223.6250   -14.7240    68.1010    23.6500    20.9190    22.9110    24.5230     2.4740 
  223.7500   -14.7070    68.1010    23.5940    23.6200    24.2640    26.2220     2.4800 
  223.8750   -14.6670    68.1010    23.9090    24.4230    24.8160    26.9090     2.4430 
  224.0000   -14.6950    68.1010    24.1350    23.2770    24.2560    26.1990     2.3880 
  224.1250   -14.7190    68.1010    24.2320    21.7150    22.9270    24.5590     2.3400 
  224.2500   -14.7590    68.1010    24.2410    20.8230    21.7140    23.1230     2.3130 
  224.3750   -14.9040    68.1010    24.2520    20.2880    21.1010    22.4820     2.2980 
  224.5000   -15.0360    68.1010    24.2620    20.9450    21.2920    22.8430     2.2800 
  224.6250   -15.1430    68.1010    24.2760    22.9150    22.3840    24.2420     2.2550 
  224.7500   -15.2740    68.1010    24.3090    24.2770    24.0240    26.2030     2.2350 
  224.8750   -15.4740    68.1010    24.3490    25.4620    25.9020    28.3500     2.2280 
  225.0000   -15.6400    68.1010    24.3690    27.4340    27.6670    30.3020     2.2330 
  225.1250   -15.8140    68.1010    24.3920    29.8040    28.8730    31.6010     2.2410 
  225.2500   -15.9820    68.1010    24.4530    31.0630    29.3590    32.1090     2.2430 
  225.3750   -16.0400    68.1010    24.5290    30.6340    29.0350    31.7340     2.2430 
  225.5000   -16.0310    68.1010    24.5860    28.7980    27.9110    30.4800     2.2430 
  225.6250   -16.0830    68.1010    24.6340    26.4200    26.0320    28.3860     2.2410 
  225.7500   -16.1280    68.1010    24.6640    24.0270    23.8390    25.9550     2.2360 
  225.8750   -16.0600    68.1010    24.6810    22.1540    21.7270    23.6530     2.2320 
  226.0000   -15.9330    68.1010    24.6880    20.9360    20.0150    21.8550     2.2290 
  226.1250   -15.8140    68.1010    24.6970    21.1800    18.9030    20.7690     2.2320 
  226.2500   -15.6860    68.1010    24.7060    21.6630    18.2330    20.1550     2.2500 
  226.3750   -15.5990    68.1010    24.6380    22.2520    17.9090    19.8550     2.2880 
  226.5000   -15.5430    68.1010    24.4530    22.3230    17.8810    19.7850     2.3300 
  226.6250   -15.3900    68.1010    24.3260    19.8970    18.2620    20.0820     2.3410 
  226.7500   -15.1740    68.1010    24.5280    19.1700    19.1460    20.9380     2.3130 
  226.8750   -14.9850    68.1010    24.7210    22.4160    20.6180    22.5050     2.2590 
  227.0000   -14.8470    68.1010    24.8000    28.6160    22.5950    24.7150     2.2080 
  227.1250   -14.6750    68.1010    24.8080    32.5290    24.7640    27.2130     2.2060 
  227.2500   -14.4360    68.1010    24.7640    34.4210    26.6310    29.4250     2.2620 
  227.3750   -14.1730    68.1010    24.6190    35.1640    27.8620    30.9860     2.3510 
  227.5000   -13.8900    68.1010    24.3560    33.4470    28.3880    31.7770     2.4350 
  227.6250   -13.6700    68.1010    24.5630    25.6190    28.4200    31.9200     2.4880 
  227.7500   -13.5080    68.1010    24.7410    17.9480    28.3690    31.8450     2.5100 
  227.8750   -13.3150    68.1010    24.7660    13.5340    28.3580    31.7160     2.5060 
  228.0000   -13.1580    68.1010    24.6100    10.9470    28.3870    31.5920     2.4790 
  228.1250   -13.0600    68.1010    24.5150     8.9410    28.4280    31.5150     2.4470 
  228.2500   -12.9810    68.1010    24.1950     8.2350    28.4540    31.4760     2.4250 
  228.3750   -12.9520    68.1010    23.9680     8.4660    28.4630    31.4580     2.4190 
  228.5000   -12.9990    68.1010    24.0300     8.6120    28.4640    31.4550     2.4240 
  228.6250   -13.0620    68.1010    24.2350     8.5110    28.4640    31.4550     2.4350 
  228.7500   -13.1030    68.1010    24.1390     8.4980    28.4640    31.4550     2.4420 
  228.8750   -13.1620    68.1010    23.8890     8.8200    28.4640    31.4550     2.4460 
  229.0000   -13.2310    68.1010    23.7500     9.5840    28.4640    31.4550     2.4420 
  229.1250   -13.3090    68.1010    23.7190    10.4520    28.4640    31.4550     2.4340 
  229.2500   -13.3930    68.1010    23.5450    10.7600    28.4640    31.4550     2.4310 
  229.3750   -13.4400    68.1010    23.4010    10.5560    28.4640    31.4550     2.4390 
  229.5000   -13.4810    68.1010    23.3300    10.5120    28.4640    31.4550     2.4510 
  229.6250   -13.5560    68.1010    23.2920    11.1710    28.4640    31.4550     2.4540 
  229.7500   -13.6430    68.1010    23.2530    12.3190    28.4640    31.4550     2.4530 
  229.8750   -13.7480    68.1010    23.2180    13.0780    28.4640    31.4550     2.4570 
  230.0000   -13.8040    68.1010    23.1990    12.9230    28.4640    31.4550     2.4650 
  230.1250   -13.8070    68.1010    23.1840    12.5550    28.4640    31.4550     2.4660 
  230.2500   -13.8040    68.1010    23.1800    12.5620    28.4640    31.4550     2.4630 
  230.3750   -13.8520    68.1010    23.1720    12.4710    28.4640    31.4550     2.4620 
  230.5000   -13.8650    68.1010    23.1380    11.9370    28.4640    31.4550     2.4670 
  230.6250   -13.8040    68.1010    23.0990    11.7700    28.4640    31.4550     2.4790 
