~V
VERS. 2.00: Ver 2.00
~W
STRT.M 62.0000:
STOP.M 260.0000:
STEP.M 0.1250:
NULL. -999.2500:
UWI. DF32117:
~C
DEPT.M :
GR.API :
CALI.CM :
RXO.OHMM :
RI. :
RML.OHMM :
DEN.GM/CC :
SP.MV :
~A
# ...
  174.5000    80.1420    23.8240    26.1940    51.2690    54.7680     2.3160   -22.7390 
  174.6250    77.0850    23.7720    25.8850    49.9800    53.9010     2.3000   -22.8310 
  174.7500    74.1440    23.6970    25.3160    50.5860    54.8940     2.2900   -22.9380 
  174.8750    74.0820    23.6250    25.5290    52.7520    57.4640     2.2850   -23.0700 
  175.0000    77.0860    23.5850    26.9760    56.5740    61.7900     2.2800   -23.2090 
  175.1250    79.1100    23.5630    28.7870    62.6710    68.5470     2.2780   -23.3490 
  175.2500    78.0450    23.4840    29.7220    70.4950    77.0890     2.2810   -23.4890 
  175.3750    76.3290    23.3200    29.7340    78.9460    86.1620     2.2900   -23.6160 
  175.5000    75.5620    23.1270    29.4940    86.2680    93.7850     2.2990   -23.7210 
  175.6250    76.3380    23.0630    29.6700    90.0900    97.3480     2.3000   -23.7930 
  175.7500    78.6940    23.2220    30.5520    90.2730    96.9460     2.2960   -23.8330 
  175.8750    81.5210    23.5940    32.4390    87.5900    93.6860     2.2860   -23.8210 
  176.0000    82.3330    24.0700    35.3000    83.4620    89.2190     2.2790   -23.7900 
  176.1250    79.0240    24.4920    38.2060    79.4600    85.1810     2.2850   -23.7560 
  176.2500    75.9040    24.8030    40.1710    76.5660    82.4070     2.3050   -23.7150 
  176.3750    75.5620    25.0650    41.8390    75.1130    81.1360     2.3220   -23.6840 
  176.5000    76.5900    25.3380    44.9880    75.0360    81.2460     2.3200   -23.6790 
  176.6250    77.5300    25.5950    50.6270    76.0970    82.4250     2.2980   -23.7250 
  176.7500    78.6210    25.7740    56.0830    77.6220    83.9640     2.2760   -23.8030 
  176.8750    79.6760    25.8710    59.2000    79.3800    85.6730     2.2690   -23.9410 
  177.0000    78.7990    25.9200    60.1280    81.5620    87.8830     2.2820   -24.1270 
  177.1250    77.2280    25.9500    61.0530    85.2320    91.9370     2.3050   -24.3560 
  177.2500    76.8280    25.9800    64.4850    91.6290    99.1720     2.3180   -24.6400 
  177.3750    75.4930    26.0220    72.8720   102.2050   110.9810     2.3110   -24.9650 
  177.5000    72.5120    26.0710    87.3460   117.6670   127.9670     2.2870   -25.3230 
  177.6250    68.0890    26.1140   106.5710   136.8350   148.8640     2.2650   -25.6960 
  177.7500    64.0280    26.1450   125.4170   154.1360   167.5070     2.2570   -26.0930 
  177.8750    62.4910    26.1690   135.8430   163.7000   177.1050     2.2640   -26.4780 
  178.0000    65.1100    26.1880   129.5940   162.0920   174.0990     2.2760   -26.8220 
  178.1250    68.8070    26.1970   110.6550   150.8680   161.6470     2.2860   -27.1150 
  178.2500    69.1660    26.1980    97.2110   138.6630   149.6160     2.2890   -27.3400 
  178.3750    66.7200    26.1910    92.6880   130.8470   143.1790     2.2850   -27.5050 
  178.5000    64.1360    26.1750    91.4830   130.3410   144.7080     2.2780   -27.6330 
  178.6250    63.2440    26.1580    95.0900   140.2030   156.8860     2.2720   -27.7340 
  178.7500    61.9370    26.1500   114.1210   159.7160   178.7940     2.2670   -27.8120 
  178.8750    59.1070    26.1580   153.4650   188.3510   210.0570     2.2600   -27.8930 
  179.0000    56.0460    26.1750   196.6100   223.3560   248.2700     2.2470   -27.9870 
  179.1250    55.8020    26.1910   216.4050   256.9550   285.5580     2.2330   -28.1150 
  179.2500    58.5480    26.1980   214.6700   278.6060   309.3690     2.2220   -28.3120 
  179.3750    60.4110    26.1990   201.7720   282.3140   311.8390     2.2160   -28.5720 
  179.5000    61.0720    26.1940   179.4970   270.6290   296.4320     2.2170   -28.8630 
  179.6250    61.6020    26.1770   150.6120   252.7390   275.2020     2.2260   -29.1590 
  179.7500    62.3940    26.1600   128.1340   238.3440   258.8430     2.2390   -29.4650 
  179.8750    62.4980    26.1560   123.5500   230.9180   250.2600     2.2500   -29.7510 
  180.0000    62.6190    26.1650   135.8910   230.8800   249.0820     2.2530   -30.0110 
  180.1250    63.3210    26.1640   148.1310   237.1910   253.6010     2.2430   -30.2170 
  180.2500    63.0460    26.1460   147.1910   245.3880   259.1580     2.2310   -30.3420 
  180.3750    60.9200    26.1260   136.3290   251.3330   261.5330     2.2290   -30.3810 
  180.5000    58.8540    26.1190   123.7170   250.8850   256.6280     2.2340   -30.3310 
  180.6250    59.8000    26.1370   114.0510   239.4880   239.9550     2.2370   -30.1890 
  180.7500    63.7390    26.1900   107.3690   218.5110   213.6800     2.2380   -29.9300 
  180.8750    66.4940    26.2790   102.6740   190.4480   181.6320     2.2480   -29.5680 
  181.0000    65.4560    26.3530    98.6170   159.7740   149.6690     2.2660   -29.1440 
  181.1250    64.7570    26.3160    90.7120   132.9620   124.7370     2.2820   -28.6380 
  181.2500    67.9870    26.1860    77.3260   113.9470   108.7640     2.2950   -28.0560 
  181.3750    71.0380    26.0390    63.5760   104.8830   102.3410     2.3090   -27.4210 
  181.5000    68.2930    25.9310    58.2690   107.1950   105.7860     2.3190   -26.7400 
  181.6250    61.5270    25.8680    73.2380   124.5060   122.2000     2.3080   -26.0140 
  181.7500    57.0080    25.8360   112.7770   154.7630   151.5570     2.2800   -25.3040 
  181.8750    55.8140    25.8510   164.6700   193.4700   192.6250     2.2520   -24.6310 
  182.0000    57.3050    25.9280   189.7010   228.9930   234.9780     2.2380   -23.9780 
  182.1250    61.7360    26.0370   162.8810   242.1580   253.8870     2.2380   -23.3360 
  182.2500    67.3090    26.1120   124.0890   234.1870   248.0240     2.2370   -22.7160 
  182.3750    69.3050    26.1170   102.5640   218.3620   234.1820     2.2300   -22.1020 
  182.5000    65.0460    26.0630   101.7010   208.5210   227.6570     2.2170   -21.4930 
  182.6250    60.5260    25.9880   119.9940   213.0820   236.5570     2.2060   -20.8940 
  182.7500    59.6930    25.9310   143.4360   227.7990   256.9470     2.2000   -20.3200 
  182.8750    59.2730    25.8920   158.4510   246.3300   282.4350     2.2040   -19.7630 
  183.0000    56.4600    25.8530   158.3240   261.1450   303.3840     2.2130   -19.2120 
  183.1250    53.2090    25.7950   146.1490   266.0110   310.5210     2.2160   -18.6860 
  183.2500    51.5780    25.7320   131.7320   264.5610   308.5920     2.2140   -18.1730 
  183.3750    50.3650    25.6790   119.6320   260.3380   302.2250     2.2190   -17.6720 
  183.5000    49.4170    25.6410   112.7150   252.5930   290.0580     2.2430   -17.1760 
  183.6250    50.6560    25.6640   117.5020   234.6690   264.0450     2.2990   -16.6580 
  183.7500    53.2670    25.7400   129.1930   204.8660   224.3900     2.3880   -16.0700 
  183.8750    55.8730    25.7200   128.1510   165.8430   176.0530     2.5020   -15.4050 
  184.0000    57.6570    25.4840   104.0350   123.3380   126.4730     2.6130   -14.6560 
  184.1250    59.1650    25.1420    73.4720    84.4440    84.2800     2.6830   -13.8380 
  184.2500    61.3930    24.9380    52.9790    53.4280    52.6110     2.7110   -13.0060 
  184.3750    62.5930    24.8950    36.8830    31.7430    31.3260     2.7030   -12.1780 
  184.5000    60.8010    24.8940    21.5360    18.3250    18.2110     2.6610   -11.3940 
  184.6250    58.2360    24.8350    10.9120    11.4120    11.2530     2.5850   -10.7070 
  184.7500    55.8960    24.7060     5.8000     7.6350     7.3930     2.5110   -10.1190 
  184.8750    54.4020    24.5540     3.9650     5.6490     5.4310     2.4730    -9.6220 
  185.0000    55.1790    24.4540     3.5980     4.6980     4.6100     2.4790    -9.2120 
  185.1250    58.3670    24.4680     3.7130     4.4280     4.5170     2.5030    -8.8880 
  185.2500    60.9710    24.5570     3.8730     4.4710     4.7100     2.5060    -8.6010 
  185.3750    62.7900    24.6590     4.0340     4.6500     4.9770     2.4830    -8.3630 
  185.5000    66.0640    24.7210     4.1450     4.8340     5.1750     2.4530    -8.2040 
  185.6250    70.8460    24.7350     4.1500     4.9330     5.2360     2.4430    -8.1640 
