~V
VERS. 2.00: Ver 2.00
~W
STRT.M 60.0000:
STOP.M 264.0000:
STEP.M 0.1250:
NULL. -999.2500:
UWI. DF32130:
~C
DEPT.M :
SP.MV :
GR.API :
CALI.CM :
RXO.OHMM :
RI. :
RML.OHMM :
DEN.GM/CC :
~A
# ...
  228.7500    -9.0950    73.0920    23.8780    65.3630    58.5380    66.8390     2.2280 
  228.8750    -8.9750    70.6830    23.8610    86.3290    71.2150    81.2220     2.2230 
  229.0000    -8.8270    69.6300    23.8520    99.9790    88.2700    99.5990     2.2280 
  229.1250    -8.7370    68.1180    23.8500   108.0660   105.8690   117.4390     2.2330 
  229.2500    -8.5670    66.0340    23.8440   118.7700   116.1280   128.0760     2.2330 
  229.3750    -8.4030    64.8320    23.8310   135.5750   113.9150   127.3110     2.2280 
  229.5000    -8.2290    64.3680    23.8200   145.9300   101.4500   115.9350     2.2240 
  229.6250    -8.0500    66.1340    23.8170   124.8620    86.1880    99.2610     2.2290 
  229.7500    -7.9360    69.9800    23.8100    86.3630    73.9220    84.3050     2.2460 
  229.8750    -7.7810    72.4850    23.7730    57.1720    66.0630    74.0110     2.2680 
  230.0000    -7.6800    71.6990    23.6780    49.8700    62.4620    68.9540     2.2820 
  230.1250    -7.5500    68.6170    23.5700    56.2660    62.5640    68.5790     2.2840 
  230.2500    -7.4480    64.4140    23.5190    60.9310    64.2270    70.2160     2.2790 
  230.3750    -7.3320    61.2760    23.5200    59.1260    65.8060    72.0230     2.2730 
  230.5000    -7.1800    61.7880    23.5610    56.1870    65.9890    72.5410     2.2670 
  230.6250    -7.0910    66.3090    23.6490    57.1890    64.2370    71.0240     2.2610 
  230.7500    -6.9480    68.9320    23.6980    59.3430    61.6400    68.4920     2.2600 
  230.8750    -6.8270    67.8050    23.7120    61.2830    58.9800    65.7880     2.2660 
  231.0000    -6.6730    65.4070    23.7130    61.7100    56.6870    63.4180     2.2730 
  231.1250    -6.4900    65.3680    23.7130    59.3590    55.3270    61.9860     2.2800 
  231.2500    -6.3680    67.9980    23.7180    55.6950    55.1920    61.8280     2.2840 
  231.3750    -6.2330    71.0120    23.7390    54.2100    56.1540    62.8150     2.2840 
  231.5000    -6.0940    73.0770    23.7950    59.5500    57.3940    64.0540     2.2890 
  231.6250    -5.9670    74.0470    23.8440    70.3550    57.3130    63.8460     2.3050 
  231.7500    -5.8470    72.8020    23.8850    72.1770    55.3280    61.6180     2.3300 
  231.8750    -5.6900    71.5790    23.8970    58.6280    52.0340    58.0150     2.3490 
  232.0000    -5.5450    71.6120    23.8970    41.9260    48.7120    54.3870     2.3530 
  232.1250    -5.4900    73.9180    23.8970    38.3810    46.5580    51.9720     2.3480 
  232.2500    -5.3650    75.2370    23.8970    44.5710    45.3850    50.5190     2.3450 
  232.3750    -5.2080    73.8140    23.8970    54.4400    44.4000    49.1630     2.3510 
  232.5000    -5.1060    71.7060    23.8670    59.2480    42.6010    46.9450     2.3580 
  232.6250    -5.0460    71.7590    23.7380    52.6180    39.3640    43.4240     2.3590 
  232.7500    -5.0330    74.0710    23.5560    41.5430    35.7350    39.7060     2.3500 
  232.8750    -5.0190    76.3420    23.5230    34.6850    32.8910    36.9140     2.3460 
  233.0000    -4.9840    77.8960    23.6830    32.8280    31.6160    35.7790     2.3590 
  233.1250    -4.9320    80.1380    23.9450    34.8740    32.4570    36.8660     2.3890 
  233.2500    -4.9560    82.6760    24.1580    41.4030    34.8490    39.6790     2.4240 
  233.3750    -5.0400    84.4560    24.1790    48.0350    38.1870    43.6730     2.4440 
  233.5000    -5.0690    85.4760    24.0460    48.8980    41.6380    47.9570     2.4440 
  233.6250    -5.0680    87.1890    23.9420    46.2370    44.2600    51.3420     2.4240 
  233.7500    -5.1120    88.6600    23.9060    46.1790    45.8780    53.4330     2.3990 
  233.8750    -5.2020    88.3320    23.9170    50.4200    46.5900    54.2500     2.3850 
  234.0000    -5.2830    86.8180    23.9670    56.0780    46.1990    53.6080     2.3810 
  234.1250    -5.3100    86.0510    24.0630    55.5550    43.4290    50.1790     2.3760 
  234.2500    -5.2890    86.1310    24.1050    50.0450    38.2690    44.1030     2.3650 
  234.3750    -5.3040    87.0230    24.1170    43.2600    32.0110    36.8700     2.3540 
  234.5000    -5.4170    87.8250    24.1330    36.2220    26.4670    30.4820     2.3530 
  234.6250    -5.5160    85.4940    24.1810    28.8610    23.1100    26.5690     2.3630 
  234.7500    -5.5270    80.7850    24.2460    23.4580    21.9140    25.0730     2.3870 
  234.8750    -5.4820    77.7160    24.2890    27.2620    22.8270    25.9380     2.4300 
  235.0000    -5.4350    77.1280    24.3070    36.0690    25.7210    29.0510     2.4810 
  235.1250    -5.4230    76.1000    24.3110    39.3550    30.5820    34.4280     2.5280 
  235.2500    -5.4470    77.9750    24.3110    38.2880    36.4410    40.9720     2.5540 
  235.3750    -5.4310    84.1490    24.3110    40.6090    42.3070    47.5830     2.5510 
  235.5000    -5.3560    88.7040    24.3110    47.1820    47.3050    53.2780     2.5390 
  235.6250    -5.2320    86.8050    24.3110    60.9650    51.0340    57.4960     2.5330 
  235.7500    -5.1030    83.7110    24.3110    79.2930    53.7630    60.4320     2.5280 
  235.8750    -4.9820    83.8370    24.3110    87.7990    55.2190    61.8570     2.5080 
  236.0000    -4.8800    84.4740    24.3110    82.5810    55.4190    61.8680     2.4810 
  236.1250    -4.7600    81.0000    24.3110    67.7550    55.5880    61.7980     2.4720 
  236.2500    -4.5720    78.1440    24.3110    64.8520    57.4770    63.6460     2.4930 
  236.3750    -4.3710    77.6560    24.3110    73.5140    62.2680    68.7310     2.5380 
  236.5000    -4.1790    79.2070    24.3080    97.6990    70.4990    77.3580     2.5860 
  236.6250    -4.0090    79.5310    24.2410   134.3250    81.5320    88.1240     2.6220 
  236.7500    -3.8890    78.6700    24.0940   154.4390    91.0230    96.7960     2.6390 
  236.8750    -3.8280    77.8030    23.9550   142.2140    94.3390    99.7710     2.6300 
  237.0000    -3.8060    77.1830    23.9080   113.9560    90.1580    96.0510     2.6020 
  237.1250    -3.8190    78.8660    23.9850    93.3850    81.4880    87.5460     2.5610 
  237.2500    -3.8670    82.1770    24.1350    79.9140    72.9100    78.3850     2.5220 
  237.3750    -3.9710    86.3360    24.2620    68.6040    65.7760    70.3420     2.5010 
  237.5000    -4.1170    90.7040    24.3110    61.1880    60.2440    64.0830     2.4920 
  237.6250    -4.3260    91.1580    24.3110    58.2170    56.5310    60.1480     2.4780 
  237.7500    -4.5320    86.1520    24.3110    56.7810    54.6640    58.4480     2.4590 
  237.8750    -4.6880    79.9980    24.3110    54.8770    55.1460    59.3680     2.4620 
  238.0000    -4.8070    78.6550    24.3080    55.2440    58.5110    63.4070     2.4980 
  238.1250    -4.9620    80.6280    24.2730    63.7840    65.7250    71.6870     2.5490 
  238.2500    -5.0900    81.3740    24.2010    85.5260    76.2150    83.5350     2.5940 
  238.3750    -5.1000    82.0040    24.1360   117.7780    89.0450    97.6200     2.6210 
  238.5000    -5.0630    82.4540    24.1100   152.5840   101.8050   111.0560     2.6360 
  238.6250    -4.9620    79.4820    24.1060   165.9410   108.0830   117.8250     2.6440 
  238.7500    -4.8040    74.9680    24.1050   151.8520   102.4070   113.7510     2.6460 
  238.8750    -4.6730    74.3820    24.1040   135.2350    84.8180    97.8300     2.6390 
  239.0000    -4.5380    77.6540    24.1040   122.3480    62.6510    74.7780     2.6140 
  239.1250    -4.3660    78.7750    24.1040    94.1870    44.3000    52.9700     2.5720 
  239.2500    -4.1690    77.4920    24.1090    53.7430    31.2710    36.6420     2.5300 
  239.3750    -4.0320    77.5690    24.1300    25.0930    22.6080    25.7840     2.5080 
  239.5000    -3.8800    80.9880    24.1770    13.7040    17.0310    19.0020     2.4940 
  239.6250    -3.7240    84.2680    24.2000    11.7130    13.7090    15.0850     2.4710 
  239.7500    -3.6110    84.3530    24.2080    11.7180    11.5700    12.5670     2.4360 
  239.8750    -3.4800    84.2940    24.2080    10.7910    10.2680    10.9750     2.4010 
