~V
VERS. 2.00: Ver 2.00
~W
STRT.M 62.0000:
STOP.M 260.0000:
STEP.M 0.1250:
NULL. -999.2500:
UWI. DF32117:
~C
DEPT.M :
GR.API :
CALI.CM :
RXO.OHMM :
RI. :
RML.OHMM :
DEN.GM/CC :
SP.MV :
~A
# ...
  185.7500    74.0490    24.7390     4.1340     4.9690     5.2300     2.4520    -8.2450 
  185.8750    75.6630    24.6900     4.1920     5.0000     5.2530     2.4660    -8.4890 
  186.0000    76.0320    24.5810     4.3700     5.0950     5.3980     2.4720    -8.9430 
  186.1250    73.0040    24.6980     4.7170     5.3350     5.7810     2.4630    -9.6630 
  186.2500    67.7500    25.1300     5.3040     5.7250     6.3940     2.4470   -10.5910 
  186.3750    62.9830    25.6360     6.2370     6.2430     7.1980     2.4360   -11.6700 
  186.5000    60.4800    25.9400     7.4650     6.8250     8.0810     2.4370   -12.7990 
  186.6250    60.0620    26.0260     8.7000     7.3170     8.7990     2.4460   -13.8930 
  186.7500    60.6330    26.0840     9.7610     7.5810     9.1580     2.4540   -14.9080 
  186.8750    60.8560    26.1150    10.2340     7.5680     9.1100     2.4550   -15.8020 
  187.0000    58.7250    26.1200     9.4220     7.3330     8.7640     2.4440   -16.5350 
  187.1250    55.6200    26.1080     7.4540     6.9950     8.3260     2.4300   -17.0660 
  187.2500    54.7420    26.0810     6.1870     6.6950     7.9960     2.4260   -17.4530 
  187.3750    54.6040    26.0540     6.6110     6.4980     7.8520     2.4330   -17.7190 
  187.5000    53.4820    26.0420     8.0080     6.4190     7.8820     2.4420   -17.8930 
  187.6250    53.8680    26.0300     8.5910     6.4320     8.0010     2.4370   -17.9890 
  187.7500    57.2010    26.0030     8.2440     6.4460     8.0510     2.4230   -18.0210 
  187.8750    63.0250    25.9650     7.9150     6.3850     7.9150     2.4160   -17.9990 
  188.0000    70.7510    25.9280     7.8560     6.2040     7.5470     2.4280   -17.9480 
  188.1250    80.4940    25.8890     7.3930     5.9100     7.0040     2.4480   -17.8900 
  188.2500    88.3630    25.8600     6.5370     5.6120     6.4980     2.4530   -17.8400 
  188.3750    91.7230    25.8700     5.8700     5.4180     6.2160     2.4410   -17.8250 
  188.5000    92.6010    25.9360     5.7380     5.4260     6.3030     2.4300   -17.8720 
  188.6250    93.7260    26.0380     6.2360     5.7470     6.9020     2.4360   -18.0170 
  188.7500    93.4970    26.1230     7.4690     6.3280     7.8810     2.4510   -18.2640 
  188.8750    91.0320    26.1680     9.3680     7.0690     9.0380     2.4590   -18.6050 
  189.0000    89.1950    26.1850    10.9320     7.7770    10.0430     2.4550   -19.0070 
  189.1250    90.3580    26.1920    10.8570     8.1530    10.4480     2.4440   -19.4370 
  189.2500    92.3460    26.1970     9.8920     8.1370    10.2560     2.4370   -19.8700 
  189.3750    94.2860    26.1980     9.0800     7.8310     9.6900     2.4330   -20.2810 
  189.5000    95.0080    26.1980     8.6870     7.4360     9.0880     2.4210   -20.6430 
  189.6250    91.6890    26.1980     8.5480     7.1880     8.8090     2.3950   -20.9250 
  189.7500    85.8380    26.1980     8.7610     7.1890     8.9430     2.3790   -21.1380 
  189.8750    83.9600    26.1980     9.6680     7.4580     9.4780     2.3940   -21.2880 
  190.0000    86.2920    26.1980    11.2670     7.9650    10.3320     2.4310   -21.3820 
  190.1250    87.6590    26.1980    12.8020     8.6590    11.3960     2.4610   -21.4530 
  190.2500    87.1740    26.1970    13.4790     9.4060    12.4670     2.4740   -21.5100 
  190.3750    85.3580    26.2050    13.5280    10.0920    13.3830     2.4760   -21.5690 
  190.5000    84.0150    26.2190    13.7590    10.6010    14.0020     2.4750   -21.6460 
  190.6250    85.6710    26.2120    14.2340    10.8010    14.1770     2.4600   -21.7540 
  190.7500    91.3090    26.1700    14.0480    10.7170    13.9780     2.4350   -21.8640 
  190.8750    98.6390    26.1150    12.9600    10.3840    13.4690     2.4090   -21.9680 
  191.0000   106.2960    26.0790    10.8040     9.3090    11.9730     2.3940   -22.0560 
  191.1250   106.8870    26.0900    10.2180     8.5380    10.9260     2.3860   -22.0710 
  191.2500   104.6890    26.0990     9.6540     7.7630     9.8940     2.3740   -21.9860 
  191.3750    99.6770    26.0980     8.7490     7.0860     9.0280     2.3610   -21.8170 
  191.5000    92.7550    26.0950     7.5720     6.5940     8.4570     2.3590   -21.5910 
  191.6250    88.1330    26.0940     6.9630     6.3770     8.3100     2.3760   -21.3130 
  191.7500    88.9470    26.0960     7.4060     6.3820     8.4800     2.3920   -21.0080 
  191.8750    91.9250    26.1030     8.3980     6.5210     8.7950     2.3970   -20.6770 
  192.0000    92.4250    26.1150     8.9250     6.6460     8.9860     2.3970   -20.3050 
  192.1250    88.6900    26.1170     8.3590     6.5580     8.7340     2.4070   -19.8870 
  192.2500    80.3750    26.0740     7.2810     6.2350     8.0820     2.4210   -19.4640 
  192.3750    69.1530    25.9590     6.1810     5.7640     7.2450     2.4270   -19.0480 
  192.5000    60.2350    25.8070     5.3510     5.2890     6.4890     2.4230   -18.6270 
  192.6250    56.9020    25.7210     4.9740     4.9500     6.0280     2.4170   -18.2170 
  192.7500    55.3980    25.7180     4.8490     4.7640     5.8130     2.4170   -17.8500 
  192.8750    53.7670    25.7460     4.7830     4.7000     5.7540     2.4270   -17.5440 
  193.0000    55.1360    25.7560     4.6920     4.7080     5.7540     2.4400   -17.3290 
  193.1250    61.8350    25.7490     4.6380     4.7430     5.7450     2.4460   -17.2710 
  193.2500    67.8210    25.7540     4.6660     4.7750     5.7180     2.4390   -17.3250 
  193.3750    69.2480    25.7730     4.7360     4.8040     5.6840     2.4210   -17.4560 
  193.5000    68.3030    25.7980     4.8030     4.8370     5.6590     2.3970   -17.6670 
  193.6250    69.1200    25.8100     4.9050     4.8750     5.6480     2.3830   -17.9870 
  193.7500    71.4160    25.8110     5.0510     4.9160     5.6480     2.3940   -18.4010 
  193.8750    73.8150    25.8070     5.1470     4.9570     5.6610     2.4230   -18.9020 
  194.0000    77.6150    25.8120     5.1270     4.9970     5.6880     2.4450   -19.4810 
  194.1250    82.1510    25.8490     5.1280     5.0320     5.7290     2.4350   -20.1360 
  194.2500    85.5500    25.9030     5.2920     5.0590     5.7670     2.4100   -20.8350 
  194.3750    86.8730    25.9440     5.4820     5.0630     5.7740     2.3980   -21.5530 
  194.5000    86.7290    25.9430     5.4630     5.0290     5.7180     2.4050   -22.2610 
  194.6250    85.4130    25.8960     5.2370     4.9410     5.5720     2.4120   -22.9090 
  194.7500    84.8030    25.8430     5.0890     4.8260     5.3900     2.4100   -23.4740 
  194.8750    85.9680    25.8120     5.0890     4.7360     5.2610     2.4080   -23.9550 
  195.0000    87.6370    25.8070     5.1710     4.7430     5.2990     2.4140   -24.3530 
  195.1250    86.4970    25.7960     5.4380     4.9580     5.6570     2.4160   -24.6270 
  195.2500    82.8410    25.7650     6.2080     5.4100     6.3390     2.4030   -24.7830 
  195.3750    80.6310    25.7440     7.7510     6.1260     7.3450     2.3820   -24.8360 
  195.5000    81.9900    25.7980     9.8560     7.1090     8.6360     2.3660   -24.7980 
  195.6250    82.6150    25.9590    11.6300     8.3560    10.1340     2.3610   -24.6440 
  195.7500    79.2490    26.1290    12.8150     9.7370    11.6630     2.3660   -24.4090 
  195.8750    74.4940    26.2310    14.1870    11.1490    13.1020     2.3830   -24.1160 
  196.0000    71.7670    26.2620    16.3410    12.4900    14.3650     2.4070   -23.7770 
  196.1250    71.5400    26.2620    18.2450    13.6270    15.3530     2.4240   -23.4150 
  196.2500    72.1940    26.2480    18.7190    14.5200    16.0880     2.4230   -23.0640 
  196.3750    72.3150    26.2300    18.1050    15.1750    16.6070     2.4030   -22.7450 
  196.5000    71.6140    26.2300    17.4080    15.6510    16.9780     2.3650   -22.4700 
  196.6250    71.4190    26.2480    17.2930    16.0320    17.2760     2.3190   -22.2580 
  196.7500    71.5950    26.2620    17.9250    16.4110    17.5760     2.2830   -22.1070 
  196.8750    73.7310    26.2650    19.1990    16.8170    17.8970     2.2670   -21.9990 
