~V
VERS. 2.00: Ver 2.00
~W
STRT.M 62.0000:
STOP.M 260.0000:
STEP.M 0.1250:
NULL. -999.2500:
UWI. DF32117:
~C
DEPT.M :
GR.API :
CALI.CM :
RXO.OHMM :
RI. :
RML.OHMM :
DEN.GM/CC :
SP.MV :
~A
# ...
  242.0000    66.3030    25.3300     5.6980     4.7250     6.6290     2.3630   -14.0710 
  242.1250    65.3820    25.3400     5.8200     4.5780     6.4800     2.3670   -14.1230 
  242.2500    64.3330    25.3440     5.9660     4.5010     6.4410     2.3720   -14.1590 
  242.3750    63.5960    25.3470     6.1150     4.4850     6.4830     2.3800   -14.1820 
  242.5000    62.8080    25.3500     6.1970     4.5150     6.5660     2.3920   -14.2040 
  242.6250    62.4920    25.3550     6.2140     4.5700     6.6400     2.3990   -14.2160 
  242.7500    64.6750    25.3610     6.3180     4.6260     6.6810     2.3950   -14.2160 
  242.8750    67.9960    25.3600     6.6280     4.6720     6.6940     2.3810   -14.2160 
  243.0000    68.8100    25.3480     7.0300     4.7090     6.7100     2.3670   -14.2040 
  243.1250    64.9480    25.3290     7.0430     4.7510     6.7740     2.3670   -14.1630 
  243.2500    61.1450    25.3160     6.5230     4.8060     6.8860     2.3820   -14.1120 
  243.3750    60.3610    25.3110     5.7690     4.8760     7.0160     2.4020   -14.0640 
  243.5000    61.7060    25.3090     5.1900     4.9520     7.1280     2.4150   -14.0120 
  243.6250    63.1800    25.3100     4.9770     5.0190     7.1920     2.4200   -13.9580 
  243.7500    63.1830    25.3070     4.9570     5.0660     7.2210     2.4210   -13.9050 
  243.8750    62.1180    25.3010     5.0750     5.0920     7.2320     2.4140   -13.8480 
  244.0000    62.4950    25.2960     5.4760     5.0970     7.2360     2.3960   -13.7890 
  244.1250    63.9120    25.3010     6.3150     5.0880     7.2320     2.3860   -13.7490 
  244.2500    64.2570    25.3070     7.0820     5.0790     7.2160     2.3970   -13.7170 
  244.3750    64.2640    25.3100     7.2250     5.0750     7.1910     2.4190   -13.6820 
  244.5000    65.1810    25.3090     6.7640     5.0800     7.1690     2.4330   -13.6360 
  244.6250    66.7940    25.3090     6.2560     5.0970     7.1670     2.4260   -13.5770 
  244.7500    68.1620    25.3100     6.0030     5.1260     7.1900     2.4180   -13.5180 
  244.8750    68.9630    25.3110     5.9300     5.1700     7.2400     2.4140   -13.4660 
  245.0000    67.4850    25.3030     5.9260     5.2300     7.3100     2.4080   -13.4310 
  245.1250    63.6720    25.2770     5.8820     5.3000     7.3810     2.3930   -13.3970 
  245.2500    62.4410    25.2460     5.7810     5.3700     7.4310     2.3800   -13.3520 
  245.3750    64.2620    25.2300     5.7080     5.4350     7.4490     2.3780   -13.3070 
  245.5000    65.4780    25.2410     5.7530     5.4990     7.4410     2.3830   -13.2560 
  245.6250    64.3050    25.2710     5.9030     5.5660     7.4270     2.3850   -13.1960 
  245.7500    62.6320    25.2980     6.0070     5.6420     7.4290     2.3870   -13.1300 
  245.8750    62.5790    25.3140     5.9530     5.7250     7.4730     2.3920   -13.0640 
  246.0000    64.2580    25.3230     5.7350     5.8160     7.5800     2.3970   -13.0000 
  246.1250    66.7170    25.3280     5.4800     5.9110     7.7700     2.3980   -12.9620 
  246.2500    68.8080    25.3240     5.3320     6.0030     8.0080     2.3990   -12.9910 
  246.3750    69.0080    25.3150     5.3150     6.0890     8.2490     2.3990   -13.0930 
  246.5000    67.6170    25.3070     5.3560     6.1660     8.4490     2.3980   -13.2900 
  246.6250    66.4150    25.2880     5.3630     6.2340     8.5690     2.3970   -13.5820 
  246.7500    66.3870    25.2580     5.3500     6.2990     8.6440     2.3990   -13.9260 
  246.8750    67.6120    25.2420     5.3720     6.3700     8.7180     2.4080   -14.2950 
  247.0000    68.3110    25.2580     5.4540     6.4570     8.8180     2.4180   -14.6730 
  247.1250    67.8890    25.2900     5.6340     6.5770     8.9590     2.4140   -15.0410 
  247.2500    67.0000    25.3080     5.9140     6.7270     9.1240     2.4000   -15.3630 
  247.3750    66.3640    25.3150     6.1970     6.9070     9.3000     2.3900   -15.6210 
  247.5000    66.6510    25.3180     6.3600     7.1130     9.4890     2.3950   -15.8050 
  247.6250    67.7620    25.2930     6.4530     7.3460     9.7240     2.4100   -15.9100 
  247.7500    67.6820    25.2350     6.6540     7.5980    10.0300     2.4210   -15.9780 
  247.8750    65.0160    25.1820     6.9290     7.8600    10.4110     2.4290   -16.0300 
  248.0000    62.4810    25.1750     7.1370     8.1150    10.8340     2.4420   -16.0650 
  248.1250    66.0250    25.2060     7.3160     8.3290    11.2260     2.4590   -16.0800 
  248.2500    70.4390    25.2220     7.6600     8.4770    11.5050     2.4740   -16.0910 
  248.3750    69.5670    25.1930     8.1640     8.5270    11.6120     2.4820   -16.0980 
  248.5000    65.8760    25.1000     8.7150     8.4600    11.5150     2.4780   -16.1080 
  248.6250    66.6460    24.9320     9.4090     8.2610    11.1960     2.4610   -16.1350 
  248.7500    68.3500    24.7350    10.2580     7.9870    10.7540     2.4430   -16.1590 
  248.8750    65.4830    24.5680    10.6970     7.6880    10.2840     2.4340   -16.1770 
  249.0000    61.0580    24.4680    10.1950     7.4150     9.8830     2.4340   -16.1890 
  249.1250    61.0120    24.4400     9.5580     7.2140     9.6310     2.4390   -16.1850 
  249.2500    61.0120    24.4400    10.3700     7.0810     9.4960     2.4440   -16.1530 
  249.3750    61.0120    24.4350    12.6860     6.9960     9.4220     2.4490   -16.0860 
  249.5000    61.0120    24.4280    14.8050     6.9300     9.3390     2.4530   -15.9800 
  249.6250    61.0120    24.4330    14.5690     6.8620     9.1950     2.4550   -15.8340 
  249.7500    61.0120    24.4480    12.8980     6.8000     9.0180     2.4570   -15.6770 
  249.8750    61.0120    24.4600    11.3950     6.7670     8.8630     2.4600   -15.5100 
  250.0000    61.0120    24.4600    10.7090     6.7860     8.7860     2.4640   -15.3350 
  250.1250    61.0120    24.4600    10.4840     6.8740     8.8270     2.4670   -15.1630 
  250.2500    61.0120    24.4600    10.1510     7.0050     8.9370     2.4690   -14.9830 
  250.3750    61.0120    24.4600     9.6540     7.1440     9.0610     2.4720   -14.7990 
  250.5000    61.0120    24.4600     9.1640     7.2570     9.1450     2.4660   -14.6140 
  250.6250    61.0120    24.4600     8.8370     7.3150     9.1540     2.4480   -14.4210 
  250.7500    61.0120    24.4600     8.6400     7.3210     9.1020     2.4330   -14.2290 
  250.8750    61.0120    24.4600     8.6020     7.2850     8.9940     2.4360   -14.0340 
  251.0000    61.0120    24.4600     8.9220     7.2110     8.8320     2.4480   -13.8320 
  251.1250    61.0120    24.4600     9.6080     7.1020     8.5980     2.4470   -13.6310 
  251.2500    61.0120    24.4600     9.8850     6.9710     8.3130     2.4340   -13.4440 
  251.3750    61.0120    24.4600     9.2880     6.8320     8.0460     2.4290   -13.2690 
  251.5000    61.0120    24.4600     8.2460     6.7050     7.8780     2.4440   -13.1110 
  251.6250    61.0120    24.4600     7.6250     6.6130     7.8670     2.4680   -12.9780 
  251.7500    61.0120    24.4470     7.3660     6.5560     7.9440     2.4770   -12.8460 
  251.8750    61.0120    24.4220     7.0960     6.5290     8.0140     2.4630   -12.7170 
  252.0000    61.0120    24.3960     6.7150     6.5200     8.0050     2.4330   -12.6190 
  252.1250    61.0120    24.3840     6.3820     6.5180     7.9080     2.4040   -12.5520 
  252.2500    61.0120    24.3810     6.1420     6.5170     7.8050     2.3860   -12.5040 
  252.3750    61.0120    24.3810     5.9580     6.5160     7.7440     2.3770   -12.4880 
  252.5000    61.0120    24.3820     5.8140     6.5150     7.7200     2.3750   -12.4830 
  252.6250    61.0120    24.3820     5.7300     6.5140     7.7150     2.3800   -12.4620 
  252.7500    61.0120    24.3820     5.6820     6.5140     7.7140     2.3920   -12.4420 
  252.8750    61.0120    24.3820     5.6500     6.5130     7.7100     2.4060   -12.4200 
  253.0000    61.0120    24.3810     5.6680     6.5130     7.7050     2.4170   -12.3850 
  253.1250    61.0120    24.3820     5.7730     6.5130     7.6980     2.4200   -12.3440 
