~V
VERS. 2.00: Ver 2.00
~W
STRT.M 55.0000:
STOP.M 285.0000:
STEP.M 0.1250:
NULL. -999.2500:
UWI. DF32159:
~C
DEPT.M :
GR.API :
CALI.CM :
RXO.OHMM :
RI. :
RML.OHMM :
DEN.GM/CC :
SP.MV :
~A
# ...
  257.5000    69.2760    25.0250     7.1150     6.5290     7.2320     2.3130    -4.5290 
  257.6250    65.7380    25.0230     7.3730     6.4290     7.1600     2.3360    -4.0500 
  257.7500    59.2790    25.0190     7.1590     6.1060     6.7630     2.3670    -3.5920 
  257.8750    52.0760    24.9990     6.3180     5.6210     6.1600     2.3980    -3.2050 
  258.0000    47.0580    24.9640     5.1460     5.0910     5.5300     2.4260    -2.9430 
  258.1250    45.1480    24.9170     4.3630     4.6490     5.0550     2.4380    -2.8360 
  258.2500    44.8020    24.8500     4.1290     4.3440     4.7780     2.4250    -2.8480 
  258.3750    46.2120    24.7570     4.1710     4.1850     4.6960     2.3940    -2.9520 
  258.5000    48.2590    24.6570     4.2240     4.1600     4.7760     2.3670    -3.0950 
  258.6250    48.1840    24.5950     4.2350     4.2530     4.9790     2.3610    -3.2300 
  258.7500    47.5460    24.5730     4.2980     4.4060     5.2280     2.3690    -3.3340 
  258.8750    49.9200    24.5720     4.4970     4.5800     5.4730     2.3850    -3.3860 
  259.0000    54.7640    24.5750     4.8030     4.7410     5.6740     2.4140    -3.3480 
  259.1250    55.9870    24.5760     5.0050     4.8500     5.7820     2.4510    -3.1920 
  259.2500    53.8640    24.5750     4.9790     4.8950     5.8000     2.4780    -2.9430 
  259.3750    51.5470    24.5720     4.7860     4.8770     5.7450     2.4870    -2.6030 
  259.5000    50.4950    24.5640     4.5680     4.8090     5.6450     2.4880    -2.1720 
  259.6250    48.7080    24.5430     4.4370     4.7030     5.5180     2.4890    -1.6390 
  259.7500    46.1250    24.5190     4.4320     4.5830     5.3830     2.4930    -1.0280 
  259.8750    44.4690    24.5100     4.5950     4.4660     5.2520     2.4970    -0.3690 
  260.0000    43.8410    24.5260     4.8700     4.3700     5.1480     2.4980     0.2970 
  260.1250    44.6760    24.5500     4.9880     4.3240     5.1200     2.4880     0.9150 
  260.2500    47.6020    24.5670     4.8770     4.3410     5.1930     2.4670     1.4630 
  260.3750    54.3480    24.5910     4.7740     4.4240     5.3730     2.4490     1.9050 
  260.5000    62.0480    24.6470     4.8960     4.5620     5.6290     2.4440     2.2150 
  260.6250    62.9140    24.7370     5.1650     4.7180     5.8850     2.4540     2.3400 
  260.7500    59.8260    24.8210     5.3780     4.8390     6.0560     2.4690     2.3030 
  260.8750    58.0560    24.8720     5.4840     4.8870     6.0960     2.4820     2.0930 
  261.0000    58.6970    24.8880     5.4250     4.8500     6.0080     2.4860     1.7360 
  261.1250    57.4650    24.8860     5.1230     4.7360     5.8210     2.4750     1.2740 
  261.2500    54.3140    24.8840     4.7420     4.5910     5.6060     2.4590     0.7680 
  261.3750    52.0820    24.8810     4.4370     4.4500     5.4070     2.4540     0.2760 
  261.5000    50.3320    24.8610     4.2480     4.3430     5.2620     2.4620    -0.1570 
  261.6250    48.3660    24.8010     4.1750     4.3010     5.2200     2.4710    -0.4690 
  261.7500    47.8990    24.8220     4.2370     4.3260     5.2830     2.4710    -0.6640 
  261.8750    50.8060    25.2310     4.4400     4.4120     5.4370     2.4600    -0.7130 
  262.0000    54.8060    26.1850     4.7060     4.5410     5.6420     2.4400    -0.6400 
  262.1250    54.9020    27.2440     4.9250     4.6790     5.8350     2.4090    -0.4680 
  262.2500    52.9860    27.7420     5.0770     4.7930     5.9670     2.3800    -0.2770 
  262.3750    53.0290    27.6580     5.1890     4.8690     6.0340     2.3660    -0.1330 
  262.5000    56.0330    27.3580     5.2640     4.9130     6.0580     2.3680    -0.0840 
  262.6250    58.0530    27.0960     5.3080     4.9490     6.0900     2.3750    -0.2080 
  262.7500    57.5710    26.8830     5.4060     5.0070     6.1680     2.3790    -0.5080 
  262.8750    57.1090    26.8040     5.6260     5.0960     6.3020     2.3850    -1.0130 
  263.0000    58.9370    26.9090     5.9000     5.2110     6.4810     2.4000    -1.7090 
  263.1250    64.6300    27.0510     6.0480     5.3390     6.6800     2.4240    -2.5850 
  263.2500    72.4480    27.0310     6.0720     5.4630     6.8720     2.4500    -3.5270 
  263.3750    80.0370    26.8000     6.1290     5.5790     7.0460     2.4660    -4.4500 
  263.5000    83.8890    26.4360     6.3470     5.6870     7.1980     2.4620    -5.2960 
  263.6250    83.2840    26.1030     6.6680     5.7960     7.3300     2.4270    -5.9620 
  263.7500    82.7330    25.9250     6.8930     5.9310     7.4870     2.3800    -6.4420 
  263.8750    83.7090    25.9530     7.0930     6.1370     7.7490     2.3480    -6.7140 
  264.0000    84.7030    26.1770     7.5180     6.4650     8.2020     2.3440    -6.7890 
  264.1250    85.2770    26.4440     8.3240     6.9830     8.9380     2.3530    -6.6880 
  264.2500    86.4780    26.4700     9.5190     7.6410     9.8540     2.3510    -6.5110 
  264.3750    86.9360    26.1620    11.2510     8.3440    10.7670     2.3420    -6.3120 
  264.5000    83.9840    25.7070    12.9930     8.9360    11.4180     2.3460    -6.1300 
  264.6250    79.9690    25.4140    13.0390     9.2070    11.5230     2.3740    -6.0260 
  264.7500    79.3450    25.3160    11.5630     9.1710    11.2200     2.4080    -5.9930 
  264.8750    79.6440    25.2960    10.2160     8.9430    10.7500     2.4310    -6.0150 
  265.0000    78.3870    25.2760    10.1220     8.6770    10.3450     2.4430    -6.0570 
  265.1250    78.7890    25.2460    10.6590     8.4910    10.1360     2.4520    -6.0570 
  265.2500    80.4570    25.2440    10.7910     8.3820    10.0520     2.4560    -5.9790 
  265.3750    79.5870    25.3300    10.7410     8.3110    10.0110     2.4500    -5.8060 
  265.5000    75.1670    25.5470    10.6360     8.2310     9.9410     2.4360    -5.5300 
  265.6250    72.8330    25.7680     9.7180     8.0970     9.7710     2.4250    -5.1700 
  265.7500    73.6380    25.7690     8.3820     7.9020     9.4930     2.4180    -4.7830 
  265.8750    74.8430    25.5210     8.0470     7.6510     9.1190     2.4160    -4.4070 
  266.0000    75.5420    25.2120     9.1880     7.3600     8.6780     2.4210    -4.0950 
  266.1250    75.9310    25.0540     9.9460     7.0600     8.2380     2.4300    -3.9340 
  266.2500    74.3840    25.0070     9.1520     6.8070     7.8920     2.4360    -3.9460 
  266.3750    71.6630    24.9970     7.8630     6.6440     7.6960     2.4390    -4.1560 
  266.5000    71.5170    24.9980     7.2630     6.5950     7.6710     2.4390    -4.5830 
  266.6250    77.5330    25.0070     7.1110     6.6820     7.8340     2.4340    -5.2430 
  266.7500    82.7630    25.0130     6.9630     6.8750     8.1300     2.4210    -6.0450 
  266.8750    83.3520    25.0090     7.0790     7.1370     8.4980     2.4050    -6.9520 
  267.0000    84.2150    25.0050     7.4830     7.4050     8.8400     2.3900    -7.9360 
  267.1250    90.0250    25.0180     7.8230     7.5890     9.0240     2.3810    -8.9410 
  267.2500    95.0150    25.0500     8.1150     7.6430     9.0000     2.3700    -9.8900 
  267.3750    95.2890    25.0950     8.3790     7.5560     8.7720     2.3530   -10.7370 
  267.5000    93.6870    25.1400     8.4010     7.3850     8.4490     2.3280   -11.4300 
  267.6250    93.6620    25.1600     8.2940     7.2810     8.2750     2.3040   -11.8480 
  267.7500    94.2560    25.1310     8.3840     7.3850     8.4380     2.2900   -11.9860 
  267.8750    94.0730    25.0540     8.7840     7.7890     9.0510     2.2880   -11.7980 
  268.0000    93.5480    24.9620     9.8350     8.5320    10.1380     2.2940   -11.2780 
  268.1250    94.2600    24.8910    12.2150     9.5830    11.5840     2.3070   -10.4770 
  268.2500    96.4090    24.8310    15.1370    10.6020    12.8580     2.3230    -9.5360 
  268.3750    97.5950    24.7610    17.2520    11.1690    13.3640     2.3360    -8.5440 
  268.5000    95.0090    24.6850    17.7000    10.9510    12.7390     2.3420    -7.5990 
  268.6250    90.7080    24.6270    16.0670     9.9110    11.1390     2.3480    -6.8300 
