~V
VERS. 2.00: Ver 2.00
~W
STRT.M 60.0000:
STOP.M 271.0000:
STEP.M 0.1250:
NULL. -999.2500:
UWI. DF324:
~C
DEPT.M :
SP.MV :
AC.US/MT :
DEN.GM/CC :
GR.API :
CALI.CM :
RXO.OHMM :
RI. :
RML.OHMM :
~A
# ...
  170.0000   -21.5820   395.5710     2.2180    75.4030    24.4780    43.7290    30.5200    32.3260 
  170.1250   -21.7000   397.4620     2.2240    73.9110    24.4850    46.3510    32.5920    34.5010 
  170.2500   -21.8220   398.6180     2.2260    73.9650    24.4890    48.9420    33.4320    35.3840 
  170.3750   -21.9540   399.0900     2.2260    74.7250    24.4900    51.4550    32.9760    34.9050 
  170.5000   -22.0950   398.4620     2.2310    75.8460    24.4600    49.6680    31.5440    33.4010 
  170.6250   -22.2340   395.9170     2.2480    77.9220    24.3440    41.5420    29.6950    31.4590 
  170.7500   -22.3670   392.4170     2.2660    80.6890    24.1390    32.3770    28.0410    29.7230 
  170.8750   -22.4910   389.6650     2.2730    82.9740    23.8940    26.5760    26.8790    28.5030 
  171.0000   -22.6110   389.0310     2.2700    83.6720    23.6860    24.6320    26.3590    27.9570 
  171.1250   -22.7260   390.6750     2.2650    82.9960    23.5970    25.0450    26.6310    28.2420 
  171.2500   -22.8260   392.9040     2.2580    81.8270    23.5840    26.2150    27.5150    29.1710 
  171.3750   -22.9060   394.6700     2.2410    80.0610    23.5910    27.7860    28.8760    30.6000 
  171.5000   -22.9630   395.6040     2.2210    77.9520    23.5930    29.4910    30.5290    32.3350 
  171.6250   -22.9980   395.8250     2.2110    76.2630    23.5860    31.0740    32.2760    34.1690 
  171.7500   -23.0110   395.9190     2.2130    75.0130    23.5640    32.4570    33.9620    35.9400 
  171.8750   -23.0080   396.2680     2.2220    74.1730    23.5130    33.4850    35.5310    37.5880 
  172.0000   -22.9930   396.9850     2.2340    73.9900    23.4380    34.0880    36.9650    39.0940 
  172.1250   -22.9610   397.8680     2.2430    74.3970    23.3650    34.7310    38.2450    40.4370 
  172.2500   -22.9130   398.5830     2.2450    75.4050    23.3290    35.8110    39.3960    41.6460 
  172.3750   -22.8510   398.9950     2.2420    77.6690    23.3150    37.0300    40.4240    42.7250 
  172.5000   -22.7840   399.1650     2.2390    80.5530    23.2870    37.7860    41.3410    43.6880 
  172.6250   -22.7160   399.2950     2.2430    81.0380    23.2190    37.6070    42.1270    44.5140 
  172.7500   -22.6480   399.4400     2.2510    78.4730    23.1250    37.2990    42.7640    45.1820 
  172.8750   -22.5780   399.3600     2.2580    74.7720    23.0780    37.2210    43.1790    45.6180 
  173.0000   -22.5020   398.8600     2.2610    72.0450    23.0960    37.0950    43.2670    45.7110 
  173.1250   -22.4350   398.3080     2.2540    70.8120    23.2600    36.6360    42.8260    45.2470 
  173.2500   -22.3870   398.4140     2.2390    70.3440    23.3550    36.7060    41.8760    44.2500 
  173.3750   -22.3690   399.2200     2.2230    70.7050    23.3950    37.5200    40.4870    42.7910 
  173.5000   -22.3750   399.9370     2.2140    72.4970    23.4100    38.3710    38.8490    41.0720 
  173.6250   -22.4120   399.4150     2.2110    75.9620    23.4600    38.3860    37.3930    39.5420 
  173.7500   -22.4800   397.9250     2.2110    79.5790    23.5600    37.2170    36.6090    38.7190 
  173.8750   -22.5820   396.3830     2.2150    82.0510    23.6830    35.0390    36.9230    39.0490 
  174.0000   -22.7200   395.5920     2.2280    83.4380    23.8030    33.0460    38.6320    40.8430 
  174.1250   -22.8870   395.9160     2.2440    84.8800    23.9740    35.4260    42.0670    44.4510 
  174.2500   -23.0750   396.9380     2.2460    85.8900    24.1380    43.4740    46.7630    49.3820 
  174.3750   -23.2790   398.2190     2.2320    85.3980    24.2590    56.4740    52.3280    55.2250 
  174.5000   -23.4970   399.0660     2.2150    83.7720    24.3180    74.0470    58.2750    61.4690 
  174.6250   -23.7300   398.5650     2.2110    82.6790    24.3120    90.1250    64.1040    67.5890 
  174.7500   -23.9770   397.2110     2.2210    82.1460    24.2510    99.2360    69.8550    73.6270 
  174.8750   -24.2380   396.4430     2.2320    80.8160    24.1580    94.8040    76.1800    80.2690 
  175.0000   -24.5000   397.7960     2.2350    77.7310    24.0640    82.6960    83.8320    88.3030 
  175.1250   -24.7610   401.8670     2.2220    73.6970    23.9950    85.0810    93.2880    98.2330 
  175.2500   -25.0180   406.6720     2.2060    70.9870    23.9620   118.9860   103.6880   109.1530 
  175.3750   -25.2700   410.4270     2.1970    70.0790    23.9610   170.7380   113.7810   119.7500 
  175.5000   -25.5120   412.1640     2.1990    69.4710    23.9510   208.2910   121.8340   128.2060 
  175.6250   -25.7330   411.7460     2.2040    68.2390    23.8440   224.4880   125.2940   131.8390 
  175.7500   -25.9280   410.3700     2.2030    68.4100    23.6540   236.3170   123.8260   130.2970 
  175.8750   -26.0960   408.9010     2.2010    71.2820    23.4900   237.1550   117.8640   124.0370 
  176.0000   -26.2470   407.9110     2.2090    75.7170    23.4120   207.5150   109.0480   114.7810 
  176.1250   -26.3810   407.4380     2.2280    79.5200    23.4040   155.2950    99.6210   104.8820 
  176.2500   -26.4970   406.9590     2.2460    81.8690    23.4060   117.6270    91.0690    95.9030 
  176.3750   -26.5890   406.3510     2.2510    82.8630    23.4040    99.1650    83.7710    88.2400 
  176.5000   -26.6560   405.9080     2.2460    82.9660    23.3700    90.0730    77.8360    82.0080 
  176.6250   -26.7080   406.0360     2.2420    82.8010    23.2990    82.3100    73.5410    77.4980 
  176.7500   -26.7570   406.5170     2.2450    81.7990    23.2480    76.1250    70.5760    74.3840 
  176.8750   -26.8010   406.9610     2.2540    79.3970    23.2950    71.6140    68.7450    72.4620 
  177.0000   -26.8320   407.1340     2.2630    76.3850    23.3710    68.1780    67.7400    71.4070 
  177.1250   -26.8410   407.3310     2.2640    74.5410    23.4220    65.3890    67.3160    70.9610 
  177.2500   -26.8330   408.1000     2.2570    74.2090    23.4790    64.8430    67.2000    70.8400 
  177.3750   -26.8210   409.3990     2.2460    74.6030    23.5740    65.7340    67.2540    70.8970 
  177.5000   -26.8120   410.4630     2.2400    75.0150    23.6450    66.5700    67.2720    70.9150 
  177.6250   -26.8060   410.2600     2.2440    75.8580    23.6470    65.2200    67.0270    70.6590 
  177.7500   -26.8010   409.0570     2.2530    78.0540    23.5830    60.3620    66.6460    70.2580 
  177.8750   -26.7980   407.5260     2.2550    80.4620    23.4310    59.5250    66.3390    69.9360 
  178.0000   -26.8040   406.2670     2.2480    80.5270    23.1870    73.1490    66.2910    69.8860 
  178.1250   -26.8330   405.8980     2.2400    78.4040    22.9570   102.6240    66.7980    70.4170 
  178.2500   -26.8910   406.6940     2.2370    77.5710    22.8130   124.0790    68.1010    71.7860 
  178.3750   -26.9730   408.6010     2.2440    78.1640    22.7920   114.5980    70.3170    74.1120 
  178.5000   -27.0720   410.9470     2.2570    78.0610    22.8650    81.7780    73.2000    77.1400 
  178.6250   -27.1730   412.7080     2.2660    76.5140    22.9440    72.7460    76.2430    80.3350 
  178.7500   -27.2660   413.6800     2.2590    74.9410    22.9390    96.4800    78.7980    83.0180 
  178.8750   -27.3590   414.0590     2.2370    73.3070    22.9330   129.6260    80.5680    84.8760 
  179.0000   -27.4580   413.8430     2.2150    71.7810    23.0090   143.1750    81.6110    85.9720 
  179.1250   -27.5520   412.6700     2.2040    71.8170    23.0730   132.9020    82.2130    86.6040 
  179.2500   -27.6220   411.0080     2.2010    72.6760    23.1100   119.2770    82.8530    87.2750 
  179.3750   -27.6690   409.7330     2.2000    72.6040    23.1420   114.8180    84.0480    88.5310 
  179.5000   -27.6970   409.4710     2.2070    71.6310    23.1990   122.4440    86.3250    90.9210 
  179.6250   -27.7180   410.0390     2.2200    71.0100    23.2560   139.0440    89.7490    94.5160 
  179.7500   -27.7270   410.5320     2.2250    70.6820    23.3000   158.0420    93.2880    98.2320 
  179.8750   -27.7070   410.6580     2.2130    70.1710    23.3500   167.3130    96.0760   101.1600 
