~V
VERS. 2.00: Ver 2.00
~W
STRT.M 60.0000:
STOP.M 227.0000:
STEP.M 0.1250:
NULL. -999.2500:
UWI. DF32025:
~C
DEPT.M :
DEN.GM/CC :
GR.API :
RML.OHMM :
RI. :
RXO.OHMM :
CALI.CM :
SP.MV :
~A
# ...
  217.5000     2.4630    59.2230    11.7380    10.4900     7.8360    24.4080   -13.5740 
  217.6250     2.4420    59.2230    11.6140    10.3830     7.6330    24.4100   -13.5990 
  217.7500     2.4040    59.2230    11.4490    10.2280     7.1710    24.3800   -13.7150 
  217.8750     2.3610    59.2230    11.2650    10.0490     6.5760    24.3180   -13.8990 
  218.0000     2.3310    59.2230    11.0950     9.8800     6.3240    24.2250   -14.0010 
  218.1250     2.3290    59.2230    10.9890     9.7750     6.4990    24.1010   -14.0120 
  218.2500     2.3490    59.2230    10.9730     9.7600     6.5850    23.9640   -14.0660 
  218.3750     2.3800    59.2230    11.0710     9.8550     6.5710    23.8280   -14.2430 
  218.5000     2.4080    59.2230    11.3020    10.0690     7.1170    23.7120   -14.4960 
  218.6250     2.4240    59.2230    11.6970    10.4190     8.7720    23.6370   -14.6740 
  218.7500     2.4340    59.2230    12.2100    10.8670    11.0620    23.5960   -14.7640 
  218.8750     2.4440    59.2230    12.7720    11.3650    12.7870    23.5760   -14.8540 
  219.0000     2.4540    59.2230    13.2740    11.8410    12.8000    23.5730   -15.0330 
  219.1250     2.4610    59.2230    13.5530    12.1740    14.1370    23.5820   -15.3150 
  219.2500     2.4610    59.2230    13.5690    12.3060    17.9290    23.5950   -15.5760 
  219.3750     2.4560    59.2230    13.3480    12.2230    23.7550    23.6110   -15.7130 
  219.5000     2.4520    59.2230    12.9900    11.9780    25.5040    23.6340   -15.7410 
  219.6250     2.4560    59.2230    12.6400    11.6720    18.4340    23.6610   -15.8450 
  219.7500     2.4700    59.2230    12.3920    11.4180    12.3550    23.6970   -15.9910 
  219.8750     2.4870    59.2230    12.2720    11.2630    10.4740    23.7400   -16.0920 
  220.0000     2.4990    59.2230    12.2590    11.2090    11.1530    23.7860   -16.1250 
  220.1250     2.4990    59.2230    12.3120    11.2320    13.6610    23.8290   -16.1190 
  220.2500     2.4890    59.2230    12.3740    11.2760    19.1910    23.8670   -16.0160 
  220.3750     2.4740    59.2230    12.4180    11.3160    30.2250    23.8970   -15.8660 
  220.5000     2.4610    59.2230    12.4380    11.3390    35.3710    23.9160   -15.7170 
  220.6250     2.4520    59.2230    12.4360    11.3470    28.7370    23.9450   -15.4540 
  220.7500     2.4460    59.2230    12.4290    11.3490    19.7660    23.9560   -15.1280 
  220.8750     2.4410    59.2230    12.4240    11.3490    13.9900    23.9550   -14.7230 
  221.0000     2.4410    59.2230    12.4240    11.3490    11.4810    23.9410   -14.2270 
  221.1250     2.4480    59.2230    12.4290    11.3490    10.7710    23.9100   -13.7160 
  221.2500     2.4600    59.2230    12.4360    11.3490    10.4310    23.8770   -13.3150 
  221.3750     2.4720    59.2230    12.4420    11.3480     9.9700    23.8630   -13.0140 
  221.5000     2.4800    59.2230    12.4460    11.3490    10.0660    23.8610   -12.8300 
  221.6250     2.4800    59.2230    12.4490    11.3500    10.5240    23.8610   -12.8040 
  221.7500     2.4780    59.2230    12.4500    11.3510    11.6620    23.8610   -12.8300 
  221.8750     2.4800    59.2230    12.4510    11.3530    12.2370    23.8610   -12.9520 
  222.0000     2.4900    59.2230    12.4510    11.3530    12.2300    23.8610   -13.1470 
  222.1250     2.5060    59.2230    12.4510    11.3530    12.1520    23.8610   -13.3470 
  222.2500     2.5170    59.2230    12.4510    11.3530    12.6660    23.8610   -13.5130 
  222.3750     2.5180    59.2230    12.4510    11.3530    13.8770    23.8660   -13.7120 
  222.5000     2.5050    59.2230    12.4510    11.3530    14.7870    23.8740   -13.9220 
  222.6250     2.4820    59.2230    12.4510    11.3530    15.4290    23.8840   -13.9740 
  222.7500     2.4590    59.2230    12.4510    11.3530    17.1250    23.8690   -14.0690 
  222.8750     2.4410    59.2230    12.4510    11.3530    17.1790    23.8450   -14.1770 
  223.0000     2.4340    59.2230    12.4510    11.3530    15.1060    23.8010   -14.2030 
  223.1250     2.4370    59.2230    12.4510    11.3530    13.3280    23.7410   -14.2270 
  223.2500     2.4450    59.2230    12.4510    11.3530    12.2940    23.6630   -14.2270 
  223.3750     2.4550    59.2230    12.4510    11.3530    10.9800    23.5910   -14.2270 
  223.5000     2.4630    59.2230    12.4510    11.3530    10.0400    23.5450   -14.2270 
  223.6250     2.4620    59.2230    12.4510    11.3530     9.8310    23.5110  -999.2500 
  223.7500     2.4530    59.2230    12.4510    11.3530    10.2660    23.4850  -999.2500 
  223.8750     2.4370    59.2230    12.4510    11.3530    10.5560    23.4990  -999.2500 
  224.0000     2.4230    59.2230    12.4510    11.3530    10.5860    23.5280  -999.2500 
  224.1250     2.4210    59.2230    12.4510    11.3530    10.1620    23.5490  -999.2500 
  224.2500     2.4310    59.2230    12.4510    11.3530     9.8140    23.5530  -999.2500 
  224.3750     2.4540    59.2230    12.4510    11.3530    12.4200    23.5510  -999.2500 
  224.5000     2.4660    59.2230    12.4510    11.3530    16.1120    23.5530  -999.2500 
  224.6250     2.4390    59.2230    12.4510    11.3530    15.2910    23.5590  -999.2500 
  224.7500     2.3530    59.2230    12.4510    11.3530    12.5950    23.5180  -999.2500 
  224.8750     2.2080    59.2230    12.4510    11.3530    10.7140    23.3460  -999.2500 
  225.0000     2.0560    59.2230    12.4510    11.3530    10.1420    22.9790  -999.2500 
  225.1250     1.9290    59.2230    12.4510    11.3530    10.0960    22.7330  -999.2500 
  225.2500     1.8400    59.2230    12.4510    11.3530    10.1200    22.6480  -999.2500 
  225.3750     1.7950    59.2230    12.4510    11.3530    10.1250    22.6400  -999.2500 
  225.5000     1.7750    59.2230    12.4510    11.3530    10.1260    22.6390  -999.2500 
  225.6250     1.7690    59.2230    12.4510    11.3530    10.1280    22.6380  -999.2500 
  225.7500     1.7680    59.2230    12.4510    11.3530    10.1290    22.6380  -999.2500 
  225.8750     1.7640    59.2230    12.4510    11.3530    10.1290    22.6400  -999.2500 
  226.0000     1.7600    59.2230    12.4510    11.3530    10.1280    22.6400  -999.2500 
  226.1250     1.7560    59.2230    12.4510    11.3530    10.1270    22.6390  -999.2500 
  226.2500     1.7510    59.2230    12.4510    11.3530    10.1260    22.6330  -999.2500 
  226.3750     1.7460    59.2230    12.4510    11.3530    10.1270    22.6200  -999.2500 
  226.5000     1.7410    59.2230    12.4510    11.3530    10.1260    22.6130  -999.2500 
  226.6250     1.7390    59.2230    12.4510    11.3530    10.1260    22.6110  -999.2500 
  226.7500     1.7380    59.2230    12.4510    11.3530    10.1260    22.6110  -999.2500 
  226.8750  -999.2500    59.2230    12.4510    11.3530    10.1260    22.6110  -999.2500 
  227.0000  -999.2500  -999.2500  -999.2500  -999.2500  -999.2500  -999.2500  -999.2500 
