~V
VERS. 2.00: Ver 2.00
~W
STRT.M 62.0000:
STOP.M 243.0000:
STEP.M 0.1250:
NULL. -999.2500:
UWI. DF32072:
~C
DEPT.M :
SP.MV :
GR.API :
CALI.CM :
RXO.OHMM :
RI. :
RML.OHMM :
DEN.GM/CC :
~A
# ...
  152.0000   -38.6070    72.0780    25.2850    83.4480    85.6510    89.2210     2.2180 
  152.1250   -38.9000    74.5790    25.2910    81.1450    82.6880    86.0540     2.2220 
  152.2500   -39.2200    74.4400    25.2920    78.2710    80.8620    84.2410     2.2310 
  152.3750   -39.5220    73.2840    25.2830    75.2740    80.1680    83.6990     2.2400 
  152.5000   -39.7660    73.0430    25.2750    74.3740    80.8290    84.5890     2.2420 
  152.6250   -40.0470    75.6550    25.2700    78.9930    83.4640    87.6160     2.2380 
  152.7500   -40.2630    80.0360    25.2650    88.0420    88.0330    92.8130     2.2360 
  152.8750   -40.4480    82.2720    25.2630    99.0650    94.5210   100.0810     2.2340 
  153.0000   -40.5960    80.6600    25.2630   109.8600   102.4390   108.6200     2.2290 
  153.1250   -40.6490    78.1890    25.2560   118.0570   110.1410   116.3650     2.2200 
  153.2500   -40.6470    77.4300    25.2320   120.8970   115.3730   121.2730     2.2160 
  153.3750   -40.5730    76.2880    25.1920   116.1430   116.9300   122.5200     2.2230 
  153.5000   -40.4060    74.3860    25.1630   105.9760   115.1640   120.6040     2.2370 
  153.6250   -40.1320    74.5020    25.1330    98.3460   111.3520   116.6430     2.2510 
  153.7500   -39.8540    75.2920    25.0770    97.0220   107.3350   112.2160     2.2580 
  153.8750   -39.5040    72.3420    25.0070    98.4230   103.8650   107.9870     2.2580 
  154.0000   -39.0770    68.5050    24.9680    98.1130   101.1370   104.3120     2.2530 
  154.1250   -38.7230    68.2320    24.9570    97.6540    99.2310   101.6090     2.2450 
  154.2500   -38.3350    68.5100    24.9480   100.5490    98.0800    99.9700     2.2380 
  154.3750   -37.9710    67.5050    24.9220   104.1110    97.8960    99.5430     2.2330 
  154.5000   -37.7220    67.6290    24.9020   102.3710    98.9640   100.4500     2.2290 
  154.6250   -37.4720    71.2190    24.8940    93.1930   101.5750   102.7840     2.2230 
  154.7500   -37.2500    74.3410    24.8860    84.1870   104.9270   105.6890     2.2150 
  154.8750   -37.0680    74.5870    24.8540    80.8780   108.0000   108.2250     2.2090 
  155.0000   -36.9170    74.6870    24.7760    83.2560   109.8410   109.6210     2.2120 
  155.1250   -36.7720    75.5320    24.6940    86.7290   110.0620   109.6050     2.2270 
  155.2500   -36.6460    75.6050    24.6120    87.9910   109.8220   109.2070     2.2420 
  155.3750   -36.5420    74.6920    24.5560    88.2500   110.2070   109.5410     2.2520 
  155.5000   -36.4110    74.7000    24.5310    90.9730   111.7590   111.5830     2.2540 
  155.6250   -36.3090    75.7640    24.5270    99.1950   114.4370   115.9890     2.2510 
  155.7500   -36.2310    75.5070    24.5220   108.7470   117.5950   121.9350     2.2430 
  155.8750   -36.1710    73.5800    24.4940   113.4640   120.8950   128.5990     2.2350 
  156.0000   -36.1000    71.4580    24.4260   110.7880   124.3370   135.3830     2.2340 
  156.1250   -36.0390    71.1170    24.3650   105.9400   128.6990   142.6650     2.2400 
  156.2500   -35.9590    70.4930    24.3720   106.5680   133.5580   150.1870     2.2480 
  156.3750   -35.8570    69.3830    24.4290   112.1350   134.2790   154.0890     2.2530 
  156.5000   -35.7760    68.7620    24.4210   114.0460   122.2330   146.5560     2.2600 
  156.6250   -35.6650    67.9280    24.4050    99.3550    93.6840   119.6300     2.2790 
  156.7500   -35.5420    66.7180    24.3920    71.2630    63.6540    84.6760     2.3090 
  156.8750   -35.4410    66.7550    24.3950    41.2660    41.1540    54.4520     2.3460 
  157.0000   -35.3620    70.9550    24.4270    20.3230    27.2780    34.7150     2.3750 
  157.1250   -35.3300    80.0420    24.5150    12.4460    20.5230    25.3140     2.3730 
  157.2500   -35.3590    88.4970    24.6160    11.9720    17.6280    21.3450     2.3430 
  157.3750   -35.3880    92.5710    24.7100    17.2630    17.6020    20.9830     2.3000 
  157.5000   -35.4780    91.2240    24.8600    27.4530    20.1540    23.7140     2.2660 
  157.6250   -35.6350    86.1280    25.0020    38.4000    25.8390    30.3250     2.2570 
  157.7500   -35.7550    80.4670    24.9160    45.8370    34.1560    40.3210     2.2570 
  157.8750   -35.9310    75.7420    24.6170    51.6770    44.3290    52.7790     2.2520 
  158.0000   -36.1180    74.1160    24.2510    61.2540    54.8660    65.7830     2.2450 
  158.1250   -36.2770    75.0230    24.0510    76.1700    64.1010    76.9640     2.2430 
  158.2500   -36.4540    75.3600    23.9920    88.6000    71.8560    85.7490     2.2440 
  158.3750   -36.6170    74.8940    23.9890    92.6860    78.2530    92.0680     2.2400 
  158.5000   -36.7460    74.1070    23.9450    89.2920    82.9820    95.6050     2.2350 
  158.6250   -36.8460    73.5750    23.8560    84.7760    85.2450    95.7100     2.2390 
  158.7500   -37.0030    74.1060    23.8080    83.2550    86.0800    93.9840     2.2460 
  158.8750   -37.1180    74.4110    23.7980    83.6300    86.6870    91.9730     2.2480 
  159.0000   -37.2530    73.3270    23.7990    83.8440    87.7460    90.6430     2.2400 
  159.1250   -37.4170    71.8200    23.7980    83.1350    89.1830    90.2480     2.2320 
  159.2500   -37.5460    70.8530    23.8010    82.0800    90.5280    90.4050     2.2320 
  159.3750   -37.7100    71.1130    23.8020    81.1990    91.8040    91.0680     2.2340 
  159.5000   -37.9110    72.3670    23.8020    81.2950    93.5310    92.5110     2.2310 
  159.6250   -38.1080    73.3140    23.8020    83.9140    96.4220    95.2510     2.2250 
  159.7500   -38.2840    73.3410    23.8020    88.6660   100.2030    98.9560     2.2230 
  159.8750   -38.5000    73.6100    23.7940    92.9730   104.2390   103.0360     2.2270 
  160.0000   -38.6680    75.0030    23.7570    92.9160   107.6770   106.6940     2.2360 
  160.1250   -38.8140    74.5260    23.6750    86.8760   109.4370   108.9100     2.2430 
  160.2500   -38.9910    71.1570    23.6190    80.8410   109.5620   109.6360     2.2440 
  160.3750   -39.1410    68.6870    23.6300    79.3740   108.6930   109.3690     2.2420 
  160.5000   -39.2900    69.1040    23.7060    82.0000   107.7900   108.9570     2.2420 
  160.6250   -39.4470    71.4990    23.7200    84.6570   107.7890   109.3340     2.2460 
  160.7500   -39.5950    73.8710    23.6920    86.1330   108.9190   110.7970     2.2490 
  160.8750   -39.7700    77.1450    23.6460    88.2290   111.1050   113.2930     2.2520 
  161.0000   -39.9730    80.7990    23.6090    92.2080   113.8830   116.3790     2.2510 
  161.1250   -40.1720    81.5990    23.6000    97.3740   116.4050   119.2590     2.2400 
  161.2500   -40.4190    80.1800    23.5950   101.3890   117.9270   121.2100     2.2250 
  161.3750   -40.6610    78.9210    23.5960   102.3630   117.9990   121.7630     2.2190 
  161.5000   -40.8820    79.5800    23.5990    99.5280   116.5770   120.8070     2.2290 
  161.6250   -41.1890    80.9010    23.6040    93.8590   114.1400   118.6960     2.2440 
  161.7500   -41.5010    80.9620    23.6060    88.8210   111.7710   116.5100     2.2490 
  161.8750   -41.8370    79.8020    23.6050    86.7630   110.1540   115.0110     2.2470 
  162.0000   -42.2120    78.4350    23.6000    87.9090   109.7370   114.7570     2.2440 
  162.1250   -42.6480    78.3110    23.5900    90.4640   110.9170   116.2770     2.2430 
  162.2500   -43.0840    77.5270    23.5850    92.8340   113.3450   119.2620     2.2400 
  162.3750   -43.5620    74.7570    23.5740    95.3270   116.8790   123.5910     2.2370 
  162.5000   -44.0910    71.9620    23.5340    98.2100   121.4810   129.2080     2.2360 
  162.6250   -44.5530    71.9740    23.5690   101.4920   127.4350   136.3300     2.2340 
  162.7500   -45.0420    74.2730    23.8260   106.4300   134.6840   144.7460     2.2270 
  162.8750   -45.5040    74.9930    24.1980   114.6810   143.1580   154.2440     2.2230 
  163.0000   -45.9150    74.2020    24.4160   125.7420   151.8920   163.7430     2.2250 
  163.1250   -46.3130    74.0350    24.4780   135.1560   156.3520   168.9910     2.2290 
