~V
VERS. 2.00: Ver 2.00
~W
STRT.M 61.0000:
STOP.M 262.0000:
STEP.M 0.1250:
NULL. -999.2500:
UWI. DF32115:
~C
DEPT.M :
GR.API :
CALI.CM :
RXO.OHMM :
RI. :
RML.OHMM :
DEN.GM/CC :
SP.MV :
~A
# ...
  196.0000    83.7790    25.1920     9.5060     9.9360    13.2400     2.3910   -21.1840 
  196.1250    81.8150    25.1920    10.1390     9.9410    13.3190     2.3920   -21.5870 
  196.2500    79.8420    25.1920    11.7120     9.9730    13.4070     2.3870   -21.9260 
  196.3750    79.8930    25.1920    12.8730    10.0060    13.4110     2.3810   -22.2170 
  196.5000    78.7430    25.1920    12.5050    10.1130    13.4970     2.3770   -22.4580 
  196.6250    71.9040    25.1920    11.2000    10.6120    14.3000     2.3840   -22.6650 
  196.7500    65.0030    25.1920    11.2960    11.8980    16.4350     2.4050   -22.8730 
  196.8750    63.7680    25.1920    15.3750    14.5880    20.6440     2.4270   -23.0800 
  197.0000    66.1550    25.1920    27.1730    19.4800    27.7880     2.4260   -23.2820 
  197.1250    65.4140    25.1920    47.5440    27.8070    39.3610     2.3790   -23.4640 
  197.2500    62.4260    25.1920    61.5850    38.6360    54.1990     2.3100   -23.6270 
  197.3750    61.8370    25.1920    62.1400    49.6710    69.0230     2.2530   -23.7490 
  197.5000    65.0010    25.1920    56.7260    57.8710    79.1640     2.2330   -23.8390 
  197.6250    67.1170    25.1920    55.9710    61.4550    82.4160     2.2430   -23.8750 
  197.7500    67.1260    25.1920    58.2360    62.7820    83.1140     2.2510   -23.8780 
  197.8750    68.1580    25.1920    60.1100    63.5950    83.8460     2.2430   -23.8580 
  198.0000    68.8580    25.1920    59.6650    64.6350    85.3290     2.2250   -23.8340 
  198.1250    67.2240    25.1920    58.3980    65.8990    87.2490     2.2080   -23.8330 
  198.2500    65.9000    25.1920    59.5470    67.0350    88.8860     2.1940   -23.8630 
  198.3750    66.5690    25.1900    62.7250    67.7520    89.7320     2.1830   -23.9300 
  198.5000    67.3780    25.1890    64.5820    67.9500    89.6600     2.1780   -24.0440 
  198.6250    65.5840    25.1900    62.1450    67.8650    89.0930     2.1820   -24.2110 
  198.7500    64.4710    25.1930    57.9480    68.0380    88.8800     2.1980   -24.4000 
  198.8750    65.1390    25.1880    55.4790    68.8090    89.4930     2.2250   -24.6150 
  199.0000    66.3820    25.1670    57.2150    70.2300    90.9320     2.2550   -24.8440 
  199.1250    65.7510    25.1330    62.5830    71.8880    92.4760     2.2730   -25.0860 
  199.2500    64.2450    25.0960    65.2030    72.9780    93.0350     2.2750   -25.3250 
  199.3750    64.0270    25.0690    61.8550    73.0610    92.1890     2.2670   -25.5860 
  199.5000    65.6860    25.0640    55.6000    72.3040    90.4500     2.2560   -25.8540 
  199.6250    69.1770    25.0840    52.5100    71.5110    89.1370     2.2440   -26.1490 
  199.7500    71.1440    25.1030    53.3390    71.5800    89.2720     2.2330   -26.4940 
  199.8750    70.5170    25.1180    57.1010    72.9760    91.2530     2.2250   -26.8810 
  200.0000    67.4180    25.1440    62.2560    75.7440    94.9650     2.2210   -27.3080 
  200.1250    64.0660    25.1600    65.3610    79.7820   100.1710     2.2270   -27.7760 
  200.2500    63.6540    25.1470    64.9790    84.7390   106.4700     2.2380   -28.2890 
  200.3750    66.0240    25.1170    63.8560    90.9190   114.2910     2.2440   -28.8250 
  200.5000    68.7260    25.0890    66.3150    99.0240   124.5290     2.2390   -29.3920 
  200.6250    66.6720    25.0660    74.8830   110.3800   138.8490     2.2320   -29.9780 
  200.7500    60.7590    25.0440    87.2420   124.8250   157.1070     2.2360   -30.5610 
  200.8750    56.5440    25.0310   101.2120   141.6950   178.4830     2.2530   -31.1400 
  201.0000    57.1120    25.0240   112.0380   159.3580   200.7200     2.2760   -31.7150 
  201.1250    60.3140    25.0020   113.4100   174.6270   219.1930     2.2930   -32.2740 
  201.2500    60.8330    24.9780   110.5270   184.8640   230.2630     2.2920   -32.7860 
  201.3750    58.9600    24.9800   111.0650   188.4260   231.9940     2.2710   -33.2620 
  201.5000    58.3440    25.0100   113.6770   185.3260   225.1020     2.2410   -33.6920 
  201.6250    60.9830    24.9860   106.4240   177.0160   212.5900     2.2240   -34.0720 
  201.7500    65.1720    24.8280    89.9270   167.7530   200.1870     2.2280   -34.3970 
  201.8750    67.9250    24.5380    73.8980   160.5440   191.2750     2.2410   -34.6700 
  202.0000    67.3390    24.2160    65.2340   157.3440   187.5740     2.2440   -34.8920 
  202.1250    64.1880    24.0200    65.1340   159.7650   190.4210     2.2290   -35.0570 
  202.2500    62.2120    23.9690    69.0420   166.9720   198.5370     2.2140   -35.1870 
  202.3750    62.8320    23.9910    72.1530   178.4190   211.1690     2.2120   -35.2850 
  202.5000    63.5360    24.0230    70.9060   193.0120   226.9880     2.2230   -35.3510 
  202.6250    62.1460    24.1010    68.2430   208.2940   242.7330     2.2390   -35.3860 
  202.7500    60.2840    24.2760    72.5900   219.4170   252.0440     2.2520   -35.4040 
  202.8750    59.2490    24.5350    87.8970   221.0850   248.3090     2.2580   -35.3860 
  203.0000    59.9620    24.7960   108.5480   210.5350   230.0720     2.2590   -35.3360 
  203.1250    62.3890    24.9560   114.9550   190.2280   204.1850     2.2570   -35.2530 
  203.2500    64.8450    25.0200   102.3070   169.6270   181.7170     2.2500   -35.1380 
  203.3750    66.6150    25.0290    83.7010   154.6780   167.5460     2.2370   -34.9910 
  203.5000    67.1020    25.0390    74.5980   148.4970   163.2030     2.2220   -34.8330 
  203.6250    65.9210    25.0790    81.7420   152.9360   169.5290     2.2120   -34.6580 
  203.7500    64.8960    25.1390    96.8680   164.1180   182.2730     2.2080   -34.4530 
  203.8750    65.4270    25.2050   110.3090   177.7930   196.6720     2.2070   -34.2330 
  204.0000    67.0500    25.2480   115.2460   188.4640   206.3500     2.2070   -34.0140 
  204.1250    67.6080    25.2420   113.0670   190.4380   205.3980     2.2010   -33.8010 
  204.2500    66.2050    25.2140   111.2880   185.8870   198.0540     2.1900   -33.6010 
  204.3750    64.9640    25.2100   111.9160   179.1810   189.8260     2.1880   -33.4190 
  204.5000    64.7210    25.2650   115.2950   173.7980   183.8430     2.2080   -33.2520 
  204.6250    65.3560    25.3160   124.1120   170.1060   179.3550     2.2320   -33.0960 
  204.7500    65.3070    25.2990   133.6380   165.2390   172.8410     2.2290   -32.9640 
  204.8750    64.3180    25.2480   129.7070   157.0520   162.3170     2.1990   -32.8550 
  205.0000    63.8620    25.2370   107.5780   145.4860   148.5170     2.1660   -32.7400 
  205.1250    64.1190    25.2810    83.1610   132.9070   134.8110     2.1550   -32.6220 
  205.2500    63.6750    25.3150    71.6520   122.5980   124.4160     2.1620   -32.5200 
  205.3750    63.0930    25.3310    72.2840   116.3540   118.7180     2.1730   -32.4080 
  205.5000    63.0760    25.3420    81.6860   114.7730   117.8990     2.1790   -32.2760 
  205.6250    64.1210    25.3490    93.2070   118.0420   121.8540     2.1780   -32.1470 
  205.7500    65.3960    25.3500    97.9200   123.9790   128.2960     2.1740   -31.9960 
  205.8750    65.6210    25.3420    92.7520   130.5570   135.1310     2.1680   -31.8080 
  206.0000    63.6290    25.3160    82.2370   135.4660   139.9480     2.1600   -31.6030 
  206.1250    59.0240    25.2680    77.0220   135.9700   139.8570     2.1510   -31.3720 
  206.2500    58.3470    25.2210    81.0780   132.0520   135.0330     2.1490   -31.1080 
  206.3750    62.7800    25.1920    87.1610   124.7320   126.8340     2.1630   -30.8140 
  206.5000    67.0950    25.1820    84.3370   116.0730   117.7070     2.1920   -30.5050 
  206.6250    65.8600    25.2040    72.0800   108.8230   110.6920     2.2190   -30.1680 
  206.7500    63.9190    25.2470    63.8780   104.5910   107.1960     2.2310   -29.8340 
  206.8750    64.2900    25.3140    66.0710   104.1060   107.7500     2.2270   -29.5290 
  207.0000    63.7740    25.4440    77.7170   107.4000   112.1940     2.2100   -29.2650 
  207.1250    59.7300    25.5630    92.8040   114.1430   120.0770     2.1890   -29.0620 
