~V
VERS. 2.00: Ver 2.00
~W
STRT.M 62.0000:
STOP.M 260.0000:
STEP.M 0.1250:
NULL. -999.2500:
UWI. DF32117:
~C
DEPT.M :
GR.API :
CALI.CM :
RXO.OHMM :
RI. :
RML.OHMM :
DEN.GM/CC :
SP.MV :
~A
# ...
  129.5000    68.0500    24.9190    10.2530    11.1930    12.0730     2.2330   -25.5920 
  129.6250    69.2780    24.5150    10.1850    11.1630    12.0430     2.2380   -25.8320 
  129.7500    67.5510    24.3060    10.4820    11.2460    12.1730     2.2220   -26.0760 
  129.8750    64.6780    24.4280    11.3590    11.3860    12.3880     2.1970   -26.3300 
  130.0000    62.8730    24.6810    12.4020    11.4710    12.5370     2.1760   -26.5820 
  130.1250    61.7570    24.7070    12.6010    11.3350    12.4030     2.1670   -26.8040 
  130.2500    60.7580    24.6010    11.8720    10.9470    11.9540     2.1670   -26.9820 
  130.3750    61.9370    24.6370    10.7790    10.3560    11.2770     2.1710   -27.1040 
  130.5000    65.1800    24.8990     9.8890     9.6940    10.5700     2.1770   -27.1500 
  130.6250    68.1930    25.1860     9.4350     9.1440    10.0850     2.1850   -27.1080 
  130.7500    71.0850    25.4220     9.2440     8.7930     9.9020     2.1960   -27.0070 
  130.8750    73.9580    25.7760     9.2150     8.6500    10.0050     2.2080   -26.8560 
  131.0000    75.3610    26.1310     9.3390     8.6750    10.3080     2.2190   -26.6510 
  131.1250    74.1310    26.0650     9.6590     8.8060    10.6870     2.2290   -26.4070 
  131.2500    73.0250    25.6900     9.9880     8.9510    11.0130     2.2320   -26.1450 
  131.3750    72.9470    25.3990    10.1000     9.0620    11.2260     2.2240   -25.8760 
  131.5000    72.2700    25.3690     9.9520     9.1140    11.3160     2.2110   -25.6390 
  131.6250    72.2760    25.4090     9.7590     9.0970    11.2850     2.2040   -25.4540 
  131.7500    73.1660    25.3960     9.6760     9.0300    11.1830     2.2030   -25.3040 
  131.8750    72.0780    25.3300     9.6230     8.9300    11.0330     2.2000   -25.1660 
  132.0000    68.9050    25.1990     9.5100     8.8140    10.8570     2.1910   -25.0450 
  132.1250    67.8790    25.0270     9.3360     8.7060    10.6800     2.1800   -24.9350 
  132.2500    69.2160    24.8740     9.1590     8.6260    10.5250     2.1710   -24.8420 
  132.3750    69.1520    24.7830     9.0230     8.5850    10.4080     2.1660   -24.7660 
  132.5000    66.6570    24.7610     8.9710     8.5750    10.3190     2.1660   -24.6780 
  132.6250    64.6210    24.7390     9.0150     8.5530    10.2040     2.1710   -24.5790 
  132.7500    65.5940    24.6830     9.0560     8.4550     9.9870     2.1780   -24.4670 
  132.8750    69.6520    24.6460     8.9680     8.2430     9.6240     2.1830   -24.3580 
  133.0000    73.2900    24.7050     8.6500     7.9250     9.1350     2.1840   -24.2550 
  133.1250    73.0840    24.8780     8.1450     7.5800     8.6340     2.1870   -24.1780 
  133.2500    71.2300    25.0690     7.7520     7.3180     8.2810     2.2000   -24.1160 
  133.3750    68.6970    25.2100     7.7280     7.2210     8.1890     2.2140   -24.0580 
  133.5000    65.1050    25.2900     8.1570     7.3520     8.4390     2.2120   -23.9950 
  133.6250    62.2040    25.3170     8.8670     7.7870     9.1060     2.1850   -23.8610 
  133.7500    61.4130    25.3640     9.5560     8.4240    10.0050     2.1580   -23.6230 
  133.8750    61.8400    25.5070    10.4200     9.0740    10.8400     2.1550   -23.2540 
  134.0000    63.6350    25.6600    11.5130     9.4330    11.1880     2.1880   -22.7390 
  134.1250    67.8480    25.6120    11.4390     9.1150    10.5660     2.2520   -22.0740 
  134.2500    72.9950    25.4630     9.5240     8.2340     9.2290     2.3060   -21.3410 
  134.3750    80.0090    25.4450     6.9580     7.0870     7.6400     2.3260   -20.5880 
  134.5000    88.4390    25.6150     5.3190     6.0020     6.2490     2.3120   -19.8530 
  134.6250    95.0760    25.7780     4.9490     5.2200     5.3500     2.2910   -19.2050 
  134.7500    98.9090    25.8390     4.9560     4.7340     4.8610     2.2810   -18.6760 
  134.8750   100.1370    25.8470     4.9520     4.4960     4.6750     2.2820   -18.2830 
  135.0000    99.7910    25.8470     4.8770     4.4300     4.6600     2.2870   -18.0250 
  135.1250    99.7180    25.8460     4.7930     4.4510     4.6880     2.2980   -17.9120 
  135.2500   100.0050    25.8460     4.7690     4.4770     4.6890     2.3100   -17.8720 
  135.3750    99.3300    25.8470     4.7840     4.4880     4.6650     2.3130   -17.8500 
  135.5000    96.9090    25.8450     4.7920     4.4890     4.6400     2.3040   -17.8160 
  135.6250    93.8580    25.8440     4.8090     4.4940     4.6420     2.2910   -17.7500 
  135.7500    92.2790    25.8430     4.8560     4.5090     4.6690     2.2860   -17.6410 
  135.8750    92.1460    25.8420     4.9280     4.5220     4.6980     2.2840   -17.4900 
  136.0000    91.3840    25.8400     5.0160     4.5140     4.7000     2.2770   -17.3040 
  136.1250    88.1910    25.8390     5.0560     4.4610     4.6470     2.2580   -17.0920 
  136.2500    86.4750    25.8400     4.9750     4.3780     4.5580     2.2390   -16.8720 
  136.3750    89.0830    25.8410     4.7920     4.2940     4.4710     2.2250   -16.6880 
  136.5000    92.0000    25.8320     4.6380     4.2460     4.4330     2.2170   -16.5860 
  136.6250    89.8020    25.8050     4.6840     4.2720     4.4970     2.2110   -16.6070 
  136.7500    86.1090    25.7720     4.9040     4.3670     4.6490     2.2070   -16.7440 
  136.8750    85.0570    25.8240     5.1910     4.5180     4.8630     2.2080   -16.9940 
  137.0000    89.1160    25.9290     5.4350     4.7060     5.1040     2.2150   -17.3510 
  137.1250    92.9110    25.8620     5.6060     4.9070     5.3380     2.2250   -17.7790 
  137.2500    90.8920    25.5970     5.7850     5.1060     5.5610     2.2340   -18.2370 
  137.3750    86.3710    25.3160     6.0030     5.3010     5.7830     2.2410   -18.6850 
  137.5000    85.1930    25.1680     6.1880     5.4930     6.0040     2.2440   -19.0710 
  137.6250    87.7160    25.1130     6.2760     5.6700     6.1990     2.2370   -19.3590 
  137.7500    88.7950    25.0800     6.3470     5.8130     6.3370     2.2220   -19.5520 
  137.8750    87.9920    25.0780     6.4200     5.9070     6.4030     2.2030   -19.6750 
  138.0000    86.0390    25.0580     6.4000     5.9500     6.4040     2.1820   -19.7550 
  138.1250    83.0950    24.9710     6.2640     5.9590     6.3780     2.1670   -19.8500 
  138.2500    80.8750    24.8530     6.2070     5.9750     6.3880     2.1640   -19.9750 
  138.3750    81.4780    24.7310     6.3160     6.0260     6.4720     2.1720   -20.1470 
  138.5000    84.3610    24.5740     6.5120     6.1240     6.6460     2.1780   -20.3870 
  138.6250    86.3150    24.3460     6.7140     6.2610     6.8940     2.1760   -20.6780 
  138.7500    86.4950    24.1410     6.9540     6.3900     7.1330     2.1760   -20.9760 
  138.8750    83.8950    24.0560     7.2470     6.4600     7.2810     2.1830   -21.2380 
  139.0000    80.7880    24.1190     7.5630     6.4340     7.2910     2.1890   -21.4200 
  139.1250    80.5180    24.3160     7.8400     6.3460     7.2280     2.1820   -21.4330 
  139.2500    82.2240    24.5400     7.9940     6.3520     7.3300     2.1730   -21.2980 
  139.3750    82.2730    24.7040     8.0850     6.6460     7.8800     2.1900   -21.0100 
  139.5000    79.7910    24.7960     8.8160     7.4440     9.1780     2.2490   -20.5750 
  139.6250    78.4410    24.9140    12.7590     9.1810    11.7520     2.3540   -20.0670 
  139.7500    76.7830    25.0980    21.7070    12.0190    15.6860     2.4770   -19.6140 
  139.8750    70.9630    25.2750    33.0830    15.9180    20.7810     2.5920   -19.2950 
  140.0000    64.7410    25.3530    39.5080    20.0380    25.7000     2.6710   -19.1870 
  140.1250    64.7820    25.2890    37.4160    22.0120    27.0050     2.6850   -19.3970 
  140.2500    69.7620    25.1790    33.1000    20.8610    24.1060     2.6410   -19.8590 
  140.3750    74.5650    25.0840    28.0080    17.5950    19.1780     2.5510   -20.5230 
  140.5000    77.4640    24.9710    21.2140    13.9460    18.1410     2.4370   -21.3220 
  140.6250    79.4910    24.7510    15.2420    11.1430    16.2450     2.3310   -22.1360 
