~V
VERS. 2.00: Ver 2.00
~W
STRT.M 61.0000:
STOP.M 257.0000:
STEP.M 0.1250:
NULL. -999.2500:
UWI. DF32086:
~C
DEPT.M :
SP.MV :
GR.API :
CALI.CM :
RXO.OHMM :
RI. :
RML.OHMM :
DEN.GM/CC :
~A
# ...
  117.2500   -31.4940    80.5330    23.1910     8.1170     6.5990     8.8690     2.2050 
  117.3750   -31.7920    75.2430    23.1470     8.6300     7.3130     9.7020     2.1930 
  117.5000   -32.1290    75.0890    23.1780     8.7500     7.8390    10.2320     2.1860 
  117.6250   -32.4520    75.3290    23.1990     8.7110     8.0070    10.3310     2.1680 
  117.7500   -32.7600    73.6190    23.1230     8.7260     7.9170    10.1790     2.1390 
  117.8750   -32.9810    71.9410    23.0320     8.8290     7.7080     9.9260     2.1050 
  118.0000   -33.0990    71.3310    22.9340     8.9080     7.5150     9.6840     2.0760 
  118.1250   -33.1080    70.9620    22.8510     8.8150     7.4430     9.5240     2.0650 
  118.2500   -33.0320    70.1700    23.1150     8.6060     7.4850     9.4520     2.0830 
  118.3750   -32.8730    70.0620    23.5990     8.5110     7.5990     9.4570     2.1220 
  118.5000   -32.6290    70.5800    23.9180     8.5980     7.7050     9.4830     2.1570 
  118.6250   -32.2710    70.1810    24.0210     8.5730     7.6770     9.3910     2.1640 
  118.7500   -31.7960    70.5520    24.1410     8.2890     7.4490     9.0840     2.1590 
  118.8750   -31.2400    74.8020    24.3420     7.7390     7.0150     8.5320     2.1660 
  119.0000   -30.6100    81.8120    24.2810     7.0320     6.4400     7.7970     2.1950 
  119.1250   -29.9270    86.7450    24.2600     6.3170     5.8450     7.0270     2.2360 
  119.2500   -29.2280    88.6920    24.3940     5.8390     5.3500     6.3710     2.2720 
  119.3750   -28.5660    90.2620    24.6990     5.6330     5.0110     5.8980     2.2960 
  119.5000   -27.9560    91.6120    24.7320     5.4950     4.8330     5.6280     2.3090 
  119.6250   -27.4730    90.3040    24.7150     5.3370     4.8090     5.5800     2.3110 
  119.7500   -27.1050    88.1570    24.6500     5.2090     4.8600     5.6760     2.3080 
  119.8750   -26.8610    86.4450    24.5430     5.1470     4.9130     5.8390     2.3060 
  120.0000   -26.7420    87.3390    24.3620     5.1660     4.8970     5.9700     2.3070 
  120.1250   -26.7680    92.2780    24.1920     5.3120     4.7440     5.9310     2.3030 
  120.2500   -26.9010    96.6500    24.0740     5.4210     4.4960     5.6970     2.2930 
  120.3750   -27.1110    97.6270    24.0020     5.3270     4.2270     5.3260     2.2810 
  120.5000   -27.4010    96.2900    23.9660     5.0430     4.0360     4.9540     2.2820 
  120.6250   -27.7630    96.7300    23.9390     4.8860     4.0620     4.8100     2.3040 
  120.7500   -28.1970    97.9330    23.9080     5.2620     4.3810     5.0730     2.3300 
  120.8750   -28.6730    95.8950    23.8020     6.2500     5.1220     5.9550     2.3520 
  121.0000   -29.1700    90.0490    23.6590     7.8060     6.4640     7.7130     2.3780 
  121.1250   -29.6700    81.9120    23.5000    10.7530     8.7700    10.8590     2.4280 
  121.2500   -30.2070    74.0640    23.4910    16.6220    11.9480    15.2440     2.4970 
  121.3750   -30.7810    69.0560    23.5410    25.8530    15.4620    20.0190     2.5690 
  121.5000   -31.3720    66.6180    23.5700    32.9780    17.9730    23.1350     2.6270 
  121.6250   -32.0020    65.6720    23.5530    29.7040    17.7810    22.2490     2.6360 
  121.7500   -32.6010    65.2640    23.5060    20.6930    15.7770    19.0310     2.5840 
  121.8750   -33.1780    64.9600    23.4600    13.8020    13.3090    15.5070     2.4820 
  122.0000   -33.7390    65.7640    23.4270    11.0580    11.2600    12.8420     2.3630 
  122.1250   -34.2530    67.9370    23.4610    10.4200    10.0030    11.4860     2.2680 
  122.2500   -34.6720    69.9640    23.4940    10.2240     9.3390    11.0480     2.2080 
  122.3750   -34.9730    69.1550    23.5090    10.0510     9.1260    11.2340     2.1770 
  122.5000   -35.1910    65.1690    23.4930     9.8890     9.2370    11.7430     2.1710 
  122.6250   -35.2490    61.8620    23.4490    10.0020     9.5850    12.3040     2.1820 
  122.7500   -35.2150    62.6710    23.2960    10.3300     9.9970    12.7220     2.1980 
  122.8750   -35.1090    66.3030    22.9130    10.7360    10.3220    12.9070     2.2080 
  123.0000   -34.9100    70.5340    22.4530    11.0120    10.4240    12.8230     2.2080 
  123.1250   -34.6510    74.1340    22.3480    10.8880    10.2050    12.4750     2.2040 
  123.2500   -34.3740    75.7680    22.5590    10.4320     9.7970    12.0240     2.2060 
  123.3750   -34.1230    74.8890    22.8950     9.8900     9.3480    11.5990     2.2110 
  123.5000   -33.8730    72.5250    23.2200     9.4320     8.9980    11.2980     2.2110 
  123.6250   -33.6920    71.8330    23.4980     9.1700     8.8640    11.1840     2.2030 
  123.7500   -33.5590    72.1880    23.8880     9.2040     8.9130    11.2070     2.1970 
  123.8750   -33.4680    72.5410    24.0250     9.3550     9.0840    11.3240     2.2010 
  124.0000   -33.4280    73.2190    23.9830     9.4720     9.3030    11.4980     2.2100 
  124.1250   -33.4800    73.7700    23.9100     9.5590     9.4990    11.7260     2.2130 
  124.2500   -33.5260    73.7460    23.8900     9.7080     9.6470    11.9850     2.2080 
  124.3750   -33.5670    73.0640    23.8700     9.9810     9.7240    12.2040     2.2010 
  124.5000   -33.5990    71.9320    23.8460    10.2230     9.6800    12.2390     2.1980 
  124.6250   -33.6020    71.2490    23.8020    10.2680     9.4280    11.8760     2.1980 
  124.7500   -33.5740    71.7670    23.7440     9.9900     9.0100    11.1820     2.1990 
  124.8750   -33.5200    74.0070    23.7220     9.3730     8.5190    10.3490     2.2070 
  125.0000   -33.4460    76.6240    23.7210     8.4690     8.0690     9.6290     2.2240 
  125.1250   -33.3550    79.1050    23.8000     8.0800     7.7870     9.3090     2.2410 
  125.2500   -33.3330    79.6740    23.9750     8.3390     7.7080     9.4180     2.2460 
  125.3750   -33.3350    78.3200    24.0990     8.9510     7.8400     9.8950     2.2390 
  125.5000   -33.3490    75.4290    23.9490     9.4570     8.1630    10.5920     2.2260 
  125.6250   -33.3620    70.9220    23.8130     9.7200     8.6180    11.2610     2.2110 
  125.7500   -33.3700    67.5660    23.8010     9.9200     9.0380    11.6730     2.1970 
  125.8750   -33.3910    67.1280    23.9250    10.0230     9.2880    11.7400     2.1900 
  126.0000   -33.4220    69.9030    23.8560    10.0400     9.3010    11.5330     2.1900 
  126.1250   -33.4050    73.0600    23.6320     9.9670     9.0950    11.2150     2.1950 
  126.2500   -33.3300    74.3520    23.5080     9.6360     8.8220    10.9430     2.2040 
  126.3750   -33.2190    73.8660    23.4380     9.0070     8.6020    10.7900     2.2170 
  126.5000   -33.1110    72.4980    23.3440     8.6980     8.5300    10.8030     2.2260 
  126.6250   -33.0090    72.4670    23.1550     9.0460     8.6650    11.0150     2.2210 
  126.7500   -32.9250    72.6250    22.9650     9.6620     8.9180    11.3450     2.2050 
  126.8750   -32.8270    71.6870    22.6980    10.0360     9.1940    11.7080     2.1890 
  127.0000   -32.7140    70.6780    22.3660    10.2690     9.3980    12.0070     2.1810 
  127.1250   -32.5740    72.1140    22.2090    10.6850     9.4520    12.1340     2.1800 
  127.2500   -32.4250    73.9550    22.3000    11.2280     9.3910    12.0960     2.1840 
  127.3750   -32.2710    73.5330    22.4340    11.8100     9.2670    11.9160     2.1920 
  127.5000   -32.0740    72.3560    22.5940    11.9270     9.1400    11.6390     2.2000 
  127.6250   -31.8500    74.8900    22.7520    11.2270     9.1130    11.4060     2.2030 
  127.7500   -31.5250    78.9210    23.0740    10.4300     9.2840    11.4350     2.1980 
  127.8750   -31.1410    80.9070    23.3070    10.0470     9.7080    11.8630     2.1890 
  128.0000   -30.7260    80.3690    23.3760    10.4010    10.2950    12.6210     2.1920 
  128.1250   -30.2900    78.0750    23.3180    12.3650    10.7100    13.2720     2.2290 
  128.2500   -29.8200    76.2070    23.2180    15.3820    10.5890    13.2080     2.3030 
  128.3750   -29.3360    77.1890    23.1110    16.1530     9.8010    12.1400     2.3920 
