~V
VERS. 2.00: Ver 2.00
~W
STRT.M 53.0000:
STOP.M 258.0000:
STEP.M 0.1250:
NULL. -999.2500:
UWI. DF32102:
~C
DEPT.M :
SP.MV :
GR.API :
RML.OHMM :
RI. :
RXO.OHMM :
CALI.CM :
DEN.GM/CC :
~A
# ...
  165.5000   -30.2970    58.3700   156.1990   130.9920   154.4760    25.1530     2.2370 
  165.6250   -30.1020    56.3170   147.3140   125.0090   149.8910    25.1510     2.2380 
  165.7500   -29.8940    57.6680   135.4260   116.5670   138.9010    25.1400     2.2380 
  165.8750   -29.6550    62.2370   121.7940   106.4350   125.8240    25.1160     2.2390 
  166.0000   -29.4860    66.7700   107.7700    95.5810   109.2480    25.0990     2.2410 
  166.1250   -29.2980    67.7510    94.4830    84.9100    97.1520    25.0590     2.2490 
  166.2500   -29.1130    65.7960    82.1300    74.7810    84.4310    24.9960     2.2670 
  166.3750   -28.9610    63.3430    70.6750    65.2300    69.8330    24.9240     2.2930 
  166.5000   -28.7780    61.6140    60.1600    56.2950    55.7260    24.8860     2.3210 
  166.6250   -28.6800    60.3470    50.9860    48.2920    41.3010    24.8790     2.3390 
  166.7500   -28.6560    62.7110    43.1630    41.3170    29.3200    24.8720     2.3410 
  166.8750   -28.5760    68.9910    36.7340    35.4860    23.9840    24.8350     2.3310 
  167.0000   -28.5580    75.3710    31.5980    30.7650    23.3830    24.7310     2.3200 
  167.1250   -28.5830    77.0710    27.7390    27.1570    20.5390    24.5870     2.3170 
  167.2500   -28.6410    75.7470    24.8200    24.3660    16.6680    24.4660     2.3230 
  167.3750   -28.7540    74.2770    22.7770    22.3460    14.7020    24.3950     2.3330 
  167.5000   -28.7780    75.3610    21.5680    21.0740    14.4750    24.3270     2.3390 
  167.6250   -28.7870    79.7530    21.2320    20.6050    13.6360    24.2120     2.3390 
  167.7500   -28.8730    82.9200    21.4840    20.6930    14.1790    24.1090     2.3370 
  167.8750   -28.9950    84.1100    22.1030    21.1540    15.6630    24.0380     2.3350 
  168.0000   -29.0830    82.5170    22.8420    21.7620    16.5880    23.9710     2.3360 
  168.1250   -29.1760    79.3910    23.4860    22.2950    16.6730    23.8910     2.3390 
  168.2500   -29.3340    78.1910    24.0420    22.7000    16.9410    23.7570     2.3420 
  168.3750   -29.5180    81.3880    24.7180    23.1020    17.2860    23.6260     2.3430 
  168.5000   -29.8220    84.4470    25.8940    23.7950    18.0410    23.6250     2.3430 
  168.6250   -30.1200    79.8000    28.2610    25.3480    20.1110    23.8700     2.3380 
  168.7500   -30.3410    74.4530    32.0880    28.0500    22.5810    24.2520     2.3300 
  168.8750   -30.6400    73.1080    37.5150    32.0870    25.5900    24.5990     2.3190 
  169.0000   -30.9880    74.2230    44.2940    37.3470    34.9600    24.7640     2.3080 
  169.1250   -31.3800    74.2620    51.6090    43.2780    47.8260    24.8040     2.2990 
  169.2500   -31.7230    73.3850    58.0570    48.7180    53.4110    24.8350     2.2960 
  169.3750   -32.0300    72.0940    62.5760    52.7380    52.9770    24.8660     2.2960 
  169.5000   -32.3310    70.3890    64.7320    54.8620    55.2360    24.8690     2.2980 
  169.6250   -32.6830    70.5330    64.8220    55.1330    57.5680    24.8400     2.2980 
  169.7500   -33.1490    72.3130    64.4280    54.7430    53.9880    24.7940     2.2980 
  169.8750   -33.5410    74.3510    64.6430    54.5830    49.1810    24.7550     2.2970 
  170.0000   -33.9730    75.0640    66.1970    55.3220    52.1640    24.7160     2.2950 
  170.1250   -34.4500    73.2880    69.8530    57.6790    55.6170    24.6980     2.2920 
  170.2500   -34.9130    70.6060    75.6480    61.7990    58.6650    24.6900     2.2890 
  170.3750   -35.4620    67.8450    83.8860    68.0010    62.1290    24.6820     2.2850 
  170.5000   -35.9570    66.0780    94.8820    76.5830    68.5950    24.6660     2.2810 
  170.6250   -36.4390    64.9480   109.4040    88.1990    77.0690    24.6570     2.2730 
  170.7500   -36.9090    64.3570   126.9230   102.3580    88.7060    24.6400     2.2590 
  170.8750   -37.3740    63.0770   146.9320   118.6010   102.3170    24.6510     2.2400 
  171.0000   -37.7760    59.8770   168.3640   136.0370   118.7730    24.6900     2.2230 
  171.1250   -38.0790    59.1400   189.4340   153.2260   135.6120    24.6740     2.2150 
  171.2500   -38.3980    61.4500   208.5040   168.8600   147.2690    24.5900     2.2160 
  171.3750   -38.6850    63.6090   224.6050   182.1750   156.3980    24.4860     2.2240 
  171.5000   -38.9720    63.7090   237.3300   192.8470   164.0610    24.4250     2.2330 
  171.6250   -39.2390    62.3730   246.0350   200.3790   166.6590    24.4200     2.2370 
  171.7500   -39.4240    62.1320   251.2910   205.2400   170.3230    24.4450     2.2360 
  171.8750   -39.6040    61.8320   253.1760   207.5060   174.4310    24.4810     2.2310 
  172.0000   -39.8330    61.0470   252.1170   207.4930   169.4360    24.5030     2.2260 
  172.1250   -40.0100    60.8360   248.9500   205.8080   159.5890    24.5050     2.2220 
  172.2500   -40.1260    61.7940   245.4780   203.8630   149.3570    24.4690     2.2210 
  172.3750   -40.2280    63.6540   242.7950   202.5710   146.1250    24.3600     2.2220 
  172.5000   -40.2480    64.0100   241.4140   202.4220   146.8370    24.2110     2.2240 
  172.6250   -40.2160    61.5330   241.3420   203.5090   156.6170    24.0950     2.2280 
  172.7500   -40.2170    58.9600   241.7740   205.1420   156.4550    24.0530     2.2330 
  172.8750   -40.0860    59.6010   242.1970   206.8280   156.2050    24.0450     2.2380 
  173.0000   -39.8700    62.8420   242.3770   208.2790   159.8310    24.0340     2.2420 
  173.1250   -39.7490    62.7980   242.3720   209.4320   164.6070    24.0030     2.2440 
  173.2500   -39.4550    58.5150   242.4250   210.4790   169.3260    23.9670     2.2450 
  173.3750   -39.1050    54.7510   242.6920   211.5710   171.3610    23.9520     2.2450 
  173.5000   -38.8690    55.1910   243.3320   212.8870   171.8170    23.9750     2.2430 
  173.6250   -38.4520    57.8980   244.8040   214.8540   163.6910    24.0740     2.2390 
  173.7500   -38.0510    58.7770   247.4450   217.8190   151.3110    24.2830     2.2350 
  173.8750   -37.6950    58.3130   251.4880   222.0460   145.0330    24.5370     2.2330 
  174.0000   -37.3250    57.4410   256.7070   227.4320   151.8690    24.7370     2.2320 
  174.1250   -36.9810    57.9370   262.0380   233.2110   167.3900    24.8370     2.2320 
  174.2500   -36.7180    59.4050   265.7420   237.8990   181.2560    24.8840     2.2330 
  174.3750   -36.5180    59.1080   266.3060   240.1370   185.4600    24.9250     2.2340 
  174.5000   -36.2450    56.1360   262.8530   239.0090   190.6880    24.9510     2.2380 
  174.6250   -36.1180    53.4020   255.0420   233.9380   192.9820    24.9500     2.2440 
  174.7500   -35.9790    53.8940   244.9040   226.5040   186.0160    24.9280     2.2500 
  174.8750   -35.9180    55.6630   234.1080   218.1400   178.3800    24.9230     2.2530 
  175.0000   -35.9460    56.2280   224.1560   210.3000   174.4320    24.9440     2.2510 
  175.1250   -35.8590    55.9180   216.5150   204.5390   168.2920    24.9530     2.2450 
  175.2500   -35.8760    56.7620   211.3240   201.2320   163.6320    24.9420     2.2380 
  175.3750   -35.9110    59.5740   208.3770   200.3580   163.4950    24.9100     2.2330 
  175.5000   -35.9090    62.8300   206.9870   201.3070   167.4430    24.8840     2.2290 
  175.6250   -35.8590    62.8850   205.7020   202.8730   173.2040    24.8730     2.2280 
  175.7500   -35.8480    59.5180   202.9450   203.5660   174.1910    24.8730     2.2270 
  175.8750   -35.7510    56.5210   198.5620   202.4790   176.4040    24.8710     2.2240 
  176.0000   -35.5980    56.1950   192.0240   198.9800   177.4810    24.8480     2.2200 
  176.1250   -35.6330    56.2220   184.5980   191.7990   158.2380    24.8000     2.2170 
  176.2500   -35.5430    54.9840   174.7530   180.6710   139.0680    24.7740     2.2190 
  176.3750   -35.4120    53.7810   163.0980   165.4430   143.7210    24.7890     2.2250 
  176.5000   -35.4520    53.9000   150.0460   147.1330   166.5740    24.7860     2.2350 
  176.6250   -35.4840    56.2210   129.8360   128.3960   129.0160    24.7370     2.2470 
