~V
VERS. 2.00: Ver 2.00
~W
STRT.M 60.0000:
STOP.M 266.0000:
STEP.M 0.1250:
NULL. -999.2500:
UWI. DF32129:
~C
DEPT.M :
SP.MV :
GR.API :
CALI.CM :
RXO.OHMM :
RI. :
RML.OHMM :
DEN.GM/CC :
~A
# ...
  217.5000   -21.9540    58.9480    25.7150     6.0500     5.3800     6.3400     2.4350 
  217.6250   -21.8380    60.1840    25.6700     6.0410     4.9410     5.8810     2.4190 
  217.7500   -21.7070    61.6050    25.6480     5.7910     4.5300     5.4850     2.3870 
  217.8750   -21.5620    64.9320    25.6440     5.3100     4.2290     5.2270     2.3620 
  218.0000   -21.3380    71.7990    25.5930     4.8690     4.1050     5.1890     2.3600 
  218.1250   -21.0630    79.0310    25.5130     5.1340     4.2370     5.4900     2.3710 
  218.2500   -20.6940    83.3560    25.3870     6.0800     4.5710     6.0810     2.3700 
  218.3750   -20.3340    87.7280    25.3310     7.4260     5.0360     6.8640     2.3620 
  218.5000   -19.9530    94.1830    25.4640     8.5210     5.5220     7.6460     2.3710 
  218.6250   -19.6120   100.3270    25.6300     8.8670     5.8820     8.1420     2.4020 
  218.7500   -19.2850   103.4150    25.7620     8.8820     6.0660     8.2920     2.4280 
  218.8750   -19.0230   103.4490    25.8110     8.8140     6.0920     8.1810     2.4360 
  219.0000   -18.8370   104.4530    25.8210     8.7710     6.0250     7.9680     2.4320 
  219.1250   -18.7670   107.2860    25.8180     8.7430     5.9380     7.7940     2.4250 
  219.2500   -18.7580   110.7980    25.7980     8.6090     5.8810     7.7100     2.4210 
  219.3750   -18.7800   113.7300    25.7470     8.4330     5.8730     7.7340     2.4180 
  219.5000   -18.8120   115.0940    25.6750     8.3490     5.9260     7.8790     2.4130 
  219.6250   -18.8690   116.5920    25.6410     8.4160     6.0610     8.1620     2.4080 
  219.7500   -18.9220   117.4680    25.6350     8.5320     6.2610     8.5180     2.4090 
  219.8750   -18.9710   117.6730    25.6460     8.8420     6.5030     8.8710     2.4180 
  220.0000   -19.0140   117.2480    25.6510     9.3790     6.7390     9.1300     2.4300 
  220.1250   -19.0340   116.8200    25.6280     9.7300     6.9000     9.2050     2.4350 
  220.2500   -19.0810   117.0550    25.5230     9.6090     6.9690     9.1460     2.4300 
  220.3750   -19.0690   115.3860    25.4250     9.0850     6.9500     9.0280     2.4220 
  220.5000   -19.0870   111.3110    25.3690     8.4030     6.8720     8.9170     2.4200 
  220.6250   -19.0730   109.4860    25.3570     7.8830     6.7680     8.8600     2.4220 
  220.7500   -19.0840   112.7380    25.3310     7.7730     6.6690     8.8510     2.4180 
  220.8750   -19.0850   118.0660    25.3390     7.9300     6.5890     8.8580     2.4030 
  221.0000   -19.0810   119.8190    25.4790     8.0690     6.5200     8.8310     2.3880 
  221.1250   -19.1020   116.1800    25.5560     8.0070     6.4420     8.7080     2.3900 
  221.2500   -19.1170   111.2030    25.5860     8.0000     6.3380     8.4950     2.4020 
  221.3750   -19.1970   106.7820    25.5540     8.1260     6.2260     8.2610     2.4100 
  221.5000   -19.2640   103.7690    25.5230     8.2960     6.1960     8.1840     2.4070 
  221.6250   -19.3770   103.9730    25.5370     8.5760     6.4870     8.6320     2.4050 
  221.7500   -19.4890   106.3310    25.6600     9.2050     7.2640     9.8060     2.4060 
  221.8750   -19.6390   108.0720    25.8360    11.0830     8.6440    11.8190     2.4010 
  222.0000   -19.8250   106.1830    25.8740    16.4130    10.5790    14.5280     2.3840 
  222.1250   -20.0310    99.8910    25.7900    28.1490    12.6920    17.1720     2.3630 
  222.2500   -20.2400    92.5580    25.9480    35.2720    14.3620    18.7630     2.3500 
  222.3750   -20.4620    88.7680    26.0880    29.9690    15.4720    19.2940     2.3450 
  222.5000   -20.6910    89.1950    25.8540    19.9970    16.6340    19.8210     2.3450 
  222.6250   -20.9430    90.9530    25.6700    23.5020    19.5910    22.1200     2.3420 
  222.7500   -21.1670    89.3820    25.6030    48.7230    26.2310    27.5370     2.3320 
  222.8750   -21.3770    82.8520    25.6080    93.0930    39.1850    38.3330     2.3150 
  223.0000   -21.6000    73.5530    25.6230   135.7030    61.4890    58.5150     2.3000 
  223.1250   -21.7850    65.5730    25.6320   156.9470    94.9060    95.5280     2.2990 
  223.2500   -21.9780    61.4160    25.6290   161.6090   129.0160   140.4630     2.3100 
  223.3750   -22.1260    61.5950    25.6200   158.3620   153.2270   172.9310     2.3190 
  223.5000   -22.2950    65.1940    25.6690   152.9040   166.5630   186.6950     2.3070 
  223.6250   -22.3920    69.5690    25.7450   149.5600   175.2990   194.2330     2.2700 
  223.7500   -22.5090    70.1120    25.7980   147.6470   183.2710   202.5250     2.2290 
  223.8750   -22.5810    66.6690    25.7900   146.3690   188.4010   208.4240     2.2010 
  224.0000   -22.6430    62.9140    25.7790   147.6460   186.6450   205.5120     2.1890 
  224.1250   -22.6840    62.6530    25.8110   147.5070   172.5010   185.5210     2.1850 
  224.2500   -22.7070    63.5280    25.8190   135.0890   148.5050   153.9510     2.1870 
  224.3750   -22.7710    63.4140    25.8400   111.6150   120.0750   120.5060     2.1980 
  224.5000   -22.8140    63.3130    25.8920    89.7720    93.8380    93.1040     2.2200 
  224.6250   -22.8990    66.2750    25.9730    74.1360    75.5750    75.3580     2.2400 
  224.7500   -22.9330    69.1270    25.9750    60.3500    65.4450    64.2980     2.2480 
  224.8750   -23.0080    70.2570    25.9100    50.3100    61.5010    59.9720     2.2430 
  225.0000   -23.0700    70.6690    25.8460    50.9280    63.0690    61.7480     2.2300 
  225.1250   -23.1820    71.1870    25.8230    65.2450    70.7700    69.9960     2.2130 
  225.2500   -23.2990    70.0840    25.8210    85.7480    83.0780    82.6060     2.1950 
  225.3750   -23.4070    67.7690    25.8210   106.0360    97.3930    96.8490     2.1850 
  225.5000   -23.4910    65.7590    25.8210   117.6030   108.4500   108.4230     2.1860 
  225.6250   -23.5750    65.1600    25.8210   113.5670   109.9930   112.2920     2.2000 
  225.7500   -23.6860    65.8090    25.8210   104.7680   104.9500   109.8520     2.2160 
  225.8750   -23.7930    67.7610    25.8210    98.9070    97.9100   104.3050     2.2250 
  226.0000   -23.8690    69.5180    25.8210    96.6140    92.0210    98.6840     2.2220 
  226.1250   -23.8850    69.2620    25.8210    93.1830    88.4490    94.6440     2.2150 
  226.2500   -23.9090    68.1330    25.8220    88.9010    85.4640    91.1100     2.2140 
  226.3750   -23.8920    68.0280    25.8250    87.1170    80.5220    85.9870     2.2170 
  226.5000   -23.9300    70.1930    25.8330    88.5040    71.8200    77.5650     2.2210 
  226.6250   -23.9060    72.4660    25.8390    85.2450    60.4350    66.2120     2.2240 
  226.7500   -23.9000    73.2000    25.8480    71.7080    50.1950    55.3840     2.2300 
  226.8750   -23.8940    75.7510    25.8460    53.0100    43.0760    47.4250     2.2400 
  227.0000   -23.8750    81.6300    25.8310    38.4080    39.7210    43.4900     2.2480 
  227.1250   -23.9180    84.9480    25.8230    36.5030    41.0070    45.0740     2.2410 
  227.2500   -23.9270    82.2280    25.8220    48.4090    46.8680    52.3520     2.2200 
  227.3750   -23.9640    76.2770    25.8300    72.1550    58.2970    66.0880     2.1950 
  227.5000   -23.9360    70.2790    25.8530   100.8220    75.7410    85.3760     2.1780 
  227.6250   -23.9350    66.5320    25.8850   125.3820    95.3180   104.4650     2.1700 
  227.7500   -23.9180    66.1230    25.9330   139.0700   106.6450   114.9410     2.1610 
  227.8750   -23.8650    67.6740    25.9850   132.3580   105.3310   114.0160     2.1490 
  228.0000   -23.8390    67.9430    26.0150   106.5070    96.7520   105.7610     2.1410 
  228.1250   -23.7500    66.1680    26.0210    84.8900    88.7320    97.0320     2.1500 
  228.2500   -23.6990    65.5250    26.0230    81.6150    84.4200    91.9220     2.1660 
  228.3750   -23.6100    67.2950    26.0260    89.7650    84.1570    91.2230     2.1800 
  228.5000   -23.5770    69.7950    26.0160    96.1070    87.5850    94.5250     2.1870 
  228.6250   -23.5160    70.0200    25.9730    97.1470    93.8920   100.8290     2.1940 
