~V
VERS. 2.00: Ver 2.00
~W
STRT.M 60.0000:
STOP.M 270.0000:
STEP.M 0.1250:
NULL. -999.2500:
UWI. DF32131:
~C
DEPT.M :
DEN.GM/CC :
GR.API :
CALI.CM :
RXO.OHMM :
RI. :
RML.OHMM :
SP.MV :
~A
# ...
  116.2500     2.2750    85.1370    23.9950     5.1970     4.6170     5.4520   -16.1550 
  116.3750     2.3000    92.6030    23.9950     4.7720     4.4900     5.3210   -15.7490 
  116.5000     2.3110    97.3630    23.9950     4.5980     4.4890     5.3800   -15.4350 
  116.6250     2.2990    93.5160    23.9950     4.9000     4.5980     5.5990   -15.2110 
  116.7500     2.2790    88.4830    23.9950     5.3240     4.7360     5.8550   -14.9140 
  116.8750     2.2680    87.5120    23.9950     5.4510     4.8290     6.0180   -14.6340 
  117.0000     2.2710    90.2690    23.9950     5.1910     4.8120     5.9800   -14.4710 
  117.1250     2.2870    94.4470    23.9950     4.8130     4.6420     5.6890   -14.2970 
  117.2500     2.3100    99.2810    23.9950     4.5880     4.3800     5.2640   -14.1020 
  117.3750     2.3360   102.8370    23.9950     4.5310     4.0890     4.8260   -13.9160 
  117.5000     2.3570   102.1570    23.9950     4.6020     3.8560     4.5060   -13.7640 
  117.6250     2.3620    98.0110    23.9920     4.6060     3.7830     4.4570   -13.8050 
  117.7500     2.3650    94.1110    23.9740     4.5990     3.9030     4.7070   -14.1170 
  117.8750     2.3840    91.5260    23.9180     4.9490     4.2280     5.2750   -14.6090 
  118.0000     2.4230    89.2100    23.7720     6.2170     4.7220     6.1140   -15.2460 
  118.1250     2.4460    85.1150    23.4460     7.3720     5.2620     7.0120   -16.0210 
  118.2500     2.4220    79.4890    23.0890     7.3900     5.6680     7.6280   -16.8470 
  118.3750     2.3580    75.5530    22.9220     6.6760     5.8590     7.8130   -17.6510 
  118.5000     2.2900    75.2510    22.8910     6.2070     5.8720     7.6860   -18.4480 
  118.6250     2.2530    78.3040    22.8920     5.9970     5.8440     7.5510   -19.1710 
  118.7500     2.2420    79.9980    22.8960     5.9770     5.9340     7.6500   -19.8240 
  118.8750     2.2370    79.0870    22.8990     6.3780     6.2030     8.0400   -20.4170 
  119.0000     2.2240    77.1210    22.8980     7.0840     6.6230     8.6370   -20.8760 
  119.1250     2.2050    77.2120    22.9060     7.5990     7.0900     9.2580   -21.2320 
  119.2500     2.1970    79.0020    22.9530     7.7080     7.4830     9.7390   -21.5320 
  119.3750     2.2060    80.2410    23.0620     7.6030     7.7480    10.0090   -21.8100 
  119.5000     2.2220    80.2770    23.1610     7.5560     7.8840    10.0640   -22.0230 
  119.6250     2.2290    78.7600    23.2020     7.7310     7.9300     9.9680   -22.1800 
  119.7500     2.2200    76.0710    23.2100     7.9290     7.9570     9.8650   -22.2150 
  119.8750     2.2030    73.0100    23.2120     8.0290     7.9900     9.8470   -22.1630 
  120.0000     2.1910    71.4970    23.2130     7.9450     8.0520     9.9730   -22.0480 
  120.1250     2.1930    70.8340    23.2130     7.8890     8.1450    10.2620   -21.7960 
  120.2500     2.2010    69.8560    23.2130     7.9190     8.1930    10.5340   -21.4100 
  120.3750     2.2070    69.5890    23.2140     7.9100     8.0640    10.4930   -20.9100 
  120.5000     2.2110    70.9830    23.2660     7.7360     7.6080     9.8310   -20.2660 
  120.6250     2.2240    75.0170    23.4140     7.3510     6.7340     8.4090   -19.4670 
  120.7500     2.2580    82.4570    23.6030     6.6420     5.6770     6.7400   -18.7020 
  120.8750     2.3050    90.2810    23.6840     5.5330     4.6750     5.2860   -18.0600 
  121.0000     2.3470    93.5150    23.6880     4.4370     3.9290     4.3260   -17.6130 
  121.1250     2.3640    91.6900    23.5810     3.9980     3.6100     4.0430   -17.4850 
  121.2500     2.3540    89.9000    23.3230     4.1530     3.7030     4.3440   -17.6950 
  121.3750     2.3230    87.4610    23.0010     4.9330     4.2050     5.2140   -18.1210 
  121.5000     2.2820    82.1390    22.7290     6.1980     5.0560     6.5870   -18.7960 
  121.6250     2.2480    75.8760    22.6910     7.3530     6.1140     8.2200   -19.6440 
  121.7500     2.2250    71.3850    22.8340     8.1260     7.0720     9.5660   -20.5100 
  121.8750     2.2090    67.4350    23.1700     8.5870     7.7020    10.2470   -21.3350 
  122.0000     2.1980    65.6600    23.6420     8.8550     7.9290    10.2440   -21.9740 
  122.1250     2.1960    69.2740    23.8560     8.8750     7.8190     9.8460   -22.4130 
  122.2500     2.2020    74.0280    23.9120     8.6660     7.6250     9.4680   -22.6330 
  122.3750     2.2060    75.5830    23.8810     8.3970     7.4880     9.2800   -22.6830 
  122.5000     2.1980    74.2500    23.8110     8.3270     7.4880     9.3490   -22.6270 
  122.6250     2.1800    72.0710    23.7390     8.5040     7.6710     9.7090   -22.4810 
  122.7500     2.1680    70.3940    23.6700     8.5300     7.9430    10.2070   -22.2760 
  122.8750     2.1700    69.3010    23.5840     8.4030     8.1700    10.6140   -21.9390 
  123.0000     2.1810    69.5210    23.3600     8.3720     8.1800    10.6140   -21.5350 
  123.1250     2.1950    71.3800    23.0350     8.5240     7.7920     9.9090   -21.0170 
  123.2500     2.2130    71.9500    22.7340     8.2640     7.1260     8.7940   -20.4800 
  123.3750     2.2390    70.9200    22.6190     7.4200     6.3660     7.6340   -19.9610 
  123.5000     2.2650    72.8610    22.6070     6.2650     5.7030     6.7300   -19.5530 
  123.6250     2.2790    80.6950    22.6840     5.5420     5.3210     6.3210   -19.3700 
  123.7500     2.2790    86.1590    22.9340     5.5270     5.2330     6.3730   -19.2810 
  123.8750     2.2710    83.6070    23.3440     5.9300     5.4150     6.8370   -19.2480 
  124.0000     2.2530    78.2230    23.6740     6.3380     5.7770     7.5700   -19.2230 
  124.1250     2.2270    76.8920    23.7830     6.5810     6.1180     8.2110   -19.2980 
  124.2500     2.2060    76.2480    23.7990     6.8420     6.2230     8.3470   -19.3090 
  124.3750     2.2040    74.6610    23.7990     6.9910     6.0110     7.8550   -19.2690 
  124.5000     2.2250    73.1860    23.7990     6.5480     5.5690     6.9800   -19.1260 
  124.6250     2.2630    74.9210    23.7990     5.5160     5.1120     6.1720   -18.9690 
  124.7500     2.2940    78.2960    23.7940     4.8040     4.8180     5.7150   -18.9430 
  124.8750     2.3040    79.9810    23.7510     4.8890     4.7740     5.7090   -19.1180 
  125.0000     2.2900    78.8580    23.6370     5.5830     5.0110     6.1660   -19.4430 
  125.1250     2.2660    77.3000    23.4790     6.4770     5.5420     7.0800   -19.8760 
  125.2500     2.2450    76.7800    23.4120     7.2320     6.2230     8.1910   -20.4220 
  125.3750     2.2300    75.7130    23.3970     7.8050     6.9020     9.2210   -21.0460 
  125.5000     2.2170    73.0240    23.3970     8.2140     7.4380     9.9200   -21.6940 
  125.6250     2.2020    70.8820    23.3970     8.4220     7.7320    10.1550   -22.1790 
  125.7500     2.1850    69.2970    23.3970     8.5340     7.8530    10.1210   -22.4900 
  125.8750     2.1670    68.5180    23.3970     8.5980     7.8730     9.9690   -22.5810 
  126.0000     2.1520    69.8650    23.3970     8.6630     7.8410     9.8050   -22.5600 
  126.1250     2.1510    71.7370    23.3970     8.7010     7.7940     9.6980   -22.4030 
  126.2500     2.1620    71.7790    23.3970     8.6630     7.7730     9.6680   -22.1850 
  126.3750     2.1800    70.8750    23.3970     8.5680     7.8090     9.7330   -21.9580 
  126.5000     2.2000    69.9130    23.3970     8.4990     7.9270     9.9040   -21.6820 
  126.6250     2.2140    70.3060    23.3970     8.5190     8.1140    10.1690   -21.3830 
  126.7500     2.2190    72.3260    23.3970     8.6890     8.2730    10.4090   -20.9920 
  126.8750     2.2120    74.9050    23.3970     8.8770     8.2950    10.4550   -20.5650 
  127.0000     2.1970    74.7180    23.3970     8.8210     8.0780    10.1410   -20.0960 
  127.1250     2.1860    72.3130    23.4040     8.2050     7.5510     9.3460   -19.5310 
  127.2500     2.1920    72.6740    23.4530     7.1750     6.8430     8.2770   -18.9550 
  127.3750     2.2160    74.8870    23.5680     6.1720     6.0740     7.1380   -18.3420 
