~V
VERS. 2.00: Ver 2.00
~W
STRT.M 62.0000:
STOP.M 260.0000:
STEP.M 0.1250:
NULL. -999.2500:
UWI. DF32117:
~C
DEPT.M :
GR.API :
CALI.CM :
RXO.OHMM :
RI. :
RML.OHMM :
DEN.GM/CC :
SP.MV :
~A
# ...
  197.0000    77.5750    26.2630    20.1960    17.2530    18.2460     2.2650   -21.9280 
  197.1250    79.2170    26.2590    19.9560    17.7830    18.7290     2.2740   -21.9020 
  197.2500    76.1050    26.2500    19.6200    18.5340    19.5150     2.2990   -21.9150 
  197.3750    70.8330    26.2380    20.6690    19.6690    20.7850     2.3410   -21.9600 
  197.5000    68.4160    26.2310    23.5270    21.3190    22.6390     2.3880   -22.0260 
  197.6250    69.6760    26.2450    27.4740    23.5490    25.0450     2.4070   -22.1100 
  197.7500    72.3440    26.2730    31.2530    26.0030    27.5480     2.3890   -22.1740 
  197.8750    75.6880    26.2960    34.1340    28.2650    29.7050     2.3470   -22.2020 
  198.0000    77.6970    26.3040    35.2770    29.9930    31.2420     2.3060   -22.1840 
  198.1250    74.9440    26.3050    34.1240    31.1390    32.2480     2.2830   -22.1000 
  198.2500    70.6990    26.3060    32.7050    32.2500    33.3680     2.2710   -21.9600 
  198.3750    70.2940    26.3080    33.2350    33.8840    35.1810     2.2610   -21.7720 
  198.5000    74.3580    26.3130    36.5370    36.4780    38.0650     2.2500   -21.5480 
  198.6250    76.2730    26.3080    41.6190    40.0460    41.8270     2.2390   -21.2990 
  198.7500    73.6720    26.2860    46.7310    43.1490    44.7640     2.2290   -21.0420 
  198.8750    69.5220    26.2580    51.7200    43.9120    44.8940     2.2220   -20.8040 
  199.0000    67.3440    26.2350    54.6570    41.3230    41.4680     2.2220   -20.6000 
  199.1250    70.9040    26.2180    48.3560    36.3830    36.0650     2.2370   -20.4440 
  199.2500    77.9370    26.2050    36.0400    31.9220    31.6760     2.2610   -20.3480 
  199.3750    81.7600    26.1980    27.3340    29.5560    29.7980     2.2820   -20.3160 
  199.5000    79.1420    26.1970    29.5240    30.1160    31.0530     2.2860   -20.3520 
  199.6250    75.8630    26.1980    43.3410    34.4610    36.0540     2.2720   -20.4690 
  199.7500    75.1640    26.1980    55.9620    41.8270    43.8280     2.2570   -20.6710 
  199.8750    74.5230    26.1970    60.1420    51.1820    53.2020     2.2390   -20.9360 
  200.0000    72.8070    26.1900    58.8790    60.4680    62.0590     2.2140   -21.2530 
  200.1250    72.1750    26.1800    58.4620    66.8580    67.6290     2.1890   -21.6360 
  200.2500    71.6920    26.1780    58.7560    70.3110    70.2760     2.1820   -22.0670 
  200.3750    68.6800    26.1850    60.4210    72.0600    71.4900     2.1950   -22.5300 
  200.5000    64.7240    26.1930    64.0960    73.1840    72.3780     2.2090   -23.0080 
  200.6250    62.7110    26.1680    67.8530    73.9010    73.1140     2.2050   -23.4790 
  200.7500    62.3470    26.0720    69.6230    74.1860    73.6210     2.1900   -23.9240 
  200.8750    62.3270    25.8890    70.1570    74.0560    73.9470     2.1820   -24.3530 
  201.0000    62.8340    25.6440    70.8580    73.7380    74.3080     2.1880   -24.7680 
  201.1250    64.2670    25.4530    71.2200    73.8320    75.2070     2.2120   -25.1520 
  201.2500    65.6710    25.4580    71.0570    74.9990    77.1430     2.2430   -25.5020 
  201.3750    66.7650    25.7080    72.4040    77.8880    80.6850     2.2660   -25.8200 
  201.5000    67.5480    26.0330    77.4450    83.0390    86.3770     2.2670   -26.1130 
  201.6250    67.5540    26.2540    86.8850    91.2480    95.1140     2.2430   -26.3980 
  201.7500    66.4340    26.3020    99.4540   102.2350   106.7370     2.2160   -26.6700 
  201.8750    65.7130    26.0160   114.0860   116.0640   121.3490     2.2010   -26.9450 
  202.0000    66.5650    25.4070   126.8880   132.6900   138.9110     2.1990   -27.2270 
  202.1250    67.9860    24.9910   133.1750   152.0140   159.5440     2.2000   -27.5160 
  202.2500    67.7830    25.1980   138.1460   172.3390   181.7390     2.1980   -27.8140 
  202.3750    66.2020    25.8190   148.6560   191.6740   203.3570     2.1930   -28.1280 
  202.5000    66.7070    26.3460   164.1560   207.6650   221.3520     2.1850   -28.4700 
  202.6250    68.7590    26.5460   174.4800   217.4920   231.8660     2.1770   -28.8260 
  202.7500    69.1320    26.5720   175.7710   221.7660   235.5970     2.1750   -29.2110 
  202.8750    66.7620    26.5680   173.3660   221.6230   234.1370     2.1750   -29.6170 
  203.0000    63.8490    26.5690   174.0150   218.6450   229.4480     2.1730   -30.0330 
  203.1250    64.1310    26.5690   177.4870   213.5350   222.1100     2.1700   -30.4510 
  203.2500    67.7410    26.5690   176.1830   206.0700   211.7770     2.1690   -30.8460 
  203.3750    70.3620    26.5690   167.6800   195.1250   197.6440     2.1690   -31.2120 
  203.5000    68.0430    26.5690   155.4360   180.5840   180.4870     2.1690   -31.5310 
  203.6250    63.3020    26.5690   141.1710   164.5290   163.4930     2.1730   -31.7970 
  203.7500    62.9710    26.5700   123.8800   150.9530   150.3430     2.1860   -32.0140 
  203.8750    66.3570    26.5650   105.6560   142.8750   143.4030     2.2060   -32.1700 
  204.0000    68.7770    26.5410    92.1960   142.2630   144.0150     2.2220   -32.2830 
  204.1250    67.2490    26.5080    92.7890   151.2720   154.0450     2.2250   -32.3600 
  204.2500    65.0870    26.5020   111.9410   167.6790   171.5300     2.2210   -32.4190 
  204.3750    66.0900    26.5250   152.0070   188.6800   193.9960     2.2120   -32.4700 
  204.5000    69.5750    26.5540   198.9580   209.3430   216.3460     2.1990   -32.5130 
  204.6250    72.8330    26.5600   213.4480   222.1300   229.9920     2.1800   -32.5600 
  204.7500    73.4830    26.5400   190.4560   224.9510   232.5910     2.1660   -32.5970 
  204.8750    70.6980    26.5080   157.0890   219.5070   226.5830     2.1690   -32.6110 
  205.0000    65.6530    26.4860   138.4220   209.7280   216.6440     2.1850   -32.5950 
  205.1250    62.3500    26.4850   137.6640   199.4570   206.7920     2.1970   -32.5400 
  205.2500    62.7680    26.4900   139.7080   190.5780   198.4740     2.1940   -32.4470 
  205.3750    64.3950    26.4920   138.3610   183.0390   191.3440     2.1860   -32.3130 
  205.5000    64.5270    26.4920   136.4090   176.2790   184.7670     2.1790   -32.1380 
  205.6250    63.2370    26.4840   140.1670   170.3340   178.9400     2.1760   -31.8970 
  205.7500    63.3130    26.4660   143.7310   165.8340   174.6990     2.1750   -31.6100 
  205.8750    64.3810    26.4460   137.9730   163.6500   172.9960     2.1760   -31.3100 
  206.0000    63.9270    26.4370   124.4880   164.3010   174.3540     2.1750   -30.9980 
  206.1250    61.6390    26.4490   117.8130   167.9010   178.8760     2.1700   -30.6740 
  206.2500    60.0030    26.4840   122.8430   172.7610   184.7550     2.1640   -30.3610 
  206.3750    60.2130    26.5280   133.5190   177.2620   190.2510     2.1590   -30.0490 
  206.5000    61.4490    26.5620   142.7820   179.9020   193.7350     2.1560   -29.7550 
  206.6250    63.1010    26.5700   147.8170   179.2470   193.6530     2.1580   -29.5350 
  206.7500    64.5510    26.5800   148.8170   175.7870   190.5440     2.1730   -29.3810 
  206.8750    64.7530    26.5680   144.0460   170.3690   185.2510     2.2040   -29.2440 
  207.0000    64.7880    26.4930   134.1110   164.0920   178.7810     2.2480   -29.1150 
  207.1250    65.8380    26.3810   123.0170   157.7810   171.7890     2.2930   -28.9800 
  207.2500    65.9260    26.3240   114.6520   151.6590   164.6590     2.3170   -28.8390 
  207.3750    62.6930    26.3410   111.1420   145.6900   157.5790     2.3060   -28.7010 
  207.5000    57.0700    26.3830   112.6520   139.8460   150.7110     2.2640   -28.5550 
  207.6250    55.2970    26.4040   115.4680   134.1450   144.2200     2.2170   -28.3570 
  207.7500    58.1960    26.4130   114.2670   128.6830   138.1860     2.1940   -28.1050 
  207.8750    61.9700    26.4130   107.5330   123.6630   132.7590     2.1900   -27.8460 
  208.0000    64.3100    26.4130    97.0630   119.1950   127.9630     2.1880   -27.5940 
  208.1250    63.9670    26.4130    86.9750   115.1930   123.6060     2.1820   -27.3450 
