~V
VERS. 2.00: Ver 2.00
~W
STRT.M 60.0000:
STOP.M 270.0000:
STEP.M 0.1250:
NULL. -999.2500:
UWI. DF32131:
~C
DEPT.M :
DEN.GM/CC :
GR.API :
CALI.CM :
RXO.OHMM :
RI. :
RML.OHMM :
SP.MV :
~A
# ...
  195.0000     2.4050    93.3920    24.7420    14.6930     9.8920    15.3700   -18.2720 
  195.1250     2.4110    88.3960    24.7420    15.1210    10.1790    15.7400   -18.4000 
  195.2500     2.4090    87.0320    24.7420    14.8460    10.3440    15.8370   -18.2870 
  195.3750     2.4080    89.7290    24.7410    14.6760    10.5150    15.9660   -17.9270 
  195.5000     2.4180    91.9840    24.7390    15.1880    10.8430    16.4460   -17.3140 
  195.6250     2.4570    90.5250    24.7350    16.9340    11.4700    17.5480   -16.5830 
  195.7500     2.5170    86.6140    24.7350    19.1270    12.2920    19.0590   -15.8190 
  195.8750     2.5730    83.8590    24.7360    20.8180    13.0630    20.4880   -15.0870 
  196.0000     2.5990    83.7140    24.7380    20.6970    13.3910    21.0170   -14.4530 
  196.1250     2.5800    85.5010    24.7360    18.9910    12.8080    19.7350   -13.8520 
  196.2500     2.5430    89.4670    24.7350    16.3530    11.5600    17.3220   -13.3400 
  196.3750     2.5070    95.0780    24.7340    13.6880    10.0910    14.7730   -13.0290 
  196.5000     2.4790   100.7370    24.7350    10.9660     8.8450    12.8620   -12.8300 
  196.6250     2.4630   101.3650    24.7330     8.8640     8.1880    12.0910   -12.5540 
  196.7500     2.4580    97.8090    24.7310     8.7410     8.0950    12.2810   -12.2880 
  196.8750     2.4590    95.2540    24.7310    10.2240     8.4520    13.1850   -11.9890 
  197.0000     2.4590    97.2040    24.7310    12.0130     8.9860    14.2850   -11.5920 
  197.1250     2.4520    99.9680    24.7280    12.4070     9.2190    14.5920   -11.0460 
  197.2500     2.4470    97.3110    24.7080    11.1730     8.8730    13.6710   -10.4330 
  197.3750     2.4490    92.5250    24.6490     9.0590     8.0090    11.8680    -9.8200 
  197.5000     2.4510    88.4050    24.5640     7.1750     6.9360     9.9370    -9.2190 
  197.6250     2.4440    82.5820    24.4780     6.1470     6.0080     8.5180    -8.6280 
  197.7500     2.4330    73.6530    24.3740     5.6090     5.3570     7.6620    -8.0390 
  197.8750     2.4260    65.4380    24.2290     5.2790     4.9870     7.2700    -7.5140 
  198.0000     2.4230    61.5290    24.0330     5.0470     4.8490     7.1930    -7.0900 
  198.1250     2.4170    59.9110    23.8450     4.9660     4.8800     7.2960    -6.8360 
  198.2500     2.4100    58.7180    23.7210     4.9830     4.9870     7.4370    -6.6970 
  198.3750     2.4090    58.6080    23.6720     5.0090     5.1190     7.5670    -6.6220 
  198.5000     2.4190    59.0990    23.6590     4.9940     5.2410     7.6700    -6.5960 
  198.6250     2.4360    59.4530    23.6100     5.0710     5.3340     7.7430    -6.5840 
  198.7500     2.4490    60.5940    23.4740     5.4370     5.4050     7.7900    -6.6180 
  198.8750     2.4550    64.1070    23.2910     6.0940     5.4520     7.8140    -6.6510 
  199.0000     2.4510    70.6050    23.1850     6.7310     5.4730     7.8170    -6.7360 
  199.1250     2.4410    78.5110    23.1990     6.9040     5.4630     7.7990    -6.8690 
  199.2500     2.4320    84.3080    23.3320     6.6230     5.4310     7.7600    -7.0350 
  199.3750     2.4330    85.4530    23.5700     6.0850     5.3860     7.7010    -7.2430 
  199.5000     2.4420    82.7950    23.8520     5.6340     5.3310     7.6170    -7.4620 
  199.6250     2.4510    82.2190    24.2260     5.5310     5.2700     7.4960    -7.7410 
  199.7500     2.4510    84.2280    24.5710     5.5070     5.1960     7.3570    -8.0270 
  199.8750     2.4390    86.0990    24.7120     5.4550     5.1150     7.2280    -8.3580 
  200.0000     2.4180    88.2000    24.7310     5.3630     5.0520     7.1430    -8.6700 
  200.1250     2.4030    91.5410    24.7310     5.3130     5.0330     7.1380    -8.9540 
  200.2500     2.3940    94.4580    24.7310     5.4260     5.0650     7.2090    -9.2250 
  200.3750     2.3870    94.9690    24.7310     5.7170     5.1510     7.3460    -9.4690 
  200.5000     2.3770    94.7850    24.7310     6.0290     5.2770     7.5290    -9.7130 
  200.6250     2.3670    94.1850    24.7310     6.2740     5.4190     7.7240    -9.9280 
  200.7500     2.3600    90.8060    24.7310     6.6170     5.5610     7.9130   -10.1370 
  200.8750     2.3560    86.3590    24.7310     7.0270     5.7090     8.1090   -10.3550 
  201.0000     2.3510    85.6890    24.7310     7.2480     5.8910     8.3330   -10.5790 
  201.1250     2.3510    89.7920    24.7310     7.3230     6.1580     8.6230   -10.8160 
  201.2500     2.3590    93.2700    24.7310     7.7850     6.5380     9.0240   -11.0580 
  201.3750     2.3720    92.6930    24.7310     8.9110     7.0800     9.6240   -11.3100 
  201.5000     2.3890    90.3780    24.7310    10.0520     7.8340    10.5320   -11.5490 
  201.6250     2.4040    90.4560    24.7310    10.7980     8.9230    11.9630   -11.8010 
  201.7500     2.4120    91.0280    24.7310    12.3370    10.3820    13.9600   -12.0190 
  201.8750     2.4140    88.2210    24.7310    15.3890    12.2090    16.4830   -12.1870 
  202.0000     2.4160    81.8010    24.7310    18.8040    14.2700    19.2700   -12.2870 
  202.1250     2.4230    76.6760    24.7310    21.0140    16.2450    21.7860   -12.3910 
  202.2500     2.4290    75.3100    24.7310    21.8040    17.8210    23.6390   -12.4830 
  202.3750     2.4300    76.5800    24.7310    21.1080    18.8220    24.6610   -12.6020 
  202.5000     2.4240    78.9590    24.7310    19.7530    19.1850    24.8490   -12.7210 
  202.6250     2.4060    80.7370    24.7280    20.1880    18.9120    24.2400   -12.8410 
  202.7500     2.3770    79.6690    24.7100    21.5900    18.3580    23.3020   -12.9920 
  202.8750     2.3470    77.2750    24.6690    21.1410    17.9190    22.5730   -13.1840 
  203.0000     2.3290    77.9440    24.6380    17.9640    18.0760    22.7120   -13.4530 
  203.1250     2.3370    81.7730    24.6270    17.2090    19.6490    24.7640   -13.7680 
  203.2500     2.3580    82.2050    24.6270    26.9780    23.1540    29.2830   -14.1050 
  203.3750     2.3720    77.7230    24.6270    55.2310    29.2290    37.0700   -14.4330 
  203.5000     2.3590    73.0920    24.6270    84.8620    38.1310    48.6160   -14.7820 
  203.6250     2.3120    71.4670    24.6270    84.4200    48.9240    62.7940   -15.1470 
  203.7500     2.2600    69.7600    24.6270    68.0950    58.6090    74.9330   -15.5170 
  203.8750     2.2200    68.1470    24.6270    61.5940    65.5580    82.4110   -15.8970 
  204.0000     2.2000    68.6930    24.6270    66.0800    70.5250    86.8890   -16.2520 
  204.1250     2.1960    70.2240    24.6270    72.7170    75.7330    92.3060   -16.5360 
  204.2500     2.1970    70.0490    24.6230    82.6860    81.9640    99.8820   -16.8110 
  204.3750     2.1950    69.3530    24.6060    96.1460    88.1140   107.8980   -17.0620 
  204.5000     2.1900    69.3430    24.5670   104.6950    92.4760   113.4950   -17.3140 
  204.6250     2.1840    68.7490    24.5260    96.4470    93.5420   114.2050   -17.5530 
  204.7500     2.1820    67.3520    24.4550    81.1030    92.2520   111.6420   -17.7900 
  204.8750     2.1850    66.6350    24.3460    69.3460    89.7260   107.6780   -18.0120 
  205.0000     2.1930    67.6430    24.2370    64.6670    86.9700   103.7070   -18.2290 
  205.1250     2.2000    69.8400    24.1850    66.2050    84.4640   100.1800   -18.4840 
  205.2500     2.2020    71.2840    24.1390    68.1020    81.9220    96.5310   -18.7110 
  205.3750     2.1970    72.5570    24.0720    66.9740    79.0020    92.3390   -18.9650 
  205.5000     2.1920    75.7240    24.0070    61.5110    75.7260    87.7970   -19.2600 
  205.6250     2.1960    80.4400    23.9290    54.6200    72.7600    83.8880   -19.5080 
  205.7500     2.2110    82.5680    23.8520    51.2380    70.8610    81.4220   -19.7810 
  205.8750     2.2320    81.2800    23.7790    51.9940    70.4890    80.8390   -20.0360 
  206.0000     2.2480    79.0600    23.7800    56.3290    71.8490    82.2860   -20.3090 
  206.1250     2.2460    76.6980    23.9950    63.1970    75.3240    86.0910   -20.5590 
