~V
VERS. 2.00: Ver 2.00
~W
STRT.M 62.0000:
STOP.M 282.0000:
STEP.M 0.1250:
NULL. -999.2500:
UWI. DF32160:
~C
DEPT.M :
GR.API :
CALI.CM :
RXO.OHMM :
RI. :
RML.OHMM :
DEN.GM/CC :
SP.MV :
~A
# ...
  264.5000    87.5380    25.6050     9.8410     9.3620    10.8470     2.3840   -10.6590 
  264.6250    89.2140    25.6070    10.9560    10.1860    11.5600     2.3820   -11.0910 
  264.7500    94.5310    25.6030    11.4910    10.6190    11.7850     2.3780   -11.4160 
  264.8750    97.3170    25.6000    10.8870    10.5450    11.5060     2.3620   -11.6010 
  265.0000    95.4440    25.6010     9.4850    10.0600    10.9090     2.3280   -11.6240 
  265.1250    91.0650    25.6050     8.3070     9.3840    10.2370     2.2910   -11.4700 
  265.2500    87.4730    25.6080     7.7590     8.7390     9.6310     2.2700   -11.1990 
  265.3750    86.1720    25.6080     7.8200     8.1800     9.1040     2.2660   -10.8160 
  265.5000    85.5300    25.5990     8.4030     7.6860     8.6270     2.2740   -10.3080 
  265.6250    83.9850    25.5260     8.8860     7.2080     8.1410     2.2890    -9.6920 
  265.7500    81.1740    25.4130     8.5000     6.7370     7.6460     2.3130    -9.0890 
  265.8750    76.6540    25.3660     7.3860     6.3280     7.2190     2.3460    -8.5890 
  266.0000    74.4970    25.4410     6.3460     6.0560     6.9430     2.3770    -8.2840 
  266.1250    78.2430    25.5580     5.9900     6.0040     6.8950     2.3920    -8.2620 
  266.2500    83.6180    25.5980     6.1520     6.1510     7.0420     2.3890    -8.4550 
  266.3750    87.9870    25.5690     6.7620     6.4690     7.3860     2.3730    -8.8730 
  266.5000    91.6940    25.5410     7.7560     6.9080     7.9220     2.3470    -9.5270 
  266.6250    94.1270    25.5400     8.9130     7.4120     8.6300     2.3130   -10.4130 
  266.7500    93.5250    25.5540    10.1210     7.9230     9.3790     2.2830   -11.3990 
  266.8750    92.0490    25.5680    11.4780     8.4340    10.0760     2.2650   -12.3950 
  267.0000    92.9030    25.5780    12.6030     8.9640    10.6900     2.2610   -13.3230 
  267.1250    95.2860    25.5780    12.8200     9.5720    11.3170     2.2680   -14.1200 
  267.2500    96.9010    25.5540    13.0330    10.2920    12.1230     2.2790   -14.7960 
  267.3750    96.7710    25.5060    14.6840    11.1170    13.1680     2.2910   -15.3180 
  267.5000    96.1970    25.4450    17.9440    11.9490    14.3180     2.3040   -15.6460 
  267.6250    97.7510    25.3980    20.3850    12.4940    15.1250     2.3200   -15.7140 
  267.7500   100.1720    25.3760    20.0990    12.4590    15.1110     2.3360   -15.5560 
  267.8750   101.2300    25.3780    17.6610    11.7040    14.0370     2.3480   -15.1870 
  268.0000    99.6800    25.3870    14.5120    10.3970    12.1420     2.3520   -14.6380 
  268.1250    97.1110    25.3550    11.3900     8.9530    10.0850     2.3470   -13.9930 
  268.2500    95.9340    25.2790     8.7140     7.7640     8.4720     2.3360   -13.3810 
  268.3750    96.7800    25.1890     6.9210     6.9870     7.5370     2.3190   -12.8700 
  268.5000    98.3070    25.1050     6.1910     6.6590     7.3260     2.2990   -12.4990 
  268.6250    98.6020    25.0470     6.5200     6.8060     7.8190     2.2820   -12.3080 
  268.7500    98.4030    25.0380     7.5470     7.2540     8.6550     2.2710   -12.2430 
  268.8750    97.8930    25.0720     8.9630     7.8370     9.5230     2.2670   -12.2800 
  269.0000    98.4690    25.1040    10.1770     8.3310    10.1030     2.2700   -12.3790 
  269.1250    98.4690    25.1210    10.5700     8.4710    10.0990     2.2730   -12.4400 
  269.2500    98.4690    25.1760    10.2400     8.2760     9.6530     2.2720   -12.4160 
  269.3750    98.4690    25.2500     9.3410     7.8780     8.9940     2.2750   -12.3170 
  269.5000    98.4690    25.2760     8.1680     7.4500     8.3490     2.2860   -12.2090 
  269.6250    98.4690    25.2250     7.3850     7.1530     7.8970     2.2950   -12.1930 
  269.7500    98.4690    25.1660     7.2920     7.0210     7.6710     2.2860   -12.3090 
  269.8750    98.4690    25.1440     7.6360     7.0440     7.6580     2.2690   -12.5730 
  270.0000    98.4690    25.1600     8.0200     7.1920     7.8130     2.2660   -13.0070 
  270.1250    98.4690    25.1680     8.3340     7.4470     8.1160     2.2900   -13.6500 
  270.2500    98.4690    25.1380     8.6810     7.7590     8.5480     2.3160   -14.4140 
  270.3750    98.4690    25.1100     9.0880     8.0970     9.1110     2.3240   -15.2330 
  270.5000    98.4690    25.1670     9.6010     8.4270     9.7460     2.3090   -16.0170 
  270.6250    98.4690    25.3080    10.3040     8.6930    10.2790     2.2850   -16.6600 
  270.7500    98.4690    25.4130    11.1290     8.8660    10.5630     2.2680   -17.1530 
  270.8750    98.4690    25.4510    11.9580     8.9210    10.5160     2.2630   -17.4860 
  271.0000    98.4690    25.4700    12.5090     8.8510    10.1700     2.2670   -17.6530 
  271.1250    98.4690    25.4870    12.3530     8.6630     9.6760     2.2760   -17.6340 
  271.2500    98.4690    25.4790    11.6900     8.4430     9.2820     2.2800   -17.4780 
  271.3750    98.4690    25.4550    10.8570     8.2770     9.1150     2.2790   -17.2160 
  271.5000    98.4690    25.4400    10.0770     8.2360     9.1880     2.2810   -16.9010 
  271.6250    98.4690    25.4410     9.9450     8.3810     9.4380     2.2970   -16.6180 
  271.7500    98.4690    25.4400    10.9880     8.6630     9.7660     2.3170   -16.4020 
  271.8750    98.4690    25.4500    12.6660     9.0420    10.2160     2.3290   -16.2550 
  272.0000    98.4690    25.4920    13.4520     9.4850    10.8780     2.3250   -16.1970 
  272.1250    98.4690    25.5530    12.7820     9.9400    11.6820     2.3150   -16.2710 
  272.2500    98.4690    25.5920    12.5530    10.3130    12.2540     2.3100   -16.4640 
  272.3750    98.4690    25.6000    13.7590    10.5280    12.3260     2.3150   -16.7450 
  272.5000    98.4690    25.5970    15.3670    10.5690    11.9100     2.3260   -17.0850 
  272.6250    98.4690    25.6090    15.4050    10.4750    11.3010     2.3330   -17.3970 
  272.7500    98.4690    25.6360    14.4600    10.3550    10.8920     2.3300   -17.6610 
  272.8750    98.4690    25.6620    14.1320    10.2830    10.8560     2.3230   -17.8780 
  273.0000    98.4690    25.6760    14.7110    10.2880    11.1570     2.3170   -17.9900 
  273.1250    98.4690    25.6760    14.8280    10.2900    11.5140     2.3060   -17.8970 
  273.2500    98.4690    25.6690    14.2120    10.1570    11.5770     2.2850   -17.5990 
  273.3750    98.4690    25.6510    13.4330     9.8230    11.1750     2.2650   -17.0900 
  273.5000    98.4690    25.6370    12.3240     9.3130    10.3910     2.2610   -16.3720 
  273.6250    98.4690    25.6420    10.3670     8.7660     9.5880     2.2740   -15.4950 
  273.7500    98.4690    25.6570     8.4790     8.3530     9.0990     2.2940   -14.5610 
  273.8750    98.4690    25.6660     7.4710     8.1350     8.9700     2.3200   -13.6340 
  274.0000    98.4690    25.6670     7.2510     8.0810     9.0470     2.3480   -12.8450 
  274.1250    98.4690    25.6690     7.5030     8.1200     9.1270     2.3660   -12.3890 
  274.2500    98.4690    25.6650     8.1930     8.1730     9.1500     2.3680   -12.2730 
  274.3750    98.4690    25.6480     9.3110     8.2080     9.1340     2.3610   -12.4730 
  274.5000    98.4690    25.6210    10.6140     8.2180     9.1140     2.3510   -12.9050 
  274.6250    98.4690    25.6020    11.5390     8.2180     9.1030     2.3390   -13.4330 
  274.7500    98.4690    25.5970    11.4030     8.2180     9.0930     2.3240   -13.9120 
  274.8750    98.4690    25.5980    10.1840     8.2180     9.0850     2.3110   -14.2860 
  275.0000    98.4690    25.5980     8.6970     8.2190     9.0800     2.3020   -14.4500 
  275.1250    98.4690    25.5980     7.7580     8.2190     9.0800     2.3020   -14.2340 
  275.2500    98.4690    25.5980     7.0820     8.2190     9.0800     2.3070   -13.6880 
  275.3750    98.4690    25.5980     6.4930     8.2190     9.0800     2.3170   -12.8860 
  275.5000    98.4690    25.5980     6.2150     8.2190     9.0800     2.3320   -11.9990 
  275.6250    98.4690    25.5980     6.5680     8.2190     9.0800     2.3470   -11.2150 
