~V
VERS. 2.00: Ver 2.00
~W
STRT.M 60.0000:
STOP.M 264.0000:
STEP.M 0.1250:
NULL. -999.2500:
UWI. DF32130:
~C
DEPT.M :
SP.MV :
GR.API :
CALI.CM :
RXO.OHMM :
RI. :
RML.OHMM :
DEN.GM/CC :
~A
# ...
  150.0000   -17.3240    69.4500    24.8560    27.1710    26.3240    28.4510     2.2000 
  150.1250   -17.4490    65.5190    25.0560    24.1910    25.0030    27.1230     2.2820 
  150.2500   -17.5160    64.1480    25.1290    21.3050    24.6630    26.8840     2.3940 
  150.3750   -17.4600    65.1410    24.8120    22.0540    25.3830    27.8500     2.5210 
  150.5000   -17.2870    68.1250    24.3350    28.8620    26.9360    29.8070     2.6250 
  150.6250   -16.9850    71.0000    23.9840    37.4570    28.5770    31.8470     2.6750 
  150.7500   -16.6840    69.6800    23.8730    39.5640    29.2750    32.6080     2.6690 
  150.8750   -16.3220    63.7960    23.8510    34.2830    28.5270    31.4670     2.6320 
  151.0000   -15.9700    58.5860    23.8510    27.1080    26.6230    28.9540     2.6000 
  151.1250   -15.6390    60.0640    23.8510    22.2430    24.4490    26.3020     2.5840 
  151.2500   -15.3570    62.8530    23.8510    20.1420    22.7930    24.3860     2.5790 
  151.3750   -15.1300    64.9230    23.8510    20.0340    21.8790    23.4090     2.5850 
  151.5000   -14.9630    66.2730    23.8510    21.1490    21.6400    23.2430     2.5940 
  151.6250   -14.8580    66.0960    23.8500    22.6310    21.8880    23.6550     2.6000 
  151.7500   -14.7470    64.0540    23.8410    23.2590    22.2810    24.2190     2.5970 
  151.8750   -14.6810    61.7610    23.8160    23.1990    22.6230    24.6730     2.5880 
  152.0000   -14.6160    60.1970    23.7800    22.8120    22.8030    24.8370     2.5820 
  152.1250   -14.5470    59.4200    23.7640    22.3830    22.7910    24.6520     2.5760 
  152.2500   -14.4540    60.9710    23.7550    22.0620    22.6830    24.3430     2.5730 
  152.3750   -14.3980    63.0530    23.7350    21.9790    22.5290    24.0650     2.5700 
  152.5000   -14.3530    63.4150    23.6890    21.9000    22.3510    23.8680     2.5650 
  152.6250   -14.3400    62.8190    23.6460    21.6300    22.1580    23.7620     2.5530 
  152.7500   -14.3380    63.8970    23.5970    20.9070    21.9450    23.7070     2.5380 
  152.8750   -14.3870    65.8070    23.5470    20.1180    21.6540    23.6240     2.5350 
  153.0000   -14.4690    66.3030    23.4940    19.7020    21.1950    23.3640     2.5450 
  153.1250   -14.5500    65.9200    23.4670    19.5020    20.4260    22.6330     2.5570 
  153.2500   -14.6000    66.6050    23.4500    18.8270    19.3260    21.3530     2.5640 
  153.3750   -14.6320    68.0260    23.4250    17.1300    17.9480    19.6300     2.5680 
  153.5000   -14.6520    69.6640    23.3790    15.0030    16.4780    17.7840     2.5720 
  153.6250   -14.6920    71.3460    23.3570    13.5880    15.2260    16.2670     2.5710 
  153.7500   -14.7350    70.8340    23.3470    12.5220    14.3500    15.2480     2.5640 
  153.8750   -14.7130    67.8670    23.3600    12.1680    13.9090    14.7770     2.5570 
  154.0000   -14.7010    63.8410    23.4060    12.7250    13.8960    14.8560     2.5550 
  154.1250   -14.6830    62.2180    23.5010    13.6740    14.2700    15.4830     2.5560 
  154.2500   -14.7070    62.4850    23.5490    14.0770    14.7730    16.3180     2.5580 
  154.3750   -14.6860    62.2640    23.5630    14.1610    15.1800    16.9980     2.5610 
  154.5000   -14.6700    62.3100    23.5640    14.7600    15.2900    17.1870     2.5600 
  154.6250   -14.6200    63.2270    23.5640    15.0080    14.9450    16.6940     2.5510 
  154.7500   -14.5730    62.5090    23.5640    14.0890    14.2980    15.8650     2.5410 
  154.8750   -14.5210    58.8640    23.5640    12.5370    13.5260    15.0090     2.5410 
  155.0000   -14.4450    54.4660    23.5640    11.6700    12.7880    14.3290     2.5500 
  155.1250   -14.3930    52.5370    23.5640    11.4750    12.2080    13.8820     2.5580 
  155.2500   -14.3290    51.9490    23.5640    11.2610    11.7990    13.5540     2.5570 
  155.3750   -14.3010    51.7050    23.5640    10.6690    11.5710    13.3370     2.5560 
  155.5000   -14.2980    52.8210    23.5640    10.1590    11.5230    13.2900     2.5630 
  155.6250   -14.2590    54.1230    23.5640    10.2210    11.6540    13.4870     2.5740 
  155.7500   -14.2160    53.6120    23.5640    10.5480    11.8820    13.8250     2.5760 
  155.8750   -14.1960    51.4710    23.5640    10.9710    12.1480    14.1780     2.5700 
  156.0000   -14.2130    49.1690    23.5640    11.4570    12.4150    14.4510     2.5730 
  156.1250   -14.2020    48.5720    23.5640    11.7490    12.6530    14.6070     2.5900 
  156.2500   -14.1820    49.1430    23.5670    11.6760    12.8300    14.7080     2.6110 
  156.3750   -14.1670    49.7970    23.5760    11.6400    12.9020    14.7820     2.6150 
  156.5000   -14.1700    51.4680    23.5900    12.0110    12.8210    14.7770     2.6060 
  156.6250   -14.2480    57.4330    23.5970    12.2650    12.5130    14.5540     2.5920 
  156.7500   -14.2920    64.8500    23.5980    11.6250    12.0440    14.1340     2.5810 
  156.8750   -14.3230    68.1570    23.5980    10.5060    11.5500    13.6540     2.5790 
  157.0000   -14.2920    68.0020    23.5980    10.0700    11.2110    13.3310     2.5840 
  157.1250   -14.3150    69.1900    23.5980    10.8200    11.2430    13.4330     2.5910 
  157.2500   -14.3620    71.6130    23.5980    11.8150    11.6570    13.9890     2.5930 
  157.3750   -14.4140    72.3440    23.5980    13.1940    12.4020    14.9330     2.5850 
  157.5000   -14.4020    72.2390    23.5980    14.6680    13.2940    16.0210     2.5720 
  157.6250   -14.3590    74.4030    23.5980    15.1320    13.9900    16.7950     2.5600 
  157.7500   -14.3530    75.9010    23.5960    14.7350    14.3050    17.0360     2.5510 
  157.8750   -14.3560    75.0460    23.5870    14.1200    14.2680    16.7990     2.5490 
  158.0000   -14.3720    73.3380    23.5660    13.3390    14.0580    16.3430     2.5460 
  158.1250   -14.3260    73.8720    23.5560    12.7940    13.9100    16.0280     2.5410 
  158.2500   -14.3080    75.9690    23.5520    12.8850    13.9420    16.0160     2.5390 
  158.3750   -14.2710    76.6880    23.5520    13.4950    14.1320    16.2510     2.5410 
  158.5000   -14.2740    75.3200    23.5480    13.8890    14.3610    16.5320     2.5380 
  158.6250   -14.2530    74.7790    23.5130    13.5600    14.4800    16.6080     2.5290 
  158.7500   -14.2500    75.3760    23.4300    12.8560    14.4620    16.4560     2.5260 
  158.8750   -14.2740    75.4910    23.3260    12.2310    14.3540    16.1870     2.5400 
  159.0000   -14.3780    74.3430    23.2640    11.8420    14.2430    15.9590     2.5640 
  159.1250   -14.5200    73.1390    23.2430    11.7870    14.2210    15.9080     2.5810 
  159.2500   -14.6550    73.2060    23.2390    11.9680    14.3090    16.0070     2.5800 
  159.3750   -14.8230    74.6590    23.2400    12.2860    14.5010    16.2150     2.5570 
  159.5000   -15.0360    76.1770    23.2440    12.4310    14.7750    16.4830     2.5290 
  159.6250   -15.2900    75.9590    23.2430    12.6090    15.0990    16.7570     2.5100 
  159.7500   -15.5430    73.7920    23.1930    13.0090    15.4050    16.9800     2.5020 
  159.8750   -15.7680    71.7000    23.0740    13.5810    15.6340    17.0770     2.5000 
  160.0000   -16.0000    71.5480    22.9840    13.6290    15.7240    16.9830     2.4950 
  160.1250   -16.2750    75.8310    22.9540    12.9230    15.6220    16.6510     2.4820 
  160.2500   -16.5800    81.2230    22.9540    12.2260    15.3730    16.2140     2.4660 
  160.3750   -16.9120    82.9040    22.9660    11.9200    15.0300    15.8240     2.4570 
  160.5000   -17.1900    79.9980    23.0180    12.0080    14.6520    15.5620     2.4570 
  160.6250   -17.5440    77.0840    23.1460    12.2550    14.3210    15.4110     2.4630 
  160.7500   -17.9310    77.0640    23.2620    12.3970    14.1270    15.3040     2.4700 
  160.8750   -18.4050    78.1030    23.3160    12.3230    14.1610    15.3000     2.4660 
  161.0000   -18.8860    79.5360    23.3250    12.2320    14.5210    15.5980     2.4490 
  161.1250   -19.4220    79.8860    23.3220    13.1570    15.4380    16.6080     2.4210 
