~V
VERS. 2.00: Ver 2.00
~W
STRT.M 63.0000:
STOP.M 291.0000:
STEP.M 0.1250:
NULL. -999.2500:
UWI. DF325:
~C
DEPT.M :
DEN.GM/CC :
SP.MV :
AC.US/MT :
GR.API :
RML.OHMM :
RI. :
RXO.OHMM :
CALI.CM :
~A
# ...
  283.0000     2.2580   -10.0000   382.2810    55.8400     7.5790     6.9770     6.2190    24.4810 
  283.1250     2.2690    -9.8670   380.3650    55.8400     7.4360     6.9200     6.2630    24.4800 
  283.2500     2.2710    -9.7650   379.0220    55.8400     7.4490     6.9390     6.3480    24.4480 
  283.3750     2.2660    -9.6860   378.2060    55.8400     7.5350     6.9660     6.4440    24.3920 
  283.5000     2.2590    -9.6460   377.5000    55.8400     7.5780     6.9570     6.5250    24.3310 
  283.6250     2.2570    -9.6640   372.9730    55.8400     7.5520     6.9160     6.6420    24.3080 
  283.7500     2.2640    -9.6920   362.5260    55.8400     7.5210     6.8920     6.9520    24.2840 
  283.8750     2.2810    -9.7280   348.3420    55.8400     7.5070     6.9240     7.4640    24.2390 
  284.0000     2.3030    -9.7680   335.6630    55.8400     7.5530     7.0160     8.1070    24.1700 
  284.1250     2.3180    -9.8090   329.2140    55.8400     7.6570     7.1410     8.5480    24.0860 
  284.2500     2.3210    -9.8500   327.6420    55.8400     7.7130     7.2520     8.7970    23.9430 
  284.3750     2.3090    -9.8870   329.9260    55.8400     7.7190     7.3260     8.8260    23.6740 
  284.5000     2.2870    -9.9330   336.5300    55.8400     7.7140     7.3600     8.6180    23.2950 
  284.6250     2.2620    -9.9390   348.8620    55.8400     7.6980     7.3650     8.2320    22.8730 
  284.7500     2.2430   -10.0000   362.8880    55.8400     7.6790     7.3630     7.5930    22.4500 
  284.8750     2.2320    -9.9770   372.7960    55.8400     7.6650     7.3600     6.9120    22.0930 
  285.0000     2.2290    -9.9110   374.1760    55.8400     7.6540     7.3600     6.5330    21.8620 
  285.1250     2.2310    -9.8050   367.1810    55.8400     7.6440     7.3630     6.5700    21.7170 
  285.2500     2.2360    -9.6640   358.9080    55.8400     7.6430     7.3680     6.7540    21.5030 
  285.3750     2.2380    -9.4800   353.2450    55.8400     7.6510     7.3710     6.9380    21.1590 
  285.5000     2.2450    -9.2610   350.8640    55.8400     7.6630     7.3690     6.9850    20.8090 
  285.6250     2.2470    -9.0480   350.9450    55.8400     7.6700     7.3640     7.0130    20.4540 
  285.7500     2.2470    -8.8400   351.9390    55.8400     7.6690     7.3600     7.0320    20.0720 
  285.8750     2.2440    -8.7010   352.7490    55.8400     7.6630     7.3610     7.0500    19.5380 
  286.0000     2.2390    -8.6210   352.6090    55.8400     7.6560     7.3650     7.0690    18.9500 
  286.1250     2.2340    -8.5440   351.7490    55.8400     7.6520     7.3720     7.0730    18.4970 
  286.2500     2.2300    -8.5170   351.0240    55.8400     7.6500     7.3780     7.1150    18.2100 
  286.3750     2.2280    -8.5260   350.6000    55.8400     7.6490     7.3810     7.2160    17.9800 
  286.5000     2.2190    -8.5500   350.3140    55.8400     7.6480     7.3820     7.4030    17.7110 
  286.6250  -999.2500    -8.5930   349.8160    55.8400     7.6480     7.3820     7.6360    17.5300 
  286.7500  -999.2500    -8.6270   348.7330    55.8400     7.6480     7.3820     7.6850    17.4450 
  286.8750  -999.2500    -8.6480   347.1190    55.8400     7.6480     7.3820     7.5020    17.4290 
  287.0000  -999.2500    -8.6630   345.7920    55.8400     7.6480     7.3820     7.2660    17.4090 
  287.1250  -999.2500    -8.6920   345.8730    55.8400     7.6480     7.3820     6.9530    17.4230 
  287.2500  -999.2500    -8.9140   346.9230    55.8400     7.6480     7.3820     6.8390    17.4170 
  287.3750  -999.2500    -9.4020   347.8710    55.8400     7.6480     7.3820     6.7930    17.4100 
  287.5000  -999.2500    -9.8930   347.5140    55.8400     7.6480     7.3820     6.7330    17.3830 
  287.6250  -999.2500   -10.3710   344.8680    55.8400     7.6480     7.3820     6.6780    17.3310 
  287.7500  -999.2500   -10.8240   341.3130    55.8400     7.6480     7.3820     6.6420    17.2170 
  287.8750  -999.2500   -11.2700   338.6670    55.8400     7.6480     7.3820     6.5920    17.0420 
  288.0000  -999.2500   -11.7360   337.7750    55.8400     7.6480     7.3820     6.5350    16.7880 
  288.1250  -999.2500   -12.2170   337.8850    55.8400     7.6480     7.3820     6.5210    16.4910 
  288.2500  -999.2500   -12.4960   337.8780    55.8400     7.6480     7.3820     6.5400    16.3520 
  288.3750  -999.2500   -12.5050   337.7630    55.8400     7.6480     7.3820     6.4910    16.3380 
  288.5000  -999.2500   -12.5450   337.6800    55.8400     7.6480     7.3820     6.4530    16.3150 
  288.6250  -999.2500   -12.5890   337.6180    55.8400     7.6480     7.3820     6.4060    16.1240 
  288.7500  -999.2500   -12.6670   337.5620    55.8400     7.6480     7.3820     6.4700    15.7360 
  288.8750  -999.2500   -12.7420   337.6130    55.8400     7.6480     7.3820     6.5660    15.3270 
  289.0000  -999.2500   -12.8200   337.8110    55.8400     7.6480     7.3820     6.5990    15.1030 
  289.1250  -999.2500   -12.9160   338.0030    55.8400     7.6480     7.3820     6.6050    15.0370 
  289.2500  -999.2500   -13.0270   338.0630    55.8400     7.6480     7.3820     6.5960    15.0240 
  289.3750  -999.2500   -13.1360   338.0510    55.8400     7.6480     7.3820     6.5950    15.0190 
  289.5000  -999.2500   -13.2230  -999.2500    55.8400     7.6480     7.3820     6.5940    15.0170 
  289.6250  -999.2500   -13.3000  -999.2500    55.8400     7.6480     7.3820     6.5940    15.0170 
  289.7500  -999.2500   -13.3570  -999.2500    55.8400     7.6480     7.3820     6.5940    15.0170 
  289.8750  -999.2500   -13.4320  -999.2500    55.8400     7.6480     7.3820     6.5930    15.0160 
  290.0000  -999.2500   -13.4730  -999.2500    55.8400     7.6480     7.3820     6.5930    15.0150 
  290.1250  -999.2500   -13.4730  -999.2500    55.8400     7.6480     7.3820     6.5940    15.0150 
  290.2500  -999.2500   -13.4730  -999.2500    55.8400     7.6480     7.3820     6.5940    15.0150 
  290.3750  -999.2500  -999.2500  -999.2500    55.8400     7.6480     7.3820     6.5950    15.0150 
  290.5000  -999.2500  -999.2500  -999.2500    55.8400     7.6480     7.3820     6.5950    15.0150 
  290.6250  -999.2500  -999.2500  -999.2500    55.8400     7.6480     7.3820     6.5940    15.0150 
  290.7500  -999.2500  -999.2500  -999.2500    55.8400     7.6480     7.3820     6.5940    15.0150 
  290.8750  -999.2500  -999.2500  -999.2500    55.8400     7.6480     7.3820     6.5940    15.0150 
  291.0000  -999.2500  -999.2500  -999.2500    55.8400     7.6480     7.3820     6.5930    15.0150 
