~V
VERS. 2.00: Ver 2.00
~W
STRT.M 50.0000:
STOP.M 264.0000:
STEP.M 0.1250:
NULL. -999.2500:
UWI. DF32158:
~C
DEPT.M :
GR.API :
RML.OHMM :
RI. :
RXO.OHMM :
CALI.CM :
DEN.GM/CC :
SP.MV :
~A
# ...
  162.5000    74.7290    20.2630    20.5130    21.1900    22.9140     2.5200   -20.3860 
  162.6250    72.7930    21.6910    22.1380    21.2730    23.1010     2.4910   -20.2490 
  162.7500    72.1350    21.8640    22.4830    21.3340    23.3200     2.4690   -20.0970 
  162.8750    75.5760    21.2660    21.9190    21.8120    23.5490     2.4630   -19.9710 
  163.0000    80.3790    20.6070    21.1260    21.0510    23.5970     2.4730   -19.8310 
  163.1250    78.2320    20.5040    20.7350    17.9460    23.4030     2.4920   -19.7320 
  163.2500    69.3760    21.0190    20.9160    17.1970    23.2720     2.5110   -19.6450 
  163.3750    62.4510    22.0080    21.6100    18.9040    23.5010     2.5250   -19.5540 
  163.5000    62.6770    23.1960    22.6030    21.0300    23.9640     2.5330   -19.4820 
  163.6250    66.3880    24.2340    23.5770    22.6220    24.5080     2.5370   -19.3700 
  163.7500    68.5360    24.9380    24.2960    23.5850    24.6630     2.5380   -19.2860 
  163.8750    68.2490    25.3140    24.7160    23.1960    24.4720     2.5390   -19.1760 
  164.0000    67.5000    25.5360    24.9580    20.4580    24.3550     2.5430   -19.1010 
  164.1250    67.9190    25.8480    25.2330    20.0880    24.5160     2.5530   -19.0680 
  164.2500    68.6130    26.2960    25.6120    21.9630    24.6880     2.5630   -19.0420 
  164.3750    69.0100    26.7640    26.0170    24.1390    24.8750     2.5640   -19.0490 
  164.5000    69.0690    27.0820    26.3080    25.6720    24.9980     2.5480   -19.0440 
  164.6250    69.6280    27.0820    26.3250    23.3750    25.0450     2.5190   -19.0840 
  164.7500    70.1680    26.8460    26.1030    24.1530    25.0510     2.4920   -19.1200 
  164.8750    68.4520    26.5290    25.7490    26.1450    25.0510     2.4830   -19.1860 
  165.0000    65.8440    26.2890    25.4050    26.5610    25.0250     2.4940   -19.2240 
  165.1250    65.5210    26.1990    25.1640    24.3590    24.8980     2.5160   -19.2420 
  165.2500    67.3090    26.1520    24.9740    22.9060    24.7010     2.5290   -19.2750 
  165.3750    68.6510    26.0700    24.7870    22.1530    24.5830     2.5280   -19.2940 
  165.5000    67.2750    25.9560    24.6090    22.2790    24.8460     2.5150   -19.3140 
  165.6250    65.0010    25.9090    24.5290    22.6590    24.9950     2.5030   -19.3480 
  165.7500    64.5480    25.9710    24.5810    22.2750    25.0450     2.4980   -19.3620 
  165.8750    67.5530    26.0670    24.7070    22.0650    25.0340     2.4990   -19.3710 
  166.0000    72.2500    26.0120    24.7460    22.0920    25.0350     2.4970   -19.4210 
  166.1250    72.8810    25.5290    24.4320    23.0360    25.0330     2.4890   -19.4430 
  166.2500    70.1430    24.6440    23.7290    23.1410    25.0330     2.4780   -19.4680 
  166.3750    68.2330    23.5340    22.7550    21.7960    25.0330     2.4680   -19.4770 
  166.5000    68.7120    22.4810    21.7570    19.0220    24.9810     2.4650   -19.4940 
  166.6250    67.2250    21.7850    21.0260    17.6350    24.6330     2.4700   -19.5050 
  166.7500    64.0040    21.4310    20.6130    18.0890    23.9830     2.4800   -19.5100 
  166.8750    62.2390    21.2420    20.4090    19.3350    23.5050     2.4920   -19.5120 
  167.0000    63.4390    20.9290    20.1780    19.7050    23.6460     2.5030   -19.4660 
  167.1250    66.5490    20.1780    19.6130    19.6640    24.1830     2.5060   -19.4440 
  167.2500    71.5470    19.1050    18.7320    18.6880    24.7350     2.5000   -19.4180 
  167.3750    76.9640    17.9960    17.7460    16.9670    25.0770     2.4840   -19.4040 
  167.5000    78.8390    17.1520    16.9160    15.2110    25.2420     2.4630   -19.3700 
  167.6250    74.4390    16.7800    16.4550    14.2170    25.2770     2.4450   -19.3180 
  167.7500    69.2960    16.7190    16.2740    14.5280    25.2610     2.4360   -19.2800 
  167.8750    66.7200    16.7380    16.2020    15.5480    25.2100     2.4410   -19.2470 
  168.0000    65.2620    16.5800    16.0210    16.1880    25.1700     2.4580   -19.2180 
  168.1250    61.5100    16.0590    15.5410    14.4890    25.1170     2.4760   -19.1640 
  168.2500    58.6040    15.3390    14.8660    13.0480    24.9360     2.4850   -19.1090 
  168.3750    59.9500    14.6560    14.1860    11.7300    24.5420     2.4810   -19.0460 
  168.5000    64.1500    14.2260    13.6960    11.2100    24.0280     2.4690   -18.9990 
  168.6250    67.1020    14.2110    13.5660    11.1200    23.7430     2.4590   -18.9170 
  168.7500    68.5160    14.4880    13.7240    11.3920    23.6380     2.4550   -18.8390 
  168.8750    67.6250    14.9170    14.0630    11.9560    23.6190     2.4570   -18.7330 
  169.0000    64.4860    15.3510    14.4470    12.7350    23.6300     2.4600   -18.6400 
  169.1250    63.8260    15.6580    14.7430    13.1290    23.7040     2.4640   -18.5640 
  169.2500    66.5880    15.8240    14.9100    13.2540    23.9060     2.4660   -18.4770 
  169.3750    67.1930    15.9090    14.9780    13.5460    24.2620     2.4660   -18.3820 
  169.5000    64.4080    16.0110    15.0230    14.6140    24.6530     2.4590   -18.2470 
  169.6250    63.9130    16.2210    15.1340    15.0180    24.9680     2.4430   -18.1450 
  169.7500    64.7860    16.5040    15.3160    15.1230    25.1560     2.4260   -18.0250 
  169.8750    64.0630    16.7900    15.5350    14.8960    25.2580     2.4150   -17.9350 
  170.0000    62.3830    17.0100    15.7430    15.3760    25.2900     2.4190   -17.8430 
  170.1250    63.0090    17.1450    15.9090    15.3490    25.2800     2.4410   -17.7220 
  170.2500    64.7800    17.2920    16.0740    15.3550    25.2500     2.4730   -17.6240 
  170.3750    65.7710    17.5570    16.3070    15.1000    25.1950     2.5020   -17.5470 
  170.5000    66.0990    18.0010    16.6610    15.4710    25.1900     2.5230   -17.5170 
  170.6250    64.8590    18.5890    17.1290    16.4830    25.1240     2.5320   -17.4820 
  170.7500    63.0410    19.1010    17.5580    16.9210    25.0720     2.5380   -17.4810 
  170.8750    60.8740    19.3030    17.7550    17.0400    25.0490     2.5450   -17.4790 
  171.0000    59.7160    19.0240    17.5520    16.8330    25.0470     2.5530   -17.5170 
  171.1250    61.5720    18.2270    16.8800    16.0630    25.0440     2.5580   -17.5940 
  171.2500    62.7120    17.2520    16.0090    15.2640    25.0420     2.5570   -17.6710 
  171.3750    61.3850    16.4190    15.2150    14.1740    25.0410     2.5540   -17.7530 
  171.5000    60.4250    16.0050    14.7490    13.3340    25.0410     2.5520   -17.8540 
  171.6250    64.7760    16.2840    14.8730    13.5750    25.0410     2.5510   -17.9580 
  171.7500    71.4670    17.1590    15.5460    13.8890    25.0410     2.5480   -18.0700 
  171.8750    77.2990    18.4780    16.6880    14.6770    25.0410     2.5420   -18.2120 
  172.0000    81.6740    19.9500    18.0940    16.4700    25.0410     2.5340   -18.3310 
  172.1250    82.1210    21.0810    19.3610    19.7470    25.0400     2.5300   -18.4810 
  172.2500    78.9160    21.5590    20.1260    19.7080    25.0350     2.5280   -18.6850 
  172.3750    76.3480    21.3200    20.2480    19.2910    25.0020     2.5250   -18.9100 
  172.5000    79.1160    20.5470    19.8240    19.6170    24.8960     2.5180   -19.1060 
  172.6250    85.5100    19.5890    19.1200    20.0330    24.5950     2.5050   -19.3380 
  172.7500    88.3970    18.8190    18.4980    18.5690    24.1720     2.4950   -19.5860 
  172.8750    87.4690    18.3970    18.1290    16.8920    23.7050     2.4890   -19.8010 
  173.0000    84.2600    18.3400    18.0660    15.6860    23.3080     2.4870   -20.0210 
  173.1250    80.6170    18.5800    18.2970    15.8250    23.1710     2.4830   -20.2570 
  173.2500    78.0880    18.8920    18.6610    16.6200    23.1320     2.4740   -20.4450 
  173.3750    76.4630    19.1080    19.0150    17.0550    23.1320     2.4610   -20.6460 
  173.5000    75.7810    19.1130    19.2260    16.9740    23.1330     2.4480   -20.8690 
  173.6250    77.3000    18.8580    19.1870    16.1700    23.1340     2.4410   -21.0660 
