~V
VERS. 2.00: Ver 2.00
~W
STRT.M 60.0000:
STOP.M 264.0000:
STEP.M 0.1250:
NULL. -999.2500:
UWI. DF32130:
~C
DEPT.M :
SP.MV :
GR.API :
CALI.CM :
RXO.OHMM :
RI. :
RML.OHMM :
DEN.GM/CC :
~A
# ...
  116.2500   -22.2070    75.6790    23.2650     9.2130     8.9530    10.3880     2.2450 
  116.3750   -22.3400    75.2630    23.2650     9.1840     8.9860    10.4550     2.2560 
  116.5000   -22.3990    73.4280    23.2650     9.0870     9.0940    10.5140     2.2740 
  116.6250   -22.3210    70.7420    23.2220     8.9930     9.1950    10.5780     2.2850 
  116.7500   -22.1370    68.6510    23.1160     8.9040     9.2580    10.6990     2.2740 
  116.8750   -21.8290    67.5210    22.9940     8.7950     9.2570    10.8360     2.2440 
  117.0000   -21.4420    66.4280    22.9010     8.5990     9.1270    10.8190     2.2120 
  117.1250   -20.9280    66.2250    22.8760     8.2640     8.6990    10.2740     2.1910 
  117.2500   -20.3220    68.3470    22.8700     7.7830     7.9080     9.1210     2.1780 
  117.3750   -19.6710    71.9250    22.8700     7.0230     6.8060     7.5910     2.1750 
  117.5000   -19.0690    74.8080    22.8700     5.8690     5.6050     6.1240     2.1910 
  117.6250   -18.6050    79.1020    22.8670     4.8240     4.6200     5.1340     2.2360 
  117.7500   -18.2510    86.3680    22.8660     4.3380     3.9970     4.6420     2.2890 
  117.8750   -18.0480    91.0310    22.8640     4.6130     3.8050     4.6450     2.3240 
  118.0000   -17.9580    88.4850    22.8580     5.5050     4.0820     5.1520     2.3240 
  118.1250   -17.9970    80.2240    22.8160     6.6190     4.9670     6.3200     2.3080 
  118.2500   -18.1080    73.6770    22.6910     7.9750     6.3970     8.1020     2.3190 
  118.3750   -18.2370    71.2530    22.4760    10.0590     8.2540    10.3400     2.3760 
  118.5000   -18.3490    71.2850    22.2380    12.4310    10.1700    12.4850     2.4700 
  118.6250   -18.4250    72.1390    22.1080    13.3470    11.3960    13.4900     2.5550 
  118.7500   -18.4650    72.1930    22.0640    12.8230    11.6330    13.2440     2.5840 
  118.8750   -18.4770    72.3570    22.0580    11.4470    11.0460    12.2430     2.5360 
  119.0000   -18.4400    75.0770    22.0660     9.7270    10.0700    11.1020     2.4300 
  119.1250   -18.3120    78.1950    22.1600     8.5960     9.1260    10.2510     2.3170 
  119.2500   -18.1630    79.1600    22.3540     8.0810     8.3670     9.6990     2.2420 
  119.3750   -18.0220    78.4490    22.5320     7.9080     7.7480     9.3130     2.2130 
  119.5000   -17.8610    77.9340    22.6060     7.7690     7.1730     8.9050     2.2160 
  119.6250   -17.6340    79.5900    22.6110     7.3100     6.5650     8.2940     2.2350 
  119.7500   -17.4190    83.5110    22.6740     6.5150     5.9360     7.5350     2.2620 
  119.8750   -17.2360    89.7240    22.8600     5.7460     5.3730     6.8160     2.2970 
  120.0000   -17.1530    95.7280    23.0990     5.3970     4.9890     6.3510     2.3650 
  120.1250   -17.2170    94.3330    23.1540     5.6000     4.9120     6.3510     2.3440 
  120.2500   -17.3910    89.0240    22.9960     6.0310     5.0970     6.7460     2.3070 
  120.3750   -17.6380    84.0580    22.6970     6.7180     5.4880     7.4170     2.2710 
  120.5000   -17.9460    80.9770    22.4630     7.4520     5.9830     8.1520     2.2540 
  120.6250   -18.3260    80.0170    22.4080     7.7730     6.4240     8.6490     2.2640 
  120.7500   -18.7210    80.5760    22.4610     7.6460     6.6980     8.8130     2.2840 
  120.8750   -19.0560    82.1560    22.5720     7.3940     6.7940     8.7280     2.2880 
  121.0000   -19.3130    82.1890    22.6460     7.3060     6.7720     8.5720     2.2740 
  121.1250   -19.4970    80.7830    22.6670     7.4790     6.7130     8.5200     2.2570 
  121.2500   -19.6300    80.7640    22.6670     7.6260     6.6780     8.6090     2.2430 
  121.3750   -19.7080    80.9520    22.6670     7.6340     6.6860     8.7910     2.2350 
  121.5000   -19.7580    82.1690    22.6670     7.5610     6.7160     8.9420     2.2320 
  121.6250   -19.8020    84.5020    22.6670     7.4640     6.7200     8.9430     2.2320 
  121.7500   -19.8010    84.6810    22.6670     7.3800     6.6900     8.8560     2.2300 
  121.8750   -19.7810    82.2690    22.6670     7.3660     6.6510     8.7980     2.2260 
  122.0000   -19.7400    79.4410    22.6670     7.4040     6.6170     8.8540     2.2260 
  122.1250   -19.6850    79.2610    22.6670     7.4210     6.5790     8.9860     2.2310 
  122.2500   -19.5930    80.0930    22.6670     7.4250     6.5340     9.0420     2.2330 
  122.3750   -19.5060    80.2260    22.6670     7.4010     6.4840     8.9120     2.2300 
  122.5000   -19.3980    79.2460    22.6670     7.3370     6.4240     8.6010     2.2280 
  122.6250   -19.2210    79.0900    22.6670     7.2230     6.3750     8.2780     2.2310 
  122.7500   -19.0290    81.2460    22.6670     7.1380     6.3850     8.1190     2.2350 
  122.8750   -18.8320    83.0260    22.6670     7.1100     6.4940     8.1810     2.2360 
  123.0000   -18.6230    81.7530    22.6670     7.2180     6.7130     8.4180     2.2340 
  123.1250   -18.3670    79.9260    22.6670     7.4980     7.0260     8.7190     2.2260 
  123.2500   -18.0770    78.4580    22.6670     7.7850     7.3230     8.9380     2.2140 
  123.3750   -17.7370    76.1960    22.6730     7.9100     7.4560     8.9410     2.2110 
  123.5000   -17.3670    73.8840    22.7050     7.8840     7.2910     8.6280     2.2300 
  123.6250   -17.0130    74.8810    22.7980     7.6760     6.7680     7.9640     2.2670 
  123.7500   -16.6930    79.7830    22.9450     7.1780     6.0800     7.1520     2.3110 
  123.8750   -16.3950    87.3050    23.1340     6.2820     5.3830     6.3680     2.3400 
  124.0000   -16.1470    92.4950    23.2970     5.2840     4.7960     5.7570     2.3460 
  124.1250   -15.9520    90.0650    23.3600     4.8820     4.4110     5.4290     2.3330 
  124.2500   -15.8200    85.0690    23.3720     4.8790     4.1890     5.2980     2.3170 
  124.3750   -15.7900    84.1620    23.3620     5.0190     4.0770     5.2520     2.3120 
  124.5000   -15.8660    86.9080    23.3370     5.0780     4.0220     5.1860     2.3100 
  124.6250   -16.0320    86.8810    23.2750     5.0720     4.0070     5.0930     2.3050 
  124.7500   -16.2600    86.0080    23.2180     5.0140     4.0690     5.0950     2.2980 
  124.8750   -16.5280    88.1410    23.1710     4.9750     4.2930     5.3290     2.2880 
  125.0000   -16.8240    92.9320    23.1080     5.3610     4.7530     5.8850     2.2680 
  125.1250   -17.1730    91.9990    22.9050     6.7690     5.4930     6.8050     2.2390 
  125.2500   -17.5070    84.9440    22.5890     8.2340     6.3360     7.8650     2.2160 
  125.3750   -17.8000    77.9150    22.3550     8.8130     7.0680     8.7570     2.2150 
  125.5000   -18.0500    75.9210    22.2720     8.3620     7.4780     9.1680     2.2260 
  125.6250   -18.2300    77.3390    22.2730     7.4910     7.4100     8.9150     2.2440 
  125.7500   -18.3180    78.0960    22.2720     6.8150     7.0520     8.3270     2.2670 
  125.8750   -18.3610    80.0980    22.2930     6.4760     6.5880     7.6900     2.2950 
  126.0000   -18.3850    83.4010    22.4330     6.3550     6.1660     7.1770     2.3180 
  126.1250   -18.4270    84.4320    22.8130     6.3530     5.8640     6.8650     2.3270 
  126.2500   -18.5710    83.5970    23.2380     6.3830     5.6580     6.7060     2.3230 
  126.3750   -18.8080    83.5940    23.4430     6.4060     5.5440     6.6790     2.3120 
  126.5000   -19.1360    85.7070    23.4740     6.4380     5.5370     6.7880     2.2930 
  126.6250   -19.5920    89.0720    23.4140     6.5050     5.6870     7.0850     2.2670 
  126.7500   -20.1240    90.6050    23.2300     6.7580     5.9890     7.5580     2.2440 
  126.8750   -20.6880    87.9560    22.8790     7.2980     6.4420     8.1970     2.2390 
  127.0000   -21.2340    81.1420    22.4290     8.1540     7.0250     8.9600     2.2490 
  127.1250   -21.7400    74.4930    22.1050     9.3090     7.7030     9.7670     2.2570 
  127.2500   -22.1800    70.4150    22.0030    10.5610     8.3870    10.5260     2.2550 
  127.3750   -22.5410    67.3320    22.0890    11.6850     9.0540    11.2560     2.2500 
