~V
VERS. 2.00: Ver 2.00
~W
STRT.M 62.0000:
STOP.M 272.0000:
STEP.M 0.1250:
NULL. -999.2500:
UWI. DF32144:
~C
DEPT.M :
SP.MV :
DEN.GM/CC :
GR.API :
RML.OHMM :
RI. :
RXO.OHMM :
CALI.CM :
~A
# ...
  253.2500    -8.5630     2.3220    78.5510     9.8350     9.4240     9.1080    25.3570 
  253.3750    -8.7920     2.3230    79.8190    10.2110     9.8090    10.2890    25.4600 
  253.5000    -8.8540     2.3220    80.7470    10.3480     9.9640    11.5810    25.3950 
  253.6250    -8.7530     2.3180    81.9200    10.0960     9.7390    11.5380    25.2580 
  253.7500    -8.4950     2.3130    81.9670     9.5790     9.2490    10.4980    25.2700 
  253.8750    -8.1160     2.3090    80.4050     8.9810     8.6600     8.9430    25.5100 
  254.0000    -7.7160     2.3050    77.9090     8.5020     8.1480     8.0870    25.6910 
  254.1250    -7.3320     2.3010    75.8610     8.3070     7.8600     7.9780    25.7230 
  254.2500    -6.9950     2.2960    75.3020     8.3520     7.7830     8.1000    25.7110 
  254.3750    -6.7590     2.2920    74.8340     8.5670     7.8760     8.2690    25.6780 
  254.5000    -6.6320     2.2900    74.2140     8.8820     8.0880     8.5550    25.6330 
  254.6250    -6.6200     2.2940    74.9660     9.2840     8.3990     8.9240    25.6140 
  254.7500    -6.7510     2.3030    76.3740     9.7950     8.8000     9.2400    25.6070 
  254.8750    -7.0390     2.3170    78.1810    10.4470     9.3110     9.6610    25.5940 
  255.0000    -7.4050     2.3340    80.5110    11.2360     9.9350    10.6520    25.6030 
  255.1250    -7.7330     2.3510    83.4450    12.1100    10.6450    13.0690    25.6910 
  255.2500    -8.0010     2.3650    84.9420    12.9490    11.3490    15.8520    25.8360 
  255.3750    -8.2380     2.3740    84.7550    13.6730    11.9810    17.0520    25.8640 
  255.5000    -8.4750     2.3790    84.8070    14.2680    12.5230    16.9250    25.8090 
  255.6250    -8.5990     2.3830    85.6920    14.8240    13.0420    16.8480    25.8320 
  255.7500    -8.6140     2.3880    85.7230    15.4630    13.6330    15.7510    26.0370 
  255.8750    -8.5170     2.3960    83.9600    16.1730    14.2920    16.0830    26.2610 
  256.0000    -8.2920     2.4040    82.1750    16.7840    14.8860    17.4310    26.3320 
  256.1250    -8.0300     2.4050    81.0290    16.9300    15.1190    19.5990    26.2650 
  256.2500    -7.7530     2.3970    80.4050    16.4830    14.8730    20.7460    26.1380 
  256.3750    -7.4210     2.3790    80.5600    15.5170    14.1960    19.3200    25.9820 
  256.5000    -7.1000     2.3550    81.2310    14.2990    13.2840    16.0390    25.7920 
  256.6250    -6.9050     2.3340    82.3650    13.1720    12.3930    13.5320    25.7180 
  256.7500    -6.6900     2.3200    85.3290    12.3070    11.6680    12.4920    25.7780 
  256.8750    -6.4850     2.3100    88.7400    11.7110    11.1330    11.4110    25.8710 
  257.0000    -6.4090     2.3040    88.3840    11.3140    10.7520    10.4780    25.7330 
  257.1250    -6.3780     2.2980    83.2630    11.0350    10.4850    10.4420    25.5680 
  257.2500    -6.3380     2.2940    78.9000    10.7830    10.2610    10.6910    25.4780 
  257.3750    -6.3220     2.2950    77.1220    10.5240    10.0410    11.0400    25.4590 
  257.5000    -6.2390     2.3020    77.8030    10.2370     9.7920    11.1100    25.4660 
  257.6250    -6.0280     2.3160    80.6340     9.8970     9.4810    10.8300    25.4610 
  257.7500    -5.8290     2.3310    81.1290     9.5160     9.1220    10.4920    25.4320 
  257.8750    -5.6310     2.3410    77.1920     9.1330     8.7620     9.3530    25.3900 
  258.0000    -5.3790     2.3440    70.5740     8.8210     8.4700     8.1500    25.3650 
  258.1250    -5.1650     2.3420    66.7830     8.7080     8.3540     8.0230    25.3610 
  258.2500    -5.0200     2.3380    66.3150     8.8500     8.4510     8.5830    25.3610 
  258.3750    -4.8790     2.3380    68.3350     9.2820     8.7880     9.3940    25.3610 
  258.5000    -4.7760     2.3410    71.4060     9.9750     9.3550     9.7500    25.3610 
  258.6250    -4.7620     2.3450    73.8280    10.8280    10.0920    10.0550    25.3610 
  258.7500    -4.7520     2.3470    76.8920    11.6360    10.8260    10.9690    25.3660 
  258.8750    -4.7420     2.3440    81.6370    12.2440    11.4130    12.5860    25.3800 
  259.0000    -4.7690     2.3380    85.3240    12.5410    11.7460    13.5500    25.4030 
  259.1250    -4.7440     2.3340    86.0250    12.4450    11.7360    12.6790    25.3750 
  259.2500    -4.6300     2.3350    85.8880    12.0930    11.4730    11.8580    25.3600 
  259.3750    -4.4810     2.3440    86.1130    11.5890    11.0340    11.8330    25.3260 
  259.5000    -4.3360     2.3560    85.6030    11.0080    10.4860    12.3140    25.2210 
  259.6250    -4.1410     2.3680    84.5040    10.3810     9.8750    10.9810    24.9710 
  259.7500    -3.8480     2.3760    83.3020     9.7480     9.2690     9.1810    24.7650 
  259.8750    -3.4730     2.3830    81.0240     9.1710     8.7350     8.3950    24.6640 
  260.0000    -3.0420     2.3880    78.3320     8.7590     8.3550     8.2910    24.6290 
  260.1250    -2.5660     2.3910    77.7360     8.6710     8.2480     8.1350    24.6230 
  260.2500    -2.0290     2.3930    78.3010     8.8790     8.3920     8.0140    24.6870 
  260.3750    -1.4660     2.3950    77.8820     9.2800     8.7180     8.2190    24.8320 
  260.5000    -0.9280     2.3960    76.4900     9.6890     9.0860     9.0290    24.9700 
  260.6250    -0.4600     2.4000    75.9700     9.8380     9.2730     9.8840    24.9290 
  260.7500    -0.0840     2.4030    75.4220     9.6240     9.1670    10.0960    24.6360 
  260.8750     0.2100     2.4050    73.4610     9.0960     8.7830     8.8310    24.1110 
  261.0000     0.4480     2.4050    71.0280     8.4390     8.2500     7.8300    23.6990 
  261.1250     0.5660     2.4030    71.1060     7.8980     7.7550     7.5520    23.4700 
  261.2500     0.5530     2.3990    71.9060     7.5790     7.4120     7.5180    23.2850 
  261.3750     0.4980     2.3950    72.4250     7.4790     7.2510     7.4330    23.1610 
  261.5000     0.4880     2.3900    74.0120     7.5290     7.2430     7.3940    23.1170 
  261.6250     0.5030     2.3850    77.2990     7.6420     7.3310     7.3840    23.0870 
  261.7500     0.4780     2.3800    78.9220     7.7440     7.4290     7.5580    22.9990 
  261.8750     0.4880     2.3780    78.9380     7.8170     7.5010     7.8720    22.8720 
  262.0000     0.5420     2.3800    78.9380     7.8520     7.5310     8.0350    22.7950 
  262.1250     0.6250     2.3850    78.9380     7.8330     7.5180     7.8130    22.7720 
  262.2500     0.7350     2.3920    78.9380     7.7770     7.4910     7.5570    22.7350 
  262.3750     0.8150     2.3990    78.9380     7.7110     7.4690     7.4390    22.6320 
  262.5000     0.8270     2.4080    78.9380     7.6710     7.4670     7.4040    22.4910 
  262.6250     0.8560     2.4190    78.9380     7.6980     7.4920     7.3600    22.4290 
  262.7500     0.9590     2.4300    78.9380     7.7780     7.5310     7.4110    22.4080 
  262.8750     1.0010     2.4390    78.9380     7.8770     7.5680     7.6260    22.3910 
  263.0000     1.0230     2.4430    78.9380     7.9550     7.5920     7.8900    22.3560 
  263.1250     1.1200     2.4390    78.9380     7.9800     7.5910     8.2400    22.3370 
  263.2500     1.2670     2.4330    78.9380     7.9700     7.5750     8.5550    22.3310 
  263.3750     1.3990     2.4270    78.9380     7.9510     7.5510     8.2820    22.3280 
  263.5000     1.5180     2.4260    78.9380     7.9490     7.5260     7.7900    22.3090 
  263.6250     1.6010     2.4280    78.9380     7.9840     7.5070     7.6540    22.2680 
  263.7500     1.6090     2.4290    78.9380     8.0460     7.4970     7.6890    22.1780 
  263.8750     1.6740     2.4260    78.9380     8.1180     7.4960     7.7000    22.0510 
  264.0000     1.7960     2.4230    78.9380     8.1790     7.5040     7.7060    21.9530 
  264.1250     1.8790     2.4230    78.9380     8.2160     7.5140     7.5660    21.8680 
  264.2500     1.8770     2.4280    78.9380     8.2390     7.5200     7.3620    21.7310 
  264.3750     1.9110     2.4340    78.9380     8.2600     7.5290     7.2010    21.5590 
