~V
VERS. 2.00: Ver 2.00
~W
STRT.M 62.0000:
STOP.M 243.0000:
STEP.M 0.1250:
NULL. -999.2500:
UWI. DF32072:
~C
DEPT.M :
SP.MV :
GR.API :
CALI.CM :
RXO.OHMM :
RI. :
RML.OHMM :
DEN.GM/CC :
~A
# ...
   73.2500   -31.9270    78.7520    23.8960    11.4590     7.3630     9.3580     2.2070 
   73.3750   -31.4900    81.9490    23.9770     8.7300     6.6060     8.3590     2.2220 
   73.5000   -31.1100    85.8000    24.0410     6.4790     5.9570     7.5610     2.2320 
   73.6250   -30.9350    89.0110    24.1170     5.9530     5.5990     7.1910     2.2310 
   73.7500   -30.8480    90.0130    24.0670     5.9850     5.5150     7.1730     2.2220 
   73.8750   -30.7880    89.7320    23.8490     6.2700     5.6520     7.4010     2.2130 
   74.0000   -30.8360    88.8130    23.6180     6.5930     5.9140     7.7320     2.2120 
   74.1250   -30.8960    85.8870    23.4800     6.6700     6.1960     8.0320     2.2160 
   74.2500   -30.8170    82.3320    23.3880     6.5850     6.4360     8.2660     2.2230 
   74.3750   -30.6460    80.1670    23.3570     6.6740     6.6090     8.4440     2.2420 
   74.5000   -30.4080    79.1260    23.5990     6.8700     6.6780     8.5350     2.2800 
   74.6250   -30.0490    78.6920    23.6500     6.8700     6.5610     8.4290     2.3230 
   74.7500   -29.6980    80.3500    23.5300     6.6550     6.2500     8.0840     2.3430 
   74.8750   -29.3560    83.3310    23.5850     6.2230     5.7710     7.5140     2.3370 
   75.0000   -28.9870    87.5660    23.9970     5.5990     5.1990     6.8160     2.3200 
   75.1250   -28.6470    95.9180    24.2350     5.0160     4.6570     6.1470     2.3110 
   75.2500   -28.4350   105.1660    24.4180     4.7750     4.2550     5.6560     2.3050 
   75.3750   -28.3600   108.8780    24.4570     4.7780     4.0940     5.4840     2.3010 
   75.5000   -28.4140   107.8030    24.4180     4.9150     4.2610     5.7510     2.3040 
   75.6250   -28.6060   106.6120    24.3650     5.3340     4.8710     6.6170     2.3330 
   75.7500   -28.8530   103.1930    24.2380     6.6720     5.8260     7.9510     2.3740 
   75.8750   -29.1690    93.9440    23.9780     9.7120     6.9560     9.5090     2.3960 
   76.0000   -29.5300    84.0210    23.6240    13.1220     7.9180    10.7620     2.3690 
   76.1250   -29.8690    80.8950    23.4300    13.0570     8.1920    10.9000     2.2970 
   76.2500   -30.1710    79.9890    23.2480    10.5290     7.8050    10.0900     2.2320 
   76.3750   -30.3900    78.4010    23.0460     8.3750     7.0580     8.9100     2.2010 
   76.5000   -30.5310    80.9540    23.0690     7.2920     6.3120     7.9080     2.1950 
   76.6250   -30.5810    87.3080    23.3670     7.0540     5.8550     7.4230     2.1900 
   76.7500   -30.5700    89.0350    23.7640     7.1750     5.6990     7.3750     2.1810 
   76.8750   -30.5090    84.1800    23.9440     7.3000     5.7650     7.6230     2.1750 
   77.0000   -30.4390    79.5260    24.0180     7.2760     5.9160     7.9680     2.1740 
   77.1250   -30.2900    80.6360    24.1220     7.3050     5.9780     8.1370     2.1730 
   77.2500   -30.1220    83.5590    24.0510     7.3630     5.8610     7.9920     2.1780 
   77.3750   -29.9820    86.6330    23.7070     7.1640     5.5630     7.5560     2.2000 
   77.5000   -29.8960    91.1540    23.4250     6.4400     5.1670     6.9970     2.2360 
   77.6250   -29.8580    99.1110    23.3310     5.5440     4.8290     6.5670     2.2590 
   77.7500   -29.8960   107.8190    23.3320     5.1410     4.6620     6.4060     2.2540 
   77.8750   -29.9850   110.8470    23.3790     5.2680     4.7140     6.5610     2.2270 
   78.0000   -30.1100   103.9560    23.5390     5.6940     4.9800     6.9980     2.1980 
   78.1250   -30.3190    91.8140    23.9340     6.2920     5.4120     7.6030     2.1810 
   78.2500   -30.5550    84.9200    24.1130     6.9840     5.8550     8.1440     2.1760 
   78.3750   -30.7460    82.5940    24.1630     7.5100     6.1790     8.4640     2.1840 
   78.5000   -30.8780    81.4350    24.1920     7.5000     6.3110     8.5080     2.2030 
   78.6250   -30.8980    80.9880    24.2920     7.0900     6.2490     8.3530     2.2190 
   78.7500   -30.8260    83.0070    24.4580     6.6980     6.1130     8.1890     2.2200 
   78.8750   -30.6540    85.5520    24.6100     6.5790     5.9690     8.0880     2.2070 
   79.0000   -30.3600    86.3710    24.6990     6.5650     5.8240     8.0140     2.1940 
   79.1250   -30.0410    84.7510    24.6050     6.6440     5.6280     7.8420     2.1990 
   79.2500   -29.6830    82.3060    24.3640     6.6340     5.3540     7.5030     2.2250 
   79.3750   -29.3930    84.8840    24.2020     6.2360     5.0420     7.0510     2.2550 
   79.5000   -29.1340    94.5790    24.3300     5.4980     4.7930     6.6560     2.2740 
   79.6250   -28.9950   104.8360    24.5010     5.0310     4.7670     6.5890     2.2850 
   79.7500   -28.8710   108.7490    24.4270     5.2470     5.0070     6.9370     2.3070 
   79.8750   -28.7890   105.0680    24.2130     5.8830     5.4960     7.6810     2.3460 
   80.0000   -28.7550    96.1580    24.0160     6.5180     6.1210     8.6400     2.3820 
   80.1250   -28.7200    85.7900    23.9040     6.8820     6.6050     9.3380     2.3830 
   80.2500   -28.7100    79.4130    23.9490     6.8700     6.7120     9.3740     2.3540 
   80.3750   -28.6260    79.1810    24.1130     6.6100     6.4130     8.7500     2.3190 
   80.5000   -28.5360    83.9960    24.2270     6.0940     5.9040     7.8550     2.3010 
   80.6250   -28.3770    90.2920    24.2210     5.6420     5.4820     7.2050     2.3090 
   80.7500   -28.2220    93.7730    24.3580     5.6380     5.2980     6.9850     2.3270 
   80.8750   -28.0940    92.4880    24.3950     6.6930     5.3650     7.1810     2.3420 
   81.0000   -27.9930    89.3150    24.3810    10.3190     5.6080     7.6490     2.3450 
   81.1250   -27.9000    89.0490    24.3780    15.4270     5.8590     8.0910     2.3300 
   81.2500   -27.7980    90.3070    24.3740    17.0390     5.9340     8.2010     2.3020 
   81.3750   -27.7320    90.0460    24.3580    13.7250     5.7590     7.8850     2.2710 
   81.5000   -27.6330    88.6730    24.3360     9.2260     5.3980     7.2980     2.2480 
   81.6250   -27.5570    87.8240    24.3760     6.7580     5.0180     6.7550     2.2480 
   81.7500   -27.5230    87.2540    24.5330     5.5970     4.7630     6.4440     2.2790 
   81.8750   -27.5220    88.1940    24.7850     5.0340     4.6680     6.3780     2.3330 
   82.0000   -27.5420    92.3680    25.0090     4.7620     4.7040     6.4840     2.3860 
   82.1250   -27.5700    95.0910    24.9640     4.6670     4.8330     6.6910     2.4050 
   82.2500   -27.6480    94.5740    24.8420     4.7470     5.0060     6.9380     2.3950 
   82.3750   -27.8180    92.7630    24.8710     4.9620     5.2090     7.2250     2.3790 
   82.5000   -28.0360    91.9520    24.8520     5.5870     5.4380     7.5720     2.3770 
   82.6250   -28.3340    92.6200    24.8160     6.9970     5.6690     7.9620     2.3890 
   82.7500   -28.6910    93.0430    24.7470     8.2630     5.8430     8.2800     2.3830 
   82.8750   -29.0480    92.0650    24.6650     8.1330     5.8970     8.3990     2.3440 
   83.0000   -29.4260    88.2270    24.4470     6.8940     5.8070     8.2620     2.2800 
   83.1250   -29.8730    84.4790    23.9140     6.4110     5.6220     7.9530     2.2260 
   83.2500   -30.3260    83.3450    23.3640     6.3320     5.4940     7.7330     2.1970 
   83.3750   -30.7470    85.2960    23.0530     6.3170     5.5500     7.8040     2.1860 
   83.5000   -31.1470    88.5590    22.9280     6.5230     5.8530     8.2550     2.1850 
   83.6250   -31.5190    88.3260    22.8470     7.8590     6.4030     9.0770     2.1900 
   83.7500   -31.8150    83.6630    22.8780    10.3300     7.0550    10.0360     2.1970 
   83.8750   -32.1010    78.3250    23.1150    12.1580     7.6870    10.9320     2.2000 
   84.0000   -32.3850    74.3200    23.6220    11.6740     8.1970    11.5910     2.2000 
   84.1250   -32.6210    73.2970    23.8400     9.7470     8.4910    11.8950     2.2160 
   84.2500   -32.8420    78.0830    23.7220     8.5340     8.6120    11.9560     2.2490 
   84.3750   -32.9990    86.4760    23.2770     8.1610     8.6050    11.8580     2.2790 
