~V
VERS. 2.00: Ver 2.00
~W
STRT.M 61.0000:
STOP.M 257.0000:
STEP.M 0.1250:
NULL. -999.2500:
UWI. DF32086:
~C
DEPT.M :
SP.MV :
GR.API :
CALI.CM :
RXO.OHMM :
RI. :
RML.OHMM :
DEN.GM/CC :
~A
   61.0000     4.8980    63.9460    24.0030     4.2410     0.2230     0.4670     2.3420 
   61.1250     0.1310    71.8120    23.6100     6.9370     0.7100     1.6580     2.3110 
   61.2500    -4.8830    77.9540    23.3390     8.6670     1.5810     3.6850     2.2460 
   61.3750   -10.0160    80.7540    23.1780     9.2510     2.8030     6.1150     2.1840 
   61.5000   -15.0730    81.3430    23.0390     9.2280     4.1040     7.5510     2.1570 
   61.6250   -19.6940    82.5140    22.7420     9.0850     5.1100     7.4470     2.1610 
   61.7500   -23.7020    82.2340    22.4660     8.9900     5.8030     7.1080     2.1690 
   61.8750   -26.9130    80.4360    22.6220     9.1000     6.2810     7.0070     2.1750 
   62.0000   -29.3780    78.6010    23.0470     9.3870     6.6070     7.1430     2.1760 
   62.1250   -31.3140    75.9590    23.3380     9.6200     6.7960     7.3780     2.1630 
   62.2500   -32.8550    73.0060    23.3540     9.6470     6.8900     7.5680     2.1340 
   62.3750   -33.9970    71.1360    22.9920     9.4840     6.9110     7.6670     2.0970 
   62.5000   -34.8430    71.5980    22.5870     9.2400     6.8890     7.6970     2.0680 
   62.6250   -35.4060    74.1600    22.2170     8.9900     6.8500     7.7130     2.0600 
   62.7500   -35.7770    78.4160    21.9050     8.8300     6.8190     7.7590     2.0670 
   62.8750   -35.9820    85.2230    21.6710     8.7250     6.8030     7.8380     2.0820 
   63.0000   -36.0940    91.7910    21.4770     8.6400     6.7950     7.9180     2.0980 
   63.1250   -36.0680    94.3090    21.4920     8.5050     6.7500     7.9230     2.1110 
   63.2500   -35.9320    92.4060    21.6500     8.1360     6.6330     7.8200     2.1200 
   63.3750   -35.8100    88.4040    21.9420     7.5370     6.4470     7.6280     2.1340 
   63.5000   -35.7150    85.0740    22.5360     7.1140     6.2320     7.4200     2.1630 
   63.6250   -35.6190    83.4870    23.3290     7.3500     6.0720     7.3080     2.2000 
   63.7500   -35.5930    82.9400    23.8810     7.9500     6.0340     7.3610     2.2200 
   63.8750   -35.7780    82.3980    23.7210     8.4940     6.1360     7.5890     2.2170 
   64.0000   -36.1420    81.2570    23.4080     8.8680     6.3370     7.9230     2.1970 
   64.1250   -36.5880    79.6280    23.7070     9.1880     6.5360     8.2010     2.1700 
   64.2500   -37.0850    77.8310    24.5310     9.5220     6.6420     8.2960     2.1490 
   64.3750   -37.5870    76.7500    25.4620     9.5410     6.6210     8.1850     2.1380 
   64.5000   -38.0520    77.9540    25.8580     9.0850     6.5000     7.9480     2.1310 
   64.6250   -38.4420    81.5260    25.4490     8.5570     6.3640     7.7310     2.1230 
   64.7500   -38.7530    82.6180    24.9340     8.4760     6.2890     7.6360     2.1220 
   64.8750   -38.9640    79.9310    24.9590     8.7400     6.3100     7.6920     2.1320 
   65.0000   -38.9970    76.4770    25.2330     9.0780     6.4360     7.8810     2.1430 
   65.1250   -38.8780    76.8040    25.4430     9.4020     6.6620     8.1670     2.1410 
   65.2500   -38.7260    79.1990    25.3720     9.6690     6.9210     8.4620     2.1370 
   65.3750   -38.4640    78.8730    24.9450     9.7900     7.1310     8.6780     2.1400 
   65.5000   -38.0460    75.2010    24.4450     9.7500     7.2020     8.7190     2.1440 
   65.6250   -37.4590    72.8340    24.0600     9.5740     7.0340     8.4690     2.1460 
   65.7500   -36.6950    75.8090    24.0810     9.1290     6.6620     7.9730     2.1510 
   65.8750   -35.7480    82.9780    24.3630     8.1860     6.1520     7.3180     2.1670 
   66.0000   -34.6720    90.8560    24.6440     6.9440     5.6040     6.6430     2.1980 
   66.1250   -33.5610    96.9070    24.8090     5.9370     5.1460     6.1130     2.2410 
   66.2500   -32.4950    99.7970    24.8720     5.5040     4.8370     5.7870     2.2790 
   66.3750   -31.5430   100.1430    24.8930     5.4450     4.6960     5.6690     2.3000 
   66.5000   -30.7070   100.0610    24.9300     5.6210     4.6990     5.7140     2.3000 
   66.6250   -30.0710   101.0590    24.9890     5.7460     4.8000     5.8520     2.2940 
   66.7500   -29.6890   101.7990    24.8900     5.8060     4.9330     6.0080     2.2980 
   66.8750   -29.5120   101.3550    24.5390     5.8530     5.0990     6.1940     2.3070 
   67.0000   -29.4750    99.8880    24.2360     5.9250     5.3270     6.4570     2.3030 
   67.1250   -29.6600    98.7220    24.0760     6.1210     5.6320     6.8210     2.2790 
   67.2500   -29.9240    97.1650    24.0730     6.8560     5.9380     7.1940     2.2500 
   67.3750   -30.1780    94.5870    24.3020     8.3160     6.1510     7.4520     2.2280 
   67.5000   -30.4390    93.6890    24.8010     9.3700     6.1790     7.4790     2.2240 
   67.6250   -30.6050    96.0000    24.9100     8.7810     5.9610     7.2100     2.2450 
   67.7500   -30.6370    98.6560    24.6520     7.4340     5.6010     6.7870     2.2770 
   67.8750   -30.5690    99.1510    24.3140     6.8270     5.2110     6.3440     2.3040 
   68.0000   -30.5430   100.4390    24.2170     6.7020     4.8960     6.0130     2.3200 
   68.1250   -30.4740   104.0790    24.2180     6.3740     4.7990     5.9850     2.3250 
   68.2500   -30.4300   104.4530    24.1820     5.8360     4.9780     6.3550     2.3220 
   68.3750   -30.4820    99.7850    24.1750     5.7750     5.4780     7.1980     2.3130 
   68.5000   -30.6890    94.3120    24.1830     6.4610     6.2940     8.5200     2.3120 
   68.6250   -31.1400    92.0380    24.1360     8.1440     7.3540    10.2090     2.3410 
   68.7500   -31.8150    90.0450    24.0120     9.9450     8.3700    11.7730     2.3870 
   68.8750   -32.6490    86.5800    23.9280    10.6120     9.0370    12.6970     2.4200 
   69.0000   -33.5870    82.5730    24.0030     9.9960     9.1700    12.7150     2.4160 
   69.1250   -34.5670    79.6530    24.4280     9.3220     8.8050    12.0090     2.3800 
   69.2500   -35.4990    81.5470    24.6030     9.1110     8.2920    11.2070     2.3420 
   69.3750   -36.3990    87.8320    24.5280     9.0560     7.8410    10.6180     2.3080 
   69.5000   -37.2160    90.7640    24.1820     9.0640     7.5650    10.3660     2.2700 
   69.6250   -37.8870    83.8650    23.7070     9.2280     7.5170    10.4540     2.2200 
   69.7500   -38.4210    77.9400    23.4240     9.4530     7.6150    10.7140     2.1780 
   69.8750   -38.8450    80.6460    23.3240     9.6800     7.7870    11.0400     2.1670 
   70.0000   -39.0950    85.8790    23.3020    10.4710     7.9550    11.3310     2.1900 
   70.1250   -39.2780    83.5730    23.2680    12.6320     8.0190    11.4250     2.2210 
   70.2500   -39.4640    79.7640    23.1650    14.6000     7.9490    11.2780     2.2310 
   70.3750   -39.6130    79.4990    23.0150    14.1110     7.7970    10.9850     2.2180 
   70.5000   -39.6990    81.1470    22.8320    11.6570     7.6640    10.7380     2.1960 
   70.6250   -39.8190    80.8470    22.8750    10.9790     7.6750    10.7580     2.1740 
   70.7500   -39.9120    80.0800    23.3050    13.2860     7.8530    11.0580     2.1590 
   70.8750   -39.9920    80.9520    23.7360    19.3700     8.1500    11.5440     2.1590 
   71.0000   -40.0400    83.4750    24.0340    23.2980     8.4430    12.0090     2.1800 
   71.1250   -39.9780    85.4880    24.0650    19.3450     8.5320    12.1530     2.2120 
   71.2500   -39.8390    84.6090    23.7100    12.8440     8.3680    11.9330     2.2270 
   71.3750   -39.6270    82.3610    23.4110     9.7750     8.0220    11.4520     2.2120 
   71.5000   -39.4300    82.8650    23.2840     9.0890     7.6250    10.8800     2.1810 
   71.6250   -39.1390    86.6250    23.0790     8.9420     7.3160    10.3720     2.1630 
   71.7500   -38.8690    89.4540    22.7630     8.6160     7.1090     9.9830     2.1670 
   71.8750   -38.6400    90.0280    22.4190     8.1650     6.9520     9.7120     2.1820 
   72.0000   -38.4910    89.0390    22.3570     7.7700     6.7960     9.5500     2.1900 
   72.1250   -38.4890    88.5400    22.5820     7.7460     6.6490     9.5320     2.1900 
