~V
VERS. 2.00: Ver 2.00
~W
STRT.M 60.0000:
STOP.M 266.0000:
STEP.M 0.1250:
NULL. -999.2500:
UWI. DF32129:
~C
DEPT.M :
SP.MV :
GR.API :
CALI.CM :
RXO.OHMM :
RI. :
RML.OHMM :
DEN.GM/CC :
~A
# ...
   82.5000   -33.7940    91.8490    24.7560     6.4340     4.5670     7.6820     2.2160 
   82.6250   -34.0650    88.1320    24.6870     6.4170     4.6150     7.7450     2.2070 
   82.7500   -34.2510    87.5260    24.6520     6.3510     4.7220     7.9240     2.2070 
   82.8750   -34.3870    89.6610    24.6060     6.4880     4.9050     8.2580     2.2010 
   83.0000   -34.5140    91.0640    24.4980     6.8850     5.1510     8.7150     2.1850 
   83.1250   -34.4820    88.3350    24.4370     7.1740     5.4010     9.1600     2.1650 
   83.2500   -34.3890    84.1120    24.4110     7.2490     5.5770     9.4200     2.1530 
   83.3750   -34.3140    80.9850    24.4090     7.2170     5.6330     9.4030     2.1530 
   83.5000   -34.2090    79.7930    24.4130     7.1390     5.5680     9.1410     2.1610 
   83.6250   -34.0400    80.5240    24.4240     7.0430     5.4430     8.7950     2.1650 
   83.7500   -33.8520    81.6610    24.4280     6.9800     5.3580     8.5630     2.1640 
   83.8750   -33.5820    82.6170    24.4290     6.9710     5.3630     8.5340     2.1600 
   84.0000   -33.1780    82.7930    24.4290     7.0520     5.4740     8.7270     2.1550 
   84.1250   -32.7480    82.9130    24.4260     7.2900     5.6980     9.1410     2.1470 
   84.2500   -32.3570    84.4340    24.4220     7.5810     5.9750     9.6440     2.1370 
   84.3750   -31.9080    86.6280    24.4240     7.7350     6.2150    10.0530     2.1270 
   84.5000   -31.4460    86.1360    24.4360     7.6340     6.2910    10.1250     2.1170 
   84.6250   -31.0200    81.8480    24.4680     7.3600     6.0620     9.6470     2.1130 
   84.7500   -30.5820    78.8770    24.5220     7.0650     5.6020     8.8310     2.1250 
   84.8750   -30.2450    82.3020    24.6480     6.5500     5.0330     7.9200     2.1620 
   85.0000   -30.0850    90.9120    24.9760     5.9120     4.4950     7.1270     2.2250 
   85.1250   -30.0380   100.4960    25.4040     5.6750     4.1160     6.6220     2.2910 
   85.2500   -30.0390   106.8860    25.6300     5.9120     3.9020     6.3900     2.3290 
   85.3750   -30.1370   107.8560    25.7740     6.0480     3.8410     6.4020     2.3330 
   85.5000   -30.3660   103.6510    25.7210     5.9580     3.9120     6.6130     2.3210 
   85.6250   -30.6800    96.9410    25.3930     6.2420     4.1160     6.9940     2.3110 
   85.7500   -31.0580    91.8550    24.9510     6.6490     4.4200     7.4650     2.2980 
   85.8750   -31.4550    88.5140    24.6640     6.9650     4.8050     7.9940     2.2770 
   86.0000   -31.7380    85.1080    24.5050     7.1590     5.2420     8.5490     2.2510 
   86.1250   -31.9580    81.4510    24.4340     7.2460     5.6630     9.0460     2.2300 
   86.2500   -32.1040    79.5770    24.4290     7.3560     5.9910     9.3850     2.2150 
   86.3750   -32.1820    81.1430    24.4370     7.4620     6.1780     9.5080     2.2060 
   86.5000   -32.1650    83.8880    24.4600     7.5020     6.2070     9.4230     2.2080 
   86.6250   -31.9790    84.3560    24.5280     7.4200     6.0890     9.1740     2.2230 
   86.7500   -31.7750    84.8930    24.6150     7.1890     5.8980     8.8410     2.2400 
   86.8750   -31.5290    88.1690    24.7400     6.8490     5.6780     8.4510     2.2560 
   87.0000   -31.2870    92.4070    24.8890     6.5620     5.4560     8.0470     2.2680 
   87.1250   -31.0280    91.2020    25.0010     6.6010     5.2520     7.7050     2.2680 
   87.2500   -30.7780    86.0080    25.0580     6.5900     5.0680     7.4700     2.2620 
   87.3750   -30.5370    83.2930    25.1330     6.3120     4.9090     7.3600     2.2620 
   87.5000   -30.3540    87.4770    25.2830     5.9690     4.7880     7.3710     2.2760 
   87.6250   -30.2360    94.3860    25.4190     5.9010     4.7170     7.4770     2.2920 
   87.7500   -30.1430    96.2590    25.3880     5.9700     4.6740     7.5880     2.2980 
   87.8750   -30.1000    92.0580    25.1340     6.0420     4.6170     7.5930     2.2940 
   88.0000   -30.1400    85.6250    24.8940     6.0910     4.4940     7.3690     2.2850 
   88.1250   -30.2740    82.8480    24.6890     6.1240     4.2940     6.8730     2.2820 
   88.2500   -30.5090    84.7940    24.6780     6.0740     4.1340     6.4070     2.2870 
   88.3750   -30.8080    88.5140    24.7590     5.9840     4.1910     6.2990     2.3020 
   88.5000   -31.1470    90.7130    24.8650     6.1470     4.6560     6.8330     2.3270 
   88.6250   -31.4930    87.5390    25.1430     7.8520     5.8410     8.4560     2.3720 
   88.7500   -31.8600    80.5890    25.2770    13.1220     7.7680    11.2750     2.4350 
   88.8750   -32.2230    73.3950    25.2580    21.5770    10.2330    15.0740     2.4980 
   89.0000   -32.5620    70.7910    25.0350    26.4430    12.4220    18.3500     2.5250 
   89.1250   -32.8410    73.4610    24.9220    21.2150    12.8530    18.2250     2.4760 
   89.2500   -33.0470    74.0810    24.7130    14.0760    11.7430    15.7420     2.3790 
   89.3750   -33.2300    71.9200    24.4260    10.2740    10.0810    13.0370     2.2800 
   89.5000   -33.3610    70.5470    24.2520     9.1690     8.6550    11.1730     2.2170 
   89.6250   -33.4870    71.4820    24.2220     9.0020     7.8200    10.3520     2.1950 
   89.7500   -33.5900    72.1210    24.2230     8.9240     7.4240    10.1310     2.1900 
   89.8750   -33.6740    71.4010    24.2320     8.8690     7.3130    10.2260     2.1890 
   90.0000   -33.7330    71.1430    24.2660     8.8610     7.3350    10.4040     2.1900 
   90.1250   -33.8030    71.5620    24.3300     8.9290     7.3840    10.5350     2.1920 
   90.2500   -33.8580    72.2900    24.3910     9.2880     7.4210    10.6220     2.1900 
   90.3750   -33.8990    73.5780    24.4200    10.3330     7.4440    10.6760     2.1850 
   90.5000   -33.9460    74.3630    24.4280    11.9950     7.4530    10.6840     2.1790 
   90.6250   -34.0170    75.2700    24.4290    12.2030     7.4430    10.6310     2.1770 
   90.7500   -34.0440    76.3950    24.4290    10.8700     7.4210    10.5570     2.1800 
   90.8750   -34.0350    76.2610    24.4290     9.4150     7.3940    10.5130     2.1840 
   91.0000   -34.0010    73.7470    24.4290     8.8950     7.3640    10.5210     2.1830 
   91.1250   -34.0090    71.1170    24.4320     8.9910     7.3150    10.5410     2.1740 
   91.2500   -34.0230    71.0140    24.4500     9.1200     7.2220    10.4820     2.1680 
   91.3750   -34.0270    72.5860    24.4910     9.0950     7.0660    10.2790     2.1730 
   91.5000   -34.0010    73.4330    24.5210     8.8090     6.8410     9.9260     2.1840 
   91.6250   -33.9370    72.9580    24.5100     8.2720     6.5590     9.4880     2.1950 
   91.7500   -33.8730    72.3040    24.4480     7.8180     6.2850     9.1000     2.2030 
   91.8750   -33.8140    73.6720    24.3470     7.5830     6.0780     8.8610     2.2050 
   92.0000   -33.7570    76.7640    24.2420     7.5030     5.9890     8.8280     2.1990 
   92.1250   -33.6280    79.2830    24.1530     7.5330     6.0640     9.0260     2.1880 
   92.2500   -33.4680    79.8340    24.1160     7.8070     6.2410     9.3310     2.1860 
   92.3750   -33.2890    79.7430    24.1070     8.4790     6.4440     9.6150     2.1950 
   92.5000   -33.1470    80.2480    24.0950     9.3980     6.5860     9.7580     2.2050 
   92.6250   -33.0860    80.4910    24.0620     9.8770     6.5960     9.6960     2.2020 
   92.7500   -33.0560    81.3720    24.0230     9.6210     6.5160     9.5420     2.1920 
   92.8750   -33.0160    81.6430    24.0060     9.0560     6.4130     9.4070     2.1880 
   93.0000   -32.9770    79.0270    24.0040     8.7190     6.3500     9.3690     2.1950 
   93.1250   -32.9800    76.2110    24.0040     8.6840     6.3600     9.4520     2.2010 
   93.2500   -32.9980    76.4910    24.0040     8.6790     6.4040     9.5740     2.2010 
   93.3750   -33.0350    78.3590    24.0040     8.5880     6.4360     9.6510     2.1980 
   93.5000   -33.0380    78.6270    24.0040     8.4560     6.4260     9.6270     2.1960 
   93.6250   -32.9540    77.9200    24.0040     8.3980     6.3810     9.5130     2.1890 
