~V
VERS. 2.00: Ver 2.00
~W
STRT.M 60.0000:
STOP.M 270.0000:
STEP.M 0.1250:
NULL. -999.2500:
UWI. DF32131:
~C
DEPT.M :
DEN.GM/CC :
GR.API :
CALI.CM :
RXO.OHMM :
RI. :
RML.OHMM :
SP.MV :
~A
# ...
  217.5000     2.2170    67.5810    23.8600    45.3310    53.8370    61.0660   -14.9780 
  217.6250     2.2120    64.5710    23.7000    47.2150    56.0010    63.7480   -14.7400 
  217.7500     2.2080    61.7470    23.8490    52.7840    59.7410    68.4800   -14.5080 
  217.8750     2.2060    60.8940    24.2800    61.6170    64.3770    74.5030   -14.2900 
  218.0000     2.2030    62.1680    24.7140    72.7500    68.6610    80.1870   -14.0570 
  218.1250     2.1960    66.6430    24.8840    79.8340    71.0450    83.3190   -13.9060 
  218.2500     2.1910    70.6380    24.9140    77.6730    71.6240    84.0220   -13.7910 
  218.3750     2.1990    70.0880    24.9120    67.4750    71.2460    83.6160   -13.7270 
  218.5000     2.2300    65.9550    24.9070    58.2830    71.0180    83.6890   -13.6840 
  218.6250     2.2810    64.5760    24.7830    63.0280    71.7630    85.2970   -13.6040 
  218.7500     2.3220    65.7930    24.3730    75.2740    72.9750    87.5530   -13.5900 
  218.8750     2.3350    66.3890    23.7240    81.5720    73.6750    88.9380   -13.5760 
  219.0000     2.3170    66.2360    23.3080    77.1540    73.0100    88.2130   -13.6050 
  219.1250     2.2840    69.0460    23.2030    69.6730    70.8670    85.2890   -13.5870 
  219.2500     2.2560    72.9650    23.2130    64.2970    68.6730    82.1820   -13.5410 
  219.3750     2.2380    75.3060    23.2630    62.6680    67.8830    80.6530   -13.4630 
  219.5000     2.2250    75.9690    23.3990    67.0180    69.7670    82.0300   -13.3670 
  219.6250     2.2150    76.9150    23.7210    81.3570    75.9130    87.9360   -13.2280 
  219.7500     2.2210    77.3760    24.1670    94.2160    86.2410    98.5010   -12.9980 
  219.8750     2.2600    75.8080    24.5650   103.6030   100.7430   114.3390   -12.7220 
  220.0000     2.3400    71.8970    24.6570   118.7840   117.6860   134.2850   -12.3970 
  220.1250     2.4580    66.1540    24.4310   172.1690   127.7230   143.9890   -11.9990 
  220.2500     2.5730    61.1450    24.2160   230.8000   118.0380   123.0700   -11.5590 
  220.3750     2.6520    59.6340    24.1230   229.0250    87.7550    80.9650   -11.0490 
  220.5000     2.6800    62.6160    24.0700   148.1140    53.0750    45.0980   -10.4820 
  220.6250     2.6580    66.6760    23.9690    59.4380    29.7700    25.5500    -9.9150 
  220.7500     2.6110    67.6540    23.7970    18.4590    16.5650    14.8640    -9.4050 
  220.8750     2.5480    68.2460    23.5790     7.2520     9.7390     9.1170    -8.9420 
  221.0000     2.4780    71.1100    23.4010     4.6690     6.3200     6.0920    -8.5180 
  221.1250     2.4150    72.5250    23.3390     4.1950     4.7470     4.7620    -8.1750 
  221.2500     2.3690    69.2840    23.3280     4.0450     3.9920     4.2440    -7.9290 
  221.3750     2.3400    65.3530    23.3280     3.9880     3.7660     4.2270    -7.7610 
  221.5000     2.3270    68.4050    23.3280     4.0260     3.8890     4.5150    -7.6580 
  221.6250     2.3220    81.3130    23.3840     4.4110     4.2630     5.0210    -7.5800 
  221.7500     2.3220    95.3510    23.5730     5.2100     4.7550     5.6450    -7.4380 
  221.8750     2.3310   105.5070    23.8760     5.9750     5.2750     6.2840    -7.2870 
  222.0000     2.3530   110.2680    24.0710     6.2620     5.7130     6.7760    -7.1640 
  222.1250     2.3810   110.7710    24.1090     6.1790     5.9330     6.9420    -7.0320 
  222.2500     2.4040   108.5000    24.0830     6.1040     5.9680     6.8680    -6.9290 
  222.3750     2.4160   104.4390    24.0600     6.0680     5.9090     6.7180    -6.8840 
  222.5000     2.4110   102.8020    24.0520     6.0480     5.8670     6.6620    -6.9260 
  222.6250     2.3890   104.4840    24.0570     6.1370     5.9220     6.8210    -6.9650 
  222.7500     2.3690   105.6370    24.0620     6.4630     6.0480     7.1250    -7.0540 
  222.8750     2.3660   103.4960    24.0650     6.9320     6.1900     7.4730    -7.1470 
  223.0000     2.3770   100.2270    24.0970     7.2330     6.2930     7.7510    -7.2060 
  223.1250     2.3840   100.5950    24.2410     7.1910     6.2970     7.8540    -7.2750 
  223.2500     2.3820   103.1250    24.5060     7.0650     6.2150     7.8090    -7.2790 
  223.3750     2.3800   104.1060    24.7250     7.0290     6.0840     7.6720    -7.2150 
  223.5000     2.3890   103.5830    24.8140     7.0180     5.9500     7.5210    -7.0840 
  223.6250     2.3970   105.7030    24.8040     6.9650     5.8790     7.4460    -6.9500 
  223.7500     2.3950   107.9520    24.7680     6.9080     5.9020     7.4870    -6.8130 
  223.8750     2.3890   105.7250    24.7330     6.9510     6.0270     7.6460    -6.6480 
  224.0000     2.3910   102.4080    24.7090     7.2010     6.2410     7.8990    -6.4740 
  224.1250     2.4040   104.6090    24.6580     7.5100     6.4990     8.1810    -6.2680 
  224.2500     2.4170   108.2420    24.5610     7.6650     6.7100     8.3870    -6.0780 
  224.3750     2.4240   108.5650    24.4650     7.5260     6.8070     8.4450    -5.9150 
  224.5000     2.4230   105.2320    24.4180     7.2400     6.7760     8.3440    -5.7610 
  224.6250     2.4140   102.4030    24.4090     6.9480     6.6500     8.1410    -5.6460 
  224.7500     2.4060   100.3330    24.4090     6.7320     6.5140     7.9520    -5.5870 
  224.8750     2.4070    98.1490    24.4090     6.6300     6.4070     7.8440    -5.6000 
  225.0000     2.4160    97.0890    24.4090     6.7890     6.3330     7.8370    -5.6990 
  225.1250     2.4220    98.5460    24.4090     6.9140     6.2790     7.9110    -5.8250 
  225.2500     2.4160   101.8430    24.4090     6.9520     6.2340     8.0130    -5.9950 
  225.3750     2.3990   104.4250    24.4090     7.0490     6.2190     8.1300    -6.2070 
  225.5000     2.3770   106.1270    24.4090     7.3080     6.2800     8.2880    -6.4620 
  225.6250     2.3610   108.3210    24.4090     7.7530     6.5480     8.6540    -6.7790 
  225.7500     2.3550   107.6250    24.4090     8.5080     7.1860     9.4790    -7.1300 
  225.8750     2.3530   103.9120    24.4090     9.9160     8.4660    11.1440    -7.5630 
  226.0000     2.3470    99.4420    24.4090    12.0920    10.8490    14.1990    -8.0170 
  226.1250     2.3330    93.9410    24.4090    16.9580    15.8790    20.1450    -8.5970 
  226.2500     2.3210    85.7270    24.4040    32.8310    25.4280    30.5710    -9.1730 
  226.3750     2.3170    76.2080    24.3930    72.5300    42.2480    48.5360    -9.7590 
  226.5000     2.3200    69.3640    24.3830   122.5460    68.2110    78.0100   -10.3350 
  226.6250     2.3270    65.9770    24.4390   148.9560   100.5210   120.9470   -10.8840 
  226.7500     2.3330    63.8460    24.5010   153.3490   127.5050   160.9730   -11.4060 
  226.8750     2.3290    61.4950    24.5470   155.0640   141.8790   181.5750   -11.8450 
  227.0000     2.3070    58.9930    24.5960   151.8670   145.1100   183.9930   -12.2200 
  227.1250     2.2720    59.6630    24.6200   141.1360   143.6350   180.8690   -12.4720 
  227.2500     2.2370    63.1540    24.6340   134.9350   143.1070   180.2300   -12.7110 
  227.3750     2.2130    66.8870    24.6620   136.9140   144.9160   183.0460   -12.9050 
  227.5000     2.2070    68.6580    24.7280   144.9100   149.1450   188.8810   -13.0990 
  227.6250     2.2120    68.4720    24.7730   151.8010   154.8440   196.2240   -13.2650 
  227.7500     2.2150    66.0280    24.8020   157.7620   159.7300   201.9820   -13.4220 
  227.8750     2.2150    63.0870    24.8100   165.8990   162.1470   203.8530   -13.5330 
  228.0000     2.2150    63.4250    24.8110   170.0230   161.4270   201.1010   -13.5990 
  228.1250     2.2150    64.6800    24.8110   158.9440   157.5420   194.0540   -13.6890 
  228.2500     2.2140    62.9690    24.8110   142.7430   151.4960   184.2690   -13.6940 
  228.3750     2.2150    60.7870    24.8110   137.1620   143.3300   171.8790   -13.6800 
  228.5000     2.2260    60.8120    24.8110   143.9540   133.2150   157.4040   -13.5990 
  228.6250     2.2480    61.9510    24.8110   140.6660   122.2270   142.7060   -13.5200 
