~V
VERS. 2.00: Ver 2.00
~W
STRT.M 61.0000:
STOP.M 238.0000:
STEP.M 0.1250:
NULL. -999.2500:
UWI. DF32044:
~C
DEPT.M :
DEN.GM/CC :
SP.MV :
GR.API :
RML.OHMM :
RI. :
RXO.OHMM :
CALI.CM :
~A
   61.0000     2.5470    34.6560    39.2140     0.2820     0.1210     0.6280    24.9350 
   61.1250     2.6440    32.0040    41.5050    -0.2420     0.0560     0.6830    24.7640 
   61.2500     2.6590    27.6150    44.5760    -0.3290     0.0540     0.8880    24.3490 
   61.3750     2.5980    21.7120    49.1920    -0.0650     0.1460     1.6420    23.7050 
   61.5000     2.4970    14.6730    59.8550     0.5940     0.3970     3.0220    23.2170 
   61.6250     2.3990     6.8130    74.9240     1.7550     0.9170     4.4550    23.0310 
   61.7500     2.3290    -1.3670    85.6540     3.2220     1.6920     5.4940    23.0220 
   61.8750     2.2900    -9.4190    88.4280     4.7040     2.6620     6.1440    23.0070 
   62.0000     2.2740   -16.7660    87.3850     5.8190     3.6860     6.6410    22.9120 
   62.1250     2.2660   -22.5690    86.3000     6.2620     4.5670     7.0370    22.6890 
   62.2500     2.2570   -26.7460    83.6480     6.3630     5.2280     7.1800    22.3740 
   62.3750     2.2500   -29.4250    81.2170     6.4100     5.6730     7.3590    22.0640 
   62.5000     2.2490   -30.9750    81.9200     6.5050     5.9290     7.6520    21.8190 
   62.6250     2.2590   -31.6800    85.0100     6.6370     5.9960     7.4460    21.5430 
   62.7500     2.2740   -31.9790    88.1120     6.7740     5.9440     6.6790    21.4120 
   62.8750     2.2870   -32.0270    92.9490     6.9040     5.8240     5.8530    21.6050 
   63.0000     2.2940   -31.9880   100.1660     7.0050     5.6810     5.2630    22.2350 
   63.1250     2.2940   -31.8430   104.0330     7.0210     5.5480     4.9500    23.0450 
   63.2500     2.2940   -31.5730   103.0920     6.9360     5.4360     4.8890    23.5750 
   63.3750     2.2990   -31.2620    99.7120     6.7730     5.3500     4.9910    23.7090 
   63.5000     2.3100   -31.0550    96.2510     6.6150     5.3040     5.0550    23.5860 
   63.6250     2.3290   -30.9980    96.0990     6.6070     5.3380     4.9810    23.3210 
   63.7500     2.3440   -31.0360    99.6920     6.7980     5.4600     4.8840    22.8320 
   63.8750     2.3490   -31.2350   102.4180     7.1340     5.6600     4.9100    22.1090 
   64.0000     2.3400   -31.6040    99.8880     7.4710     5.9020     5.2020    21.4830 
   64.1250     2.3210   -32.0880    93.7910     7.6400     6.1430     5.7970    21.3370 
   64.2500     2.3040   -32.6320    89.7260     7.6980     6.3770     6.3140    21.7130 
   64.3750     2.2980   -33.2410    88.3170     7.8510     6.6510     6.3370    22.3280 
   64.5000     2.3060   -33.9420    87.5470     8.3290     7.0270     6.0720    21.6770 
   64.6250     2.3190   -34.7750    83.9150     9.2680     7.5620     6.6010    21.1480 
   64.7500     2.3190   -35.7420    76.1510    10.4280     8.1870     8.3680    20.7600 
   64.8750     2.2980   -36.7640    67.5010    11.5240     8.7880    10.4150    20.6990 
   65.0000     2.2590   -37.7260    62.6480    12.3010     9.2350    10.5850    20.9230 
   65.1250     2.2150   -38.6020    62.6590    12.6250     9.3970     8.9130    21.2690 
   65.2500     2.1830   -39.4190    62.5160    12.7110     9.3400     7.7400    21.4990 
   65.3750     2.1660   -40.1690    61.4290    12.7260     9.1560     7.3730    21.6240 
   65.5000     2.1650   -40.8450    62.0750    12.7330     8.9450     7.3410    21.6850 
   65.6250     2.1720   -41.3800    64.0240    12.6660     8.7690     7.3400    21.7450 
   65.7500     2.1780   -41.7570    62.7100    12.4490     8.6250     7.4010    21.8330 
   65.8750     2.1780   -42.0700    59.5310    12.0880     8.5040     7.5290    21.9950 
   66.0000     2.1700   -42.4190    59.1300    11.7250     8.4270     7.7130    22.2320 
   66.1250     2.1580   -42.7090    59.4770    11.6860     8.4960     7.9460    22.4720 
   66.2500     2.1530   -42.9380    57.5970    12.1520     8.7850     8.2060    22.5620 
   66.3750     2.1670   -43.1810    56.4830    13.1310     9.3230     8.5590    22.5170 
   66.5000     2.2070   -43.4450    57.6740    14.4060    10.0400     9.0470    22.2510 
   66.6250     2.2580   -43.7470    57.6990    15.4820    10.7280    10.2240    21.6920 
   66.7500     2.2940   -44.0520    56.5370    15.9050    11.1410    12.6790    21.2690 
   66.8750     2.2970   -44.2560    57.3770    15.5000    11.1370    14.8580    21.2020 
   67.0000     2.2700   -44.3480    59.5270    14.4780    10.7280    13.3230    21.2640 
   67.1250     2.2330   -44.5910    61.3090    13.3510    10.0900    10.0660    21.3510 
   67.2500     2.2080   -44.9340    62.8750    12.5160     9.5090     8.7230    21.6050 
   67.3750     2.1980   -45.1900    63.4860    12.0300     9.1260     8.9710    22.1110 
   67.5000     2.1950   -45.3800    61.8450    11.8020     8.9770     9.6150    22.6470 
   67.6250     2.1880   -45.5890    59.7570    11.7010     9.0350     9.8780    23.1090 
   67.7500     2.1750   -45.7090    58.7900    11.6100     9.1700     9.8480    23.6700 
   67.8750     2.1620   -45.8160    59.1650    11.5080     9.3080     9.7040    24.1480 
   68.0000     2.1540   -46.0080    61.0310    11.3890     9.4010     9.6590    24.2540 
   68.1250     2.1590   -46.0140    63.3580    11.2070     9.4020     9.7860    23.9560 
   68.2500     2.1710   -45.8490    62.9320    10.9220     9.3120     9.9060    23.6010 
   68.3750     2.1820   -45.7030    59.3080    10.5400     9.1370     9.9150    23.4500 
   68.5000     2.1840   -45.5570    56.3130    10.1270     8.9070     9.8090    23.4480 
   68.6250     2.1740   -45.2030    59.2460     9.7970     8.6720     9.5350    23.4610 
   68.7500     2.1610   -44.7200    65.3940     9.5990     8.4780     9.0180    23.3780 
   68.8750     2.1480   -44.1150    68.5570     9.5200     8.3410     8.4420    23.1920 
   69.0000     2.1380   -43.3590    65.4200     9.4980     8.2430     8.1130    22.9890 
   69.1250     2.1350   -42.5840    60.4780     9.4430     8.1400     8.1190    22.8850 
   69.2500     2.1420   -41.7240    60.1710     9.3020     7.9910     8.2130    22.8510 
   69.3750     2.1610   -40.6430    64.5470     9.0680     7.7870     8.2430    22.7860 
   69.5000     2.1900   -39.4410    72.4390     8.7660     7.5390     8.0570    22.6760 
   69.6250     2.2230   -38.3440    81.6920     8.4430     7.2830     7.6010    22.7700 
   69.7500     2.2500   -37.3660    87.6750     8.1590     7.0570     7.1990    23.0130 
   69.8750     2.2660   -36.4100    89.8490     7.9490     6.8850     7.0340    23.2960 
   70.0000     2.2730   -35.4740    90.1630     7.8410     6.7770     6.9800    23.6400 
   70.1250     2.2730   -34.7210    89.0500     7.8680     6.7530     6.8340    24.0040 
   70.2500     2.2700   -34.1770    85.8680     7.9980     6.7940     6.6580    24.2480 
   70.3750     2.2630   -33.8650    82.7550     8.1810     6.8770     6.5460    24.3570 
   70.5000     2.2530   -33.7580    81.9400     8.3350     6.9550     6.5610    24.3480 
   70.6250     2.2470   -33.7770    80.5930     8.3220     6.9420     6.7670    24.2840 
   70.7500     2.2510   -33.8290    77.5950     8.0870     6.7940     7.0570    24.2090 
   70.8750     2.2670   -34.0410    77.3540     7.6540     6.5110     7.2150    24.1600 
   71.0000     2.2950   -34.4910    83.2940     7.1600     6.1620     7.0200    24.1430 
   71.1250     2.3290   -35.0190    91.3790     6.8660     5.9060     6.4730    24.1370 
   71.2500     2.3660   -35.6540    94.8630     6.9330     5.8680     5.9250    24.0810 
   71.3750     2.4020   -36.5260    92.5580     7.4030     6.1060     5.6780    23.9180 
   71.5000     2.4300   -37.5730    85.9260     8.1760     6.5900     6.0120    23.6870 
   71.6250     2.4330   -38.6080    77.2360     9.0070     7.1890     7.0090    23.5300 
   71.7500     2.4020   -39.6360    70.3960     9.5930     7.6880     8.1360    23.4270 
   71.8750     2.3440   -40.6370    67.3390     9.7770     7.9530     8.9470    23.3550 
   72.0000     2.2770   -41.5400    66.2690     9.5910     7.9560     9.3800    23.3250 
   72.1250     2.2240   -42.2670    64.7830     9.2270     7.7690     9.4820    23.3730 
