~V
VERS. 2.00: Ver 2.00
~W
STRT.M 62.0000:
STOP.M 272.0000:
STEP.M 0.1250:
NULL. -999.2500:
UWI. DF32144:
~C
DEPT.M :
SP.MV :
DEN.GM/CC :
GR.API :
RML.OHMM :
RI. :
RXO.OHMM :
CALI.CM :
~A
# ...
  185.7500   -20.0060     2.1710    57.5390    77.0420    68.7840    15.5830    34.0750 
  185.8750   -19.4810     2.0840    59.9460    68.1130    60.6480    12.2140    36.7030 
  186.0000   -19.0230     2.0310    63.5530    62.0930    55.0490    10.6490    37.8500 
  186.1250   -18.6460     2.0120    65.4100    58.7580    51.8290     9.6750    38.0180 
  186.2500   -18.3050     2.0090    63.3980    57.4800    50.4500     9.1210    38.0180 
  186.3750   -17.9700     2.0080    59.7090    58.2300    50.8860     9.0470    38.0180 
  186.5000   -17.7430     1.9990    58.1890    60.9660    53.0820     9.5470    38.0180 
  186.6250   -17.5450     1.9690    58.8240    65.8470    57.1330     9.8280    38.0180 
  186.7500   -17.2920     1.9240    59.1600    72.4000    62.6050     9.4600    37.9700 
  186.8750   -17.0550     1.8830    58.1090    80.5240    69.4400     8.9680    37.6940 
  187.0000   -16.8830     1.8780    56.1930    89.6610    77.2550     9.3210    36.7970 
  187.1250   -16.6910     1.9410    55.5130    96.4740    83.5500    10.3160    34.9070 
  187.2500   -16.4490     2.0480    56.3620    95.6430    84.1090    11.9640    32.0340 
  187.3750   -16.1970     2.1480    57.6800    84.3340    76.1420    15.9510    28.8780 
  187.5000   -15.8330     2.1890    56.9100    66.2420    61.5650    22.6340    27.0810 
  187.6250   -15.4140     2.1410    55.0940    49.3880    46.5430    23.1820    28.5420 
  187.7500   -15.0600     2.0570    56.2640    37.8530    35.5800    12.8990    32.2890 
  187.8750   -14.6960     1.9950    59.6480    31.8000    29.3750     7.3180    35.2840 
  188.0000   -14.2950     1.9990    61.5230    30.1980    27.1660     5.9570    34.8010 
  188.1250   -13.9000     2.0900    59.0620    32.1980    28.2650     7.7930    31.2120 
  188.2500   -13.5190     2.2260    55.9040    35.9640    31.1610    12.0080    29.1280 
  188.3750   -13.1580     2.3680    55.0400    40.4000    34.9420    15.5570    28.7510 
  188.5000   -12.8920     2.4720    55.3700    44.7880    38.8720    15.7830    29.3700 
  188.6250   -12.6970     2.5050    56.3540    48.7050    42.4470    16.5240    30.0230 
  188.7500   -12.5300     2.4950    58.4820    51.1160    44.7300    17.8180    30.3980 
  188.8750   -12.4180     2.4750    60.1120    49.6630    43.5480    16.3150    30.2970 
  189.0000   -12.2080     2.4640    59.8660    42.4290    37.0610    14.1760    29.2770 
  189.1250   -11.8680     2.4400    57.1470    30.8160    26.7860    16.8280    27.7000 
  189.2500   -11.4760     2.3720    52.3350    20.0490    17.5590    20.4360    27.2220 
  189.3750   -10.9120     2.2610    47.1130    12.4190    11.1560    13.8700    28.8940 
  189.5000   -10.2230     2.1400    45.4250     8.0200     7.4050     7.4650    33.0320 
  189.6250    -9.5400     2.0540    49.8720     6.2270     5.6740     5.6340    36.4810 
  189.7500    -8.8100     2.0020    54.8560     5.7170     4.9500     5.2780    37.8100 
  189.8750    -8.0650     1.9520    56.4120     5.9300     4.8770     5.1970    38.0180 
  190.0000    -7.4790     1.8800    53.7280     6.4460     5.2020     5.1620    38.0180 
  190.1250    -7.0640     1.7860    48.2930     6.9150     5.6790     5.8160    38.0180 
  190.2500    -6.7440     1.7000    43.8830     7.2120     6.0950     6.1350    38.0180 
  190.3750    -6.6220     1.6420    41.9190     7.3980     6.4180     5.8370    38.0180 
  190.5000    -6.6050     1.6180    40.7230     7.5670     6.6770     5.6570    38.0180 
  190.6250    -6.5200     1.6340    39.6490     7.7300     6.8760     5.9150    38.0180 
  190.7500    -6.4190     1.6850    39.8680     7.8410     6.9960     6.5200    38.0180 
  190.8750    -6.3380     1.7690    43.3430     7.8760     7.0140     6.7690    38.0180 
  191.0000    -6.1920     1.8770    48.4230     7.8460     6.9290     5.8450    38.0180 
  191.1250    -6.0560     1.9820    49.7960     7.7870     6.7570     5.5390    38.0180 
  191.2500    -5.9890     2.0530    47.9850     7.7420     6.5580     6.1360    38.0180 
  191.3750    -5.9410     2.0700    45.4710     7.7330     6.3740     7.0030    38.0180 
  191.5000    -5.9550     2.0310    43.5730     7.7700     6.2380     6.7080    38.0180 
  191.6250    -6.0510     1.9520    42.2960     7.8860     6.1870     5.6500    38.0180 
  191.7500    -6.2630     1.8740    43.3610     8.1070     6.2290     5.2070    38.0180 
  191.8750    -6.5760     1.8260    47.5440     8.4620     6.3650     5.2220    38.0180 
  192.0000    -6.9780     1.8160    53.7690     8.9340     6.5780     5.2640    38.0180 
  192.1250    -7.4330     1.8340    60.4830     9.4300     6.8120     5.5460    38.0180 
  192.2500    -7.9330     1.8550    65.4600     9.7980     6.9750     5.9870    38.0180 
  192.3750    -8.4280     1.8720    68.4660     9.9290     7.0010     5.8340    38.0180 
  192.5000    -8.8610     1.8870    69.5700     9.8050     6.8740     5.0920    38.0180 
  192.6250    -9.3300     1.9080    67.6140     9.5230     6.6430     4.5920    38.0180 
  192.7500    -9.7890     1.9370    62.3560     9.2940     6.4350     4.5980    38.0180 
  192.8750   -10.1720     1.9700    58.7230     9.2770     6.3430     4.8230    37.6460 
  193.0000   -10.5350     2.0070    60.6080     9.6150     6.4490     5.0040    36.4090 
  193.1250   -10.9650     2.0540    63.9390    10.4940     6.8630     5.0210    33.8080 
  193.2500   -11.4190     2.1100    65.9000    11.7740     7.5240     5.5530    31.8950 
  193.3750   -11.8780     2.1640    68.3090    13.1600     8.2980     6.7520    29.9010 
  193.5000   -12.3770     2.1920    71.9960    14.1830     8.9300     7.9990    27.4940 
  193.6250   -12.8480     2.1660    73.1750    14.2500     9.0660     8.8220    25.9430 
  193.7500   -13.2720     2.1050    70.6770    13.5560     8.7580     7.4980    26.6400 
  193.8750   -13.7050     2.0430    66.4950    12.6810     8.2900     5.5390    29.1860 
  194.0000   -14.1250     2.0220    63.7120    12.3120     8.0230     4.7450    30.7780 
  194.1250   -14.5220     2.0740    66.1380    13.0320     8.3060     5.5740    29.8030 
  194.2500   -14.9040     2.1700    70.7120    14.6160     9.1150     7.9570    28.2960 
  194.3750   -15.2820     2.2750    75.3500    16.6340    10.2970    10.6900    27.4060 
  194.5000   -15.6430     2.3590    79.1520    18.4620    11.5390    12.6600    27.1270 
  194.6250   -15.9310     2.4010    81.5890    19.4190    12.3920    13.5570    27.1570 
  194.7500   -16.1000     2.4220    82.7550    19.6150    12.7670    13.7770    27.3210 
  194.8750   -16.1480     2.4380    83.0890    19.4180    12.7950    12.9910    27.4940 
  195.0000   -16.1240     2.4610    84.2410    19.1200    12.6240    12.0670    27.5490 
  195.1250   -15.8680     2.4770    84.6540    18.6190    12.2040    11.6640    27.4670 
  195.2500   -15.4630     2.4570    82.4120    17.6160    11.4320    12.2540    27.4110 
  195.3750   -15.0230     2.3790    76.9600    15.9470    10.2720    12.0280    27.7030 
  195.5000   -14.5390     2.2520    67.5240    13.7890     8.8790     9.5160    29.3050 
  195.6250   -14.1240     2.1110    57.1160    11.7540     7.6070     6.1340    33.1390 
  195.7500   -13.7930     2.0040    49.7890    10.4510     6.7490     4.9050    36.5350 
  195.8750   -13.4880     1.9480    46.8260    10.1460     6.4360     4.5140    37.8590 
  196.0000   -13.1840     1.9320    46.4020    10.7680     6.6610     4.1860    38.0180 
  196.1250   -12.9130     1.9280    46.7110    11.9360     7.2960     4.2140    38.0180 
  196.2500   -12.5940     1.9110    49.1150    12.8530     7.9140     4.4470    38.0180 
  196.3750   -12.1490     1.8780    52.1600    12.9550     8.1550     4.7670    38.0180 
  196.5000   -11.6320     1.8350    53.6430    12.1140     7.8590     4.7820    38.0180 
  196.6250   -11.0160     1.7960    53.9040    10.7120     7.1630     4.3170    38.0180 
  196.7500   -10.3310     1.7670    52.9880     9.4170     6.4510     4.0220    38.0180 
  196.8750    -9.6420     1.7500    50.5440     8.5060     5.9070     3.9430    38.0180 
