~V
VERS. 2.00: Ver 2.00
~W
STRT.M 62.0000:
STOP.M 318.0000:
STEP.M 0.1250:
NULL. -999.2500:
UWI. DF321:
~C
DEPT.M :
DEN.GM/CC :
SP.MV :
AC.US/MT :
GR.API :
CALI.CM :
RXO.OHMM :
RI. :
RML.OHMM :
~A
# ...
  142.0000     2.1800   -30.3410   432.8900    68.4280    24.3800    12.0420     8.5230    10.3520 
  142.1250     2.1800   -30.3760   432.8920    70.9490    24.1940    12.0540     8.5320    10.3610 
  142.2500     2.1870   -30.3750   433.2930    72.4070    23.8160    11.9890     8.5160    10.3450 
  142.3750     2.1970   -30.3320   434.2590    72.2370    23.4320    11.9800     8.4870    10.3100 
  142.5000     2.1970   -30.3230   435.9310    69.4340    23.2600    12.1070     8.4620    10.2710 
  142.6250     2.1860   -30.2900   438.2500    66.0900    23.2530    12.1770     8.4500    10.2490 
  142.7500     2.1710   -30.2350   440.5910    65.0670    23.2460    12.2220     8.4590    10.2500 
  142.8750     2.1610   -30.2350   442.3790    65.8050    23.2130    12.2680     8.4930    10.2660 
  143.0000     2.1570   -30.2130   443.2430    65.4780    23.1380    12.2880     8.5470    10.2870 
  143.1250     2.1570   -30.2010   443.0630    64.0940    23.0890    12.2100     8.6120    10.2980 
  143.2500     2.1580   -30.1920   442.3280    64.8090    23.0690    12.1090     8.6660    10.2890 
  143.3750     2.1620   -30.1550   441.3100    67.6460    23.0580    12.1050     8.6890    10.2370 
  143.5000     2.1680   -30.0670   440.0730    70.0120    23.0420    12.2500     8.6680    10.1200 
  143.6250     2.1670   -29.9330   438.4870    68.5210    23.0470    12.3690     8.5950     9.9290 
  143.7500     2.1610   -29.7890   436.6700    65.5520    23.1350    12.2420     8.5010     9.7150 
  143.8750     2.1610   -29.5680   434.9500    63.5480    23.4090    11.8510     8.4130     9.5250 
  144.0000     2.1700   -29.3040   433.7120    62.8750    23.9520    11.4550     8.3510     9.3920 
  144.1250     2.1800   -28.9660   433.1140    64.6720    24.2270    11.3660     8.3190     9.3290 
  144.2500     2.1840   -28.5210   432.5980    68.6000    24.3330    11.3560     8.2970     9.3090 
  144.3750     2.1810   -27.9840   431.6430    72.7540    24.3690    11.1280     8.2560     9.2850 
  144.5000     2.1720   -27.3890   430.1440    74.3250    24.3950    10.5090     8.1370     9.1660 
  144.6250     2.1680   -26.7150   428.7310    75.5080    24.2770     9.7800     7.8270     8.7930 
  144.7500     2.1770   -25.9560   428.1000    78.4650    23.9710     9.4180     7.3130     8.1500 
  144.8750     2.2010   -25.1820   427.9340    80.7420    23.6840     9.1350     6.6470     7.3210 
  145.0000     2.2390   -24.3450   426.6090    81.6290    23.6210     8.0940     5.9520     6.4710 
  145.1250     2.2850   -23.4940   421.1170    84.9470    23.8980     6.5490     5.3990     5.8220 
  145.2500     2.3290   -22.8200   411.3870    88.8910    24.0780     5.6040     5.0740     5.4700 
  145.3750     2.3610   -22.2150   399.7720    89.6410    24.1590     5.6230     5.0080     5.4430 
  145.5000     2.3740   -21.7280   390.5330    85.4690    24.1090     6.0760     5.1720     5.6960 
  145.6250     2.3640   -21.4630   388.7930    80.4490    23.9110     6.3090     5.4890     6.1070 
  145.7500     2.3420   -21.2550   393.8490    78.4950    23.7210     6.6200     5.7950     6.4490 
  145.8750     2.3130   -21.1440   402.6620    78.8650    23.7280     7.0450     5.9710     6.5770 
  146.0000     2.2910   -21.1240   411.2400    79.2580    23.9380     7.2700     5.9680     6.4620 
  146.1250     2.2900   -21.1560   416.3020    78.5710    24.1290     6.9370     5.8130     6.1960 
  146.2500     2.3030   -21.2010   418.3290    78.1390    23.9650     6.5100     5.6320     5.9480 
  146.3750     2.3160   -21.2910   418.6490    80.3310    23.8220     6.2940     5.5030     5.8070 
  146.5000     2.3190   -21.4110   418.4290    83.9320    23.7500     6.3960     5.4670     5.8110 
  146.6250     2.3180   -21.5040   418.1870    85.6550    23.6940     6.5780     5.5310     5.9570 
  146.7500     2.3230   -21.6580   417.9820    85.5240    23.6410     6.7250     5.6300     6.1550 
  146.8750     2.3230   -21.8670   417.8260    84.9900    23.6360     6.9670     5.7170     6.3320 
  147.0000     2.3110   -22.1190   417.7190    84.9260    23.6950     7.3390     5.7560     6.4300 
  147.1250     2.2990   -22.4080   417.5190    85.0220    23.8520     7.2500     5.7080     6.3920 
  147.2500     2.2980   -22.7410   417.0340    84.4320    23.8260     6.9270     5.6060     6.2540 
  147.3750     2.3020   -23.0920   415.9570    82.0250    23.7180     7.0110     5.5120     6.1040 
  147.5000     2.2940   -23.4790   413.5140    78.3730    23.6350     7.4350     5.5130     6.0640 
  147.6250     2.2680   -23.9530   407.5220    77.8680    23.5810     7.5220     5.7390     6.3160 
  147.7500     2.2420   -24.4430   396.8910    78.5770    23.4390     7.4010     6.2410     6.9390 
  147.8750     2.2290   -24.9780   381.4750    77.0530    23.2690     8.0720     7.0490     7.9780 
  148.0000     2.2340   -25.5470   362.6490    73.6150    23.1340     9.9190     8.1140     9.3600 
  148.1250     2.2510   -26.1230   343.4370    71.7440    23.0380    12.3550     9.2490    10.8050 
  148.2500     2.2740   -26.6810   328.0920    69.7930    22.9540    14.2580    10.1330    11.8600 
  148.3750     2.2980   -27.1940   320.8030    67.5900    22.8900    14.1290    10.5180    12.1990 
  148.5000     2.3130   -27.6090   324.9550    68.6840    22.8670    12.2220    10.3540    11.7990 
  148.6250     2.3020   -27.9870   342.7990    73.5080    23.0490    11.1790     9.8160    10.9810 
  148.7500     2.2670   -28.3010   367.7420    75.7410    23.4390    10.7940     9.2500    10.2250 
  148.8750     2.2260   -28.4920   392.8500    73.0020    23.8260    10.7870     8.8090     9.7090 
  149.0000     2.1940   -28.6940   411.9080    69.3090    24.0850    10.9510     8.5470     9.4700 
  149.1250     2.1770   -28.8380   420.5780    68.9130    24.1740    11.2990     8.5000     9.5140 
  149.2500     2.1670   -28.8830   421.3020    69.8610    24.1820    11.6180     8.6130     9.7320 
  149.3750     2.1540   -28.9480   415.6420    68.7570    24.0670    11.7960     8.8310    10.0430 
  149.5000     2.1370   -28.9570   404.5100    65.7220    23.8340    11.8460     9.0840    10.3670 
  149.6250     2.1270   -28.8900   389.0560    66.2680    23.6010    11.7480     9.2770    10.6020 
  149.7500     2.1280   -28.8380   374.1630    71.1400    23.5610    11.4820     9.3330    10.6610 
  149.8750     2.1340   -28.8180   364.9050    76.2960    23.5820    11.0660     9.2130    10.4800 
  150.0000     2.1360   -28.7920   364.8680    77.4370    23.9590    10.6290     8.9280    10.0760 
  150.1250     2.1320   -28.7810   375.0030    75.0980    24.2180    10.4790     8.5510     9.5640 
  150.2500     2.1280   -28.8770   389.3040    72.9290    24.3010    10.7380     8.2000     9.1170 
  150.3750     2.1300   -29.0150   403.0430    72.6920    24.3150    11.5120     7.9450     8.8250 
  150.5000     2.1430   -29.1950   413.3940    74.3850    24.2850    12.6780     7.8230     8.7190 
  150.6250     2.1670   -29.4610   419.7670    73.8840    24.0730    13.3820     7.8430     8.7830 
  150.7500     2.1850   -29.7470   424.2270    72.0320    23.6680    12.8870     7.9380     8.9210 
  150.8750     2.1820   -29.9540   427.3630    70.7870    23.3510    11.8450     8.0690     9.0810 
  151.0000     2.1570   -30.1220   428.3510    69.0480    23.1640    11.2600     8.2080     9.2410 
  151.1250     2.1340   -30.2870   425.1080    65.3690    23.1960    11.5620     8.3380     9.3840 
  151.2500     2.1390   -30.3110   418.4940    63.6630    23.3810    12.6600     8.4370     9.4880 
  151.3750     2.1750   -30.2940   411.2390    65.2010    23.5320    13.8320     8.4830     9.5250 
  151.5000     2.2160   -30.2320   407.2160    66.2050    23.6320    13.8630     8.4570     9.4720 
  151.6250     2.2300   -30.0380   410.1490    64.8480    23.5210    12.4680     8.3490     9.3270 
  151.7500     2.2210   -29.8410   418.0510    65.3890    23.3700    11.3720     8.2180     9.1670 
  151.8750     2.2050   -29.6400   427.5720    69.1460    23.2910    10.8520     8.1200     9.0640 
