~V
VERS. 2.00: Ver 2.00
~W
STRT.M 63.0000:
STOP.M 291.0000:
STEP.M 0.1250:
NULL. -999.2500:
UWI. DF325:
~C
DEPT.M :
DEN.GM/CC :
SP.MV :
AC.US/MT :
GR.API :
RML.OHMM :
RI. :
RXO.OHMM :
CALI.CM :
~A
# ...
  153.0000     2.3910    -8.2540   386.3000    98.6150     6.6870     5.9990     6.2290    25.4250 
  153.1250     2.3970    -8.3660   381.4640    99.0350     6.7650     6.0850     6.3390    25.4170 
  153.2500     2.4040    -8.4990   377.7850    98.2900     6.8490     6.1790     6.4410    25.4120 
  153.3750     2.4110    -8.6450   376.5370    97.7180     6.9550     6.2790     6.5200    25.4070 
  153.5000     2.4170    -8.8220   378.0600   100.3610     7.0650     6.3820     6.5970    25.3960 
  153.6250     2.4170    -9.0510   381.3970   106.4770     7.1720     6.4830     6.7940    25.3840 
  153.7500     2.4090    -9.3260   384.5040   109.9340     7.2720     6.5770     7.0820    25.3640 
  153.8750     2.3940    -9.6370   386.4620   107.4970     7.3630     6.6630     7.3690    25.3700 
  154.0000     2.3740    -9.9690   387.7300   100.7890     7.4510     6.7460     7.5420    25.3810 
  154.1250     2.3540   -10.3390   390.1820    94.4900     7.5420     6.8330     7.6640    25.3760 
  154.2500     2.3400   -10.7260   394.7100    91.3870     7.6430     6.9280     7.8510    25.3360 
  154.3750     2.3350   -11.1410   400.7230    91.7010     7.7600     7.0360     8.1120    25.2620 
  154.5000     2.3360   -11.5930   406.7640    94.0360     7.9010     7.1680     8.3720    25.1980 
  154.6250     2.3370   -12.0390   411.3230    94.1640     8.0800     7.3330     8.6170    25.1430 
  154.7500     2.3350   -12.4630   414.6040    91.3150     8.2840     7.5370     8.8440    25.0870 
  154.8750     2.3270   -12.8820   417.7280    88.9860     8.4830     7.7570     9.0650    25.0040 
  155.0000     2.3160   -13.2780   421.3170    88.4610     8.6320     7.9580     9.2640    24.9330 
  155.1250     2.3110   -13.5750   423.5670    89.2690     8.6720     8.0650     9.3840    24.9450 
  155.2500     2.3140   -13.7810   421.8450    90.4510     8.6060     8.0310     9.2050    24.9900 
  155.3750     2.3250   -13.8960   415.6610    90.2030     8.4680     7.8870     8.7410    25.0240 
  155.5000     2.3390   -13.9120   407.5820    89.1290     8.3140     7.6610     8.1610    25.0560 
  155.6250     2.3500   -13.8590   401.5010    90.3790     8.2130     7.4660     7.8490    25.0600 
  155.7500     2.3550   -13.8120   398.4400    94.2790     8.1860     7.4360     7.8080    25.0370 
  155.8750     2.3560   -13.7780   397.4840    96.5390     8.2130     7.4580     7.9560    25.0210 
  156.0000     2.3540   -13.7480   397.2720    93.6150     8.2580     7.5000     8.1740    25.0730 
  156.1250     2.3510   -13.7400   397.3010    89.2900     8.2520     7.5200     8.3350    25.1540 
  156.2500     2.3460   -13.7780   397.8410    88.7230     8.1830     7.4990     8.3270    25.1690 
  156.3750     2.3370   -13.8620   399.3860    92.4660     8.0440     7.4330     8.1490    25.1330 
  156.5000     2.3250   -13.9980   401.8440    96.4770     7.8680     7.3350     8.0670    25.1220 
  156.6250     2.3120   -14.1730   404.3860    94.8820     7.7710     7.2290     8.1240    25.1570 
  156.7500     2.3020   -14.3370   406.3330    91.2260     7.7260     7.1440     8.1490    25.1580 
  156.8750     2.2970   -14.4490   407.6850    90.5240     7.7310     7.1050     8.1800    25.1180 
  157.0000     2.2940   -14.5170   408.8020    93.6690     7.7960     7.1250     8.2540    25.0860 
  157.1250     2.2930   -14.5870   409.8640    97.7610     7.9440     7.2110     8.4020    25.0780 
  157.2500     2.2920   -14.6600   410.8890    98.1070     8.0680     7.3290     8.5630    25.0770 
  157.3750     2.2900   -14.7200   411.8340    96.0030     8.1910     7.4460     8.7360    25.0760 
  157.5000     2.2880   -14.7240   412.5000    92.7890     8.2810     7.5280     8.9220    25.0750 
  157.6250     2.2860   -14.6220   412.4780    90.5140     8.3100     7.5510     9.0270    25.0840 
  157.7500     2.2850   -14.4560   411.7590    89.1090     8.2920     7.5350     8.8790    25.0960 
  157.8750     2.2890   -14.2340   410.3540    87.8600     8.2440     7.5040     8.5870    25.0920 
  158.0000     2.3020   -13.9670   408.0240    88.8280     8.1790     7.4720     8.2890    25.0770 
  158.1250     2.3300   -13.6070   403.2680    91.2280     8.1120     7.4470     8.1730    25.0840 
  158.2500     2.3660   -13.1430   395.7440    91.9840     8.0560     7.4210     8.0850    25.1490 
  158.3750     2.3990   -12.5830   387.2940    92.7930     8.0120     7.3530     7.9050    25.2640 
  158.5000     2.4160   -11.9960   381.1760    96.4480     7.9630     7.2240     7.5670    25.3710 
  158.6250     2.4070   -11.4400   380.5080   102.1470     7.8790     7.0960     7.3740    25.4380 
  158.7500     2.3820   -10.9000   383.6530   104.1740     7.7450     6.9770     7.4350    25.4700 
  158.8750     2.3520   -10.3920   388.9270   104.3730     7.5690     6.8510     7.3580    25.4420 
  159.0000     2.3300    -9.9270   395.1490   105.3160     7.3770     6.6770     6.9700    25.3920 
  159.1250     2.3240    -9.5530   400.5780   104.3600     7.2030     6.5120     6.4430    25.4480 
  159.2500     2.3290    -9.2740   403.7510   101.6620     7.0590     6.3770     6.1610    25.5150 
  159.3750     2.3420    -9.0950   404.4770    99.4460     6.9480     6.2720     6.0670    25.5110 
  159.5000     2.3530    -8.9870   404.0970    98.8500     6.8680     6.1960     6.0320    25.4400 
  159.6250     2.3590    -8.9090   403.9250    97.0890     6.8260     6.1560     6.0230    25.4110 
  159.7500     2.3620    -8.8680   403.7610    91.1720     6.8130     6.1440     6.0570    25.4680 
  159.8750     2.3650    -8.8590   403.2350    84.3030     6.8150     6.1460     6.1180    25.5290 
  160.0000     2.3690    -8.8710   402.4830    82.9300     6.8120     6.1430     6.1720    25.5510 
  160.1250     2.3740    -8.8600   401.9940    89.4470     6.7780     6.1110     6.2050    25.5470 
  160.2500     2.3770    -8.8530   402.0540    94.1220     6.7100     6.0470     6.1960    25.5370 
  160.3750     2.3760    -8.8720   402.8390    93.5680     6.6190     5.9610     6.1330    25.5340 
  160.5000     2.3710    -8.8650   404.2770    93.2700     6.5250     5.8720     6.0300    25.5400 
  160.6250     2.3670    -8.8250   405.8140    96.8600     6.4540     5.8060     5.9620    25.5360 
  160.7500     2.3650    -8.7790   406.6990   100.4520     6.4150     5.7690     5.9450    25.5340 
  160.8750     2.3650    -8.7290   406.8260   100.9110     6.4030     5.7580     5.9840    25.5380 
  161.0000     2.3650    -8.6630   406.8630    98.5100     6.4050     5.7600     6.0590    25.5300 
  161.1250     2.3660    -8.6070   408.0890    95.6670     6.4010     5.7550     6.0990    25.5240 
  161.2500     2.3660    -8.5660   410.6440    94.3280     6.3770     5.7330     6.1040    25.5210 
  161.3750     2.3660    -8.5200   413.6980    95.1340     6.3320     5.6910     6.0830    25.5210 
  161.5000     2.3660    -8.4990   415.8560    96.6840     6.2760     5.6380     6.0210    25.5200 
  161.6250     2.3660    -8.5060   415.8460    98.6720     6.2240     5.5890     5.9150    25.5180 
  161.7500     2.3670    -8.5080   414.3500   101.5440     6.1910     5.5570     5.8100    25.5170 
  161.8750     2.3680    -8.5000   412.3250   103.8600     6.1820     5.5490     5.7690    25.5190 
  162.0000     2.3670    -8.5110   410.6110   103.6850     6.1980     5.5640     5.8000    25.5190 
  162.1250     2.3650    -8.5210   409.7560   102.2370     6.2270     5.5910     5.8410    25.5220 
  162.2500     2.3620    -8.5080   409.6870   101.1970     6.2530     5.6160     5.8380    25.5190 
  162.3750     2.3610    -8.4800   410.1740   103.2870     6.2670     5.6290     5.7620    25.5130 
  162.5000     2.3600    -8.4620   410.9150   109.6430     6.2650     5.6270     5.6430    25.5110 
  162.6250     2.3610    -8.4620   411.6330   115.0420     6.2470     5.6090     5.5270    25.5100 
  162.7500     2.3620    -8.4680   412.2170   114.8870     6.2160     5.5780     5.4160    25.5110 
  162.8750     2.3610    -8.5020   412.8760   108.9510     6.1680     5.5360     5.3630    25.5090 
