~V
VERS. 2.00: Ver 2.00
~W
STRT.M 55.0000:
STOP.M 285.0000:
STEP.M 0.1250:
NULL. -999.2500:
UWI. DF32159:
~C
DEPT.M :
GR.API :
CALI.CM :
RXO.OHMM :
RI. :
RML.OHMM :
DEN.GM/CC :
SP.MV :
~A
# ...
  100.0000    72.6480    25.1590     9.5490     7.0500     9.4130     2.1330   -31.9990 
  100.1250    76.1860    25.1730     9.1620     6.8980     9.2180     2.1320   -31.5350 
  100.2500    76.2890    25.1860     8.6940     6.7400     9.0210     2.1300   -31.1550 
  100.3750    75.0310    25.1950     8.2630     6.6050     8.8640     2.1310   -30.8620 
  100.5000    75.8450    25.2040     8.0460     6.5170     8.7720     2.1400   -30.6370 
  100.6250    75.7240    25.2350     8.2070     6.4960     8.7580     2.1510   -30.5340 
  100.7500    73.4400    25.3110     8.5610     6.5340     8.7990     2.1540   -30.5370 
  100.8750    73.3300    25.4210     8.8220     6.6290     8.8900     2.1460   -30.6330 
  101.0000    77.2340    25.5140     8.8530     6.7620     9.0230     2.1410   -30.7790 
  101.1250    80.8350    25.5380     8.9290     6.8960     9.1750     2.1550   -30.9340 
  101.2500    81.5900    25.5170     9.3120     6.9960     9.3010     2.1800   -31.0600 
  101.3750    80.0410    25.4690     9.6820     7.0440     9.3690     2.1960   -31.1490 
  101.5000    76.4330    25.4000     9.5550     7.0450     9.3730     2.1970   -31.1990 
  101.6250    73.9600    25.3280     9.0650     7.0190     9.3510     2.1910   -31.1770 
  101.7500    74.3310    25.2790     8.8870     6.9970     9.3520     2.1920   -31.0960 
  101.8750    76.2440    25.2730     9.0660     6.9870     9.3840     2.1980   -30.9530 
  102.0000    77.7820    25.3830     9.2290     6.9860     9.4190     2.1980   -30.7550 
  102.1250    78.4950    25.7590     9.1450     6.9810     9.4120     2.1860   -30.5350 
  102.2500    76.7300    26.2410     8.9870     6.9570     9.3580     2.1710   -30.3150 
  102.3750    72.7400    26.5220     8.8750     6.9110     9.2760     2.1590   -30.1070 
  102.5000    70.5880    26.3990     8.8350     6.8560     9.1980     2.1510   -29.9300 
  102.6250    72.5690    25.9680     8.7960     6.8110     9.1530     2.1430   -29.7930 
  102.7500    74.5650    25.5730     8.6770     6.7810     9.1300     2.1370   -29.6710 
  102.8750    75.1970    25.3470     8.5270     6.7590     9.1070     2.1360   -29.5640 
  103.0000    76.7430    25.2730     8.4860     6.7300     9.0630     2.1420   -29.4860 
  103.1250    79.9380    25.2640     8.5880     6.6780     8.9740     2.1530   -29.4050 
  103.2500    81.5930    25.2510     8.6470     6.6000     8.8480     2.1630   -29.3200 
  103.3750    80.9540    25.2290     8.5520     6.5030     8.7020     2.1660   -29.2340 
  103.5000    79.7730    25.2310     8.3510     6.4010     8.5640     2.1620   -29.1540 
  103.6250    78.4260    25.3440     8.1590     6.3150     8.4680     2.1580   -29.0920 
  103.7500    77.3300    25.5410     8.0200     6.2520     8.4190     2.1590   -29.0690 
  103.8750    77.5090    25.6690     7.9470     6.2080     8.4050     2.1620   -29.1000 
  104.0000    77.7600    25.5920     7.9960     6.1740     8.4030     2.1640   -29.1830 
  104.1250    78.0940    25.3620     8.1590     6.1420     8.3930     2.1610   -29.3550 
  104.2500    79.0260    25.1950     8.2490     6.1110     8.3770     2.1620   -29.6000 
  104.3750    79.9500    25.1530     8.2120     6.0880     8.3650     2.1710   -29.8820 
  104.5000    80.5090    25.1770     8.1990     6.0810     8.3760     2.1830   -30.1740 
  104.6250    79.7060    25.1980     8.3650     6.1060     8.4340     2.1810   -30.4620 
  104.7500    77.2980    25.1750     8.5540     6.1660     8.5410     2.1640   -30.7130 
  104.8750    73.4690    25.1160     8.6390     6.2600     8.6890     2.1430   -30.9020 
  105.0000    71.9110    25.0610     8.6970     6.3720     8.8560     2.1320   -31.0130 
  105.1250    75.2160    25.0630     8.9150     6.4640     8.9760     2.1320   -31.0060 
  105.2500    78.2710    25.1100     9.1750     6.4950     8.9890     2.1340   -30.8810 
  105.3750    78.7520    25.1620     9.1810     6.4410     8.8770     2.1320   -30.6470 
  105.5000    78.5680    25.1900     8.7850     6.3110     8.6800     2.1290   -30.2960 
  105.6250    81.9760    25.1940     8.1580     6.1600     8.4900     2.1270   -29.7420 
  105.7500    87.6110    25.1930     7.6310     6.0710     8.4080     2.1280   -28.9730 
  105.8750    90.8300    25.1920     7.3650     6.0980     8.4870     2.1360   -28.0180 
  106.0000    88.0010    25.1880     7.5020     6.2500     8.7130     2.1470   -26.9430 
  106.1250    81.5350    25.1750     8.2010     6.4660     8.9580     2.1510   -25.8170 
  106.2500    79.2670    25.1550     8.9920     6.6010     9.0250     2.1450   -24.7670 
  106.3750    85.4040    25.1400     9.1360     6.5500     8.7900     2.1380   -23.8590 
  106.5000    98.4870    25.1460     8.2570     6.2920     8.2670     2.1420   -23.1270 
  106.6250   110.1190    25.1810     6.8590     5.9080     7.6490     2.1690   -22.6350 
  106.7500   114.3990    25.2250     5.8450     5.5600     7.2020     2.2160   -22.3730 
  106.8750   110.5610    25.2680     5.4590     5.3300     7.0460     2.2700   -22.3010 
  107.0000   102.1890    25.3140     5.5740     5.2460     7.1680     2.3110   -22.3760 
  107.1250    96.5070    25.3650     5.9570     5.3030     7.4530     2.3170   -22.5560 
  107.2500    96.4560    25.4000     6.2910     5.4210     7.6850     2.2960   -22.7490 
  107.3750    98.9190    25.4080     6.3890     5.5290     7.7370     2.2620   -22.9270 
  107.5000    99.0870    25.4020     6.3090     5.5540     7.5510     2.2290   -23.0980 
  107.6250    98.2910    25.3990     6.3510     5.4400     7.1410     2.2110   -23.3500 
  107.7500    98.0360    25.3880     6.4850     5.2730     6.7250     2.2050   -23.7300 
  107.8750    96.7660    25.3630     6.3470     5.1900     6.5340     2.2060   -24.2150 
  108.0000    93.4730    25.4240     5.9120     5.3330     6.7840     2.2130   -24.7470 
  108.1250    88.2360    25.8430     6.5490     5.8720     7.7310     2.2460   -25.2820 
  108.2500    83.5490    26.5410     9.9060     6.7670     9.2500     2.3120   -25.7500 
  108.3750    79.8290    27.0500    14.9410     7.8690    10.9970     2.3970   -26.1120 
  108.5000    76.4530    26.9080    17.0560     8.8050    12.2510     2.4650   -26.3530 
  108.6250    73.1790    26.1880    13.6900     9.0040    12.1170     2.4590   -26.4390 
  108.7500    71.7000    25.5710     9.7490     8.5250    10.9990     2.3830   -26.4040 
  108.8750    72.8470    25.3040     7.8850     7.7070     9.6040     2.2820   -26.3250 
  109.0000    73.9940    25.2720     7.4600     6.9100     8.4750     2.2050   -26.2940 
  109.1250    74.1650    25.3520     7.5940     6.3600     7.8510     2.1790   -26.4150 
  109.2500    76.5270    25.5460     7.6780     6.0300     7.5580     2.1790   -26.7140 
  109.3750    81.0920    25.8520     7.3380     5.8660     7.4700     2.1890   -27.1850 
  109.5000    85.6380    26.1850     6.6000     5.8330     7.5340     2.2060   -27.7730 
  109.6250    85.1790    26.3530     6.0800     5.9390     7.7720     2.2280   -28.3900 
  109.7500    79.6380    26.2360     6.2630     6.1450     8.1240     2.2460   -28.9610 
  109.8750    73.4780    25.8710     7.1090     6.4160     8.5240     2.2520   -29.4410 
  110.0000    69.4390    25.4630     8.1840     6.7040     8.8860     2.2450   -29.7880 
  110.1250    66.8650    25.2600     8.9290     6.9460     9.1350     2.2280   -29.9300 
  110.2500    66.0230    25.2330     9.2810     7.1140     9.3010     2.2100   -29.8980 
  110.3750    67.5380    25.2580     9.4180     7.2050     9.4200     2.1970   -29.7130 
  110.5000    70.3850    25.2710     9.4600     7.2330     9.5010     2.1930   -29.4370 
  110.6250    71.9560    25.2690     9.4110     7.2160     9.5150     2.1960   -29.1490 
  110.7500    72.9040    25.2550     9.3130     7.1780     9.4630     2.1940   -28.9050 
  110.8750    73.0430    25.2220     9.2090     7.1280     9.3630     2.1850   -28.7310 
  111.0000    71.6340    25.1770     9.1220     7.0670     9.2420     2.1760   -28.6370 
  111.1250    70.6030    25.1550     9.0680     6.9840     9.0910     2.1760   -28.6630 
