~V
VERS. 2.00: Ver 2.00
~W
STRT.M 55.0000:
STOP.M 285.0000:
STEP.M 0.1250:
NULL. -999.2500:
UWI. DF32159:
~C
DEPT.M :
GR.API :
CALI.CM :
RXO.OHMM :
RI. :
RML.OHMM :
DEN.GM/CC :
SP.MV :
~A
# ...
  167.5000    65.1870    26.5920    19.7160    18.6230    22.3090     2.5550   -16.3880 
  167.6250    65.1850    26.6370    19.3640    18.2060    21.9080     2.5530   -16.3830 
  167.7500    65.8830    26.6610    19.1250    17.9990    21.7930     2.5530   -16.3070 
  167.8750    67.4630    26.6590    18.9220    17.9740    21.8780     2.5560   -16.1620 
  168.0000    69.9070    26.6440    18.6090    18.0740    22.0570     2.5600   -15.9780 
  168.1250    70.8850    26.6350    18.4490    18.2260    22.2350     2.5690   -15.8830 
  168.2500    69.8070    26.6310    18.8320    18.3360    22.3320     2.5880   -15.7560 
  168.3750    69.8480    26.6240    19.4440    18.3360    22.2760     2.6110   -15.5900 
  168.5000    70.9130    26.6040    19.4970    18.1860    22.0240     2.6250   -15.4560 
  168.6250    70.2330    26.5660    18.7180    17.8840    21.5900     2.6210   -15.3920 
  168.7500    69.1530    26.5270    17.8830    17.4820    21.0610     2.6100   -15.3800 
  168.8750    68.9860    26.5150    17.3360    16.9770    20.4500     2.5990   -15.4010 
  169.0000    69.0410    26.5410    17.1030    16.3500    19.7300     2.5860   -15.4360 
  169.1250    68.0210    26.5940    17.0590    15.5840    18.8470     2.5740   -15.4530 
  169.2500    67.8130    26.6450    16.5270    14.7570    17.8570     2.5690   -15.4260 
  169.3750    68.1970    26.6820    15.0940    13.9610    16.8810     2.5720   -15.3630 
  169.5000    66.8270    26.7060    13.3740    13.3040    16.0910     2.5790   -15.2650 
  169.6250    63.4140    26.7260    12.7130    12.9080    15.6870     2.5820   -15.1210 
  169.7500    60.4400    26.7430    13.2190    12.7480    15.6210     2.5770   -14.9600 
  169.8750    60.4230    26.7530    14.1570    12.7730    15.7780     2.5690   -14.7960 
  170.0000    62.5350    26.7570    14.8830    12.8930    15.9860     2.5620   -14.6600 
  170.1250    64.4420    26.7610    15.2750    13.0090    16.0880     2.5580   -14.5850 
  170.2500    65.3190    26.7670    15.3100    13.0840    16.0910     2.5530   -14.5750 
  170.3750    66.0590    26.7720    14.8390    13.1370    16.0840     2.5450   -14.6350 
  170.5000    67.9380    26.7730    14.1670    13.1780    16.1200     2.5440   -14.7530 
  170.6250    68.9860    26.7670    14.1530    13.1350    16.0920     2.5470   -14.9420 
  170.7500    67.1340    26.7510    14.8250    12.9110    15.8200     2.5520   -15.1650 
  170.8750    63.0700    26.7280    15.1770    12.4610    15.2170     2.5530   -15.4180 
  171.0000    59.8950    26.7030    14.1590    11.8360    14.3650     2.5450   -15.6610 
  171.1250    59.4890    26.6770    12.1220    11.1770    13.4890     2.5370   -15.8320 
  171.2500    59.7110    26.6490    10.7980    10.6370    12.8050     2.5360   -15.9240 
  171.3750    60.6470    26.6260    10.7010    10.2890    12.3910     2.5370   -15.9290 
  171.5000    63.5480    26.6180    11.1250    10.1320    12.2210     2.5360   -15.8460 
  171.6250    65.6140    26.6320    11.2270    10.1260    12.2360     2.5350   -15.6750 
  171.7500    65.7990    26.6550    11.1700    10.1890    12.3590     2.5350   -15.4800 
  171.8750    65.6750    26.6730    11.2110    10.3100    12.5950     2.5330   -15.3000 
  172.0000    66.7700    26.6730    11.2730    10.5010    12.9520     2.5280   -15.1870 
  172.1250    67.9220    26.6450    11.4880    10.7780    13.3960     2.5220   -15.2040 
  172.2500    66.4070    26.5830    12.1660    11.0720    13.7890     2.5180   -15.3260 
  172.3750    63.2960    26.4860    12.9950    11.2840    13.9840     2.5200   -15.5730 
  172.5000    61.2020    26.3820    13.0840    11.3230    13.8820     2.5290   -15.9580 
  172.6250    60.8040    26.3390    12.1460    11.1810    13.5450     2.5360   -16.4830 
  172.7500    60.6180    26.3480    11.4910    11.0600    13.3180     2.5310   -17.0640 
  172.8750    59.9150    26.3960    10.7380    10.8570    12.9800     2.5190   -17.6480 
  173.0000    58.9350    26.4780    10.5300    10.6420    12.6780     2.5140   -18.1790 
  173.1250    58.6930    26.5080    11.0230    10.5520    12.6040     2.5200   -18.5790 
  173.2500    56.9220    26.4770    11.5610    10.5740    12.6880     2.5240   -18.8500 
  173.3750    54.7940    26.4410    11.8500    10.6590    12.8420     2.5240   -18.9630 
  173.5000    55.0820    26.4620    11.8090    10.7430    12.9880     2.5290   -18.9010 
  173.6250    58.5760    26.5500    11.5070    10.7550    13.0330     2.5400   -18.6620 
  173.7500    61.3610    26.6340    11.2480    10.6750    12.9270     2.5480   -18.3130 
  173.8750    62.6810    26.6770    11.1770    10.5140    12.6490     2.5490   -17.8800 
  174.0000    65.0580    26.6890    11.0940    10.3110    12.2450     2.5470   -17.4030 
  174.1250    67.2860    26.6890    10.6450    10.1480    11.8680     2.5510   -16.9750 
  174.2500    67.2060    26.6890    10.1290    10.1010    11.6870     2.5540   -16.6510 
  174.3750    68.1440    26.6880    10.1030    10.2180    11.7940     2.5490   -16.4630 
  174.5000    72.8960    26.6840    10.7140    10.5000    12.1770     2.5330   -16.4660 
  174.6250    77.0750    26.6740    11.4710    10.8980    12.7340     2.5150   -16.7070 
  174.7500    75.3420    26.6660    11.8870    11.2730    13.2520     2.5020   -17.1590 
  174.8750    71.0740    26.6680    11.9460    11.5090    13.5690     2.4890   -17.8230 
  175.0000    69.5810    26.6770    11.7580    11.5350    13.5920     2.4680   -18.6770 
  175.1250    70.1370    26.6740    11.3800    11.3260    13.2880     2.4430   -19.6920 
  175.2500    71.3300    26.6530    11.0400    11.0020    12.8300     2.4280   -20.7850 
  175.3750    73.7750    26.6200    10.9310    10.6990    12.4300     2.4230   -21.9110 
  175.5000    77.8070    26.5770    11.0280    10.5980    12.3760     2.4170   -23.0100 
  175.6250    80.0030    26.5270    11.3320    11.0090    13.1670     2.3990   -24.0190 
  175.7500    79.1080    26.4780    12.6590    12.1550    15.1100     2.3840   -24.9230 
  175.8750    76.6170    26.4390    16.7040    14.3930    18.6390     2.3800   -25.7060 
  176.0000    73.1150    26.4270    25.1000    18.1710    24.2010     2.3770   -26.3970 
  176.1250    67.9890    26.4750    37.5530    24.2220    32.4920     2.3580   -27.0270 
  176.2500    65.5510    26.5720    49.3620    32.0200    42.6790     2.3290   -27.6460 
  176.3750    69.5020    26.6750    57.9530    40.4300    53.1920     2.3030   -28.2830 
  176.5000    75.1640    26.7340    63.6250    47.7660    61.8050     2.2850   -28.9590 
  176.6250    75.1180    26.7270    67.0640    52.6070    66.8940     2.2710   -29.7050 
  176.7500    71.1240    26.6850    68.6220    55.9140    70.2460     2.2600   -30.5030 
  176.8750    68.0230    26.6280    68.6820    58.8340    73.5750     2.2550   -31.3450 
  177.0000    67.1290    26.5650    69.2150    62.1820    77.8620     2.2600   -32.1840 
  177.1250    66.5850    26.5120    74.1160    66.3260    83.3760     2.2650   -32.9480 
  177.2500    67.4840    26.4780    82.0880    70.7960    89.2040     2.2640   -33.6070 
  177.3750    69.6610    26.4640    87.5570    74.9380    94.2970     2.2580   -34.1520 
  177.5000    71.9270    26.4610    86.6260    78.2450    97.9630     2.2550   -34.5660 
  177.6250    72.9710    26.4600    82.4450    80.7690   100.4520     2.2560   -34.8150 
  177.7500    73.6310    26.4610    81.0360    83.5980   103.4260     2.2580   -34.9540 
  177.8750    73.8630    26.4650    83.0370    87.9610   108.4950     2.2620   -35.0050 
  178.0000    72.6020    26.4740    86.9990    94.9420   116.9400     2.2680   -34.9950 
  178.1250    69.6430    26.4770    92.3930   105.5360   129.9640     2.2690   -34.9710 
  178.2500    67.7740    26.4610    98.5720   118.6040   146.1730     2.2570   -34.9810 
  178.3750    68.8980    26.4340   103.3030   132.6690   163.7050     2.2350   -35.0160 
  178.5000    70.3810    26.4310   103.6810   145.8410   180.0360     2.2150   -35.0880 
  178.6250    67.8570    26.4790    99.4320   156.0070   192.3430     2.2130   -35.1950 
