~V
VERS. 2.00: Ver 2.00
~W
STRT.M 61.0000:
STOP.M 257.0000:
STEP.M 0.1250:
NULL. -999.2500:
UWI. DF32086:
~C
DEPT.M :
SP.MV :
GR.API :
CALI.CM :
RXO.OHMM :
RI. :
RML.OHMM :
DEN.GM/CC :
~A
# ...
  128.5000   -28.8230    84.2620    23.1010    12.8450     8.5750    10.3720     2.4590 
  128.6250   -28.3250    95.9210    23.2100     8.4150     7.3910     8.6500     2.4630 
  128.7500   -27.9140   102.3770    23.3440     6.3730     6.5410     7.4480     2.4290 
  128.8750   -27.6070   102.5360    23.2300     6.0200     6.0570     6.8250     2.3950 
  129.0000   -27.3830   102.3460    22.8140     6.2170     5.8520     6.6490     2.3790 
  129.1250   -27.2240   107.5370    22.5870     6.2820     5.7850     6.6900     2.3630 
  129.2500   -27.1300   111.1470    22.6750     6.1980     5.6770     6.6700     2.3370 
  129.3750   -27.0630   108.8740    22.9490     6.0380     5.4680     6.4980     2.3160 
  129.5000   -27.0780   104.2960    23.3830     5.8350     5.1920     6.2280     2.3190 
  129.6250   -27.1370   102.0290    23.5580     5.6600     4.9560     5.9780     2.3370 
  129.7500   -27.2790   103.3420    23.5460     5.5730     4.8370     5.8120     2.3420 
  129.8750   -27.4580   105.9380    23.4580     5.5450     4.8630     5.7510     2.3230 
  130.0000   -27.6630   104.6510    23.3560     5.6500     5.0190     5.8050     2.2940 
  130.1250   -27.9490    97.9690    23.2530     5.8610     5.2680     6.0190     2.2790 
  130.2500   -28.2490    93.8790    23.1910     6.1490     5.5600     6.3930     2.2760 
  130.3750   -28.6230    96.2940    23.1130     6.5530     5.8890     6.9390     2.2700 
  130.5000   -28.9930   101.4170    23.0280     7.0640     6.2740     7.6350     2.2460 
  130.6250   -29.3180   100.7830    22.9930     7.4430     6.7210     8.3940     2.2120 
  130.7500   -29.5540    95.8410    22.9860     7.6870     7.1340     9.0060     2.1830 
  130.8750   -29.6490    92.3630    22.9790     7.8190     7.3560     9.2390     2.1670 
  131.0000   -29.6150    93.4790    22.9490     7.8190     7.2310     8.9200     2.1590 
  131.1250   -29.4420    94.8910    22.8940     7.4560     6.6630     8.0250     2.1610 
  131.2500   -29.1670    95.7250    22.9830     6.6360     5.8680     6.9330     2.1770 
  131.3750   -28.8240    99.6560    23.2510     5.6230     5.0570     5.9540     2.2140 
  131.5000   -28.4990   107.1880    23.6140     4.8910     4.4110     5.3070     2.2660 
  131.6250   -28.2630   110.7110    23.9450     4.7710     4.1130     5.1810     2.3070 
  131.7500   -28.1240   107.6550    24.0300     5.0590     4.1860     5.5230     2.3150 
  131.8750   -28.1180   101.2580    23.7900     5.5950     4.6340     6.2800     2.2910 
  132.0000   -28.2550    94.6830    23.5150     6.1400     5.3700     7.3060     2.2520 
  132.1250   -28.4870    90.5860    23.4300     6.5250     6.1820     8.3070     2.2190 
  132.2500   -28.8130    88.1110    23.3330     6.8250     6.7900     8.9900     2.2010 
  132.3750   -29.1400    86.4100    23.2930     7.0430     7.0630     9.2540     2.1960 
  132.5000   -29.4320    85.5110    23.5830     7.1660     7.0290     9.1900     2.1970 
  132.6250   -29.6610    86.6560    23.8340     7.2680     6.8400     8.9950     2.2010 
  132.7500   -29.8110    88.3440    23.8850     7.4000     6.6900     8.8420     2.2060 
  132.8750   -29.9050    89.4970    23.8660     7.5490     6.6510     8.7710     2.2120 
  133.0000   -29.9200    91.0910    23.8460     7.6780     6.7220     8.7750     2.2190 
  133.1250   -29.9110    92.0750    23.8370     7.6900     6.8570     8.8490     2.2240 
  133.2500   -29.8870    91.9260    23.8300     7.6820     6.9780     8.9680     2.2230 
  133.3750   -29.8400    92.3040    23.8240     7.7120     7.0420     9.1100     2.2160 
  133.5000   -29.7800    94.6330    23.8240     7.7590     7.0280     9.2360     2.2060 
  133.6250   -29.6860    96.3420    23.8260     7.7700     6.9270     9.2850     2.1990 
  133.7500   -29.5790    94.4790    23.8270     7.6460     6.7760     9.2410     2.1970 
  133.8750   -29.4580    92.2170    23.8190     7.4640     6.6100     9.1230     2.1980 
  134.0000   -29.3230    92.7720    23.7920     7.2920     6.4780     8.9800     2.2000 
  134.1250   -29.1960    94.5980    23.7330     7.1650     6.4390     8.8760     2.2110 
  134.2500   -29.0630    94.3260    23.6770     7.1120     6.4900     8.8330     2.2240 
  134.3750   -28.9490    92.1820    23.6060     7.1020     6.5950     8.8440     2.2290 
  134.5000   -28.8290    91.8120    23.5290     7.1030     6.6930     8.8780     2.2230 
  134.6250   -28.7310    93.8550    23.5230     7.1310     6.7110     8.8930     2.2130 
  134.7500   -28.6150    94.3620    23.6220     7.1840     6.6340     8.8540     2.2080 
  134.8750   -28.5270    91.6580    23.7280     7.1740     6.4810     8.7480     2.2090 
  135.0000   -28.4500    87.4560    23.6760     7.1140     6.3040     8.5920     2.2150 
  135.1250   -28.3600    86.9080    23.6900     7.1000     6.1930     8.4550     2.2230 
  135.2500   -28.2370    89.2840    23.7800     7.1110     6.2030     8.4250     2.2260 
  135.3750   -28.1000    90.4990    23.7760     7.1510     6.3420     8.5510     2.2200 
  135.5000   -27.9440    89.2740    23.6600     7.4610     6.5510     8.7950     2.2050 
  135.6250   -27.7630    89.6380    23.6200     8.6900     6.6960     8.9980     2.1930 
  135.7500   -27.5810    92.0080    23.7070    10.4490     6.6710     8.9840     2.2010 
  135.8750   -27.3590    92.9800    23.9210    11.1380     6.4480     8.6820     2.2320 
  136.0000   -27.1020    92.2700    24.2440     9.7300     6.0930     8.1580     2.2730 
  136.1250   -26.8460    94.1960    24.2100     7.4890     5.7410     7.6020     2.3010 
  136.2500   -26.6270    99.2660    24.1650     6.3330     5.5020     7.1840     2.3110 
  136.3750   -26.4020   103.6830    24.1370     6.0880     5.3980     6.9610     2.3080 
  136.5000   -26.2360   104.0540    24.1370     6.1270     5.3950     6.9060     2.3020 
  136.6250   -26.0810   100.7560    24.1370     6.1060     5.4060     6.9210     2.2920 
  136.7500   -25.9800    99.4120    24.1370     6.0540     5.3490     6.8810     2.2790 
  136.8750   -25.9200   101.9320    24.1390     5.9960     5.2170     6.7540     2.2660 
  137.0000   -25.9250   104.4590    24.1420     5.9260     5.0640     6.5840     2.2610 
  137.1250   -25.9080   103.9270    24.1450     5.7870     4.9650     6.4430     2.2710 
  137.2500   -25.9280   103.1780    24.1410     5.6630     4.9420     6.3520     2.2890 
  137.3750   -25.9660   103.5210    24.1380     5.6840     4.9840     6.3030     2.3040 
  137.5000   -25.9920   103.1760    24.1370     5.8470     5.0580     6.2890     2.3060 
  137.6250   -26.0380    99.5330    24.1480     5.8920     5.1260     6.3330     2.2990 
  137.7500   -26.0590    95.4580    24.1860     5.8820     5.1720     6.4430     2.2990 
  137.8750   -26.0940    95.6170    24.3020     6.0860     5.1970     6.6060     2.3120 
  138.0000   -26.1390   100.6890    24.5720     6.7120     5.2160     6.7720     2.3310 
  138.1250   -26.2270   103.5370    25.0280     6.9410     5.2530     6.8660     2.3370 
  138.2500   -26.2760    98.6710    25.2940     6.7390     5.3260     6.8740     2.3270 
  138.3750   -26.3150    91.1410    25.2160     6.3480     5.4400     6.8220     2.3120 
  138.5000   -26.3400    89.4950    24.7560     6.1330     5.6030     6.7830     2.3010 
  138.6250   -26.3780    92.6290    24.4900     6.3050     5.8890     6.9490     2.2890 
  138.7500   -26.4310    92.9300    24.3390     6.7760     6.3680     7.4720     2.2750 
  138.8750   -26.4160    89.3700    24.2300     7.4510     7.0720     8.4180     2.2660 
  139.0000   -26.3640    85.8130    24.1580     8.3820     7.9370     9.6880     2.2800 
  139.1250   -26.2540    83.6310    24.1380    10.3010     8.7040    10.8520     2.3350 
  139.2500   -26.1230    80.8980    24.1370    11.9560     9.0270    11.2860     2.4120 
  139.3750   -25.9920    79.2250    24.1380    11.6740     8.7090    10.6560     2.4700 
  139.5000   -25.8950    83.3910    24.1410     9.4670     7.8620     9.2270     2.4750 
  139.6250   -25.7630    94.1010    24.1470     7.2410     6.8110     7.6500     2.4270 
