~V
VERS. 2.00: Ver 2.00
~W
STRT.M 60.0000:
STOP.M 266.0000:
STEP.M 0.1250:
NULL. -999.2500:
UWI. DF32129:
~C
DEPT.M :
SP.MV :
GR.API :
CALI.CM :
RXO.OHMM :
RI. :
RML.OHMM :
DEN.GM/CC :
~A
# ...
   71.2500   -31.3910   109.0630    25.2150     6.0200     4.7640     6.9260     2.2960 
   71.3750   -31.4260   106.8330    25.2410     6.3700     4.7360     6.8140     2.3160 
   71.5000   -31.4270   104.2240    25.1660     6.6680     4.6070     6.5490     2.3310 
   71.6250   -31.3850   104.8450    25.2190     6.5850     4.5480     6.4280     2.3390 
   71.7500   -31.3170   107.4960    25.4000     6.3660     4.7280     6.6850     2.3540 
   71.8750   -31.2500   108.0060    25.3960     6.7830     5.2410     7.4340     2.3910 
   72.0000   -31.2560   104.7250    25.2330     8.4560     6.1080     8.6920     2.4480 
   72.1250   -31.4420    97.6930    25.1250    11.7470     7.3030    10.3820     2.5130 
   72.2500   -31.7050    90.8590    25.2960    14.7280     8.6040    12.1210     2.5620 
   72.3750   -31.9850    85.8930    25.4320    15.2030     9.7840    13.5570     2.5870 
   72.5000   -32.3300    83.1210    25.2940    13.5370    10.6380    14.4740     2.5880 
   72.6250   -32.8030    82.7130    24.8550    13.2800    10.9900    14.7820     2.5710 
   72.7500   -33.3460    81.6820    24.6850    15.9390    10.8900    14.5700     2.5340 
   72.8750   -33.9110    79.6350    24.6830    17.6810    10.3650    13.8000     2.4700 
   73.0000   -34.5020    77.9670    24.6770    15.4130     9.5220    12.5730     2.3830 
   73.1250   -35.0610    77.5260    24.3790    11.3580     8.5560    11.2170     2.2890 
   73.2500   -35.5480    78.8660    24.1910     9.0390     7.6960    10.1060     2.2150 
   73.3750   -35.9240    81.6560    24.1230     8.2470     7.0680     9.4130     2.1720 
   73.5000   -36.1730    84.0860    24.1190     8.0510     6.7180     9.1560     2.1570 
   73.6250   -36.3480    84.0030    24.1190     7.9830     6.6160     9.2240     2.1600 
   73.7500   -36.4810    83.2710    24.1190     7.9330     6.5960     9.3310     2.1640 
   73.8750   -36.5630    84.0550    24.1190     7.9250     6.5750     9.3480     2.1650 
   74.0000   -36.5630    87.0170    24.1190     7.9510     6.5420     9.2920     2.1660 
   74.1250   -36.4840    90.7430    24.1190     8.0120     6.5530     9.2810     2.1700 
   74.2500   -36.3380    92.8730    24.1190     8.0870     6.6450     9.3920     2.1750 
   74.3750   -36.1820    91.4390    24.1190     8.3040     6.8200     9.6340     2.1770 
   74.5000   -36.0690    87.0820    24.1190     8.7210     7.0390     9.9520     2.1800 
   74.6250   -35.9430    83.6250    24.1190     9.0870     7.2100    10.2180     2.1850 
   74.7500   -35.7950    81.8830    24.1190     8.9820     7.2570    10.3340     2.1870 
   74.8750   -35.6420    80.0460    24.1190     8.5360     7.1600    10.2840     2.1790 
   75.0000   -35.4960    77.7870    24.1190     8.1970     6.9590    10.1190     2.1650 
   75.1250   -35.4210    78.9710    24.1190     8.1720     6.7370     9.9340     2.1560 
   75.2500   -35.4900    82.2270    24.1190     8.2610     6.5700     9.8080     2.1560 
   75.3750   -35.6500    83.4310    24.1190     8.3100     6.4810     9.7550     2.1640 
   75.5000   -35.8190    82.8270    24.1190     8.3070     6.4560     9.7540     2.1740 
   75.6250   -35.9460    84.0030    24.1190     8.2790     6.4620     9.7770     2.1730 
   75.7500   -36.0570    84.9890    24.1190     8.2610     6.4730     9.8190     2.1630 
   75.8750   -36.1730    82.7590    24.1190     8.3000     6.4970     9.9040     2.1540 
   76.0000   -36.2830    77.9930    24.1180     8.4660     6.5510    10.0550     2.1550 
   76.1250   -36.3120    73.3090    24.1160     8.6900     6.6480    10.2760     2.1620 
   76.2500   -36.2580    70.6290    24.1150     8.8480     6.7660    10.5100     2.1600 
   76.3750   -36.1680    69.6860    24.1160     8.9290     6.8700    10.6900     2.1490 
   76.5000   -36.0750    68.2400    24.1160     9.0100     6.9130    10.7570     2.1380 
   76.6250   -36.0370    65.7060    24.1150     9.1060     6.8530    10.6610     2.1410 
   76.7500   -36.0210    66.4210    24.1160     9.1290     6.7240    10.4660     2.1530 
   76.8750   -35.9990    71.1160    24.1160     8.9960     6.5720    10.2430     2.1630 
   77.0000   -35.9720    75.1050    24.1120     8.7400     6.4400    10.0660     2.1680 
   77.1250   -35.9180    75.1940    24.1110     8.5350     6.3710    10.0050     2.1690 
   77.2500   -35.8890    74.4710    24.1100     8.4100     6.3660    10.0470     2.1700 
   77.3750   -35.8370    75.7690    24.1120     8.3480     6.4180    10.1590     2.1720 
   77.5000   -35.8070    76.2590    24.1160     8.3120     6.5160    10.2890     2.1750 
   77.6250   -35.7670    72.7680    24.1230     8.3090     6.6350    10.3780     2.1780 
   77.7500   -35.6940    69.5230    24.1400     8.3390     6.7350    10.4080     2.1800 
   77.8750   -35.6030    69.7790    24.1640     8.4000     6.7850    10.3850     2.1810 
   78.0000   -35.5020    71.9740    24.1880     8.4470     6.7770    10.3270     2.1810 
   78.1250   -35.4440    72.5550    24.1970     8.4090     6.7230    10.2410     2.1790 
   78.2500   -35.3650    71.5810    24.2020     8.3600     6.6550    10.1300     2.1700 
   78.3750   -35.2530    71.3100    24.2120     8.3260     6.5830    10.0020     2.1560 
   78.5000   -35.0320    72.5800    24.2400     8.2310     6.5070     9.8760     2.1440 
   78.6250   -34.7640    73.3430    24.2940     8.0380     6.4320     9.7780     2.1410 
   78.7500   -34.4960    71.6450    24.3330     7.8760     6.3580     9.6850     2.1460 
   78.8750   -34.2360    69.9540    24.3470     7.7890     6.2760     9.5460     2.1520 
   79.0000   -33.9650    72.1090    24.3570     7.7440     6.1710     9.3130     2.1530 
   79.1250   -33.6600    75.8810    24.3850     7.7090     6.0220     8.9840     2.1540 
   79.2500   -33.3300    78.5940    24.4530     7.6020     5.8520     8.6650     2.1640 
   79.3750   -33.0060    81.7110    24.5690     7.3140     5.7120     8.4760     2.1800 
   79.5000   -32.6960    85.2810    24.7080     7.0520     5.6550     8.4920     2.1950 
   79.6250   -32.4020    88.1230    24.7940     7.0200     5.6870     8.7010     2.2030 
   79.7500   -32.0620    88.9650    24.8390     7.3410     5.7090     8.8970     2.2130 
   79.8750   -31.6990    88.1060    24.9110     7.6680     5.6210     8.8590     2.2360 
   80.0000   -31.4030    85.4980    25.1240     7.6520     5.3460     8.4250     2.2770 
   80.1250   -31.1190    85.2310    25.3830     6.8340     4.8870     7.6210     2.3250 
   80.2500   -30.8840    91.0220    25.4860     5.8780     4.4030     6.8080     2.3560 
   80.3750   -30.7550    99.0230    25.3710     5.2620     4.0230     6.2330     2.3570 
   80.5000   -30.7620   103.7850    25.2840     5.0250     3.8260     6.0180     2.3360 
   80.6250   -30.8390   103.6370    25.2270     5.1090     3.8750     6.2260     2.3120 
   80.7500   -30.9670   101.4280    25.1500     5.3810     4.0920     6.6840     2.2900 
   80.8750   -31.1310    96.4310    25.0960     5.7750     4.3830     7.1970     2.2650 
   81.0000   -31.2870    89.5520    25.0920     6.1320     4.6350     7.5600     2.2410 
   81.1250   -31.4040    86.2460    25.1720     6.2630     4.7410     7.6280     2.2380 
   81.2500   -31.5100    88.3860    25.2890     6.0980     4.7200     7.5120     2.2530 
   81.3750   -31.6470    92.8290    25.5160     5.8320     4.6290     7.3360     2.2720 
   81.5000   -31.7570    94.3390    25.6470     5.7860     4.5310     7.1990     2.2810 
   81.6250   -31.8270    93.3720    25.5430     6.0220     4.4650     7.1550     2.2800 
   81.7500   -31.9980    94.0690    25.4260     6.1780     4.4320     7.1810     2.2810 
   81.8750   -32.2100    98.1790    25.5660     6.1780     4.4300     7.2640     2.2840 
   82.0000   -32.4400   102.8700    25.7690     6.1050     4.4520     7.3890     2.2870 
   82.1250   -32.8320   103.4790    25.7280     6.1120     4.4890     7.5210     2.2830 
   82.2500   -33.2390   101.1200    25.3860     6.2220     4.5240     7.6170     2.2670 
   82.3750   -33.5500    96.7860    25.0040     6.3500     4.5470     7.6640     2.2410 
