~V
VERS. 2.00: Ver 2.00
~W
STRT.M 62.0000:
STOP.M 260.0000:
STEP.M 0.1250:
NULL. -999.2500:
UWI. DF32117:
~C
DEPT.M :
GR.API :
CALI.CM :
RXO.OHMM :
RI. :
RML.OHMM :
DEN.GM/CC :
SP.MV :
~A
# ...
   95.7500    75.6820    24.7820     7.0010     6.0660     8.8070     2.2280   -27.8510 
   95.8750    73.6630    24.7880     6.4930     5.8280     8.4550     2.2070   -27.6190 
   96.0000    71.0660    24.7900     6.4770     5.6390     8.2030     2.1880   -27.4020 
   96.1250    70.9240    24.7880     6.6470     5.5230     8.0770     2.1860   -27.2430 
   96.2500    75.2930    24.7840     6.6770     5.4660     8.0410     2.1920   -27.1500 
   96.3750    80.3840    24.7820     6.5930     5.4600     8.0760     2.1920   -27.1090 
   96.5000    81.3980    24.7820     6.5540     5.4980     8.1710     2.1820   -27.1030 
   96.6250    76.9310    24.7820     6.6810     5.5780     8.3190     2.1740   -27.1170 
   96.7500    73.7140    24.7820     6.8980     5.6810     8.4910     2.1740   -27.1500 
   96.8750    74.3570    24.7820     7.1120     5.7920     8.6610     2.1770   -27.1930 
   97.0000    77.4160    24.7820     7.2880     5.8970     8.8030     2.1790   -27.2400 
   97.1250    79.0440    24.7810     7.4230     5.9800     8.8990     2.1810   -27.2810 
   97.2500    79.0280    24.7760     7.5060     6.0390     8.9540     2.1900   -27.3060 
   97.3750    78.6100    24.7630     7.5350     6.0740     8.9730     2.2040   -27.3220 
   97.5000    77.8430    24.7300     7.5340     6.0940     8.9650     2.2130   -27.3420 
   97.6250    76.4060    24.6770     7.5300     6.1130     8.9470     2.2120   -27.3790 
   97.7500    73.9530    24.6340     7.5560     6.1500     8.9500     2.2090   -27.4360 
   97.8750    70.9490    24.6180     7.6310     6.2230     9.0010     2.2040   -27.5200 
   98.0000    69.9720    24.6220     7.7970     6.3370     9.1130     2.1970   -27.6160 
   98.1250    73.1550    24.6260     8.1860     6.4900     9.2860     2.1940   -27.6830 
   98.2500    76.7580    24.6270     8.6690     6.6540     9.4750     2.1970   -27.6840 
   98.3750    77.9040    24.6280     8.8440     6.7910     9.6110     2.2040   -27.5350 
   98.5000    76.4170    24.6080     8.4550     6.8380     9.5790     2.2040   -27.1630 
   98.6250    74.0250    24.5340     7.8080     6.6830     9.2020     2.1900   -26.5270 
   98.7500    72.3670    24.5140     7.3510     6.3150     8.5030     2.1720   -25.6580 
   98.8750    72.8600    24.7350     6.9000     5.7730     7.5810     2.1700   -24.5620 
   99.0000    77.1660    25.2030     6.1110     5.1400     6.5950     2.2000   -23.3160 
   99.1250    85.1950    25.6470     5.1090     4.5280     5.7110     2.2520   -22.0200 
   99.2500    93.0280    25.8680     4.4170     4.0030     4.9900     2.2870   -20.7670 
   99.3750    99.5290    25.9220     4.1570     3.5900     4.4430     2.2930   -19.6860 
   99.5000   104.6460    25.9260     4.0820     3.2930     4.0670     2.2870   -18.8790 
   99.6250   105.3710    25.9280     3.9000     3.1360     3.8960     2.2910   -18.4380 
   99.7500    99.9970    25.9310     3.6730     3.1010     3.9140     2.2990   -18.3410 
   99.8750    91.9730    25.9160     3.6420     3.1940     4.1340     2.3000   -18.5960 
  100.0000    86.0020    25.8210     3.9720     3.4150     4.5570     2.2900   -19.1360 
  100.1250    82.8430    25.5520     4.6270     3.7620     5.1640     2.2740   -19.8810 
  100.2500    80.3170    25.2000     5.2690     4.1640     5.8110     2.2640   -20.7200 
  100.3750    79.0090    24.8900     5.6840     4.5430     6.3570     2.2600   -21.5840 
  100.5000    79.2570    24.6790     5.8290     4.8300     6.6840     2.2550   -22.4360 
  100.6250    80.0700    24.5290     5.7890     4.9660     6.7410     2.2430   -23.2270 
  100.7500    80.1120    24.4080     5.7680     5.0060     6.6770     2.2290   -23.9580 
  100.8750    81.4000    24.3430     5.8890     5.0160     6.6340     2.2200   -24.6190 
  101.0000    83.7040    24.3230     6.1550     5.0660     6.7240     2.2100   -25.2070 
  101.1250    82.9230    24.3210     6.4720     5.2190     7.0370     2.1890   -25.7220 
  101.2500    77.0650    24.3220     6.7930     5.4680     7.5210     2.1660   -26.1900 
  101.3750    69.8530    24.3140     7.1210     5.7730     8.0910     2.1570   -26.6220 
  101.5000    65.6040    24.2940     7.4080     6.0680     8.6180     2.1680   -27.0050 
  101.6250    65.6500    24.2850     7.5690     6.2550     8.9200     2.1840   -27.3180 
  101.7500    69.0700    24.2970     7.6370     6.3040     8.9610     2.1910   -27.5470 
  101.8750    73.1580    24.3200     7.6180     6.2280     8.7880     2.1910   -27.6900 
  102.0000    73.8010    24.3370     7.4760     6.0770     8.5160     2.1880   -27.7520 
  102.1250    70.2600    24.3510     7.2150     5.9220     8.2770     2.1840   -27.7460 
  102.2500    66.1290    24.3650     6.9800     5.8160     8.1460     2.1790   -27.6930 
  102.3750    64.5840    24.3620     6.8420     5.7770     8.1380     2.1720   -27.5720 
  102.5000    66.6830    24.3360     6.7850     5.7970     8.2270     2.1590   -27.4020 
  102.6250    70.1250    24.3090     6.7900     5.8470     8.3480     2.1450   -27.1800 
  102.7500    70.6260    24.3070     6.8790     5.8820     8.4160     2.1420   -26.9090 
  102.8750    68.1960    24.3280     7.0620     5.8730     8.3800     2.1500   -26.5960 
  103.0000    66.0090    24.3630     7.1980     5.8070     8.2290     2.1640   -26.2830 
  103.1250    68.1400    24.3760     7.0460     5.6910     7.9970     2.1720   -26.0140 
  103.2500    72.6110    24.3190     6.7160     5.5720     7.7830     2.1760   -25.8140 
  103.3750    76.9170    24.2080     6.4550     5.4870     7.6620     2.1830   -25.7220 
  103.5000    79.1340    24.1010     6.3740     5.4670     7.6790     2.1960   -25.7240 
  103.6250    77.3130    24.0550     6.4130     5.5330     7.8560     2.2140   -25.8230 
  103.7500    74.3350    24.0760     6.5310     5.6610     8.1210     2.2270   -26.0060 
  103.8750    72.3470    24.1820     6.7900     5.8210     8.4040     2.2220   -26.2560 
  104.0000    73.8630    24.3620     7.1750     5.9790     8.6370     2.1950   -26.5230 
  104.1250    78.1540    24.5340     7.5330     6.0990     8.7670     2.1590   -26.7720 
  104.2500    79.1280    24.6550     7.7470     6.1740     8.8160     2.1350   -26.9770 
  104.3750    76.6570    24.7530     7.8150     6.2110     8.8060     2.1310   -27.1280 
  104.5000    73.6380    24.8450     7.8070     6.2250     8.7560     2.1370   -27.2360 
  104.6250    71.9940    24.8780     7.7730     6.2350     8.6630     2.1450   -27.2950 
  104.7500    70.9810    24.8150     7.7110     6.2530     8.5340     2.1510   -27.3320 
  104.8750    70.1600    24.6880     7.6190     6.2830     8.3800     2.1620   -27.3620 
  105.0000    70.1150    24.5820     7.5350     6.3270     8.2240     2.1770   -27.3980 
  105.1250    69.5260    24.5620     7.5210     6.3800     8.0880     2.1880   -27.4250 
  105.2500    69.0710    24.5860     7.5600     6.4280     7.9680     2.1860   -27.4490 
  105.3750    70.8040    24.6070     7.5850     6.4580     7.8490     2.1760   -27.4580 
  105.5000    73.0600    24.6010     7.5430     6.4620     7.7250     2.1680   -27.4240 
  105.6250    73.7050    24.5770     7.4380     6.4530     7.6270     2.1640   -27.3230 
  105.7500    73.7190    24.5530     7.3090     6.4650     7.6000     2.1550   -27.1120 
  105.8750    73.8680    24.5400     7.1770     6.5140     7.6510     2.1440   -26.7120 
  106.0000    73.6150    24.5470     7.1020     6.5720     7.7200     2.1430   -26.0830 
  106.1250    72.6150    24.5900     7.2070     6.5420     7.6450     2.1520   -25.2260 
  106.2500    74.8860    24.6730     7.2960     6.3390     7.3060     2.1570   -24.1930 
  106.3750    81.5740    24.8390     6.9510     5.9320     6.6850     2.1560   -23.0270 
  106.5000    89.7580    25.1800     6.0310     5.3790     5.8920     2.1600   -21.8130 
  106.6250    95.0360    25.7220     5.0330     4.8080     5.1420     2.1770   -20.6160 
  106.7500    96.7010    26.2220     4.4700     4.3450     4.5930     2.2020   -19.5010 
  106.8750    95.3610    26.4980     4.2980     4.0400     4.2920     2.2340   -18.5420 
