~V
VERS. 2.00: Ver 2.00
~W
STRT.M 55.0000:
STOP.M 256.0000:
STEP.M 0.1250:
NULL. -999.2500:
UWI. DF327:
~C
DEPT.M :
SP.MV :
DEN.GM/CC :
AC.US/MT :
GR.API :
RML.OHMM :
RI. :
RXO.OHMM :
CALI.CM :
~A
# ...
  165.0000   -19.6290     2.2280   403.7960    66.6230    85.9490    86.3780   156.5560    24.3660 
  165.1250   -20.0440     2.2340   404.0960    67.8400    97.5780    99.3170   159.0920    24.3690 
  165.2500   -20.4160     2.2400   404.3010    69.6820   107.1480   108.8430   156.2450    24.3600 
  165.3750   -20.7020     2.2440   404.2380    70.7710   112.3670   114.3130   153.8320    24.3410 
  165.5000   -20.9040     2.2450   403.9650    72.7470   114.6570   116.4650   149.2370    24.3350 
  165.6250   -21.0310     2.2420   403.7720    75.3740   116.2960   116.7390   144.9050    24.3400 
  165.7500   -21.1030     2.2400   403.7370    75.7690   116.8920   116.6930   141.8270    24.3410 
  165.8750   -21.1330     2.2420   403.7280    74.3720   117.0880   116.5310   139.8950    24.3390 
  166.0000   -21.1180     2.2490   403.7760    73.1880   117.0180   115.7700   137.9360    24.3500 
  166.1250   -21.1100     2.2600   404.1340    72.5610   115.8750   113.3340   135.1010    24.3430 
  166.2500   -21.1520     2.2700   404.7400    71.6060   112.7690   108.8680   126.9520    24.3240 
  166.3750   -21.2430     2.2760   405.1830    70.4330   107.2170   102.3480   117.1720    24.3110 
  166.5000   -21.3680     2.2760   404.8030    70.9780    98.8700    94.2930   107.4140    24.2990 
  166.6250   -21.5270     2.2720   403.1380    73.7690    88.2330    85.7930    98.5400    24.2270 
  166.7500   -21.7130     2.2660   401.1400    76.5250    78.3100    78.2800    89.4960    24.0520 
  166.8750   -21.9130     2.2590   400.0260    78.4150    72.6320    72.7730    80.5410    23.8190 
  167.0000   -22.1310     2.2500   400.5460    79.7320    69.9620    69.8730    75.3440    23.6830 
  167.1250   -22.3160     2.2420   402.2890    82.4030    70.5060    70.1350    77.2520    23.5560 
  167.2500   -22.4670     2.2380   403.5030    85.6040    73.3940    72.8220    86.2200    23.5800 
  167.3750   -22.6040     2.2390   402.7740    86.7700    78.2570    77.5760    98.2410    23.9080 
  167.5000   -22.7600     2.2450   399.5440    83.7840    84.8230    84.0680   112.7570    24.1990 
  167.6250   -22.9200     2.2510   394.4950    79.3080    93.2330    92.2080   121.7570    24.2530 
  167.7500   -23.0860     2.2520   390.4180    77.5240   103.1100   101.4000   127.8110    24.1730 
  167.8750   -23.2620     2.2450   389.1250    77.0520   114.1100   111.2330   138.4290    24.0720 
  168.0000   -23.4500     2.2320   390.5620    75.8970   125.6050   121.2710   153.2580    24.0030 
  168.1250   -23.6860     2.2180   392.2190    75.3980   136.7760   131.1500   162.5580    24.1110 
  168.2500   -23.9750     2.2070   391.9670    77.6320   147.0510   140.6710   166.8270    24.1950 
  168.3750   -24.3130     2.2020   390.5180    79.8290   155.8230   149.4100   168.0760    24.2870 
  168.5000   -24.6580     2.2030   389.9480    78.2930   162.1670   156.4850   170.8470    24.3570 
  168.6250   -24.9720     2.2120   391.8370    76.1890   164.4020   160.2080   176.7190    24.4100 
  168.7500   -25.2590     2.2220   395.0610    77.1930   163.0900   160.6030   187.6950    24.4230 
  168.8750   -25.5420     2.2310   398.4460    77.2230   159.7570   158.5760   192.6970    24.4370 
  169.0000   -25.7930     2.2360   401.2390    72.6180   156.6290   155.9340   188.5820    24.4010 
  169.1250   -26.0160     2.2350   402.7730    68.4060   155.8890   154.9060   170.2940    24.3910 
  169.2500   -26.2480     2.2310   403.1250    70.0670   157.6540   156.3380   162.0200    24.4210 
  169.3750   -26.4850     2.2280   402.5700    73.3000   161.5320   160.3930   169.3540    24.4690 
  169.5000   -26.7150     2.2250   401.5770    72.4940   167.1900   166.9630   184.2910    24.4870 
  169.6250   -26.9710     2.2230   400.6110    69.2200   175.2610   176.3650   194.0610    24.4780 
  169.7500   -27.2430     2.2190   400.0880    67.9410   186.1940   188.0900   200.6190    24.4480 
  169.8750   -27.5190     2.2110   400.3110    69.4700   200.4670   201.8390   211.3950    24.3870 
  170.0000   -27.8380     2.2000   401.4040    71.4540   217.7620   217.0470   223.7660    24.3040 
  170.1250   -28.1550     2.1910   403.1850    69.2360   236.4850   232.7370   232.2040    24.2440 
  170.2500   -28.4090     2.1860   404.7850    64.4520   253.3340   247.2190   239.6590    24.2590 
  170.3750   -28.6070     2.1870   405.5960    62.0360   265.3440   258.5370   247.0570    24.3450 
  170.5000   -28.7780     2.1950   405.4760    64.0180   270.4250   264.6760   249.2630    24.4070 
  170.6250   -28.9170     2.2040   404.8460    66.0830   266.9720   263.2580   250.1590    24.4010 
  170.7500   -29.0190     2.2120   404.3560    65.9850   258.0390   256.0360   247.5800    24.3490 
  170.8750   -29.0710     2.2160   403.9520    67.0660   246.6600   245.4160   239.9050    24.2960 
  171.0000   -29.0590     2.2160   403.1820    69.4180   236.0310   234.5550   226.2910    24.3260 
  171.1250   -29.0130     2.2150   401.8290    68.1580   229.2430   226.8440   217.4590    24.3560 
  171.2500   -28.9730     2.2140   400.6530    65.0720   226.7100   223.2540   215.5780    24.3680 
  171.3750   -28.9570     2.2140   400.3360    63.9340   228.3460   223.9670   218.0410    24.3560 
  171.5000   -28.9730     2.2140   401.2080    65.7220   234.1110   228.9300   223.6920    24.3290 
  171.6250   -29.0190     2.2150   403.2510    67.1620   245.5580   239.1830   230.7970    24.2980 
  171.7500   -29.0650     2.2140   405.5520    66.3560   262.7920   254.3680   234.7200    24.2510 
  171.8750   -29.1110     2.2140   407.1390    64.1930   285.0480   273.9180   234.1920    24.2190 
  172.0000   -29.1500     2.2130   407.5190    61.7120   308.7770   295.3720   234.7050    24.2700 
  172.1250   -29.1630     2.2140   406.7470    60.0060   325.4990   312.5470   244.9950    24.3400 
  172.2500   -29.1440     2.2160   405.0020    60.3980   328.3180   319.4630   261.8290    24.3710 
  172.3750   -29.0620     2.2200   402.1030    62.0620   314.7500   312.7560   273.5890    24.3560 
  172.5000   -28.9120     2.2260   398.4830    64.0200   289.0770   293.8280   272.8430    24.3490 
  172.6250   -28.7030     2.2310   395.8260    64.8750   260.5560   268.6170   256.9590    24.3340 
  172.7500   -28.4790     2.2350   395.3980    65.5880   237.0770   245.5410   232.1440    24.3140 
  172.8750   -28.2450     2.2360   397.2520    66.7340   220.8880   228.3850   207.7160    24.2680 
  173.0000   -27.9720     2.2340   400.3200    67.0800   211.8280   218.0880   198.9320    24.2000 
  173.1250   -27.6600     2.2290   402.8180    67.4020   209.7900   214.8330   214.7680    24.1630 
  173.2500   -27.3440     2.2240   403.9840    67.4230   212.9000   216.6530   229.6380    24.2450 
  173.3750   -27.0230     2.2200   404.3650    67.6480   221.0070   223.3240   235.5950    24.3120 
  173.5000   -26.7270     2.2170   404.9620    67.7390   234.3790   235.0150   234.5190    24.3440 
  173.6250   -26.4740     2.2140   406.1220    66.5210   253.9750   252.4260   236.7050    24.3360 
  173.7500   -26.2050     2.2100   406.9420    64.8190   277.5880   273.3360   246.6080    24.3310 
  173.8750   -25.9050     2.2060   406.6370    63.4120   302.0430   294.7890   262.5650    24.3200 
  174.0000   -25.5800     2.2040   405.0540    62.8650   322.5120   312.5820   274.6090    24.3100 
  174.1250   -25.2430     2.2050   403.2550    63.3210   331.7260   321.0020   283.8830    24.3040 
  174.2500   -24.9050     2.2080   402.5020    64.2420   329.3920   319.8660   279.7490    24.2850 
  174.3750   -24.5910     2.2130   402.8520    65.5940   316.8740   310.5800   263.2490    24.2610 
  174.5000   -24.2860     2.2180   403.5070    65.6270   297.1360   294.8700   241.0440    24.2460 
  174.6250   -23.9670     2.2230   403.6230    64.8390   269.6660   272.3310   221.0390    24.2320 
  174.7500   -23.6720     2.2250   402.9710    64.8910   239.7060   244.8210   217.3420    24.2090 
  174.8750   -23.4280     2.2220   400.6150    65.3530   211.1590   215.3690   229.7830    24.1890 
