~V
VERS. 2.00: Ver 2.00
~W
STRT.M 62.0000:
STOP.M 260.0000:
STEP.M 0.1250:
NULL. -999.2500:
UWI. DF32117:
~C
DEPT.M :
GR.API :
CALI.CM :
RXO.OHMM :
RI. :
RML.OHMM :
DEN.GM/CC :
SP.MV :
~A
# ...
  118.2500    68.8780    25.5230     7.4960     7.0370     7.9580     2.2070   -19.0610 
  118.3750    77.1230    25.6860     6.7270     6.2640     7.0090     2.2350   -18.2380 
  118.5000    82.7190    25.9290     5.5680     5.3610     5.8700     2.2780   -17.4960 
  118.6250    82.6310    25.9980     4.5400     4.5730     4.9200     2.3220   -16.9350 
  118.7500    82.1620    25.8660     4.0000     4.0410     4.3600     2.3480   -16.5800 
  118.8750    82.4090    25.7340     4.1420     3.8250     4.2650     2.3480   -16.4610 
  119.0000    80.3110    25.8010     5.0970     3.9500     4.6510     2.3270   -16.5610 
  119.1250    76.3330    25.9020     6.5030     4.4800     5.5790     2.2890   -16.8620 
  119.2500    73.5640    25.7760     7.5850     5.3290     6.9030     2.2430   -17.2780 
  119.3750    72.0080    25.4100     8.5910     6.4260     8.4990     2.1990   -17.7420 
  119.5000    68.6960    25.0000    10.4430     7.6350    10.1590     2.1750   -18.2300 
  119.6250    65.4760    24.8140    12.4630     8.6890    11.4910     2.1720   -18.6880 
  119.7500    65.8060    24.8300    12.5150     9.3510    12.2020     2.1750   -19.1060 
  119.8750    66.3350    25.0580    10.6310     9.5000    12.1770     2.1810   -19.4910 
  120.0000    65.9010    25.4090     8.6340     9.1710    11.5320     2.1970   -19.8660 
  120.1250    68.7460    25.6510     7.6830     8.5230    10.5470     2.2190   -20.2340 
  120.2500    73.2850    25.6900     7.2920     7.8470     9.6180     2.2310   -20.6040 
  120.3750    73.0050    25.6320     7.1870     7.2940     8.9270     2.2310   -20.9620 
  120.5000    67.4720    25.6260     7.2610     6.9310     8.5330     2.2270   -21.2530 
  120.6250    65.1410    25.7290     7.3360     6.7970     8.4600     2.2270   -21.4370 
  120.7500    66.9860    25.8360     7.2870     6.8340     8.6160     2.2280   -21.4990 
  120.8750    69.5030    25.8900     7.1970     7.0010     8.9420     2.2240   -21.4040 
  121.0000    71.7460    25.9010     7.1960     7.2320     9.3320     2.2130   -21.1210 
  121.1250    74.8920    25.9580     7.2680     7.3860     9.5430     2.2020   -20.6350 
  121.2500    76.9540    25.9790     7.2880     7.3110     9.3450     2.1930   -19.9920 
  121.3750    76.6580    25.8430     7.1700     6.9180     8.6320     2.1920   -19.2130 
  121.5000    75.4060    25.5950     6.7610     6.2440     7.5270     2.2070   -18.3800 
  121.6250    78.8750    25.4550     5.8850     5.4490     6.3520     2.2460   -17.5770 
  121.7500    87.4010    25.5650     4.9140     4.7480     5.4150     2.2940   -16.8720 
  121.8750    92.2320    25.9340     4.4040     4.1130     4.7620     2.3330   -16.3220 
  122.0000    86.2010    25.9130     4.5750     3.9570     4.7620     2.3550   -15.9710 
  122.1250    83.2430    25.6340     4.7200     4.1060     5.1480     2.3500   -15.8400 
  122.2500    86.0310    25.5630     4.8440     4.3660     5.6470     2.3260   -15.8770 
  122.3750    87.3490    25.7040     5.2130     4.6520     6.1080     2.2930   -16.0530 
  122.5000    84.8370    25.7790     5.7090     4.8780     6.3980     2.2680   -16.3130 
  122.6250    81.3480    25.6520     5.7790     4.9610     6.4050     2.2670   -16.6320 
  122.7500    79.5970    25.5000     5.4760     4.9220     6.2220     2.2780   -16.9790 
  122.8750    79.1740    25.4130     5.3110     4.8210     5.9830     2.2910   -17.3610 
  123.0000    79.5320    25.3700     5.5320     4.7440     5.8440     2.2950   -17.7900 
  123.1250    78.7960    25.3250     5.8520     4.7980     5.9720     2.2820   -18.2830 
  123.2500    74.7910    25.4610     6.1090     5.0210     6.3840     2.2640   -18.8090 
  123.3750    69.5700    25.7870     6.5650     5.4180     7.0460     2.2560   -19.3580 
  123.5000    66.4400    25.9930     7.3160     5.9430     7.8500     2.2620   -19.8960 
  123.6250    67.4020    25.7580     7.9590     6.4980     8.6070     2.2680   -20.3550 
  123.7500    69.1130    25.3890     8.2140     6.9730     9.1680     2.2620   -20.6980 
  123.8750    68.8420    25.1980     8.1960     7.3090     9.4910     2.2440   -20.8690 
  124.0000    67.2140    25.1730     8.0980     7.4960     9.6110     2.2210   -20.8260 
  124.1250    68.1770    25.1430     7.9990     7.5160     9.5350     2.2000   -20.5320 
  124.2500    72.0530    25.1160     7.9350     7.3750     9.2520     2.1850   -20.0390 
  124.3750    75.0980    25.0890     7.8300     7.0350     8.6880     2.1790   -19.3560 
  124.5000    75.5870    25.0750     7.4420     6.4920     7.8380     2.1860   -18.5510 
  124.6250    74.8460    25.0720     6.5590     5.8080     6.8230     2.2170   -17.7340 
  124.7500    76.2900    25.1140     5.5900     5.1410     5.8820     2.2650   -17.0070 
  124.8750    77.5880    25.2830     4.9480     4.5920     5.1510     2.3090   -16.4530 
  125.0000    77.1760    25.6030     4.7110     4.2140     4.6840     2.3270   -16.1420 
  125.1250    78.3240    25.9220     4.6790     4.0440     4.4980     2.3090   -16.1260 
  125.2500    80.5860    26.0700     4.7050     4.0260     4.4840     2.2860   -16.3300 
  125.3750    80.6970    26.0700     4.8240     4.1200     4.5700     2.2740   -16.7390 
  125.5000    78.0340    26.0380     5.0340     4.2860     4.6950     2.2740   -17.3040 
  125.6250    76.7330    26.0010     5.2530     4.4850     4.8250     2.2730   -17.9320 
  125.7500    77.9630    25.9200     5.3990     4.6800     4.9480     2.2710   -18.5360 
  125.8750    79.8130    25.8170     5.4390     4.8490     5.0590     2.2750   -19.0590 
  126.0000    80.2040    25.7510     5.4240     4.9790     5.1470     2.2860   -19.4640 
  126.1250    77.7580    25.7350     5.4500     5.0640     5.2000     2.2950   -19.7270 
  126.2500    76.0240    25.7290     5.5270     5.1190     5.2310     2.2910   -19.9150 
  126.3750    78.4710    25.7290     5.5990     5.1570     5.2610     2.2790   -20.0710 
  126.5000    82.4430    25.7550     5.6530     5.1890     5.3050     2.2700   -20.2290 
  126.6250    82.3340    25.8080     5.7370     5.2190     5.3670     2.2750   -20.4350 
  126.7500    79.8030    25.8640     5.8620     5.2490     5.4300     2.2840   -20.6980 
  126.8750    78.2820    25.8920     5.9700     5.2810     5.4820     2.2800   -21.0290 
  127.0000    76.9360    26.0160     6.0130     5.3160     5.5240     2.2580   -21.4200 
  127.1250    74.6340    26.3150     6.0180     5.3650     5.5840     2.2360   -21.8620 
  127.2500    74.0850    26.4130     6.0580     5.4550     5.7070     2.2260   -22.3250 
  127.3750    76.0750    26.0990     6.1660     5.6270     5.9450     2.2260   -22.7980 
  127.5000    76.8220    25.5970     6.3990     5.9260     6.3500     2.2300   -23.2600 
  127.6250    73.0300    25.3520     6.9160     6.4150     6.9760     2.2380   -23.6660 
  127.7500    70.6540    25.3390     7.7250     7.0560     7.7590     2.2430   -24.0010 
  127.8750    72.2610    25.3730     8.7060     7.7860     8.6020     2.2360   -24.2430 
  128.0000    74.1280    25.4300     9.5760     8.4890     9.3540     2.2150   -24.3880 
  128.1250    73.9180    25.4730     9.9680     8.9880     9.8090     2.1900   -24.4610 
  128.2500    74.3080    25.4780     9.9760     9.2520     9.9800     2.1720   -24.4990 
  128.3750    76.1310    25.4470     9.7950     9.3540     9.9970     2.1630   -24.5070 
  128.5000    76.5170    25.4060     9.5660     9.4290    10.0410     2.1630   -24.4990 
  128.6250    74.0810    25.3670     9.5870     9.6230    10.2850     2.1660   -24.5080 
  128.7500    70.5880    25.3330    10.2840     9.9690    10.7380     2.1660   -24.5430 
  128.8750    68.0060    25.3180    11.5940    10.4300    11.3270     2.1670   -24.6200 
  129.0000    67.7880    25.3400    12.5790    10.9010    11.9020     2.1700   -24.7550 
  129.1250    68.5910    25.3760    12.1790    11.2210    12.2540     2.1760   -24.9350 
  129.2500    67.7440    25.3540    11.1870    11.3400    12.3400     2.1880   -25.1370 
  129.3750    66.7210    25.2210    10.5080    11.2960    12.2310     2.2090   -25.3550 
