~V
VERS. 2.00: Ver 2.00
~W
STRT.M 62.0000:
STOP.M 318.0000:
STEP.M 0.1250:
NULL. -999.2500:
UWI. DF321:
~C
DEPT.M :
DEN.GM/CC :
SP.MV :
AC.US/MT :
GR.API :
CALI.CM :
RXO.OHMM :
RI. :
RML.OHMM :
~A
# ...
  262.0000     2.2240   -25.6140   385.9300    62.2500    23.7120    60.9170    53.1610    53.9640 
  262.1250     2.2250   -25.5120   385.5370    63.3080    23.7080    58.7190    47.5290    47.7950 
  262.2500     2.2280   -25.3420   384.6620    63.8740    23.6890    53.9660    41.6400    41.5560 
  262.3750     2.2360   -25.1090   383.5790    65.1460    23.6560    48.9840    36.5200    36.2950 
  262.5000     2.2520   -24.8510   382.8370    66.7850    23.6180    43.9860    32.7340    32.5060 
  262.6250     2.2790   -24.6780   383.0060    66.3550    23.6030    37.2140    30.6690    30.5240 
  262.7500     2.3100   -24.5980   383.8760    64.4390    23.5980    31.1740    29.9110    29.8790 
  262.8750     2.3340   -24.5600   384.7990    64.4240    23.5970    30.2050    30.1740    30.2530 
  263.0000     2.3420   -24.4730   384.4280    68.3140    23.5860    33.8790    31.1150    31.2750 
  263.1250     2.3340   -24.3790   379.7510    73.4370    23.5530    34.4630    32.3260    32.5260 
  263.2500     2.3350   -24.3660   369.3230    74.9450    23.5140    31.9220    33.2840    33.5110 
  263.3750     2.3620   -24.4000   353.4800    71.7210    23.4970    30.8130    33.6300    33.8930 
  263.5000     2.4110   -24.3630   335.3920    67.4010    23.4950    33.5420    33.1670    33.4770 
  263.6250     2.4550   -24.2580   321.1570    67.5960    23.4830    35.8530    31.7770    32.0690 
  263.7500     2.4810   -24.1530   314.1750    71.5460    23.4340    34.1470    29.8620    29.9910 
  263.8750     2.4980   -24.0020   314.3340    72.7090    23.2870    30.5900    27.8750    27.7370 
  264.0000     2.5130   -23.7960   318.7610    68.3550    23.0510    27.8000    26.3180    25.9450 
  264.1250     2.5230   -23.5730   323.4460    64.9150    22.7360    25.2760    25.6880    25.2450 
  264.2500     2.5200   -23.3260   325.8080    65.9000    22.6260    22.9520    25.8960    25.5160 
  264.3750     2.5050   -23.0520   325.3670    67.5540    22.5880    23.3730    26.7580    26.5040 
  264.5000     2.4900   -22.7840   322.6750    68.7780    22.6930    26.0060    28.0120    27.8790 
  264.6250     2.4820   -22.4310   318.7810    68.8290    23.0380    28.2550    29.4360    29.4160 
  264.7500     2.4790   -22.0150   314.9770    66.4410    23.2990    28.6400    30.8250    30.9710 
  264.8750     2.4800   -21.6530   311.3800    63.0190    23.3870    29.3790    31.8530    32.2510 
  265.0000     2.4870   -21.3500   307.0440    63.1450    23.4330    33.5980    31.8140    32.4950 
  265.1250     2.5060   -21.0310   300.5920    66.0200    23.5210    40.7050    29.5310    30.3580 
  265.2500     2.5330   -20.7370   293.6520    67.1490    23.6140    44.2760    25.5150    26.2550 
  265.3750     2.5660   -20.4790   290.3640    67.7830    23.6330    38.3810    21.0140    21.4730 
  265.5000     2.5900   -20.2400   295.6930    71.0680    23.5590    25.5910    17.2740    17.4360 
  265.6250     2.5790   -20.1100   313.4060    74.6320    23.4630    16.2270    15.1760    15.2450 
  265.7500     2.5330   -20.0870   337.1050    74.6260    23.4670    14.3670    14.5700    14.7810 
  265.8750     2.4720   -20.0830   358.5560    71.0410    23.5410    17.8410    15.3730    15.9330 
  266.0000     2.4190   -20.1060   370.4950    67.6660    23.5980    23.6550    17.4330    18.4680 
  266.1250     2.3850   -20.2340   369.5620    67.7350    23.6040    28.3190    20.3860    21.8350 
  266.2500     2.3740   -20.4200   363.3160    68.8700    23.5550    28.9080    23.1510    24.7040 
  266.3750     2.3830   -20.6200   358.8420    68.1990    23.5130    25.8250    24.8900    26.1710 
  266.5000     2.3960   -20.8310   360.2210    66.4360    23.4720    22.4160    25.3960    26.2330 
  266.6250     2.3880   -20.9540   366.6770    65.8350    23.4130    21.7320    25.0000    25.5300 
  266.7500     2.3620   -20.9500   372.2260    64.6280    23.3570    22.5780    24.2380    24.6770 
  266.8750     2.3350   -20.8700   372.7350    63.6270    23.3590    22.6720    23.1300    23.6350 
  267.0000     2.3280   -20.7640   366.7600    66.2330    23.3940    21.5000    21.5670    22.1820 
  267.1250     2.3560   -20.5980   355.4580    69.4690    23.3990    20.6320    19.5050    20.1660 
  267.2500     2.4090   -20.3100   343.5520    69.6990    23.3430    18.7670    17.3100    17.9360 
  267.3750     2.4660   -19.9300   334.5310    71.6000    23.2990    15.4650    15.3510    15.9020 
  267.5000     2.5110   -19.5020   330.4770    79.1530    23.3410    12.3730    13.9210    14.3970 
  267.6250     2.5340   -19.0720   331.6520    84.6370    23.4340    11.4650    13.2700    13.7320 
  267.7500     2.5390   -18.6690   334.3180    83.6980    23.5220    12.4080    13.2760    13.8070 
  267.8750     2.5370   -18.3080   335.3260    82.1500    23.6060    14.4450    13.8120    14.5010 
  268.0000     2.5360   -18.0010   332.9520    83.1860    23.6410    16.5710    14.5950    15.5060 
  268.1250     2.5470   -17.7140   327.7870    80.7060    23.6090    17.6350    15.0610    16.1720 
  268.2500     2.5670   -17.4000   323.3420    76.0620    23.5720    17.0700    14.8150    15.9880 
  268.3750     2.5810   -17.0860   322.4690    77.0250    23.5330    15.0750    13.8390    14.9000 
  268.5000     2.5780   -16.8480   326.6970    84.1420    23.5050    12.4960    12.4480    13.2990 
  268.6250     2.5560   -16.7260   336.0350    88.9790    23.5210    10.5490    11.0930    11.7710 
  268.7500     2.5300   -16.6350   347.0160    88.1680    23.5820     9.7750    10.0400    10.6460 
  268.8750     2.5070   -16.5110   356.7480    85.7400    23.6520     9.7420     9.3480     9.9750 
  269.0000     2.4930   -16.3180   363.2470    85.7910    23.6870    10.0740     8.9840     9.6860 
  269.1250     2.4970   -16.1150   365.5170    88.2470    23.6900    10.3600     8.9540     9.7440 
  269.2500     2.5120   -15.9850   364.8170    90.8960    23.6900    10.4630     9.2100    10.0920 
  269.3750     2.5270   -15.9330   361.2850    91.4830    23.6820    10.7260     9.7790    10.7800 
  269.5000     2.5320   -15.9270   354.2660    88.1850    23.6550    12.0920    10.7050    11.8890 
  269.6250     2.5290   -15.9350   342.8380    82.4800    23.5950    15.6250    12.0660    13.5320 
  269.7500     2.5330   -15.9510   329.4590    77.9590    23.5560    18.5910    13.6210    15.4160 
  269.8750     2.5520   -15.9870   317.3670    76.8860    23.5540    18.2880    14.8920    16.9450 
  270.0000     2.5800   -16.0130   309.5160    78.5140    23.6030    16.2300    15.2110    17.2970 
  270.1250     2.6050   -16.0310   308.0530    80.4620    23.6600    15.9410    14.0040    15.7950 
  270.2500     2.6120   -16.0090   311.6170    83.0300    23.6800    14.9730    11.9310    13.2800 
  270.3750     2.5950   -15.9290   319.7440    90.0620    23.6560    11.8670     9.7010    10.6410 
  270.5000     2.5620   -15.7690   332.2710    96.7040    23.6110     9.7160     8.5380     9.3100 
  270.6250     2.5360   -15.5230   348.6390   103.3110    23.5550     7.8540     7.5400     8.2000 
  270.7500     2.5210   -15.2740   365.3240   109.8650    23.4680     6.1090     6.3500     6.9570 
  270.8750     2.4950   -15.0490   379.0240   109.8000    23.4660     5.9140     5.6400     6.3010 
  271.0000     2.4480   -14.9020   387.6760   106.3120    23.5800     6.2290     5.3190     6.0890 
  271.1250     2.4080   -14.8210   390.9360   104.7580    23.7420     6.2740     5.3070     6.1790 
  271.2500     2.4010   -14.7530   391.7520   104.6030    23.8070     6.1660     5.4110     6.3410 
  271.3750     2.4160   -14.6750   391.8260   104.0990    23.8110     6.0690     5.5220     6.4600 
  271.5000     2.4310   -14.6400   391.8630   103.8660    23.7940     6.0660     5.5900     6.5060 
  271.6250     2.4290   -14.6870   391.8290   106.9730    23.7590     6.1530     5.6240     6.5040 
  271.7500     2.4170   -14.7010   391.6560   112.1210    23.7130     6.2510     5.6530     6.5100 
  271.8750     2.4010   -14.7150   391.4690   117.5240    23.6920     6.2740     5.6880     6.5610 
