~V
VERS. 2.00: Ver 2.00
~W
STRT.M 60.0000:
STOP.M 232.0000:
STEP.M 0.1250:
NULL. -999.2500:
UWI. DF323:
~C
DEPT.M :
GR.API :
RML.OHMM :
RI. :
RXO.OHMM :
CALI.CM :
SP.MV :
DEN.GM/CC :
AC.US/MT :
~A
# ...
  190.0000    89.8540    23.0110    22.5610    17.5160    27.5420   -13.6020     2.3870   278.5990 
  190.1250    87.8150    22.9900    22.5060    18.8770    27.5290   -13.5960     2.4010   275.7980 
  190.2500    89.7700    23.2160    22.7150    20.6570    27.5140   -13.5690     2.4160   269.6360 
  190.3750    91.2060    23.5890    23.1190    22.1140    27.5090   -13.4970     2.4270   264.0050 
  190.5000    89.0150    23.9280    23.5580    22.6900    27.5150   -13.4950     2.4290   261.5770 
  190.6250    89.0010    24.0030    23.8100    22.9250    27.5300   -13.5380     2.4180   262.9310 
  190.7500    92.2780    23.8590    23.8550    23.1580    27.5340   -13.5590     2.3990   266.1140 
  190.8750    93.0880    23.7050    23.8230    21.1110    27.5230   -13.5890     2.3800   269.8690 
  191.0000    91.6210    23.8050    23.9020    15.9300    27.5140   -13.5890     2.3690   273.1670 
  191.1250    93.8170    24.4410    24.3000    11.7590    27.5200   -13.5450     2.3740   275.2660 
  191.2500    98.9590    25.4880    25.0040    10.8860    27.5300   -13.5050     2.3890   276.6810 
  191.3750   101.9020    26.6510    25.8940    12.8750    27.5360   -13.4850     2.4060   278.1770 
  191.5000   100.0620    27.5620    26.7490    15.7480    27.5420   -13.4080     2.4180   279.9570 
  191.6250    98.2200    27.8480    27.2790    17.3680    27.5390   -13.2150     2.4220   281.2230 
  191.7500    99.0060    27.6280    27.4350    18.3580    27.5280   -12.9850     2.4190   280.8750 
  191.8750    99.1170    27.1640    27.3190    18.8050    27.5230   -12.7450     2.4160   278.4300 
  192.0000    95.0860    26.8080    27.1480    18.2600    27.5280   -12.4880     2.4180   274.4370 
  192.1250    89.7680    26.9260    27.1880    17.4620    27.5320   -12.2390     2.4330   269.7140 
  192.2500    88.1220    27.4790    27.4880    17.8490    27.5360   -12.0010     2.4550   265.1140 
  192.3750    89.2390    28.2700    27.9670    20.0980    27.5380   -11.7730     2.4780   261.2830 
  192.5000    90.8390    29.0060    28.4630    22.3930    27.5290   -11.6020     2.4910   259.3130 
  192.6250    92.0180    29.4620    28.8040    20.2150    27.5120   -11.4790     2.4890   260.2220 
  192.7500    91.6600    29.8240    29.0420    15.4610    27.5090   -11.3800     2.4810   261.6570 
  192.8750    92.0500    30.4480    29.3920    12.0270    27.5220   -11.3310     2.4770   260.3820 
  193.0000    94.7360    31.7230    30.1350    11.0410    27.5370   -11.3460     2.4820   254.3210 
  193.1250    96.8860    33.9830    31.6420    12.8660    27.5430   -11.3400     2.4960   244.4140 
  193.2500    95.9660    36.9890    33.9410    17.4950    27.5370   -11.3030     2.5120   235.3070 
  193.3750    93.8600    41.2990    36.9860    25.0140    27.5230   -11.2510     2.5220   229.8260 
  193.5000    92.9150    46.1740    40.5640    33.5710    27.5180   -11.1850     2.5270   228.5100 
  193.6250    91.9310    51.2100    44.3000    40.6840    27.4990   -11.1370     2.5240   230.1610 
  193.7500    91.9380    56.0430    47.7930    45.0470    27.4350   -11.0850     2.5200   232.0650 
  193.8750    94.1030    60.4620    50.8590    44.4420    27.3490   -10.9870     2.5170   232.4660 
  194.0000    97.2800    64.2210    53.4670    41.3620    27.2920   -10.8430     2.5170   230.3840 
  194.1250    98.2110    67.0270    55.6250    41.6640    27.2820   -10.7400     2.5210   226.1280 
  194.2500    96.3030    69.2140    57.5170    45.8380    27.2870   -10.7290     2.5240   221.7200 
  194.3750    93.8790    71.2060    59.2420    49.5520    27.3440   -10.7820     2.5200   218.3730 
  194.5000    92.9840    73.2130    60.7800    47.9140    27.5710   -10.8430     2.5070   216.6770 
  194.6250    94.9760    74.5930    61.7510    43.7210    28.0140   -10.9020     2.4920   216.7760 
  194.7500    98.3000    74.4190    61.7510    42.9750    28.4350   -10.9440     2.4850   217.4320 
  194.8750   100.2340    71.9650    60.3930    48.1970    28.6490   -10.9600     2.4920   218.0500 
  195.0000   100.3290    67.1830    57.5600    54.4870    28.6680   -11.0310     2.5110   219.3720 
  195.1250    98.3700    60.9610    53.5630    55.2560    28.6320   -11.1200     2.5340   222.8240 
  195.2500    95.4350    55.0630    49.4690    54.7250    28.6330   -11.1420     2.5490   227.0390 
  195.3750    91.8830    50.5930    46.0630    54.6800    28.6950   -11.1330     2.5490   229.3450 
  195.5000    89.7110    48.2590    43.9440    51.5390    28.8560   -11.1250     2.5340   228.0260 
  195.6250    90.6030    48.9220    43.8740    49.3610    29.0640   -11.0780     2.5120   223.7990 
  195.7500    92.7000    52.3400    45.8100    54.9890    29.1980   -11.0170     2.4940   219.7850 
  195.8750    93.5560    58.5060    49.7440    69.7100    29.1390   -10.9820     2.4890   217.5240 
  196.0000    93.5130    67.1460    55.3690    89.5220    28.8390   -10.9640     2.4930   217.0600 
  196.1250    92.4350    77.0170    61.6570    97.6420    28.4260   -10.9890     2.5010   217.9180 
  196.2500    90.3640    84.6550    66.4020    91.6960    28.1240   -11.0380     2.5060   219.5390 
  196.3750    88.8840    86.7370    67.7510    80.7750    27.9580   -11.0110     2.5070   221.7620 
  196.5000    90.0630    82.3040    65.2620    77.9690    27.8340   -10.8970     2.5070   224.2540 
  196.6250    90.8600    73.4120    60.0410    89.3890    27.7010   -10.8210     2.5090   226.8140 
  196.7500    88.5400    64.2910    54.4450    91.6600    27.5970   -10.7890     2.5110   229.3480 
  196.8750    86.8930    56.9040    49.6500    77.4080    27.5320   -10.7770     2.5090   231.2210 
  197.0000    87.7580    51.9820    46.2050    64.9690    27.4950   -10.7490     2.5010   231.0200 
  197.1250    89.3980    49.7770    44.4420    63.7840    27.4480   -10.6480     2.4870   227.1730 
  197.2500    90.4710    49.2670    43.9030    60.5810    27.3670   -10.5170     2.4720   220.8530 
  197.3750    92.9270    49.5990    44.1660    46.4800    27.2800   -10.4120     2.4610   213.6260 
  197.5000    95.0620    49.6920    44.5720    31.7630    27.2030   -10.3460     2.4590   207.5090 
  197.6250    94.6960    48.2530    44.1070    23.8990    27.1480   -10.2820     2.4710   205.2000 
  197.7500    93.5270    45.1580    42.3410    20.7270    27.1480   -10.1820     2.4930   207.3520 
  197.8750    90.7950    40.8810    39.3840    22.5110    27.1640   -10.0410     2.5180   214.1190 
  198.0000    86.3120    36.2650    35.7860    29.0090    27.0810    -9.8900     2.5380   225.1480 
  198.1250    83.6330    32.2700    32.3350    34.0310    26.8750    -9.7650     2.5430   239.4960 
  198.2500    85.3280    29.2590    29.5510    31.5930    26.7070    -9.7020     2.5360   254.3480 
  198.3750    88.7030    27.2260    27.6020    26.7580    26.6370    -9.6830     2.5230   268.0870 
  198.5000    89.6620    25.9580    26.4300    24.7810    26.6110    -9.7080     2.5080   279.7190 
  198.6250    87.5980    25.2500    25.8910    25.2930    26.5820    -9.8070     2.4950   286.9040 
  198.7500    85.8170    24.7390    25.5810    24.7410    26.5380    -9.9400     2.4830   288.3820 
  198.8750    84.9540    24.2790    25.2860    20.9690    26.4620   -10.0720     2.4740   283.8580 
  199.0000    83.8220    23.9140    24.9740    15.0340    26.3810   -10.1850     2.4680   274.6710 
  199.1250    81.8130    23.9110    24.8450    11.7820    26.3500   -10.3280     2.4660   262.9980 
  199.2500    80.6110    24.4530    25.1070    13.3040    26.3500   -10.4500     2.4670   252.2740 
  199.3750    81.6170    25.6580    25.9090    19.7680    26.3490   -10.5070     2.4680   244.9360 
  199.5000    85.3990    27.4920    27.2980    27.0030    26.3380   -10.4670     2.4700   241.7730 
  199.6250    89.3570    29.7330    29.2160    26.8050    26.3370   -10.3240     2.4750   241.9650 
  199.7500    90.2790    31.9600    31.3010    25.8500    26.3410   -10.1950     2.4840   243.0360 
  199.8750    86.9720    34.0310    33.3030    28.6580    26.3510   -10.0960     2.4930   243.9980 
