~V
VERS. 2.00: Ver 2.00
~W
STRT.M 60.0000:
STOP.M 270.0000:
STEP.M 0.1250:
NULL. -999.2500:
UWI. DF32131:
~C
DEPT.M :
DEN.GM/CC :
GR.API :
CALI.CM :
RXO.OHMM :
RI. :
RML.OHMM :
SP.MV :
~A
# ...
  150.0000     2.2160    82.3000    23.2230     8.6350     7.8290     9.2470   -20.7180 
  150.1250     2.2200    79.1630    23.0950     8.3680     8.1390     9.4570   -20.9530 
  150.2500     2.2470    79.9640    23.0150     8.0790     8.5080     9.7340   -21.1260 
  150.3750     2.2920    81.8950    22.9750     8.1270     9.2290    10.4890   -21.2540 
  150.5000     2.3440    81.1810    22.9170     8.9160    10.5920    12.0870   -21.3640 
  150.6250     2.3760    76.7350    22.7480    11.6040    13.0670    15.0920   -21.4240 
  150.7500     2.3680    73.3900    22.5450    15.3440    16.6950    19.5510   -21.4560 
  150.8750     2.3190    73.6800    22.3690    18.5690    21.3140    25.2800   -21.3960 
  151.0000     2.2520    75.5230    22.2510    20.2360    26.0700    31.1580   -21.3340 
  151.1250     2.2000    74.4730    22.1510    20.0820    28.6310    33.9190   -21.2830 
  151.2500     2.1740    71.0280    22.1080    19.7520    27.6660    31.8800   -21.2150 
  151.3750     2.1730    70.4260    22.0970    18.7150    23.7190    26.3100   -21.1000 
  151.5000     2.1950    75.0600    22.0970    15.8460    18.5980    19.8990   -20.9310 
  151.6250     2.2340    82.1610    22.0950    11.2730    14.0610    14.7040   -20.7540 
  151.7500     2.2740    87.1370    22.0730     7.6590    10.6580    11.0010   -20.5350 
  151.8750     2.3020    90.3560    22.0050     5.8950     8.3970     8.6450   -20.3200 
  152.0000     2.3140    95.1600    21.8730     5.3160     7.1500     7.4250   -20.1020 
  152.1250     2.3220   101.1400    21.7110     5.3170     6.9190     7.3370   -19.9060 
  152.2500     2.3500   103.4800    21.6340     5.7960     7.4950     8.1640   -19.7200 
  152.3750     2.4070   100.4990    21.8160     7.2930     8.8970     9.9670   -19.5430 
  152.5000     2.4800    94.0990    22.3040    10.7330    11.1740    12.8490   -19.3820 
  152.6250     2.5440    86.8200    22.9070    15.7870    14.3990    16.9370   -19.2110 
  152.7500     2.5820    77.6290    23.4240    19.9830    17.9730    21.4520   -19.0620 
  152.8750     2.5990    68.5450    23.7770    22.3170    21.1110    25.2790   -18.9170 
  153.0000     2.6050    63.2660    23.9090    23.5680    23.1250    27.4740   -18.7840 
  153.1250     2.6040    61.8140    23.8530    24.5000    23.8160    27.9670   -18.6740 
  153.2500     2.6010    61.2770    23.7530    23.9570    23.9880    28.0370   -18.5710 
  153.3750     2.5970    61.1300    23.6910    22.7660    24.1410    28.3890   -18.4990 
  153.5000     2.5950    62.9500    23.6730    22.6620    24.4530    29.1890   -18.4480 
  153.6250     2.6030    65.9750    23.6730    23.9690    24.8120    30.1430   -18.4410 
  153.7500     2.6170    66.6130    23.6730    25.3840    24.9770    30.7340   -18.4090 
  153.8750     2.6230    63.6810    23.6700    25.8140    24.8130    30.6660   -18.4000 
  154.0000     2.6130    59.9620    23.6350    24.5500    24.3110    29.9540   -18.3940 
  154.1250     2.5980    60.8630    23.4930    21.9730    23.6240    28.9470   -18.4010 
  154.2500     2.5910    64.8170    23.2750    20.1760    23.0620    28.1870   -18.4330 
  154.3750     2.5890    67.3680    23.1250    20.2400    22.7810    27.9100   -18.4740 
  154.5000     2.5850    67.2280    23.0660    21.1800    22.7820    28.0590   -18.5160 
  154.6250     2.5800    66.7660    23.0140    21.4620    22.9130    28.3220   -18.5450 
  154.7500     2.5750    66.3340    22.8760    20.7330    22.9100    28.2980   -18.6250 
  154.8750     2.5670    64.2850    22.6340    19.5520    22.6360    27.8150   -18.7020 
  155.0000     2.5510    61.1720    22.3470    18.0310    22.1070    26.9660   -18.7960 
  155.1250     2.5300    60.4610    22.0230    16.0280    21.4930    26.0570   -18.8510 
  155.2500     2.5200    62.5010    21.7030    14.2190    20.9910    25.3440   -18.9090 
  155.3750     2.5290    64.9810    21.3850    13.2040    20.6720    24.8990   -18.9400 
  155.5000     2.5530    65.8970    21.1850    13.1180    20.5420    24.7050   -18.9610 
  155.6250     2.5710    65.1360    21.1810    13.4220    20.5410    24.7030   -18.9300 
  155.7500     2.5690    63.9840    21.2570    13.3290    20.5040    24.6870   -18.8970 
  155.8750     2.5480    64.0490    21.3120    13.3240    20.2810    24.4380   -18.8500 
  156.0000     2.5250    66.9070    21.4020    14.0280    19.7250    23.7330   -18.7720 
  156.1250     2.5200    70.1980    21.7300    14.7320    18.7310    22.3990   -18.6820 
  156.2500     2.5280    69.9250    22.3120    14.3160    17.4920    20.7210   -18.5950 
  156.3750     2.5380    66.1950    23.0260    13.1950    16.2220    19.0320   -18.5310 
  156.5000     2.5390    62.6550    23.6750    12.2730    15.1410    17.6510   -18.4670 
  156.6250     2.5380    62.6200    24.0240    11.8820    14.4850    16.9010   -18.4420 
  156.7500     2.5420    64.0430    24.1080    11.8620    14.2550    16.7530   -18.4060 
  156.8750     2.5490    64.1120    24.0910    12.2520    14.3830    17.0770   -18.3920 
  157.0000     2.5550    60.2440    24.0740    12.9570    14.6700    17.5780   -18.4180 
  157.1250     2.5590    53.2740    24.0110    13.7170    14.7810    17.7530   -18.4840 
  157.2500     2.5600    49.9480    23.8510    13.9740    14.4920    17.3240   -18.5460 
  157.3750     2.5590    52.8140    23.6480    13.2920    13.7880    16.3290   -18.6090 
  157.5000     2.5580    57.2250    23.4650    11.7850    12.8610    15.0880   -18.6860 
  157.6250     2.5550    57.1940    23.3910    10.3010    12.0090    14.0380   -18.7750 
  157.7500     2.5470    55.3170    23.3380     9.2890    11.4260    13.3780   -18.8690 
  157.8750     2.5360    55.7220    23.2960     8.8490    11.1670    13.1420   -18.9590 
  158.0000     2.5300    58.8460    23.2740     8.9810    11.1970    13.2740   -19.0460 
  158.1250     2.5340    61.6570    23.2700     9.5780    11.4470    13.6900   -19.1330 
  158.2500     2.5420    62.5190    23.2700    10.1430    11.7510    14.1840   -19.2380 
  158.3750     2.5490    60.6260    23.2700    10.4120    12.0230    14.6270   -19.3620 
  158.5000     2.5540    59.1630    23.2690    10.5610    12.2290    14.9530   -19.5040 
  158.6250     2.5520    59.6880    23.2530    10.9800    12.3680    15.1450   -19.6150 
  158.7500     2.5450    60.7190    23.2150    11.3870    12.4630    15.2500   -19.7170 
  158.8750     2.5320    62.6020    23.1640    11.5600    12.5090    15.2890   -19.8330 
  159.0000     2.5180    63.7930    23.1120    11.6610    12.5140    15.2920   -19.9490 
  159.1250     2.5090    62.0360    23.0920    11.8970    12.5090    15.3100   -20.0530 
  159.2500     2.5050    59.5920    23.0860    11.9660    12.5340    15.3900   -20.1350 
  159.3750     2.5060    60.6110    23.0860    11.8980    12.6320    15.5650   -20.1990 
  159.5000     2.5130    64.1730    23.0860    12.1030    12.8070    15.8330   -20.2480 
  159.6250     2.5200    63.7080    23.0860    12.5750    13.0130    16.1180   -20.2420 
  159.7500     2.5140    60.3370    23.0860    12.5560    13.1580    16.2910   -20.2080 
  159.8750     2.4940    59.3580    23.0860    12.0760    13.1680    16.2690   -20.0920 
  160.0000     2.4730    62.2370    23.0860    11.8610    13.0250    16.0380   -19.9370 
  160.1250     2.4730    66.2990    23.0740    11.8160    12.7530    15.6380   -19.7370 
  160.2500     2.4900    67.0620    23.0260    11.4950    12.4660    15.2220   -19.5680 
  160.3750     2.5150    63.6950    22.9420    10.9890    12.2550    14.8940   -19.4120 
  160.5000     2.5360    58.5550    22.8780    10.8080    12.1610    14.7000   -19.2660 
  160.6250     2.5460    55.6170    22.8560    10.9830    12.1780    14.6200   -19.1910 
  160.7500     2.5440    56.0370    22.8520    10.9310    12.2240    14.5620   -19.1500 
  160.8750     2.5380    58.4520    22.8700    10.5750    12.2420    14.4650   -19.1820 
  161.0000     2.5370    61.0920    22.9410    10.2270    12.2090    14.2900   -19.2420 
  161.1250     2.5440    64.0840    23.1160    10.0300    12.1240    14.0180   -19.3710 
