~V
VERS. 2.00: Ver 2.00
~W
STRT.M 62.0000:
STOP.M 235.0000:
STEP.M 0.1250:
NULL. -999.2500:
UWI. DF32059:
~C
DEPT.M :
SP.MV :
GR.API :
CALI.CM :
RXO.OHMM :
RI. :
RML.OHMM :
DEN.GM/CC :
~A
   62.0000    25.3520    52.6510    25.2080   639.1260     0.0280    -0.3910     2.0430 
   62.1250    21.8940    53.0530    25.1460     5.5930     0.0550    -0.3270     2.1080 
   62.2500    17.0980    55.9610    24.9120     3.8800     0.1680    -0.0980     2.1900 
   62.3750    11.2960    61.0980    24.3590     5.8470     0.4680     0.4130     2.2410 
   62.5000     4.8860    65.7360    23.4880     8.1880     1.0760     1.4370     2.2360 
   62.6250    -1.5600    68.8250    22.7900     8.5350     2.0810     3.2220     2.1880 
   62.7500    -7.5550    72.4860    22.4460     7.8830     3.1470     4.7480     2.1460 
   62.8750   -12.6900    76.6440    22.4320     7.5170     3.9030     5.0110     2.1400 
   63.0000   -16.6040    80.8670    22.5810     7.3220     4.2530     4.5070     2.1730 
   63.1250   -18.9620    85.9200    22.7790     6.8370     4.3400     4.0700     2.2210 
   63.2500   -20.2280    91.3960    23.1090     6.1340     4.3710     3.8700     2.2470 
   63.3750   -20.7430    95.0960    23.6200     5.6040     4.4120     3.8600     2.2360 
   63.5000   -20.8500    97.5330    23.7750     5.3600     4.5130     3.9960     2.1990 
   63.6250   -20.8010    99.3420    23.7810     5.2640     4.7580     4.2820     2.1750 
   63.7500   -20.7670    98.1910    23.6940     5.4170     5.1410     4.6810     2.1850 
   63.8750   -20.7480    93.6670    23.6490     6.2990     5.5870     5.1260     2.2200 
   64.0000   -20.7950    88.9460    23.7040     7.9880     5.9430     5.4710     2.2600 
   64.1250   -20.8350    91.9200    23.9580     9.0940     5.9850     5.4790     2.2860 
   64.2500   -20.8100    99.6890    24.3490     8.3410     5.7110     5.1680     2.2980 
   64.3750   -20.7540   104.5810    24.6350     6.5070     5.2450     4.7070     2.3030 
   64.5000   -20.6670   103.3380    24.8200     5.1660     4.7840     4.3110     2.3090 
   64.6250   -20.5780   102.1290    24.9550     4.7680     4.5370     4.1700     2.3190 
   64.7500   -20.5510   106.9130    24.9230     4.8100     4.5520     4.2990     2.3290 
   64.8750   -20.6610   112.8400    24.5810     5.2290     4.8100     4.6700     2.3340 
   65.0000   -20.8500   113.3980    24.1620     6.1250     5.2180     5.1950     2.3300 
   65.1250   -21.2050   106.1090    23.7940     6.4800     5.5990     5.6870     2.3080 
   65.2500   -21.6640    96.6670    23.5250     6.3230     5.8050     5.9780     2.2740 
   65.3750   -22.1780    90.4510    23.4060     6.1960     5.7900     6.0180     2.2470 
   65.5000   -22.7290    88.6170    23.5450     6.4490     5.6090     5.8700     2.2480 
   65.6250   -23.2760    90.8740    23.8500     6.3870     5.3800     5.6610     2.2760 
   65.7500   -23.8540    95.9360    23.7010     6.0180     5.2180     5.5030     2.2990 
   65.8750   -24.4460    99.4090    23.3600     5.9590     5.1570     5.4320     2.2920 
   66.0000   -25.0530    97.2550    23.1750     6.3960     5.2130     5.4760     2.2570 
   66.1250   -25.6230    88.1950    23.3670     7.2500     5.4850     5.7540     2.2210 
   66.2500   -26.1390    77.1960    23.6810     8.0920     6.1140     6.4020     2.2160 
   66.3750   -26.6130    67.5470    24.0170     9.3090     7.3600     7.6530     2.2500 
   66.5000   -27.0540    61.9230    24.2220    12.2960     9.5790     9.8480     2.3080 
   66.6250   -27.5090    61.7560    24.1700    20.6820    13.3870    13.7550     2.3670 
   66.7500   -27.9620    61.4710    24.0310    34.9670    18.3870    19.2730     2.4200 
   66.8750   -28.4240    58.0950    23.9250    51.8440    23.0160    24.6920     2.4770 
   67.0000   -28.9080    54.0460    23.8710    61.7810    24.5740    26.1760     2.5220 
   67.1250   -29.4360    54.2420    23.8370    52.1890    21.5330    22.0050     2.5050 
   67.2500   -29.9970    58.5200    23.7940    32.6850    17.0150    16.8610     2.4210 
   67.3750   -30.5670    64.3720    23.7400    17.1820    13.0490    12.9290     2.3100 
   67.5000   -31.1100    69.0860    23.6670    10.9520    10.2910    10.4820     2.2200 
   67.6250   -31.5830    71.5640    23.6160     9.7470     8.7990     9.3480     2.1780 
   67.7500   -31.9580    71.9080    23.7320     9.4500     8.0890     8.9770     2.1660 
   67.8750   -32.2230    70.4420    24.0940     9.2360     7.9000     9.0940     2.1690 
   68.0000   -32.3790    69.1360    24.3850     9.1040     7.9880     9.4360     2.1690 
   68.1250   -32.4540    67.5500    24.4900     9.0990     8.1380     9.7480     2.1490 
   68.2500   -32.4640    65.1910    24.4440     9.1170     8.2240     9.9180     2.1170 
   68.3750   -32.4380    64.5200    24.2510     9.1200     8.2340     9.9540     2.0930 
   68.5000   -32.3850    67.2320    23.8460     9.0890     8.1920     9.8850     2.0910 
   68.6250   -32.3030    71.4640    23.5210     8.9980     8.1120     9.7260     2.1030 
   68.7500   -32.1960    74.4160    23.2450     8.8750     8.0090     9.5270     2.1150 
   68.8750   -32.0890    75.5060    22.9220     8.7990     7.9040     9.3680     2.1290 
   69.0000   -31.9760    73.4740    22.7920     8.8460     7.8470     9.3640     2.1460 
   69.1250   -31.8590    70.4250    22.9720     8.9630     7.9170     9.6310     2.1570 
   69.2500   -31.7570    71.9970    23.2720     9.3090     8.1160    10.1010     2.1680 
   69.3750   -31.6540    76.1520    23.4410    10.1120     8.3960    10.6440     2.1870 
   69.5000   -31.5370    76.3500    23.4420    11.3300     8.6530    11.0590     2.2090 
   69.6250   -31.3800    71.3130    23.4140    11.3980     8.7190    11.1030     2.2120 
   69.7500   -31.1860    69.8210    23.4590    10.5470     8.5630    10.8410     2.1940 
   69.8750   -30.9290    74.9770    23.6940     9.6900     8.2420    10.4470     2.1690 
   70.0000   -30.6460    81.6410    23.7360     9.3450     7.8740    10.0990     2.1540 
   70.1250   -30.2800    84.3350    23.4370     9.2310     7.6140     9.9570     2.1490 
   70.2500   -29.8560    83.4680    23.1180     9.1520     7.5270    10.0120     2.1530 
   70.3750   -29.3730    80.7460    23.1490     9.1230     7.5940    10.1890     2.1650 
   70.5000   -28.8590    76.4090    23.2110     9.1720     7.7060    10.3520     2.1760 
   70.6250   -28.3040    72.2080    23.2680     9.4370     7.6900    10.3090     2.1820 
   70.7500   -27.7180    69.7370    23.3800     9.4330     7.4610     9.9870     2.1940 
   70.8750   -27.1330    69.3390    23.5870     8.8060     7.0350     9.4080     2.2230 
   71.0000   -26.5290    73.2400    23.8340     7.6430     6.5170     8.7040     2.2600 
   71.1250   -26.0180    83.1070    24.0530     6.5530     6.0610     8.0810     2.2820 
   71.2500   -25.5740    91.1900    24.2160     5.9310     5.7500     7.6550     2.2830 
   71.3750   -25.2220    92.3910    24.2900     5.8150     5.5940     7.4470     2.2710 
   71.5000   -24.9670    90.2340    24.3180     5.9960     5.5570     7.4230     2.2570 
   71.6250   -24.8330    91.7600    24.3360     6.1580     5.5900     7.5120     2.2460 
   71.7500   -24.8090    93.5740    24.3670     6.1320     5.6440     7.6320     2.2370 
   71.8750   -24.8850    91.5990    24.4230     6.0690     5.7250     7.7770     2.2270 
   72.0000   -25.0530    88.5370    24.3780     6.1330     5.8570     7.9730     2.2170 
   72.1250   -25.2240    89.0460    24.1150     6.2880     6.0310     8.2210     2.2110 
   72.2500   -25.3940    89.8370    23.7430     6.3980     6.1640     8.4240     2.2090 
   72.3750   -25.5420    89.3840    23.6480     6.6140     6.1570     8.4520     2.2140 
   72.5000   -25.6510    89.3070    23.7770     6.9040     5.9420     8.1900     2.2280 
   72.6250   -25.7710    90.9590    24.1230     6.7900     5.5190     7.6010     2.2550 
   72.7500   -25.9280    94.8830    24.1660     6.1740     5.0540     6.9080     2.2890 
   72.8750   -26.1540    99.0760    23.9230     5.4900     4.6750     6.3150     2.3190 
   73.0000   -26.4740   101.3570    23.7120     5.0950     4.4660     5.9760     2.3310 
   73.1250   -26.9060   100.8110    23.6600     5.0730     4.4940     6.0400     2.3150 
