~V
VERS. 2.00: Ver 2.00
~W
STRT.M 61.0000:
STOP.M 325.0000:
STEP.M 0.1250:
NULL. -999.2500:
UWI. DF320:
~C
DEPT.M :
GR.API :
RML.OHMM :
RI. :
RXO.OHMM :
CALI.CM :
SP.MV :
DEN.GM/CC :
AC.US/MT :
~A
# ...
  241.0000    58.2030     7.5820     6.7760     6.3520    23.8120    -8.8500     2.4530   387.5050 
  241.1250    62.9130     7.3210     6.5290     6.1880    23.8470    -8.8500     2.4510   388.6890 
  241.2500    62.2710     7.0640     6.2870     5.7960    23.9090    -8.8100     2.4430   391.0370 
  241.3750    58.7440     6.8530     6.0880     5.5170    23.9740    -8.7620     2.4260   395.5950 
  241.5000    55.5040     6.6980     5.9420     5.3200    24.0500    -8.7400     2.4030   403.0830 
  241.6250    53.0260     6.6110     5.8590     5.1410    24.0530    -8.7510     2.3770   413.5550 
  241.7500    50.4030     6.5790     5.8300     4.9940    24.0390    -8.7770     2.3530   425.0520 
  241.8750    48.6970     6.6010     5.8490     4.9470    24.0050    -8.7890     2.3340   435.6210 
  242.0000    48.6710     6.6630     5.9060     4.9780    23.9170    -8.7590     2.3250   443.2310 
  242.1250    48.3080     6.7500     5.9860     5.0990    23.8700    -8.7040     2.3290   444.9830 
  242.2500    45.6940     6.8320     6.0650     5.2590    23.8220    -8.6520     2.3430   440.8650 
  242.3750    41.9090     6.8850     6.1280     5.4170    23.8350    -8.6320     2.3620   432.4100 
  242.5000    39.1240     6.8840     6.1620     5.5160    23.8700    -8.6360     2.3820   422.9980 
  242.6250    38.5330     6.8230     6.1590     5.5000    23.9710    -8.6820     2.3980   416.5680 
  242.7500    39.7280     6.7300     6.1350     5.4480    24.0550    -8.7710     2.4100   413.2430 
  242.8750    40.2700     6.6490     6.1080     5.4490    24.1410    -8.8960     2.4190   411.3620 
  243.0000    39.4380     6.5990     6.0990     5.5230    24.2460    -9.0640     2.4250   409.4290 
  243.1250    40.6090     6.6240     6.1280     5.6600    24.3180    -9.3120     2.4280   406.8430 
  243.2500    44.2860     6.6920     6.1860     5.8190    24.2900    -9.6310     2.4320   403.6650 
  243.3750    48.1820     6.7690     6.2500     6.0100    24.1550   -10.0140     2.4370   399.7070 
  243.5000    50.4450     6.8460     6.2930     6.2110    24.0170   -10.4550     2.4460   395.2770 
  243.6250    54.2070     6.8480     6.2970     6.3710    23.9090   -10.9100     2.4590   392.4090 
  243.7500    61.7890     6.8330     6.2870     6.5090    23.8380   -11.3620     2.4700   392.8280 
  243.8750    72.6770     6.8330     6.3010     6.6940    23.7740   -11.8730     2.4740   396.6090 
  244.0000    84.8420     6.9410     6.3780     7.0260    23.7350   -12.4820     2.4690   402.0640 
  244.1250    95.0660     7.2490     6.5630     7.6130    23.6510   -13.1380     2.4530   406.1450 
  244.2500    99.4690     7.6870     6.8530     8.3540    23.6000   -13.7790     2.4350   407.0730 
  244.3750    99.7320     8.2470     7.2410     9.1050    23.5830   -14.3650     2.4180   404.4020 
  244.5000    99.8380     8.8850     7.7050     9.8470    23.5740   -14.9050     2.4080   399.0600 
  244.6250    98.5970     9.5090     8.1920    10.4430    23.5060   -15.4490     2.4040   393.3830 
  244.7500    94.7550    10.0030     8.6090    10.9760    23.4080   -15.9910     2.4020   389.9820 
  244.8750    91.4200    10.2850     8.8820    11.4760    23.3260   -16.4690     2.3990   390.1190 
  245.0000    91.1430    10.3450     8.9770    11.8800    23.3020   -16.8520     2.3970   393.6900 
  245.1250    90.4830    10.2660     8.9190    11.7680    23.3320   -17.1540     2.3970   399.6270 
  245.2500    89.2330    10.2310     8.8460    11.3320    23.3630   -17.4530     2.3980   405.7710 
  245.3750    91.9590    10.3500     8.8600    11.1190    23.3780   -17.7890     2.4010   410.3630 
  245.5000    96.4940    10.6750     9.0260    11.2600    23.3830   -18.1700     2.4050   411.8770 
  245.6250    96.5840    11.1970     9.3780    11.8940    23.3610   -18.5880     2.4070   408.6500 
  245.7500    93.4670    11.7960     9.8430    12.7460    23.2930   -19.0550     2.4090   402.4750 
  245.8750    90.6420    12.3430    10.3400    13.5070    23.1910   -19.5860     2.4090   396.0660 
  246.0000    87.9560    12.7280    10.7720    14.0140    23.0870   -20.1660     2.4060   391.9690 
  246.1250    84.3010    12.7850    11.0180    14.3980    23.0370   -20.7410     2.4010   391.2080 
  246.2500    83.9870    12.5970    11.0830    14.7050    23.0170   -21.2370     2.3970   391.5290 
  246.3750    88.1500    12.3050    11.0300    14.7140    23.0260   -21.6510     2.3960   391.3030 
  246.5000    92.5430    12.0580    10.9620    14.4500    23.0520   -22.0090     2.3960   390.1760 
  246.6250    92.2700    11.9470    10.9790    14.4450    23.0680   -22.3270     2.3940   388.6220 
  246.7500    88.9710    11.9830    11.0760    15.3020    23.0740   -22.5520     2.3860   387.2700 
  246.8750    83.7980    12.1590    11.2320    16.9590    23.0800   -22.6130     2.3730   385.9650 
  247.0000    77.1890    12.5360    11.4720    18.5330    23.0950   -22.4790     2.3570   384.5760 
  247.1250    71.6130    13.4680    12.0300    19.3820    23.1210   -22.1620     2.3450   383.4780 
  247.2500    69.9350    15.1030    13.1580    20.2070    23.1440   -21.7160     2.3400   382.3710 
  247.3750    70.9880    17.6810    15.0010    21.7140    23.1690   -21.1150     2.3470   379.6320 
  247.5000    71.3010    20.7640    17.3740    24.4160    23.1900   -20.3120     2.3690   372.7910 
  247.6250    68.6180    23.1690    19.4960    28.2040    23.2090   -19.2280     2.4050   359.0340 
  247.7500    64.5450    23.7020    20.3770    31.1060    23.2430   -17.9290     2.4430   340.7320 
  247.8750    61.8860    21.8220    19.3980    31.5230    23.2980   -16.5120     2.4710   322.8680 
  248.0000    64.7900    18.1070    16.7140    28.0690    23.3480   -15.0760     2.4820   313.3610 
  248.1250    74.8220    14.1300    13.3210    18.6300    23.3700   -13.7040     2.4740   323.0060 
  248.2500    83.2400    11.0720    10.4050    11.0130    23.3830   -12.4540     2.4600   348.4250 
  248.3750    82.6370     9.0720     8.3210     7.3640    23.4010   -11.3690     2.4490   379.7820 
  248.5000    73.1710     7.8620     7.0270     6.1120    23.4350   -10.4680     2.4430   404.8690 
  248.6250    60.5550     7.2660     6.4280     5.7350    23.4670    -9.8110     2.4400   415.6060 
  248.7500    50.6640     7.0010     6.2290     5.5800    23.4700    -9.3870     2.4360   417.9260 
  248.8750    45.2660     7.0120     6.2730     5.5200    23.4320    -9.1830     2.4300   417.3760 
  249.0000    43.6140     7.1480     6.4250     5.4470    23.3860    -9.1490     2.4210   416.7990 
  249.1250    43.0680     7.2230     6.5780     5.3680    23.3610    -9.2610     2.4130   416.5310 
  249.2500    44.9990     7.2450     6.6770     5.3470    23.3400    -9.4270     2.4040   416.7190 
  249.3750    47.8730     7.2200     6.7150     5.3530    23.3110    -9.6070     2.3950   417.8400 
  249.5000    48.9830     7.1730     6.7020     5.3390    23.2790    -9.7840     2.3900   419.7900 
  249.6250    48.6820     7.1020     6.6540     5.3720    23.2820    -9.9430     2.3900   421.0740 
  249.7500    50.1200     7.0310     6.5940     5.4980    23.3250   -10.0950     2.3960   419.9050 
  249.8750    53.9220     6.9590     6.5310     5.6890    23.4060   -10.2480     2.4060   415.6920 
  250.0000    60.7330     6.8960     6.4720     5.8840    23.4880   -10.4000     2.4170   409.5560 
  250.1250    71.1370     6.8650     6.4330     6.0790    23.5740   -10.5730     2.4270   403.6420 
  250.2500    78.6520     6.9250     6.4300     6.3250    23.6650   -10.7730     2.4340   399.2070 
  250.3750    81.0910     7.0490     6.4800     6.6590    23.7580   -11.0050     2.4390   396.6370 
  250.5000    83.6480     7.2190     6.5920     7.1070    23.8300   -11.2730     2.4400   396.1020 
  250.6250    87.6170     7.4370     6.7670     7.6780    23.8680   -11.5910     2.4390   397.4830 
  250.7500    88.8130     7.6860     6.9720     8.2660    23.8790   -11.9260     2.4350   399.3820 
  250.8750    87.3580     7.9380     7.1860     8.7960    23.8770   -12.2670     2.4290   400.7650 
