~V
VERS. 2.00: Ver 2.00
~W
STRT.M 50.0000:
STOP.M 264.0000:
STEP.M 0.1250:
NULL. -999.2500:
UWI. DF32158:
~C
DEPT.M :
GR.API :
RML.OHMM :
RI. :
RXO.OHMM :
CALI.CM :
DEN.GM/CC :
SP.MV :
~A
# ...
   72.5000   102.0230     8.7300     7.0190     7.0940    23.3170     2.2280   -13.1650 
   72.6250    99.6180     9.0130     7.0660     7.4080    23.7610     2.2040   -13.4420 
   72.7500    98.1580     9.5490     7.3960     7.4690    24.0400     2.1690   -13.9710 
   72.8750    94.2000    10.1640     7.8860     7.7160    24.0640     2.1330   -14.6980 
   73.0000    87.8600    10.7160     8.4100     8.3000    23.9610     2.1100   -15.5180 
   73.1250    81.8970    11.0880     8.8560     9.4390    23.8920     2.1120   -16.3290 
   73.2500    79.6070    11.2750     9.1730    10.0120    23.8940     2.1290   -17.0680 
   73.3750    81.0300    11.2890     9.3430    10.2700    23.9230     2.1470   -17.7140 
   73.5000    83.1780    11.1610     9.3770    10.4120    23.9620     2.1520   -18.2020 
   73.6250    82.8490    10.9150     9.2750    10.5150    23.9350     2.1360   -18.4460 
   73.7500    80.0960    10.6150     9.0760    10.4300    23.8590     2.1120   -18.4940 
   73.8750    76.9520    10.3130     8.8120    10.1100    23.8140     2.0900   -18.3520 
   74.0000    76.4300    10.0600     8.5230     9.6730    23.8430     2.0800   -18.1290 
   74.1250    79.5890     9.9010     8.2670     9.2770    23.8490     2.0840   -17.7920 
   74.2500    81.9520     9.8460     8.0860     9.1190    23.8170     2.0960   -17.4380 
   74.3750    82.0600     9.9120     8.0120     9.1360    23.7770     2.1140   -17.0930 
   74.5000    81.8400    10.1120     8.0610     9.1660    23.7620     2.1340   -16.7870 
   74.6250    80.4490    10.4410     8.2380     9.1400    23.7610     2.1560   -16.5810 
   74.7500    77.9060    10.8050     8.4790     9.2680    23.7820     2.1770   -16.4700 
   74.8750    78.2410    11.1000     8.7160     9.5720    23.8440     2.1930   -16.4730 
   75.0000    82.6650    11.2490     8.8790     9.7980    23.9190     2.1990   -16.5400 
   75.1250    84.8760    11.2390     8.9220     9.7150    23.9830     2.1900   -16.7450 
   75.2500    83.6000    11.1930     8.9020     9.5350    24.0330     2.1700   -17.0200 
   75.3750    82.7710    11.2090     8.8900     9.4220    24.0780     2.1450   -17.3200 
   75.5000    82.4370    11.3460     8.9390     9.5860    24.1020     2.1140   -17.6570 
   75.6250    78.1580    11.6030     9.0710    10.2590    24.1050     2.1090   -17.9820 
   75.7500    71.6980    11.8620     9.2230    10.9650    24.1050     2.1120   -18.2670 
   75.8750    68.3430    12.0030     9.3230    11.2270    24.1050     2.1190   -18.4970 
   76.0000    71.5710    11.9450     9.3180    11.2720    24.1050     2.1310   -18.6790 
   76.1250    77.5700    11.6650     9.1880    11.2040    24.1180     2.1440   -18.8300 
   76.2500    79.8450    11.3250     9.0090    11.1400    24.1740     2.1540   -18.9100 
   76.3750    79.0130    11.0990     8.8730    10.8380    24.3020     2.1580   -18.9390 
   76.5000    78.2120    11.1320     8.8720    10.6000    24.4710     2.1600   -18.8870 
   76.6250    78.9030    11.4890     9.0730    10.7080    24.7110     2.1630   -18.7860 
   76.7500    79.3100    11.9840     9.3900    11.6900    24.9070     2.1670   -18.6930 
   76.8750    79.2940    12.4070     9.7020    15.7060    25.0010     2.1660   -18.6260 
   77.0000    80.6140    12.5570     9.8630    24.3110    24.9300     2.1560   -18.6340 
   77.1250    82.2110    12.3020     9.7360    25.2030    24.6250     2.1380   -18.6500 
   77.2500    80.6900    11.8540     9.4160    15.4230    24.2490     2.1210   -18.7070 
   77.3750    78.2840    11.4300     9.0480    10.9100    24.0510     2.1110   -18.7860 
   77.5000    79.0730    11.1810     8.7680    10.0250    24.0240     2.1090   -18.9260 
   77.6250    82.3410    11.1680     8.6730    10.2410    24.0760     2.1130   -19.0820 
   77.7500    82.8020    11.2770     8.7210    10.5070    24.1000     2.1180   -19.2520 
   77.8750    79.3190    11.4030     8.8440    10.6450    24.1050     2.1230   -19.4090 
   78.0000    73.8650    11.4800     8.9680    10.5730    24.1060     2.1260   -19.5270 
   78.1250    70.8570    11.5010     9.0440    10.4880    24.1470     2.1280   -19.6020 
   78.2500    73.0200    11.5070     9.0790    10.4900    24.2440     2.1280   -19.6370 
   78.3750    78.0930    11.4960     9.0720    10.6170    24.3400     2.1250   -19.6510 
   78.5000    81.6030    11.4510     9.0190    10.7610    24.3550     2.1230   -19.6170 
   78.6250    81.8550    11.3570     8.9180    10.6810    24.2980     2.1250   -19.5620 
   78.7500    81.1100    11.2340     8.7990    10.4680    24.2870     2.1300   -19.4910 
   78.8750    78.3420    11.1090     8.6850    10.2230    24.3340     2.1380   -19.4230 
   79.0000    74.1160    11.0080     8.6010     9.9970    24.3650     2.1440   -19.3420 
   79.1250    71.0230    10.9570     8.5670    10.0460    24.3950     2.1470   -19.2820 
   79.2500    69.7260    10.9470     8.5730    10.3190    24.4730     2.1460   -19.2240 
   79.3750    69.4690    10.9720     8.6100    10.2930    24.5440     2.1430   -19.1200 
   79.5000    69.0430    11.0320     8.6740     9.8530    24.5040     2.1410   -18.9600 
   79.6250    68.0590    11.1370     8.7740     9.4130    24.2670     2.1400   -18.7440 
   79.7500    67.5410    11.2990     8.9120     9.9290    23.9660     2.1350   -18.4040 
   79.8750    68.1910    11.5140     9.0920    10.4790    23.7810     2.1240   -17.9300 
   80.0000    68.7480    11.7140     9.2800    10.3940    23.6330     2.1090   -17.2420 
   80.1250    70.9420    11.7190     9.3680     9.8790    23.3820     2.1040   -16.2930 
   80.2500    77.6800    11.4220     9.2580     9.3950    23.0010     2.1180   -15.1110 
   80.3750    87.6650    10.8080     8.9060     8.9600    22.5970     2.1510   -13.7440 
   80.5000    95.7550     9.9970     8.3600     8.2890    22.2340     2.1890   -12.2890 
   80.6250   100.2810     9.2740     7.7900     7.0750    22.0390     2.2160   -10.7890 
   80.7500   104.8250     8.8540     7.3810     6.4800    21.9940     2.2240    -9.3750 
   80.8750   108.2670     8.7870     7.2100     6.2950    21.9740     2.2160    -8.0580 
   81.0000   107.3810     9.0000     7.2620     6.2720    21.9440     2.2040    -6.9270 
   81.1250   102.8160     9.3160     7.4420     6.5080    21.9530     2.2000    -5.9760 
   81.2500   100.8070     9.4940     7.5640     6.6150    22.1600     2.2090    -5.1860 
   81.3750   104.5420     9.4160     7.5100     6.3040    22.7720     2.2280    -4.5560 
   81.5000   110.0740     9.1040     7.2610     5.8310    23.6930     2.2500    -4.0520 
   81.6250   110.7220     8.6750     6.8750     5.7800    24.5370     2.2700    -3.6680 
   81.7500   110.4020     8.2410     6.4580     5.9790    24.9490     2.2860    -3.3360 
   81.8750   114.0390     7.8140     6.0450     5.9320    25.0610     2.2980    -3.0620 
   82.0000   120.8620     7.3710     5.6460     5.5320    25.0700     2.3030    -2.8500 
   82.1250   123.6260     6.9770     5.3310     5.4100    25.0340     2.2970    -2.7410 
   82.2500   120.1870     6.8590     5.2330     5.6810    24.9330     2.2860    -2.7660 
   82.3750   114.6270     7.3370     5.5540     6.1640    24.8160     2.2830    -2.8880 
   82.5000   108.8260     8.7890     6.5510     7.1130    24.8050     2.3070    -3.1030 
   82.6250   100.4610    11.8990     8.8010    10.8960    24.9360     2.3680    -3.3640 
   82.7500    90.6330    16.6870    12.5390    20.5670    25.0320     2.4530    -3.6700 
   82.8750    85.4630    22.6710    17.7440    33.4330    25.0650     2.5420    -4.0480 
   83.0000    87.8200    28.0820    23.2870    37.1640    25.0670     2.6170    -4.4560 
   83.1250    90.1900    29.4030    25.9900    32.0800    25.0630     2.6550    -4.9530 
   83.2500    86.6090    26.4740    24.7110    30.4740    25.0360     2.6510    -5.5060 
   83.3750    80.1720    21.4780    20.9070    28.7710    24.8850     2.6010    -6.1390 
   83.5000    76.8570    16.7500    16.7260    21.3340    24.5420     2.5090    -6.7640 
   83.6250    80.6350    13.5580    13.5150    13.8320    24.2220     2.3970    -7.3630 
