~V
VERS. 2.00: Ver 2.00
~W
STRT.M 61.0000:
STOP.M 257.0000:
STEP.M 0.1250:
NULL. -999.2500:
UWI. DF32086:
~C
DEPT.M :
SP.MV :
GR.API :
CALI.CM :
RXO.OHMM :
RI. :
RML.OHMM :
DEN.GM/CC :
~A
# ...
   72.2500   -38.5490    88.8350    22.4780     8.1210     6.5720     9.6570     2.1900 
   72.3750   -38.7460    88.3030    22.3970     8.7390     6.6240     9.9100     2.1950 
   72.5000   -39.0770    86.5030    22.7910     9.2450     6.8220    10.2380     2.1980 
   72.6250   -39.4870    84.8110    23.2560     9.5280     7.1340    10.5700     2.1940 
   72.7500   -39.9000    83.8740    23.6970     9.7960     7.4320    10.8250     2.1870 
   72.8750   -40.2490    81.2600    24.2450    10.2310     7.5980    10.9330     2.1800 
   73.0000   -40.5710    76.4880    25.0450    10.6670     7.5650    10.8460     2.1720 
   73.1250   -40.8460    72.0660    25.5060    10.8000     7.3210    10.5650     2.1640 
   73.2500   -41.0320    68.6190    25.6060    10.5000     7.0060    10.2320     2.1640 
   73.3750   -41.1120    66.9940    25.3730     9.7850     6.7420     9.9840     2.1770 
   73.5000   -41.0160    67.8980    25.0650     8.9150     6.6300     9.9320     2.1960 
   73.6250   -40.8530    68.8530    25.0760     8.7420     6.7520    10.1550     2.2010 
   73.7500   -40.6660    68.6550    25.3340     9.3130     7.0470    10.5450     2.1920 
   73.8750   -40.4230    67.5190    25.5230    10.0120     7.4110    10.9630     2.1780 
   74.0000   -40.0590    67.0040    25.6790    10.3120     7.7140    11.2670     2.1670 
   74.1250   -39.5450    66.9260    25.2620    10.2940     7.8400    11.3850     2.1550 
   74.2500   -38.9490    67.3640    24.6720    10.2100     7.8230    11.4070     2.1460 
   74.3750   -38.2200    70.0720    24.1060     9.9530     7.7170    11.3790     2.1630 
   74.5000   -37.4050    74.8490    23.7580     9.3670     7.5590    11.2680     2.2210 
   74.6250   -36.4550    79.8150    23.6110     9.4580     7.3240    10.9140     2.3140 
   74.7500   -35.4320    83.7100    23.5390     9.9840     6.9790    10.2520     2.3980 
   74.8750   -34.5090    87.1990    23.4650     9.6090     6.5280     9.3570     2.4350 
   75.0000   -33.7700    91.6570    23.4750     7.9270     6.0450     8.4490     2.4170 
   75.1250   -33.1470    94.8220    23.7230     6.3920     5.6510     7.8210     2.3670 
   75.2500   -32.6380    95.9290    24.0900     5.7900     5.3930     7.5520     2.3280 
   75.3750   -32.2520    97.3170    24.2520     5.7040     5.2630     7.6030     2.3070 
   75.5000   -31.9820    98.7930    24.2780     5.7940     5.2070     7.8250     2.2910 
   75.6250   -31.8160    98.1850    24.2910     6.0430     5.1240     7.9530     2.2710 
   75.7500   -31.6710    97.0820    24.2790     6.1520     4.9640     7.8190     2.2600 
   75.8750   -31.4620    98.7300    24.1320     5.9300     4.7490     7.4360     2.2720 
   76.0000   -31.2200   104.3750    23.6960     5.4340     4.5310     6.9350     2.3060 
   76.1250   -31.0470   108.0540    23.5040     5.0250     4.3500     6.4910     2.3400 
   76.2500   -30.8870   108.2640    23.4850     4.8690     4.1930     6.1850     2.3560 
   76.3750   -30.7460   108.3510    23.5230     4.8890     4.0420     6.0110     2.3550 
   76.5000   -30.6770   110.7990    23.5650     4.9680     3.8990     5.9300     2.3480 
   76.6250   -30.6980   111.5240    23.6620     5.0330     3.8430     5.9630     2.3380 
   76.7500   -30.7990   109.1610    23.8370     5.0820     3.9720     6.1840     2.3220 
   76.8750   -30.9590   106.5520    23.8750     5.2870     4.3520     6.7010     2.3040 
   77.0000   -31.1160   103.8240    23.7700     6.2870     4.9710     7.5680     2.2850 
   77.1250   -31.1950    97.9650    23.6160     9.9910     5.7140     8.7070     2.2660 
   77.2500   -31.2560    90.6400    23.8000    15.3780     6.3180     9.7090     2.2440 
   77.3750   -31.2850    85.5860    23.9470    16.9790     6.5570    10.1330     2.2250 
   77.5000   -31.2260    81.9400    23.7380    12.8370     6.3430     9.7630     2.2110 
   77.6250   -31.1100    80.9170    23.5940     8.2850     5.7840     8.7900     2.2100 
   77.7500   -30.9480    84.5020    23.6660     6.3720     5.1840     7.7910     2.2270 
   77.8750   -30.7550    90.5450    23.8020     5.7210     4.6970     7.0370     2.2580 
   78.0000   -30.5790    93.7620    23.9450     5.4350     4.3780     6.5910     2.2860 
   78.1250   -30.4590    94.0330    24.2920     5.3300     4.2150     6.3960     2.2880 
   78.2500   -30.4360    95.2560    24.7590     5.3330     4.1150     6.2820     2.2740 
   78.3750   -30.5180    98.0620    25.1030     5.2920     4.0410     6.2070     2.2620 
   78.5000   -30.7140   103.7610    25.1680     5.1470     4.0030     6.2160     2.2550 
   78.6250   -31.0290   113.5190    24.7470     5.1260     4.0790     6.4450     2.2390 
   78.7500   -31.4580   120.4970    24.4890     5.4530     4.3170     6.9470     2.2110 
   78.8750   -32.0010   115.8150    24.3060     6.1290     4.7410     7.7270     2.1870 
   79.0000   -32.5740    98.4370    24.1380     7.1110     5.3230     8.6920     2.1700 
   79.1250   -33.1170    82.1430    24.0050     8.6310     5.9500     9.6000     2.1530 
   79.2500   -33.5200    76.1360    24.0830    10.6190     6.4420    10.1750     2.1380 
   79.3750   -33.7440    76.9300    24.2870    11.9720     6.6620    10.2550     2.1420 
   79.5000   -33.7700    76.6200    24.6860    11.4540     6.5440     9.8230     2.1630 
   79.6250   -33.5330    74.8560    24.6130     9.1490     6.0810     8.9770     2.1870 
   79.7500   -33.0590    77.9690    24.6740     7.4320     5.4580     8.0200     2.2040 
   79.8750   -32.3610    86.7390    24.8440     6.1960     4.8180     7.1500     2.2190 
   80.0000   -31.5370    99.8010    24.7810     5.2080     4.2890     6.5090     2.2340 
   80.1250   -30.6890   110.5830    24.9200     4.8000     4.0000     6.2170     2.2510 
   80.2500   -29.9390   112.8080    24.7420     4.8730     3.9420     6.2020     2.2670 
   80.3750   -29.3210   108.7650    24.6670     5.2490     4.0700     6.3790     2.2750 
   80.5000   -28.8350   104.6490    24.7740     5.4760     4.2950     6.6310     2.2770 
   80.6250   -28.5110   104.8370    25.2070     5.4200     4.4950     6.8450     2.2820 
   80.7500   -28.3100   106.6110    25.2970     5.1830     4.5990     6.9980     2.2990 
   80.8750   -28.2370   108.8030    25.0490     5.0810     4.6010     7.1140     2.3260 
   81.0000   -28.2250   110.1320    24.9940     5.2360     4.5340     7.2110     2.3500 
   81.1250   -28.2690   107.3060    25.2400     5.6330     4.4300     7.2430     2.3520 
   81.2500   -28.3100   101.8990    25.5490     5.7860     4.2990     7.1370     2.3380 
   81.3750   -28.3600    98.1820    25.6500     5.4970     4.1320     6.8390     2.3250 
   81.5000   -28.4440    97.4770    25.6090     5.0270     3.9330     6.3760     2.3280 
   81.6250   -28.6380    96.2790    25.5620     4.7690     3.7510     5.8970     2.3400 
   81.7500   -28.9440    95.1720    25.6900     4.6540     3.6560     5.5970     2.3450 
   81.8750   -29.3520    98.4840    25.7560     4.5740     3.7030     5.6110     2.3390 
   82.0000   -29.8590   104.3920    25.6150     4.9700     3.9340     6.0360     2.3230 
   82.1250   -30.4770   103.0320    25.1230     6.7820     4.4080     6.9840     2.2850 
   82.2500   -31.1650    91.3410    24.7900     9.3530     5.0700     8.2840     2.2260 
   82.3750   -31.8620    76.9360    24.7890    10.4540     5.8270     9.6740     2.1610 
   82.5000   -32.4950    69.2830    24.6030     9.4830     6.4980    10.7360     2.1130 
   82.6250   -32.9280    71.0010    24.3270     8.9080     6.7840    10.9140     2.0980 
   82.7500   -33.1500    73.8540    24.0940     8.7420     6.6250    10.2960     2.1000 
   82.8750   -33.1080    74.7120    23.9190     8.4510     6.1360     9.2630     2.1100 
   83.0000   -32.7940    75.6450    23.7950     7.5150     5.5660     8.3100     2.1290 
   83.1250   -32.1840    78.0040    23.9410     6.3700     5.2070     7.8660     2.1730 
   83.2500   -31.4210    80.3180    24.3260     5.8260     5.1520     7.9500     2.2400 
   83.3750   -30.6040    82.0520    24.4150     6.3970     5.3790     8.4580     2.3160 
