~V
VERS. 2.00: Ver 2.00
~W
STRT.M 60.0000:
STOP.M 264.0000:
STEP.M 0.1250:
NULL. -999.2500:
UWI. DF32130:
~C
DEPT.M :
SP.MV :
GR.API :
CALI.CM :
RXO.OHMM :
RI. :
RML.OHMM :
DEN.GM/CC :
~A
# ...
  240.0000    -3.3310    86.4930    24.1960     9.3710     9.6170    10.0830     2.3690 
  240.1250    -3.1050    87.2140    24.1620     9.2140     9.5550     9.8370     2.3480 
  240.2500    -2.8330    83.7870    24.1160    10.1210     9.7980     9.9450     2.3550 
  240.3750    -2.4980    79.5670    24.0980    13.3670    10.0740    10.1180     2.3970 
  240.5000    -2.1110    76.6140    24.0900    20.0290    10.0720    10.0110     2.4530 
  240.6250    -1.6820    72.8490    24.0650    21.6640     9.5110     9.3430     2.5000 
  240.7500    -1.2230    69.2910    24.0310    15.8710     8.6240     8.3540     2.5250 
  240.8750    -0.7690    68.2430    24.0360     9.1570     7.6810     7.4020     2.5160 
  241.0000    -0.3360    68.5820    24.1030     6.9940     6.9390     6.7170     2.4820 
  241.1250    -0.0180    69.0040    24.2330     7.2570     6.5950     6.4150     2.4390 
  241.2500     0.2260    72.1120    24.2880     7.8090     6.5780     6.4160     2.4040 
  241.3750     0.3600    78.2500    24.3000     8.0700     6.8050     6.6360     2.3800 
  241.5000     0.3720    83.4880    24.3000     8.1640     7.1560     6.9630     2.3550 
  241.6250     0.3200    82.8830    24.3000     8.3260     7.4980     7.2760     2.3350 
  241.7500     0.2140    79.7440    24.3000     8.4990     7.7640     7.5300     2.3330 
  241.8750     0.0700    78.6790    24.3000     8.5720     7.9490     7.7350     2.3530 
  242.0000    -0.1520    81.0530    24.3000     8.5500     8.0550     7.8920     2.3730 
  242.1250    -0.3830    85.0120    24.3000     8.4650     8.0380     7.9550     2.3770 
  242.2500    -0.6470    87.8310    24.3000     8.4680     7.8940     7.8990     2.3620 
  242.3750    -0.9200    88.3670    24.3000     8.5850     7.6470     7.7120     2.3410 
  242.5000    -1.2200    86.5950    24.3000     8.6320     7.3520     7.4230     2.3270 
  242.6250    -1.5310    85.4230    24.3000     8.3210     7.0640     7.1190     2.3290 
  242.7500    -1.9310    85.4800    24.2940     7.9150     6.8400     6.9240     2.3440 
  242.8750    -2.4030    85.5300    24.2570     7.7840     6.7580     6.9470     2.3590 
  243.0000    -2.9520    86.2470    24.1540     8.2140     6.9330     7.2910     2.3660 
  243.1250    -3.5930    89.5650    24.0140     9.6470     7.5550     8.1180     2.3750 
  243.2500    -4.3340    96.0570    23.9270    12.6160     8.6220     9.3910     2.3900 
  243.3750    -5.1530   103.2830    23.9000    16.5100    10.0990    11.0490     2.4060 
  243.5000    -6.0020   107.6830    23.8880    19.4820    11.8450    12.9290     2.4190 
  243.6250    -6.9230   105.6590    23.8420    20.0930    13.5800    14.6880     2.4310 
  243.7500    -7.8050   100.2420    23.7550    19.9110    15.0050    15.9930     2.4410 
  243.8750    -8.6180    95.8630    23.6750    20.3980    15.9520    16.7510     2.4430 
  244.0000    -9.3020    93.3920    23.6390    21.4000    16.4020    17.1020     2.4390 
  244.1250    -9.7970    94.5370    23.6330    21.4050    16.3700    17.1930     2.4360 
  244.2500   -10.1900    98.5100    23.6330    20.1680    16.0220    17.1090     2.4390 
  244.3750   -10.4510   101.7240    23.6330    19.0010    15.4260    16.8070     2.4480 
  244.5000   -10.6080   102.5020    23.6330    17.6580    14.6280    16.2260     2.4570 
  244.6250   -10.6660   102.1100    23.6340    15.7030    13.6890    15.3470     2.4620 
  244.7500   -10.6260   103.1400    23.6560    14.5530    12.7670    14.3770     2.4620 
  244.8750   -10.5680   104.5010    23.7310    14.8730    11.9810    13.4670     2.4530 
  245.0000   -10.4860   104.1450    23.8630    14.9560    11.3850    12.6870     2.4350 
  245.1250   -10.4370   101.5600    23.9600    12.6890    11.0020    12.0780     2.4100 
  245.2500   -10.3610    98.4720    23.9960    10.7690    10.7590    11.6140     2.3870 
  245.3750   -10.3390    96.3640    24.0010    10.1620    10.5930    11.2740     2.3750 
  245.5000   -10.3460    94.9500    24.0010    10.3640    10.4490    11.0300     2.3670 
  245.6250   -10.4430    91.6660    24.0000    10.3350    10.3170    10.8870     2.3530 
  245.7500   -10.6080    88.0570    23.9860    10.1380    10.2430    10.8120     2.3370 
  245.8750   -10.8550    86.1990    23.9400    10.2550    10.2710    10.8140     2.3260 
  246.0000   -11.1930    86.4280    23.8460    10.7810    10.3990    10.9080     2.3170 
  246.1250   -11.5920    88.4200    23.7710    11.5620    10.5440    11.0810     2.3140 
  246.2500   -11.9530    90.8250    23.7020    12.2550    10.5560    11.2110     2.3320 
  246.3750   -12.2500    92.4470    23.6340    12.7160    10.3410    11.1490     2.3750 
  246.5000   -12.5230    90.9860    23.5250    12.5240     9.9070    10.7950     2.4120 
  246.6250   -12.7230    86.0170    23.4330    11.4970     9.3280    10.2000     2.4200 
  246.7500   -12.8620    82.0200    23.3970    10.2840     8.7330     9.6180     2.4050 
  246.8750   -12.8180    81.7250    23.3910     9.4900     8.2030     9.2120     2.3830 
  247.0000   -12.5420    84.6810    23.3820     9.0270     7.8230     9.0400     2.3640 
  247.1250   -12.0230    86.9910    23.3540     8.5920     7.7140     9.1190     2.3510 
  247.2500   -11.4010    87.2640    23.3180     8.5020     7.8630     9.3820     2.3440 
  247.3750   -10.7060    87.7170    23.3020     8.9780     8.2130     9.7980     2.3400 
  247.5000    -9.9740    88.2700    23.2990     9.7870     8.6530    10.3170     2.3360 
  247.6250    -9.1870    87.7330    23.2990    10.3350     9.0360    10.8210     2.3320 
  247.7500    -8.4090    87.1720    23.2990    10.6080     9.2760    11.1340     2.3320 
  247.8750    -7.6770    88.1300    23.2970    10.7770     9.3460    11.1540     2.3380 
  248.0000    -7.0460    90.3690    23.2830    10.7890     9.2670    10.9150     2.3490 
  248.1250    -6.5390    91.2520    23.2500    10.5090     9.1350    10.5850     2.3580 
  248.2500    -6.1180    91.7820    23.2200    10.1600     9.1060    10.4070     2.3630 
  248.3750    -5.7710    92.0650    23.2090    10.0020     9.2910    10.5390     2.3750 
  248.5000    -5.3990    92.3210    23.1950    10.2280     9.7310    11.0530     2.4020 
  248.6250    -5.0570    92.3730    23.0910    11.4490    10.3670    11.9110     2.4370 
  248.7500    -4.6880    90.7370    22.8690    13.3450    10.9540    12.7680     2.4550 
  248.8750    -4.3550    87.9820    22.6420    14.1140    11.2720    13.2620     2.4330 
  249.0000    -4.0630    86.7210    22.5320    12.7310    11.1970    13.1500     2.3860 
  249.1250    -3.8370    87.8040    22.5180    10.5780    10.7490    12.4580     2.3400 
  249.2500    -3.6540    88.0810    22.5140     9.8180    10.1570    11.5930     2.3140 
  249.3750    -3.4850    87.1990    22.4910     9.7730     9.5410    10.7600     2.3180 
  249.5000    -3.3670    86.6850    22.4180     9.7300     8.9580    10.0280     2.3410 
  249.6250    -3.2390    86.5160    22.3250     9.2590     8.4320     9.4150     2.3660 
  249.7500    -3.1600    85.7360    22.2330     8.3960     7.9700     8.9120     2.3870 
  249.8750    -3.1260    84.9730    22.1000     7.3640     7.6060     8.5490     2.4050 
  250.0000    -3.1480    86.8500    21.8790     6.8260     7.3700     8.3560     2.4150 
  250.1250    -3.1990    91.1410    21.6900     7.5120     7.2830     8.3560     2.4070 
  250.2500    -3.3060    93.3340    21.6000     8.6080     7.2850     8.4520     2.3850 
  250.3750    -3.4360    91.3050    21.5470     9.2720     7.3240     8.5580     2.3680 
  250.5000    -3.5440    87.0320    21.5160     9.3260     7.3630     8.6190     2.3660 
  250.6250    -3.5960    86.1990    21.5050     9.1670     7.3810     8.6360     2.3710 
  250.7500    -3.6050    87.1900    21.5050     8.9680     7.3870     8.6460     2.3720 
  250.8750    -3.5180    87.7940    21.5050     8.5220     7.3840     8.6390     2.3640 
  251.0000    -3.3610    87.7190    21.5050     7.8550     7.3510     8.5690     2.3520 
  251.1250    -3.1510    88.2110    21.5050     7.3200     7.2460     8.3810     2.3420 
