~V
VERS. 2.00: Ver 2.00
~W
STRT.M 55.0000:
STOP.M 285.0000:
STEP.M 0.1250:
NULL. -999.2500:
UWI. DF32159:
~C
DEPT.M :
GR.API :
CALI.CM :
RXO.OHMM :
RI. :
RML.OHMM :
DEN.GM/CC :
SP.MV :
~A
# ...
  122.5000    97.4570    26.1090     5.5430     5.1530     6.7670     2.2760   -16.2950 
  122.6250   102.4610    26.1080     5.3770     4.9970     6.5250     2.2760   -16.7820 
  122.7500   104.8270    26.1070     5.0300     4.8320     6.2140     2.2770   -17.2860 
  122.8750   104.5060    26.1020     4.7170     4.7090     5.9380     2.2820   -17.7380 
  123.0000   105.3940    26.0860     4.7370     4.6670     5.8100     2.2850   -18.0620 
  123.1250   106.3910    26.0600     5.1430     4.7390     5.9240     2.2840   -18.1780 
  123.2500   104.5490    26.0310     5.4920     4.8950     6.2090     2.2840   -18.0760 
  123.3750   100.6340    26.0040     5.6210     5.1040     6.5680     2.2840   -17.7770 
  123.5000    96.9010    25.9740     5.7920     5.3190     6.8960     2.2780   -17.3050 
  123.6250    96.0120    25.9480     6.4060     5.4780     7.0830     2.2620   -16.7250 
  123.7500    98.6500    25.9400     7.2110     5.5560     7.1220     2.2470   -16.1120 
  123.8750   100.7670    25.9530     7.6240     5.5590     7.0610     2.2450   -15.5330 
  124.0000    98.5780    25.9770     7.2590     5.5190     6.9780     2.2570   -15.0700 
  124.1250    96.9010    26.0000     6.4210     5.4820     6.9290     2.2760   -14.8630 
  124.2500    98.1110    26.0130     5.9320     5.4760     6.8930     2.2850   -14.9560 
  124.3750    99.5750    26.0150     6.0060     5.4960     6.8480     2.2810   -15.3700 
  124.5000   100.3830    26.0140     6.2810     5.5160     6.7920     2.2720   -16.1240 
  124.6250   103.7970    26.0180     6.2680     5.4950     6.7540     2.2770   -17.2240 
  124.7500   106.2450    26.0210     6.0370     5.4280     6.7560     2.2920   -18.5770 
  124.8750   103.3850    26.0180     5.8320     5.3330     6.7850     2.3000   -20.1230 
  125.0000    97.2740    26.0020     5.7590     5.2470     6.8120     2.2910   -21.7560 
  125.1250    93.1820    25.9640     5.7580     5.2310     6.8320     2.2780   -23.3200 
  125.2500    91.2470    25.9020     5.8360     5.3110     6.9110     2.2690   -24.6770 
  125.3750    89.1780    25.8260     6.1500     5.5010     7.1260     2.2520   -25.7070 
  125.5000    84.2370    25.7560     6.8120     5.7930     7.5030     2.2180   -26.3380 
  125.6250    77.9640    25.7130     7.7430     6.1620     8.0270     2.1810   -26.4740 
  125.7500    74.5100    25.6880     8.5730     6.5370     8.5730     2.1640   -26.1750 
  125.8750    73.1220    25.6720     9.0080     6.8650     9.0340     2.1670   -25.4620 
  126.0000    71.8690    25.6610     8.9870     7.1130     9.3450     2.1750   -24.4300 
  126.1250    70.3120    25.6550     8.6890     7.2400     9.4660     2.1690   -23.2100 
  126.2500    69.6340    25.6530     8.4200     7.2430     9.4240     2.1530   -21.9900 
  126.3750    71.0000    25.6600     8.3220     7.1000     9.2010     2.1410   -20.8620 
  126.5000    74.1720    25.6850     8.3810     6.8090     8.7800     2.1460   -19.8430 
  126.6250    79.3500    25.7510     8.1840     6.3970     8.1920     2.1730   -18.9610 
  126.7500    85.1980    25.8440     7.4190     5.9650     7.5850     2.2080   -18.2060 
  126.8750    89.6700    25.9360     6.3720     5.5910     7.0840     2.2360   -17.5790 
  127.0000    92.2180    25.9940     5.6890     5.3340     6.7790     2.2500   -17.0520 
  127.1250    92.4490    26.0150     5.6690     5.2380     6.7170     2.2480   -16.5450 
  127.2500    92.1080    26.0300     5.7410     5.2540     6.7900     2.2450   -16.0020 
  127.3750    90.9910    26.0450     5.6990     5.3280     6.8870     2.2480   -15.4410 
  127.5000    88.9610    26.0540     5.7400     5.3890     6.9000     2.2560   -14.9140 
  127.6250    89.5530    26.0790     5.8900     5.3580     6.7390     2.2620   -14.4880 
  127.7500    92.0990    26.1530     5.7840     5.2270     6.4420     2.2710   -14.1970 
  127.8750    93.8730    26.2680     5.3610     5.0180     6.0760     2.2940   -14.0990 
  128.0000    93.5640    26.3840     4.8610     4.7840     5.7300     2.3280   -14.2210 
  128.1250    92.4540    26.4530     4.5140     4.5950     5.5180     2.3570   -14.5870 
  128.2500    91.9300    26.4700     4.3150     4.4940     5.4630     2.3690   -15.1750 
  128.3750    89.8480    26.4250     4.3210     4.4890     5.5360     2.3700   -15.9900 
  128.5000    85.6730    26.3040     4.6150     4.5480     5.6560     2.3660   -17.0370 
  128.6250    84.1600    26.1360     5.1480     4.6160     5.7050     2.3580   -18.3000 
  128.7500    85.5150    26.0150     5.5200     4.6650     5.6480     2.3460   -19.6430 
  128.8750    85.8080    25.9840     5.4510     4.7220     5.5580     2.3340   -20.9710 
  129.0000    81.2970    25.9940     5.1110     4.8530     5.6030     2.3270   -22.2290 
  129.1250    73.5650    25.9400     5.1830     5.1640     6.0350     2.3220   -23.3660 
  129.2500    68.8780    25.8500     5.9550     5.6660     6.8660     2.3150   -24.3080 
  129.3750    68.1300    25.8800     7.1700     6.3290     7.9690     2.3110   -24.9680 
  129.5000    70.5490    26.1750     8.3450     7.0360     9.0420     2.3040   -25.2690 
  129.6250    73.2460    26.7210     9.0670     7.5560     9.5990     2.2800   -25.1520 
  129.7500    73.4550    27.2120     9.3300     7.7680     9.5630     2.2410   -24.7010 
  129.8750    71.3380    27.3440     9.1850     7.7050     9.1570     2.2010   -23.9420 
  130.0000    68.7300    26.9620     8.7460     7.5220     8.7270     2.1770   -22.9270 
  130.1250    68.3110    26.2300     8.2800     7.4210     8.5860     2.1760   -21.7290 
  130.2500    68.7670    25.6790     8.0980     7.4920     8.7720     2.1850   -20.5070 
  130.3750    69.1540    25.6250     8.2840     7.7180     9.1970     2.1950   -19.3680 
  130.5000    69.8660    26.0070     8.6560     7.9730     9.6340     2.1980   -18.4520 
  130.6250    73.1350    26.3680     8.9640     7.9830     9.6420     2.1940   -17.8950 
  130.7500    78.5530    26.3940     8.9380     7.5850     9.0040     2.1950   -17.7030 
  130.8750    85.5880    26.2340     8.2170     6.8000     7.8130     2.2140   -17.8920 
  131.0000    91.7240    26.1970     6.7330     5.8440     6.4440     2.2530   -18.4180 
  131.1250    92.5560    26.3660     5.0850     5.0180     5.3710     2.2940   -19.1990 
  131.2500    89.2650    26.4810     4.0290     4.4660     4.7670     2.3090   -20.0700 
  131.3750    84.7010    26.4070     3.8190     4.2260     4.6540     2.2910   -20.9410 
  131.5000    81.2690    26.1700     4.4000     4.2910     4.9860     2.2540   -21.6920 
  131.6250    79.4080    25.8890     5.5230     4.6620     5.6900     2.2230   -22.2280 
  131.7500    77.8370    25.6830     6.6020     5.2130     6.5090     2.2090   -22.5730 
  131.8750    76.9440    25.5800     7.3590     5.8450     7.2520     2.2090   -22.7430 
  132.0000    76.3660    25.5490     7.8900     6.4560     7.8200     2.2160   -22.7900 
  132.1250    75.5280    25.5460     8.3880     6.9560     8.2350     2.2220   -22.7930 
  132.2500    74.3470    25.5490     8.8520     7.3470     8.6290     2.2230   -22.8150 
  132.3750    74.4750    25.5650     9.2490     7.6450     9.0380     2.2160   -22.8730 
  132.5000    75.1760    25.6140     9.5970     7.8750     9.4140     2.2050   -22.9860 
  132.6250    74.8030    25.6740     9.8420     8.0600     9.6460     2.2010   -23.1500 
  132.7500    76.7620    25.6900     9.9260     8.2350     9.7440     2.2100   -23.3540 
  132.8750    80.3520    25.6490     9.8990     8.4050     9.7940     2.2330   -23.5940 
  133.0000    79.8240    25.5920     9.8610     8.5570     9.8870     2.2720   -23.8350 
  133.1250    75.2540    25.5580     9.8320     8.6420    10.0410     2.3280   -24.0490 
  133.2500    75.1970    25.5340     9.7650     8.6320    10.1720     2.3690   -24.2320 
  133.3750    80.7310    25.5100     9.6550     8.5240    10.2060     2.3650   -24.3860 
  133.5000    82.9860    25.4930     9.5140     8.3520    10.1230     2.3380   -24.5080 
  133.6250    77.6960    25.4880     9.3740     8.1750     9.9730     2.3020   -24.6070 
