~V
VERS. 2.00: Ver 2.00
~W
STRT.M 55.0000:
STOP.M 285.0000:
STEP.M 0.1250:
NULL. -999.2500:
UWI. DF32159:
~C
DEPT.M :
GR.API :
CALI.CM :
RXO.OHMM :
RI. :
RML.OHMM :
DEN.GM/CC :
SP.MV :
~A
# ...
  156.2500    90.2750    26.4710     9.6540     7.7150     8.5940     2.2220   -13.9700 
  156.3750    94.3190    26.4710     7.2290     6.8550     7.5250     2.2280   -13.8950 
  156.5000    96.8850    26.4720     5.8320     6.5620     7.4260     2.2720   -13.8890 
  156.6250    93.1690    26.4710     7.5700     7.0000     8.3970     2.3610   -13.9550 
  156.7500    86.4910    26.4490    12.3390     7.9520     9.9850     2.4550   -14.0450 
  156.8750    81.8810    26.3750    17.1310     9.0720    11.5440     2.5230   -14.1320 
  157.0000    80.9250    26.2650    17.5890     9.7540    12.1030     2.5560   -14.1670 
  157.1250    80.0520    26.2240    13.1030     9.3420    10.9470     2.5490   -14.1130 
  157.2500    79.1470    26.2970     8.9430     8.2500     9.0920     2.5080   -13.9890 
  157.3750    82.4700    26.4260     6.9970     7.0340     7.4060     2.4370   -13.8220 
  157.5000    91.1950    26.5190     6.2540     6.0490     6.2470     2.3610   -13.6360 
  157.6250   101.4570    26.5410     5.5850     5.4310     5.6560     2.3250   -13.4490 
  157.7500   105.1230    26.5410     5.0020     5.0610     5.3760     2.3440   -13.2870 
  157.8750    99.4190    26.5400     4.7470     4.8480     5.2600     2.3950   -13.1900 
  158.0000    89.3600    26.5400     4.7080     4.7290     5.2120     2.4340   -13.2010 
  158.1250    85.5510    26.5410     4.7300     4.6740     5.1950     2.4330   -13.3560 
  158.2500    89.2660    26.5360     4.7700     4.6570     5.1920     2.4210   -13.6310 
  158.3750    94.4980    26.5230     4.7900     4.6700     5.2110     2.4200   -13.9970 
  158.5000    98.0580    26.4960     4.7950     4.7170     5.2780     2.4280   -14.4260 
  158.6250    98.0360    26.4530     4.8810     4.8250     5.4450     2.4230   -14.9070 
  158.7500    93.6830    26.3990     5.1080     5.0070     5.7050     2.4030   -15.4050 
  158.8750    86.8100    26.3340     5.4640     5.2690     6.0500     2.3760   -15.8690 
  159.0000    81.8390    26.2640     5.9110     5.6010     6.4560     2.3520   -16.2610 
  159.1250    82.4700    26.2090     6.3900     5.9760     6.8780     2.3380   -16.5320 
  159.2500    83.6020    26.1940     6.8320     6.3310     7.2570     2.3320   -16.6710 
  159.3750    84.1450    26.2290     7.2160     6.6180     7.5400     2.3240   -16.6890 
  159.5000    86.0810    26.2950     7.5410     6.7940     7.6870     2.3030   -16.6030 
  159.6250    88.7670    26.3510     7.7370     6.8200     7.6540     2.2720   -16.4050 
  159.7500    88.5940    26.3650     7.7290     6.7340     7.4990     2.2510   -16.1290 
  159.8750    86.2920    26.3430     7.4740     6.5810     7.2850     2.2520   -15.8130 
  160.0000    85.0480    26.3220     7.0340     6.4150     7.0760     2.2710   -15.4950 
  160.1250    86.6040    26.3380     6.5860     6.2960     6.9390     2.2910   -15.2080 
  160.2500    89.3780    26.3720     6.3060     6.2470     6.9000     2.3000   -14.9630 
  160.3750    91.8050    26.3880     6.2270     6.2650     6.9570     2.2990   -14.7730 
  160.5000    92.9180    26.3670     6.2790     6.3250     7.0720     2.2920   -14.6410 
  160.6250    91.4610    26.3300     6.3860     6.3800     7.1590     2.2830   -14.5870 
  160.7500    88.9000    26.3180     6.5040     6.3960     7.1530     2.2760   -14.6120 
  160.8750    86.6640    26.3560     6.5770     6.3770     7.0650     2.2730   -14.7020 
  161.0000    85.9630    26.4490     6.5290     6.3580     6.9910     2.2780   -14.8310 
  161.1250    86.2590    26.5690     6.4250     6.3860     7.0660     2.2930   -14.9820 
  161.2500    83.8980    26.6600     6.6560     6.4730     7.2980     2.3060   -15.1580 
  161.3750    79.9750    26.6980     7.4210     6.6120     7.6300     2.3040   -15.3370 
  161.5000    77.9610    26.6970     8.2900     6.7790     7.9720     2.2850   -15.5000 
  161.6250    79.6990    26.6890     8.4660     6.9380     8.2350     2.2620   -15.6290 
  161.7500    81.2930    26.6880     8.2530     7.0830     8.4270     2.2490   -15.7310 
  161.8750    79.6370    26.6910     8.3510     7.2330     8.5970     2.2460   -15.8190 
  162.0000    75.2430    26.6920     8.9300     7.4380     8.8200     2.2440   -15.9100 
  162.1250    71.8800    26.6810     9.7230     7.8350     9.3000     2.2310   -16.0150 
  162.2500    71.4820    26.6610    10.8610     8.5690    10.2640     2.2120   -16.1220 
  162.3750    71.8470    26.6500    12.9590     9.8300    11.9730     2.1960   -16.2220 
  162.5000    70.3510    26.6700    16.8050    11.8400    14.6650     2.1960   -16.3100 
  162.6250    68.5080    26.7300    23.5420    15.0530    18.7610     2.2150   -16.3780 
  162.7500    69.3390    26.7940    31.8950    19.4730    24.1330     2.2290   -16.4070 
  162.8750    70.2870    26.8360    39.0080    24.9460    30.5160     2.2270   -16.3740 
  163.0000    67.2850    26.8510    42.6460    30.8490    37.1300     2.2090   -16.2710 
  163.1250    62.0480    26.8530    43.0110    35.5550    41.8780     2.1880   -16.0830 
  163.2500    61.5420    26.8530    42.4480    37.2700    42.5830     2.1710   -15.8340 
  163.3750    66.2720    26.8520    41.1240    34.9340    38.3060     2.1570   -15.5450 
  163.5000    71.1830    26.8450    36.6780    29.2470    30.6210     2.1520   -15.2560 
  163.6250    74.1450    26.8190    27.0080    22.4440    22.6470     2.1710   -14.9840 
  163.7500    78.6410    26.7830    16.6360    16.7070    16.4080     2.2050   -14.7380 
  163.8750    84.8770    26.7580     9.8170    12.6640    12.2670     2.2340   -14.5440 
  164.0000    88.5750    26.7550     7.1260    10.2300     9.9870     2.2510   -14.4070 
  164.1250    86.5480    26.7580     7.1980     9.2910     9.4400     2.2690   -14.3520 
  164.2500    83.1170    26.7350     8.2890     9.4250    10.1320     2.2980   -14.3680 
  164.3750    80.7610    26.6740    10.3900    10.5890    11.9640     2.3390   -14.4460 
  164.5000    78.2640    26.5790    13.8730    12.7610    14.8550     2.3930   -14.5630 
  164.6250    74.9110    26.4710    18.0390    15.8350    18.6050     2.4610   -14.7250 
  164.7500    70.8780    26.3870    20.8480    19.0150    22.2730     2.5300   -14.9360 
  164.8750    66.5840    26.3420    21.7530    21.4430    24.8590     2.5840   -15.1690 
  165.0000    63.7910    26.3340    21.8830    22.5560    25.7990     2.6130   -15.3970 
  165.1250    65.4450    26.3420    22.0470    22.3840    25.3550     2.6160   -15.5770 
  165.2500    68.8950    26.3510    21.6950    21.8200    24.6940     2.6180   -15.6970 
  165.3750    67.8730    26.3600    20.9970    21.3700    24.3950     2.6310   -15.7560 
  165.5000    63.4610    26.3680    20.7790    21.2400    24.6260     2.6480   -15.7490 
  165.6250    62.6230    26.3740    21.5950    21.4330    25.2960     2.6490   -15.6530 
  165.7500    66.5450    26.3760    23.1920    21.7320    26.0430     2.6350   -15.4750 
  165.8750    70.0810    26.3710    25.2290    21.9750    26.6100     2.6180   -15.2610 
  166.0000    68.4750    26.3570    26.5910    22.0490    26.8450     2.6050   -15.0510 
  166.1250    63.6180    26.3350    26.0590    21.9180    26.7200     2.5980   -14.8770 
  166.2500    60.4480    26.3170    24.4750    21.7210    26.4590     2.5950   -14.7680 
  166.3750    60.8750    26.3120    22.9080    21.5780    26.2210     2.5910   -14.7310 
  166.5000    62.7070    26.3230    21.9580    21.5540    26.0960     2.5850   -14.7770 
  166.6250    65.2600    26.3490    22.1800    21.6460    26.1120     2.5840   -14.9120 
  166.7500    67.7420    26.3850    23.0890    21.7240    26.1590     2.5900   -15.1170 
  166.8750    66.7500    26.4220    23.5890    21.6640    26.0880     2.5960   -15.3650 
  167.0000    62.5260    26.4520    23.0810    21.3680    25.7470     2.5920   -15.6310 
  167.1250    60.7540    26.4750    22.0190    20.7790    25.0020     2.5780   -15.9000 
  167.2500    63.2520    26.5020    21.0570    20.0310    24.0310     2.5650   -16.1270 
  167.3750    65.1540    26.5430    20.2740    19.2700    23.0670     2.5580   -16.2990 
