~V
VERS. 2.00: Ver 2.00
~W
STRT.M 60.0000:
STOP.M 266.0000:
STEP.M 0.1250:
NULL. -999.2500:
UWI. DF32129:
~C
DEPT.M :
SP.MV :
GR.API :
CALI.CM :
RXO.OHMM :
RI. :
RML.OHMM :
DEN.GM/CC :
~A
# ...
  251.2500   -22.2310    98.1570    24.6940    15.7200    10.0640    12.4270     2.3820 
  251.3750   -22.0710    97.0720    24.6530    11.4290     9.2350    11.2790     2.3730 
  251.5000   -21.9110    94.2280    24.6480     8.4220     8.2770    10.0740     2.3450 
  251.6250   -21.7620    88.6710    24.6480     7.7970     7.4730     9.2060     2.3060 
  251.7500   -21.6180    82.4540    24.6480     8.0150     6.9370     8.7420     2.2720 
  251.8750   -21.4660    79.0570    24.6360     8.5560     6.6950     8.6450     2.2550 
  252.0000   -21.3810    78.8930    24.5990     9.0370     6.7060     8.8070     2.2520 
  252.1250   -21.3530    78.6690    24.5250     8.9930     6.9080     9.0930     2.2570 
  252.2500   -21.3680    78.3730    24.4890     8.7750     7.1910     9.3910     2.2640 
  252.3750   -21.4250    79.8860    24.4770     8.9210     7.5310     9.7110     2.2760 
  252.5000   -21.4480    82.7980    24.4740     9.9720     7.9380    10.1030     2.2870 
  252.6250   -21.5060    86.4840    24.4430    12.9680     8.4290    10.5980     2.2970 
  252.7500   -21.5730    90.9800    24.3640    17.5220     8.9540    11.1370     2.3090 
  252.8750   -21.6120    94.6710    24.2680    19.8130     9.4540    11.6370     2.3230 
  253.0000   -21.6120    95.3970    24.2280    17.6630     9.8650    12.0160     2.3350 
  253.1250   -21.6530    93.9310    24.2790    13.3020    10.0950    12.1740     2.3420 
  253.2500   -21.6640    93.0970    24.3970    11.3430    10.1160    12.1160     2.3480 
  253.3750   -21.5830    92.9090    24.4450    10.6000     9.9060    11.8380     2.3540 
  253.5000   -21.4840    91.4110    24.3490     9.9660     9.4840    11.3560     2.3560 
  253.6250   -21.3290    88.7450    24.2570     8.8910     8.9130    10.7320     2.3490 
  253.7500   -21.1760    86.8510    24.2400     8.2170     8.3350    10.1160     2.3300 
  253.8750   -21.0510    87.0670    24.2720     8.1070     7.8280     9.6050     2.3040 
  254.0000   -20.8990    89.9940    24.3030     8.2790     7.4260     9.2450     2.2790 
  254.1250   -20.7050    89.9940    24.3130     8.2400     7.1380     9.0350     2.2670 
  254.2500   -20.5540    89.9940    24.3140     7.9250     6.9210     8.8810     2.2680 
  254.3750   -20.4440    89.9940    24.3140     7.5390     6.7520     8.7180     2.2800 
  254.5000   -20.3310    89.9940    24.3140     7.2640     6.6280     8.5330     2.3000 
  254.6250   -20.2630    89.9940    24.3150     7.1940     6.5800     8.3820     2.3180 
  254.7500   -20.1820    89.9940    24.3680     7.4470     6.6470     8.3550     2.3210 
  254.8750   -20.1150    89.9940    24.5410     8.1980     6.8920     8.5460     2.3080 
  255.0000   -20.1000    89.9940    24.8290     9.3970     7.3910     9.0510     2.2980 
  255.1250   -20.0290    89.9940    24.6670    11.0290     8.2650    10.0160     2.3190 
  255.2500   -19.9350    89.9940    24.3930    13.5970     9.4450    11.3560     2.3600 
  255.3750   -19.8720    89.9940    24.2570    16.8750    10.7740    12.8870     2.3960 
  255.5000   -19.8310    89.9940    24.2400    18.8210    11.9420    14.2140     2.4090 
  255.6250   -19.7750    89.9940    24.2420    17.2060    12.4140    14.6410     2.3990 
  255.7500   -19.6600    89.9940    24.2370    14.2250    12.0850    14.0680     2.3810 
  255.8750   -19.5000    89.9940    24.2220    11.8060    11.1190    12.7970     2.3650 
  256.0000   -19.3130    89.9940    24.2110    10.0710     9.8470    11.3030     2.3570 
  256.1250   -19.1200    89.9940    24.2290     8.5730     8.6020     9.9800     2.3550 
  256.2500   -18.8730    89.9940    24.2710     7.4750     7.5690     8.9500     2.3510 
  256.3750   -18.6360    89.9940    24.3030     6.9490     6.8020     8.2180     2.3410 
  256.5000   -18.4650    89.9940    24.3140     6.7620     6.3000     7.7470     2.3290 
  256.6250   -18.2500    89.9940    24.3140     6.9030     6.0750     7.5390     2.3140 
  256.7500   -18.0710    89.9940    24.3140     7.3220     6.0740     7.5550     2.2990 
  256.8750   -18.0030    89.9940    24.3140     7.7710     6.2890     7.8020     2.2900 
  257.0000   -17.9520    89.9940    24.3140     8.1600     6.7080     8.2710     2.2910 
  257.1250   -17.9750    89.9940    24.3100     8.9480     7.3220     8.9420     2.3080 
  257.2500   -18.0680    89.9940    24.2910    10.0910     8.0190     9.6920     2.3310 
  257.3750   -18.1520    89.9940    24.2560    10.8420     8.6850    10.3870     2.3540 
  257.5000   -18.1960    89.9940    24.2180    10.7630     9.1940    10.8870     2.3650 
  257.6250   -18.2830    89.9940    24.2020    10.2580     9.4190    11.0700     2.3600 
  257.7500   -18.4160    89.9940    24.1980     9.9250     9.4120    11.0170     2.3490 
  257.8750   -18.5350    89.9940    24.1950     9.8210     9.2480    10.8190     2.3370 
  258.0000   -18.6600    89.9940    24.1970     9.8450     9.0120    10.5650     2.3270 
  258.1250   -18.7910    89.9940    24.1980     9.8550     8.7610    10.3230     2.3160 
  258.2500   -18.9040    89.9940    24.1990     9.7080     8.5150    10.1050     2.3070 
  258.3750   -18.9710    89.9940    24.1990     9.4000     8.2810     9.9130     2.3020 
  258.5000   -19.0020    89.9940    24.1990     8.9100     8.0740     9.7560     2.3040 
  258.6250   -18.9770    89.9940    24.1980     8.1980     7.9260     9.6520     2.3090 
  258.7500   -18.9740    89.9940    24.1920     7.7170     7.8330     9.5910     2.3100 
  258.8750   -18.9530    89.9940    24.1790     7.9290     7.7750     9.5550     2.3070 
  259.0000   -18.9100    89.9940    24.1680     8.5890     7.7350     9.5310     2.3040 
  259.1250   -18.8900    89.9940    24.1650     9.0260     7.7100     9.5100     2.3060 
  259.2500   -18.9040    89.9940    24.1650     9.1860     7.6950     9.4930     2.3130 
  259.3750   -18.9450    89.9940    24.1650     9.4270     7.6800     9.4850     2.3250 
  259.5000   -18.9830    89.9940    24.1650     9.8720     7.6540     9.4870     2.3420 
  259.6250   -19.0980    89.9940    24.1650    10.4320     7.6260     9.4990     2.3580 
  259.7500   -19.1840    89.9940    24.1650    11.0610     7.6190     9.5100     2.3670 
  259.8750   -19.2260    89.9940    24.1650    11.7990     7.6230     9.5130     2.3690 
  260.0000   -19.3000    89.9940    24.1650    12.0080     7.6230     9.5130     2.3680 
  260.1250   -19.2930    89.9940    24.1650    11.8140     7.6230     9.5130     2.3640 
  260.2500   -19.2390    89.9940    24.1650    12.0070     7.6230     9.5130     2.3590 
  260.3750   -19.2270    89.9940    24.1650    12.9040     7.6230     9.5130     2.3550 
  260.5000   -19.2460    89.9940    24.1650    13.4030     7.6230     9.5130     2.3540 
  260.6250   -19.2560    89.9940    24.1650    12.5700     7.6230     9.5130     2.3510 
  260.7500   -19.2270    89.9940    24.1680    11.2800     7.6230     9.5130     2.3450 
  260.8750   -19.2260    89.9940    24.1750    10.5580     7.6230     9.5130     2.3420 
  261.0000   -19.1780    89.9940    24.1960    10.6280     7.6230     9.5130     2.3480 
  261.1250   -19.1910    89.9940    24.2110    11.0340     7.6230     9.5130     2.3630 
  261.2500   -19.2640    89.9940    24.2030    13.2880     7.6230     9.5130     2.3790 
  261.3750   -19.2960    89.9940    24.1550    15.9810     7.6230     9.5130     2.3880 
  261.5000   -19.3190    89.9940    24.0660    17.5520     7.6230     9.5130     2.3930 
  261.6250   -19.3230    89.9940    23.9930    15.9180     7.6230     9.5130     2.3990 
  261.7500   -19.3460    89.9940    24.1660    11.9660     7.6230     9.5130     2.4050 
  261.8750   -19.3600    89.9940    24.3310     8.8590     7.6230     9.5130     2.4040 
  262.0000   -19.3980    89.9940    24.3590     7.2360     7.6230     9.5130     2.3950 
  262.1250   -19.4640    89.9940    24.1840     6.3880     7.6230     9.5130     2.3870 
  262.2500   -19.5260    89.9940    23.7710     5.8930     7.6230     9.5130     2.3870 
  262.3750   -19.5980    89.9940    23.5590     5.6280     7.6230     9.5130     2.3940 
