~V
VERS. 2.00: Ver 2.00
~W
STRT.M 62.0000:
STOP.M 256.0000:
STEP.M 0.1250:
NULL. -999.2500:
UWI. DF32087:
~C
DEPT.M :
SP.MV :
GR.API :
RML.OHMM :
RI. :
RXO.OHMM :
CALI.CM :
DEN.GM/CC :
~A
# ...
  107.0000   -20.0150    93.4710     6.4650     5.0910     5.7750    24.7560     2.3150 
  107.1250   -20.0380    95.2340     6.5300     5.1350     5.8320    24.5130     2.3060 
  107.2500   -20.1400    94.5070     6.6000     5.1850     5.8650    24.3540     2.2980 
  107.3750   -20.2240    92.3610     6.6660     5.2310     6.0490    24.3460     2.2870 
  107.5000   -20.3140    90.6240     6.7040     5.2590     6.2100    24.4920     2.2730 
  107.6250   -20.3110    88.7150     6.6800     5.2440     6.1680    24.7270     2.2610 
  107.7500   -20.3050    88.2560     6.5910     5.1850     6.0470    24.9410     2.2570 
  107.8750   -20.2850    88.6610     6.4600     5.0920     5.8660    25.0760     2.2610 
  108.0000   -20.2710    87.7300     6.3360     5.0000     5.7360    25.1500     2.2710 
  108.1250   -20.3480    88.3940     6.2970     4.9630     5.6210    25.1680     2.2800 
  108.2500   -20.3720    92.6150     6.3650     5.0060     5.5000    25.1250     2.2840 
  108.3750   -20.4560    94.7620     6.5250     5.1250     5.5470    24.9960     2.2810 
  108.5000   -20.4240    89.3160     6.7270     5.2940     6.0390    24.8260     2.2720 
  108.6250   -20.4330    82.3980     6.8860     5.4560     6.5580    24.7430     2.2600 
  108.7500   -20.3390    81.0620     6.9510     5.5660     6.5530    24.8080     2.2500 
  108.8750   -20.1940    83.6470     6.9210     5.6100     6.3890    24.9420     2.2470 
  109.0000   -20.0030    86.1470     6.8410     5.6040     6.2120    25.0430     2.2590 
  109.1250   -19.7770    86.6620     6.7700     5.5790     5.9850    25.0720     2.2910 
  109.2500   -19.5660    87.1790     6.7250     5.5550     5.7590    25.0600     2.3360 
  109.3750   -19.3830    88.0490     6.6730     5.5160     5.9120    25.0150     2.3830 
  109.5000   -19.2770    89.7790     6.5630     5.4300     6.6420    24.9690     2.4160 
  109.6250   -19.2400    90.8770     6.3480     5.2600     6.7580    24.9460     2.4220 
  109.7500   -19.3190    90.3980     6.0760     5.0320     6.3050    24.9890     2.4060 
  109.8750   -19.4760    88.9710     5.8200     4.7950     5.3680    25.0400     2.3800 
  110.0000   -19.6920    86.4050     5.6530     4.6080     4.8790    25.0750     2.3540 
  110.1250   -19.9770    83.8440     5.6350     4.5320     4.8490    25.1210     2.3360 
  110.2500   -20.2900    82.8100     5.7340     4.5610     4.9570    25.1900     2.3220 
  110.3750   -20.6760    82.4620     5.9170     4.6780     5.2830    25.2300     2.3080 
  110.5000   -21.0890    80.4420     6.1490     4.8590     5.5710    25.1820     2.2910 
  110.6250   -21.5390    77.9650     6.4220     5.0950     5.8150    24.9830     2.2730 
  110.7500   -21.9860    77.1780     6.7400     5.3770     6.0850    24.7340     2.2570 
  110.8750   -22.4240    77.4420     7.1170     5.7140     6.4230    24.5370     2.2420 
  111.0000   -22.8650    75.0220     7.5530     6.1060     6.7120    24.4030     2.2260 
  111.1250   -23.2680    69.4770     8.0180     6.5390     7.9110    24.3060     2.2060 
  111.2500   -23.6680    63.9680     8.4580     6.9730     9.6700    24.2590     2.1840 
  111.3750   -23.9260    58.9630     8.8320     7.3750    10.6670    24.2460     2.1660 
  111.5000   -24.1410    56.0080     9.1270     7.7260     9.6660    24.2460     2.1530 
  111.6250   -24.1960    58.4650     9.3590     8.0270     8.8890    24.2460     2.1440 
  111.7500   -24.2360    64.0240     9.5810     8.3100     8.8050    24.2460     2.1380 
  111.8750   -24.1560    67.4250     9.8230     8.5930     9.0790    24.2460     2.1320 
  112.0000   -24.0310    65.8740    10.0780     8.8650     9.3600    24.2460     2.1300 
  112.1250   -23.7630    62.3300    10.2710     9.0560     9.4830    24.2450     2.1330 
  112.2500   -23.4640    62.3630    10.2930     9.0830     9.3240    24.2400     2.1440 
  112.3750   -23.1280    65.7650    10.0370     8.8610     8.9790    24.2270     2.1630 
  112.5000   -22.7860    68.5900     9.4350     8.3430     8.4930    24.2090     2.1880 
  112.6250   -22.4320    68.8700     8.4830     7.5210     8.0700    24.2480     2.2170 
  112.7500   -22.0990    69.1620     7.4080     6.5710     7.3900    24.3360     2.2460 
  112.8750   -21.9000    73.1560     6.4330     5.6640     6.2180    24.4930     2.2710 
  113.0000   -21.8160    80.1860     5.7610     4.9690     4.9240    24.6260     2.2880 
  113.1250   -21.9350    86.4800     5.6150     4.6800     4.4440    24.5260     2.2910 
  113.2500   -22.1790    88.4210     5.9640     4.8030     4.7150    24.2210     2.2810 
  113.3750   -22.5010    84.8010     6.7580     5.3250     6.1480    23.9100     2.2600 
  113.5000   -22.8900    76.6920     7.8580     6.1670     8.1890    23.7590     2.2350 
  113.6250   -23.3120    67.0980     9.0160     7.1760     9.3350    23.8920     2.2140 
  113.7500   -23.7600    59.9300     9.9460     8.1110     9.5910    24.1570     2.2040 
  113.8750   -24.1520    56.9590    10.5040     8.8210     9.9290    24.2950     2.2060 
  114.0000   -24.4650    57.2780    10.7170     9.2610    10.3340    24.2370     2.2160 
  114.1250   -24.6370    56.4010    10.7610     9.4870    10.6030    24.2320     2.2280 
  114.2500   -24.6780    55.5540    10.8580     9.6670    10.3340    24.3980     2.2330 
  114.3750   -24.7330    59.4630    11.0750     9.8850    11.8930    24.7070     2.2280 
  114.5000   -24.6720    68.5970    11.3730    10.1520    16.1540    24.9130     2.2130 
  114.6250   -24.7010    73.5980    11.6450    10.4200    17.0410    24.9100     2.1920 
  114.7500   -24.6230    71.9720    11.8150    10.6260    15.5630    24.7640     2.1680 
  114.8750   -24.5090    68.5020    11.8620    10.7420    13.7050    24.5530     2.1440 
  115.0000   -24.3240    65.8540    11.8140    10.7640    11.3610    24.3100     2.1220 
  115.1250   -24.1290    62.7330    11.6670    10.6820    10.2780    24.0870     2.1080 
  115.2500   -23.8720    58.7740    11.3770    10.4810     9.9390    23.9280     2.1020 
  115.3750   -23.5520    57.0050    10.8820    10.1020     9.9910    23.9230     2.1080 
  115.5000   -23.2130    58.3380    10.1250     9.4990    10.0110    24.0940     2.1260 
  115.6250   -22.8240    59.9660     9.2600     8.6780     9.8690    24.3300     2.1560 
  115.7500   -22.4600    62.5020     8.4820     7.8250     8.8350    24.5380     2.1910 
  115.8750   -22.1590    68.3480     8.0350     7.1160     6.9600    24.7320     2.2210 
  116.0000   -21.9250    76.3540     8.0170     6.6860     5.9740    24.8700     2.2420 
  116.1250   -21.7150    77.0240     8.0840     6.6100     6.2420    24.8320     2.2510 
  116.2500   -21.5320    72.5150     8.3470     6.7350     7.3510    24.7390     2.2590 
  116.3750   -21.3530    70.6970     8.5890     6.9090     8.1880    24.7130     2.2690 
  116.5000   -21.1690    73.5750     8.6280     6.9850     8.2020    24.7950     2.2820 
  116.6250   -21.0370    75.8370     8.3440     6.8420     7.2620    24.9420     2.2920 
  116.7500   -20.9210    74.1800     7.8650     6.5260     6.0110    25.0080     2.2920 
  116.8750   -20.7830    71.8050     7.3240     6.1170     5.6720    24.9240     2.2850 
  117.0000   -20.6010    71.0360     6.8310     5.6990     6.1770    24.7400     2.2810 
  117.1250   -20.5140    72.2540     6.4550     5.3480     6.2570    24.7410     2.2930 
  117.2500   -20.5090    75.1470     6.2090     5.0960     5.6670    24.9140     2.3240 
  117.3750   -20.6240    78.7910     6.1190     4.9730     5.1780    25.0900     2.3650 
  117.5000   -20.8940    82.2670     6.2180     5.0040     5.3050    25.1580     2.3950 
  117.6250   -21.1760    82.8220     6.5460     5.2300     6.1680    25.1370     2.3860 
  117.7500   -21.5320    80.2960     7.0340     5.6090     7.1180    25.1180     2.3370 
  117.8750   -21.8510    76.2950     7.6050     6.0950     7.7060    25.2560     2.2630 
  118.0000   -22.2120    71.9050     8.1670     6.6210     7.9680    25.6300     2.1900 
  118.1250   -22.4150    68.3000     8.6180     7.1000     8.2800    25.8430     2.1470 
