~V
VERS. 2.00: Ver 2.00
~W
STRT.M 62.0000:
STOP.M 243.0000:
STEP.M 0.1250:
NULL. -999.2500:
UWI. DF32072:
~C
DEPT.M :
SP.MV :
GR.API :
CALI.CM :
RXO.OHMM :
RI. :
RML.OHMM :
DEN.GM/CC :
~A
# ...
   95.7500   -34.4470    74.7390    24.1880     7.3760     6.4040     8.6010     2.1740 
   95.8750   -33.9340    72.0360    24.2000     7.4180     6.4340     8.5930     2.1720 
   96.0000   -33.4280    70.8780    24.2050     7.5140     6.5150     8.6700     2.1530 
   96.1250   -32.9140    73.6390    24.2050     7.6120     6.6220     8.7970     2.1280 
   96.2500   -32.3390    74.6790    24.2090     7.6710     6.6720     8.8440     2.1110 
   96.3750   -31.7370    72.4300    24.2190     7.6910     6.5740     8.6790     2.1110 
   96.5000   -31.0980    71.7840    24.2310     7.6290     6.2740     8.2200     2.1320 
   96.6250   -30.4730    76.8400    24.2590     7.2340     5.7720     7.4910     2.1790 
   96.7500   -29.9570    85.0410    24.3030     6.4170     5.2180     6.7320     2.2350 
   96.8750   -29.4550    94.1340    24.3490     5.4360     4.7400     6.1290     2.2820 
   97.0000   -28.9870   102.7500    24.3350     4.7210     4.4210     5.7810     2.3050 
   97.1250   -28.6640   106.2620    24.1480     4.5600     4.2950     5.7020     2.2980 
   97.2500   -28.3890   103.9720    23.8210     4.6870     4.2670     5.7350     2.2840 
   97.3750   -28.1560    99.8510    23.7300     5.0000     4.2530     5.7490     2.2780 
   97.5000   -28.0170    97.2630    24.0400     5.1970     4.1860     5.6560     2.2890 
   97.6250   -27.8630    98.0200    24.2640     4.8510     4.0470     5.4500     2.3140 
   97.7500   -27.7430   103.2420    24.2280     4.3110     3.8930     5.2440     2.3400 
   97.8750   -27.7090   111.4800    23.8810     4.1000     3.7630     5.1100     2.3550 
   98.0000   -27.6510   117.3640    23.6240     4.3240     3.6820     5.0710     2.3550 
   98.1250   -27.6130   117.1170    23.5710     4.6200     3.6600     5.1160     2.3480 
   98.2500   -27.6880   115.6210    23.5440     4.6460     3.6780     5.1810     2.3460 
   98.3750   -27.8040   114.3740    23.4870     4.4560     3.7290     5.2320     2.3430 
   98.5000   -27.9870   111.2820    23.5670     4.3800     3.8300     5.2980     2.3290 
   98.6250   -28.2160   108.0590    23.8930     4.6030     4.0370     5.4800     2.3070 
   98.7500   -28.4470   106.6070    24.2910     5.0180     4.3620     5.8330     2.3020 
   98.8750   -28.6790   104.8390    24.3690     5.6440     4.7940     6.3590     2.3250 
   99.0000   -28.9440   101.6170    24.2000     6.7840     5.2970     7.0020     2.3570 
   99.1250   -29.1920    99.4020    24.1790     8.1200     5.7860     7.6120     2.3500 
   99.2500   -29.3530    99.0890    24.0970     8.1310     6.1660     8.0490     2.2940 
   99.3750   -29.4780    98.3670    23.9640     7.3350     6.3800     8.2500     2.2180 
   99.5000   -29.4690    96.2360    23.9220     7.0850     6.4040     8.2050     2.1580 
   99.6250   -29.3410    92.8760    24.2460     7.2150     6.2120     7.8970     2.1410 
   99.7500   -29.1370    89.0320    24.4310     7.1400     5.8780     7.4200     2.1510 
   99.8750   -28.8910    86.9220    24.5420     6.5340     5.4630     6.8490     2.1700 
  100.0000   -28.5720    90.6310    24.6230     5.6810     5.0480     6.2900     2.1940 
  100.1250   -28.2410    98.6210    24.6830     5.0810     4.7680     5.9400     2.2290 
  100.2500   -27.9590   104.0270    24.6960     5.0070     4.7280     5.9400     2.2810 
  100.3750   -27.7050   105.7570    24.8080     5.4030     4.9990     6.3690     2.3440 
  100.5000   -27.5720   105.4210    24.8820     6.3280     5.5770     7.2240     2.4070 
  100.6250   -27.5640   101.2580    24.8590     8.1580     6.3270     8.3330     2.4490 
  100.7500   -27.6060    95.5900    24.8690     9.7440     6.9060     9.1920     2.4590 
  100.8750   -27.6920    92.6710    24.9150    10.0360     7.0300     9.3620     2.4330 
  101.0000   -27.8100    92.6440    24.8820     8.6730     6.6220     8.7510     2.3860 
  101.1250   -27.9720    93.8050    24.7610     6.9010     5.8670     7.6860     2.3410 
  101.2500   -28.1880    97.0650    24.7190     5.7810     5.1330     6.6800     2.3140 
  101.3750   -28.4140   100.3680    24.8330     5.4630     4.6070     5.9550     2.2980 
  101.5000   -28.5970   100.0080    24.9510     5.5650     4.3940     5.6250     2.2850 
  101.6250   -28.8260    99.3180    24.9480     5.9090     4.6710     5.9060     2.2800 
  101.7500   -29.0420   101.1870    24.8680     6.6910     5.5250     6.9060     2.3100 
  101.8750   -29.2860   100.6010    24.7710     8.8180     7.1310     8.8510     2.3870 
  102.0000   -29.5970    93.8230    24.7980    14.5270     9.5780    11.8840     2.4900 
  102.1250   -29.8730    83.2650    24.8790    24.1490    12.5050    15.5670     2.5640 
  102.2500   -30.1550    75.7400    24.9380    30.8920    14.4770    17.8910     2.5740 
  102.3750   -30.4150    74.8790    24.8980    28.5640    14.2960    17.1900     2.5140 
  102.5000   -30.6650    79.8160    24.7410    19.1910    12.2060    14.1150     2.4040 
  102.6250   -30.8660    85.4280    24.5210    11.3970     9.5910    10.8620     2.2890 
  102.7500   -31.0490    88.5890    24.4310     7.9150     7.4730     8.5350     2.2080 
  102.8750   -31.1950    91.3580    24.5090     6.9500     6.0040     7.1170     2.1750 
  103.0000   -31.3110    94.0200    24.4420     6.6030     5.0890     6.3650     2.1880 
  103.1250   -31.4500    93.8480    24.1580     5.9770     4.6440     6.1030     2.2300 
  103.2500   -31.6130    92.5920    24.2700     5.2880     4.4970     6.1180     2.2600 
  103.3750   -31.8180    91.8720    24.5800     5.0440     4.6010     6.3770     2.2540 
  103.5000   -32.0070    90.0410    24.5580     5.5320     4.9300     6.8780     2.2130 
  103.6250   -32.2320    85.1910    24.0740     6.3790     5.4640     7.6000     2.1630 
  103.7500   -32.4490    80.8340    23.5610     6.9690     6.0790     8.3620     2.1260 
  103.8750   -32.5970    80.0650    23.3260     7.1590     6.6580     8.9800     2.1040 
  104.0000   -32.7330    82.7220    23.2840     7.1240     7.0920     9.3240     2.0910 
  104.1250   -32.8180    83.8200    23.2790     7.0850     7.3090     9.3690     2.0850 
  104.2500   -32.7420    81.7510    23.1750     7.1100     7.3760     9.3010     2.0840 
  104.3750   -32.6010    77.6470    22.9890     7.1890     7.3490     9.2330     2.0880 
  104.5000   -32.4090    74.3980    22.7990     7.3160     7.2580     9.1880     2.0980 
  104.6250   -32.0950    75.7430    22.7470     7.5000     7.0750     9.0770     2.1140 
  104.7500   -31.7720    80.1460    22.9050     7.6320     6.7800     8.8020     2.1280 
  104.8750   -31.4350    84.4120    23.3830     7.5790     6.3760     8.3360     2.1430 
  105.0000   -31.1160    86.9930    23.8740     7.2160     5.9070     7.7450     2.1710 
  105.1250   -30.8570    88.5320    24.2470     6.4320     5.4580     7.1660     2.2260 
  105.2500   -30.7040    91.4150    24.4030     5.6910     5.1110     6.7350     2.2860 
  105.3750   -30.6570    95.8960    24.6170     5.4580     4.9140     6.5260     2.3210 
  105.5000   -30.7010   100.3820    24.7410     5.7730     4.8860     6.5550     2.3150 
  105.6250   -30.8840   101.8340    24.5700     6.0890     5.0340     6.8100     2.2710 
  105.7500   -31.1040    97.9850    24.2010     6.2790     5.2960     7.1840     2.2190 
  105.8750   -31.3370    89.8310    23.8040     6.4690     5.6270     7.6070     2.1800 
  106.0000   -31.5550    81.2940    23.5770     6.6840     5.9800     8.0110     2.1570 
  106.1250   -31.7200    76.8390    23.6140     6.9120     6.3080     8.3380     2.1460 
  106.2500   -31.7630    77.0470    23.5300     7.0960     6.5820     8.5840     2.1330 
  106.3750   -31.7000    78.9280    23.4220     7.1860     6.7710     8.7310     2.1240 
  106.5000   -31.5490    79.7400    23.4400     7.2020     6.8320     8.7410     2.1260 
  106.6250   -31.2440    78.3540    23.5410     7.1680     6.6950     8.5310     2.1410 
  106.7500   -30.9180    78.0750    23.4420     7.0770     6.3780     8.1090     2.1600 
  106.8750   -30.5960    81.3790    23.4760     6.8240     5.9280     7.5200     2.1850 
