~V
VERS. 2.00: Ver 2.00
~W
STRT.M 60.0000:
STOP.M 227.0000:
STEP.M 0.1250:
NULL. -999.2500:
UWI. DF32025:
~C
DEPT.M :
DEN.GM/CC :
GR.API :
RML.OHMM :
RI. :
RXO.OHMM :
CALI.CM :
SP.MV :
~A
# ...
   71.2500     2.1290    71.8680     9.9360     7.5700    11.6750    22.2290   -32.1720 
   71.3750     2.1450    70.6970    10.0220     7.7290    17.3330    22.1900   -32.3170 
   71.5000     2.1640    68.4350     9.8600     7.7470    22.4570    22.1650   -32.4160 
   71.6250     2.1750    67.5420     9.4810     7.6080    18.6890    22.2300   -32.5700 
   71.7500     2.1720    68.4180     9.0670     7.4030    12.7090    22.4440   -32.7150 
   71.8750     2.1580    68.3290     8.7530     7.2140     9.7250    22.8140   -32.7960 
   72.0000     2.1390    66.2030     8.6100     7.0980     9.0950    23.2140   -32.8000 
   72.1250     2.1230    63.8980     8.6300     7.0740     9.2220    23.5000   -32.7000 
   72.2500     2.1170    62.4730     8.6780     7.0750     9.2030    23.6050   -32.4920 
   72.3750     2.1240    61.7540     8.6420     7.0310     9.1660    23.6120   -32.0240 
   72.5000     2.1430    64.5530     8.4530     6.8870     9.1870    23.6180   -31.4390 
   72.6250     2.1720    73.0380     8.0960     6.6140     8.9920    23.7060   -30.5860 
   72.7500     2.2030    81.1750     7.6760     6.2690     8.2050    23.8870   -29.6780 
   72.8750     2.2270    84.8650     7.2810     5.9120     6.8310    24.1330   -28.6700 
   73.0000     2.2410    84.7520     6.9780     5.5980     5.9240    24.3190   -27.7890 
   73.1250     2.2430    84.8460     6.8070     5.3770     5.8390    24.3780   -27.0100 
   73.2500     2.2400    86.4350     6.7300     5.2430     5.7350    24.3760   -26.3920 
   73.3750     2.2380    89.9360     6.7180     5.1860     5.4770    24.3640   -26.1080 
   73.5000     2.2390    92.7490     6.7630     5.2020     5.4650    24.3670   -26.0190 
   73.6250     2.2420    91.0670     6.9050     5.3180     5.7040    24.3630   -26.2980 
   73.7500     2.2420    88.1430     7.1750     5.5420     5.9620    24.3020   -26.7940 
   73.8750     2.2370    87.7430     7.5930     5.8870     6.2460    24.1480   -27.5600 
   74.0000     2.2280    87.3010     8.1360     6.3400     6.8940    23.8900   -28.4000 
   74.1250     2.2160    82.2290     8.7190     6.8540     7.9100    23.6370   -29.2110 
   74.2500     2.2020    75.1220     9.2210     7.3320     9.0220    23.5280   -30.0200 
   74.3750     2.1870    69.8320     9.5610     7.6950     9.5620    23.5290   -30.6500 
   74.5000     2.1760    66.9450     9.7000     7.8900     9.7720    23.5210   -31.1770 
   74.6250     2.1730    66.3400     9.6040     7.8650     9.7280    23.4470   -31.4360 
   74.7500     2.1790    65.5330     9.3190     7.6710     9.6200    23.3890   -31.4420 
   74.8750     2.1910    64.1720     8.8500     7.3330     9.5810    23.3660   -31.1920 
   75.0000     2.2020    64.6480     8.2200     6.8860     9.3330    23.3630   -30.8040 
   75.1250     2.2070    69.0190     7.5320     6.3930     8.6790    23.3720   -30.2790 
   75.2500     2.2130    72.6370     6.9940     5.9740     7.8700    23.4180   -29.7060 
   75.3750     2.2320    72.3770     6.7900     5.7420     6.9280    23.5310   -29.1550 
   75.5000     2.2700    70.1920     7.0300     5.7800     5.9110    23.6800   -28.8090 
   75.6250     2.3120    69.2030     7.7560     6.1420     7.5670    23.8210   -28.7170 
   75.7500     2.3300    67.7300     8.7040     6.6870    11.6460    23.8240   -28.7930 
   75.8750     2.3120    65.5670     9.5890     7.2470    12.6830    23.6580   -29.0480 
   76.0000     2.2650    65.0750    10.1130     7.6370    10.5300    23.4810   -29.3580 
   76.1250     2.2150    66.6500    10.0020     7.6650     8.9190    23.3890   -29.8580 
   76.2500     2.1780    67.0320     9.4290     7.4000     8.9310    23.3680   -30.2670 
   76.3750     2.1550    63.8150     8.6540     6.9800     9.0990    23.3710   -30.6670 
   76.5000     2.1430    59.2480     7.9900     6.6000     9.1010    23.3940   -30.8650 
   76.6250     2.1570    59.1650     7.8780     6.5550     8.9730    23.4450   -30.8670 
   76.7500     2.2070    63.2650     8.6610     7.0950     8.9160    23.5000   -30.7560 
   76.8750     2.3010    66.2950    10.6580     8.4770     9.9230    23.5640   -30.5250 
   77.0000     2.4230    63.6800    13.9110    10.7990    13.5090    23.6560   -30.3710 
   77.1250     2.5240    58.4040    17.8820    13.8150    22.3790    23.8030   -30.1770 
   77.2500     2.5580    56.4260    21.1120    16.5410    32.3360    23.9830   -30.1880 
   77.3750     2.5150    57.8760    22.1990    17.9630    40.3610    24.0550   -30.2760 
   77.5000     2.4210    60.0810    20.3980    17.3890    37.9290    23.9110   -30.5300 
   77.6250     2.3200    61.1250    16.4520    14.9200    24.2830    23.5680   -30.9390 
   77.7500     2.2420    61.5240    12.7290    12.1030    14.3160    23.3630   -31.4240 
   77.8750     2.1950    62.3830    10.1990     9.8330    11.0550    23.2990   -31.9730 
   78.0000     2.1780    62.8540     8.9120     8.4090     9.9820    23.2950   -32.4460 
   78.1250     2.1820    61.5640     8.6870     7.8690     9.6610    23.2950   -32.7940 
   78.2500     2.1950    60.2440     9.0090     7.8690     9.8500    23.2950   -32.9740 
   78.3750     2.2080    61.5970     9.5840     8.1950    10.6910    23.2950   -33.1500 
   78.5000     2.2180    65.9130    10.1570     8.6330    11.9300    23.2950   -33.2150 
   78.6250     2.2180    68.2550    10.4970     8.9750    11.6690    23.3060   -33.2050 
   78.7500     2.2110    66.1710    10.5750     9.1240    11.1390    23.3480   -33.1080 
   78.8750     2.2000    62.6690    10.4460     9.0750    10.7450    23.4320   -33.0490 
   79.0000     2.1870    60.1300    10.2100     8.8750    10.5160    23.5300   -32.9890 
   79.1250     2.1770    59.3680     9.9580     8.5870    10.1210    23.5920   -32.9190 
   79.2500     2.1720    60.9160     9.7110     8.2690     9.9310    23.6450   -32.8770 
   79.3750     2.1770    64.7650     9.4290     7.9230     9.7590    23.6760   -32.7060 
   79.5000     2.1900    68.0730     9.0630     7.5400     9.3960    23.6690   -32.5320 
   79.6250     2.2070    69.0870     8.6030     7.1300     8.9030    23.6700   -32.3010 
   79.7500     2.2160    72.4720     8.1590     6.7530     8.2090    23.7230   -32.0740 
   79.8750     2.2150    77.4860     7.8950     6.5030     7.4100    23.7920   -31.8420 
   80.0000     2.2090    78.0750     8.0100     6.4990     7.1180    23.8180   -31.6340 
   80.1250     2.2200    72.4500     8.7660     6.9200     7.7640    23.7860   -31.6360 
   80.2500     2.2560    66.9000    10.0490     7.7210     8.8830    23.7470   -31.6770 
   80.3750     2.3070    62.9130    11.5970     8.7710    11.7140    23.7340   -31.7820 
   80.5000     2.3480    59.5940    12.9650     9.8090    19.4530    23.7680   -31.9340 
   80.6250     2.3460    58.1140    13.4820    10.4060    31.6450    23.8140   -32.1330 
   80.7500     2.3090    58.5620    13.0130    10.3850    24.0750    23.7390   -32.4000 
   80.8750     2.2560    60.1650    11.8070     9.7970    13.6570    23.6030   -32.6080 
   81.0000     2.2100    62.0230    10.4120     8.9180     9.4940    23.5150   -32.8370 
   81.1250     2.1850    63.5170     9.3870     8.1140     8.5040    23.4910   -32.9150 
   81.2500     2.1740    64.4850     8.8400     7.5760     8.1730    23.4730   -32.9960 
   81.3750     2.1710    64.3820     8.6870     7.3210     8.1290    23.4670   -33.1080 
   81.5000     2.1710    63.3370     8.7740     7.2790     8.2020    23.4890   -33.2580 
   81.6250     2.1720    61.2930     8.9440     7.3490     7.9430    23.5050   -33.3800 
   81.7500     2.1720    60.0620     9.0750     7.4210     7.5620    23.5100   -33.5140 
   81.8750     2.1710    60.0780     9.1200     7.4480     7.3770    23.5100   -33.6810 
   82.0000     2.1710    59.6840     9.0560     7.4040     7.6710    23.5180   -33.7950 
   82.1250     2.1740    59.0350     8.8620     7.2710     8.0320    23.5400   -33.9260 
   82.2500     2.1800    59.2110     8.5890     7.0750     8.0880    23.5560   -33.9140 
   82.3750     2.1890    60.1510     8.2980     6.8500     7.7940    23.5280   -33.8930 
