~V
VERS. 2.00: Ver 2.00
~W
STRT.M 60.0000:
STOP.M 258.0000:
STEP.M 0.1250:
NULL. -999.2500:
UWI. DF32100:
~C
DEPT.M :
SP.MV :
GR.API :
CALI.CM :
RXO.OHMM :
RI. :
RML.OHMM :
DEN.GM/CC :
~A
# ...
  240.0000    -7.9480    69.5260    23.6740     5.0830     5.3080     7.5300     2.3570 
  240.1250    -7.8800    68.8520    23.6740     5.0770     5.3600     7.5970     2.3600 
  240.2500    -7.8380    70.3800    23.6740     5.0750     5.4210     7.6780     2.3660 
  240.3750    -7.8520    71.1580    23.6740     5.0930     5.4940     7.7860     2.3720 
  240.5000    -7.8570    70.6290    23.6740     5.0800     5.5630     7.9230     2.3840 
  240.6250    -7.8440    70.9010    23.6740     5.0790     5.6150     8.0700     2.4030 
  240.7500    -7.8480    72.0940    23.6740     5.1420     5.6540     8.1910     2.4200 
  240.8750    -7.8230    72.3460    23.6740     5.2800     5.6870     8.2620     2.4310 
  241.0000    -7.7590    71.5070    23.6740     5.4380     5.7180     8.2740     2.4360 
  241.1250    -7.7150    70.4100    23.6740     5.5630     5.7440     8.2390     2.4310 
  241.2500    -7.6740    68.9270    23.6740     5.6490     5.7480     8.1970     2.4150 
  241.3750    -7.6100    68.0020    23.6740     5.7300     5.7250     8.1740     2.3980 
  241.5000    -7.5270    68.4830    23.6740     5.8300     5.6830     8.1730     2.3880 
  241.6250    -7.4500    69.3930    23.6740     5.9540     5.6430     8.1900     2.3890 
  241.7500    -7.3660    71.2810    23.6740     6.2020     5.6270     8.2150     2.3920 
  241.8750    -7.3180    75.0390    23.6740     6.7220     5.6670     8.2640     2.3940 
  242.0000    -7.3320    78.4550    23.6740     7.3870     5.7920     8.3760     2.3990 
  242.1250    -7.3180    76.4550    23.6740     7.8750     6.0250     8.6180     2.4130 
  242.2500    -7.2920    72.6180    23.6740     8.0880     6.3090     8.9730     2.4290 
  242.3750    -7.3120    71.6900    23.6740     8.3040     6.5810     9.3750     2.4430 
  242.5000    -7.3200    72.4900    23.6740     8.6240     6.7750     9.7050     2.4530 
  242.6250    -7.3400    71.8550    23.6740     8.7130     6.8460     9.7930     2.4590 
  242.7500    -7.4330    70.5630    23.6740     7.9710     6.8110     9.6450     2.4640 
  242.8750    -7.4710    69.8040    23.6740     6.9870     6.7000     9.3550     2.4720 
  243.0000    -7.4600    69.6090    23.6740     6.4790     6.5590     9.0700     2.4810 
  243.1250    -7.4530    69.2930    23.6740     6.3210     6.4610     8.9220     2.4860 
  243.2500    -7.4570    69.3210    23.6740     6.3220     6.4400     8.8990     2.4920 
  243.3750    -7.3980    69.4020    23.6740     6.3730     6.4870     8.9360     2.4930 
  243.5000    -7.3320    69.1570    23.6740     6.3960     6.5650     8.9640     2.4810 
  243.6250    -7.2310    68.5560    23.6740     6.4350     6.6310     8.9550     2.4560 
  243.7500    -7.1090    67.6760    23.6740     6.6040     6.6860     8.9490     2.4350 
  243.8750    -7.0010    67.2770    23.6740     6.9350     6.7540     8.9840     2.4280 
  244.0000    -6.8560    68.3730    23.6730     7.3380     6.8640     9.0790     2.4350 
  244.1250    -6.7240    71.4020    23.6700     7.6030     7.0390     9.2400     2.4510 
  244.2500    -6.5970    73.9530    23.6660     7.6870     7.2470     9.4410     2.4670 
  244.3750    -6.5210    74.0970    23.6650     7.6790     7.4610     9.6500     2.4750 
  244.5000    -6.4350    72.2560    23.6670     7.7070     7.6320     9.8170     2.4710 
  244.6250    -6.3940    70.5150    23.6660     7.8000     7.7080     9.8690     2.4580 
  244.7500    -6.3740    69.8700    23.6670     7.8400     7.6910     9.8170     2.4440 
  244.8750    -6.3910    68.6770    23.6660     7.7140     7.6030     9.6980     2.4310 
  245.0000    -6.4480    66.1110    23.6640     7.5080     7.5010     9.5610     2.4220 
  245.1250    -6.5350    64.8730    23.6630     7.8580     7.4300     9.4490     2.4230 
  245.2500    -6.6060    65.2010    23.6630     8.8010     7.4120     9.3760     2.4350 
  245.3750    -6.6280    65.2010    23.6630     9.9050     7.4350     9.3460     2.4550 
  245.5000    -6.6550    65.2010    23.6630    10.3630     7.4820     9.3520     2.4760 
  245.6250    -6.6700    65.2010    23.6630    10.2110     7.5410     9.3780     2.4890 
  245.7500    -6.6700    65.2010    23.6630     9.8960     7.5950     9.3990     2.4950 
  245.8750    -6.6470    65.2010    23.6630     9.4580     7.6460     9.4070     2.4950 
  246.0000    -6.6180    65.2010    23.6630     8.6260     7.6890     9.4200     2.4920 
  246.1250    -6.5600    65.2010    23.6630     7.7820     7.7340     9.4600     2.4830 
  246.2500    -6.4990    65.2010    23.6630     7.4490     7.7960     9.5090     2.4710 
  246.3750    -6.4570    65.2010    23.6630     7.4290     7.8760     9.5340     2.4610 
  246.5000    -6.4050    65.2010    23.6630     7.3350     7.9540     9.5200     2.4560 
  246.6250    -6.3870    65.2010    23.6630     7.0970     7.9860     9.4810     2.4530 
  246.7500    -6.3350    65.2010    23.6630     6.9290     7.9870     9.4520     2.4500 
  246.8750    -6.3150    65.2010    23.6630     6.9350     7.9700     9.4450     2.4450 
  247.0000    -6.2770    65.2010    23.6630     7.0730     7.9570     9.4440     2.4410 
  247.1250    -6.2490    65.2010    23.6630     7.2560     7.9650     9.4210     2.4430 
  247.2500    -6.2620    65.2010    23.6630     7.4360     7.9510     9.3750     2.4530 
  247.3750    -6.2740    65.2010    23.6630     7.6390     7.9040     9.3220     2.4630 
  247.5000    -6.2830    65.2010    23.6630     7.8440     7.8510     9.2790     2.4690 
  247.6250    -6.2810    65.2010    23.6630     7.9440     7.8420     9.2750     2.4790 
  247.7500    -6.3130    65.2010    23.6630     8.0300     7.9110     9.3390     2.4950 
  247.8750    -6.2910    65.2010    23.6630     8.3220     8.0820     9.4960     2.5110 
  248.0000    -6.3130    65.2010    23.6630     9.1370     8.3510     9.7540     2.5170 
  248.1250    -6.3360    65.2010    23.6630    10.6820     8.6760    10.1160     2.5110 
  248.2500    -6.3650    65.2010    23.6630    12.5720     9.0340    10.5470     2.5060 
  248.3750    -6.4030    65.2010    23.6630    14.2300     9.4400    11.0330     2.5070 
  248.5000    -6.5090    65.2010    23.6630    15.2730     9.9030    11.5560     2.5110 
  248.6250    -6.6150    65.2010    23.6630    15.6830    10.4400    12.1000     2.5090 
  248.7500    -6.6700    65.2010    23.6630    15.8200    11.0320    12.6480     2.5050 
  248.8750    -6.7390    65.2010    23.6620    15.9550    11.6440    13.1900     2.5020 
  249.0000    -6.8010    65.2010    23.6600    16.4150    12.2220    13.7080     2.4990 
  249.1250    -6.9480    65.2010    23.6570    17.2480    12.7130    14.1460     2.4980 
  249.2500    -7.0760    65.2010    23.6560    17.9830    13.1230    14.4740     2.4990 
  249.3750    -7.1670    65.2010    23.6550    18.3000    13.4290    14.6880     2.4970 
  249.5000    -7.2280    65.2010    23.6470    18.0500    13.6250    14.8210     2.4900 
  249.6250    -7.2940    65.2010    23.6030    17.8280    13.7400    14.8980     2.4870 
  249.7500    -7.4020    65.2010    23.5320    18.0040    13.8300    14.9300     2.4980 
  249.8750    -7.5060    65.2010    23.4830    18.6840    13.9140    14.9120     2.5160 
  250.0000    -7.6250    65.2010    23.4670    19.4830    13.9750    14.8540     2.5300 
  250.1250    -7.6490    65.2010    23.4670    19.7390    13.9430    14.7890     2.5300 
  250.2500    -7.6520    65.2010    23.4670    19.8130    13.8080    14.7490     2.5170 
  250.3750    -7.7240    65.2010    23.4670    20.0980    13.6230    14.7420     2.4940 
  250.5000    -7.7530    65.2010    23.4680    20.3690    13.4880    14.7640     2.4730 
  250.6250    -7.7530    65.2010    23.4720    20.1530    13.5000    14.8070     2.4700 
  250.7500    -7.7680    65.2010    23.4760    19.5330    13.6250    14.8680     2.4830 
  250.8750    -7.8160    65.2010    23.4850    18.9730    13.7940    14.9410     2.4980 
  251.0000    -7.8200    65.2010    23.5030    18.4130    13.9380    15.0090     2.5030 
  251.1250    -7.8340    65.2010    23.5560    17.7820    13.9380    15.0090     2.5010 
