~V
VERS. 2.00: Ver 2.00
~W
STRT.M 62.0000:
STOP.M 256.0000:
STEP.M 0.1250:
NULL. -999.2500:
UWI. DF32087:
~C
DEPT.M :
SP.MV :
GR.API :
RML.OHMM :
RI. :
RXO.OHMM :
CALI.CM :
DEN.GM/CC :
~A
# ...
  230.7500   -20.4510    75.9760    35.9590    29.8380    46.3240    24.8050     2.5610 
  230.8750   -20.3720    76.2080    38.5470    31.9490    39.3950    24.8160     2.5700 
  231.0000   -20.2840    75.9700    41.2960    34.2510    33.5540    24.8650     2.5480 
  231.1250   -20.1740    74.6000    42.7880    35.6560    35.2020    24.8460     2.5200 
  231.2500   -20.0430    71.5180    41.6300    34.9880    44.2090    24.7290     2.5160 
  231.3750   -19.8980    69.5910    36.8550    31.5040    59.3900    24.5840     2.5370 
  231.5000   -19.6980    72.5550    29.2240    25.5880    66.6870    24.5670     2.5660 
  231.6250   -19.4790    76.7330    20.7780    18.9970    39.3930    24.6110     2.5680 
  231.7500   -19.2860    74.9730    14.1210    13.6360    17.0900    24.6250     2.5360 
  231.8750   -19.1010    68.1740    10.2240    10.0160     7.8820    24.5910     2.4830 
  232.0000   -18.9770    63.0440     8.4610     7.9350     5.5860    24.5600     2.4290 
  232.1250   -18.7970    62.7710     7.9410     7.0980     5.5100    24.5480     2.3940 
  232.2500   -18.7240    62.3150     8.0060     6.9110     5.5630    24.5480     2.3780 
  232.3750   -18.6140    59.3780     8.3340     7.0880     5.6360    24.5480     2.3740 
  232.5000   -18.6170    55.6100     8.6950     7.4060     5.7310    24.5480     2.3780 
  232.6250   -18.5940    54.7040     8.9250     7.6910     5.8510    24.5480     2.3800 
  232.7500   -18.6110    56.0050     9.0140     7.8710     6.0750    24.5480     2.3770 
  232.8750   -18.5910    57.7650     8.9930     7.9370     6.2960    24.5480     2.3710 
  233.0000   -18.5560    59.5280     8.9090     7.9110     6.4280    24.5480     2.3650 
  233.1250   -18.5940    60.9890     8.8030     7.8150     6.4190    24.5480     2.3690 
  233.2500   -18.5810    61.1320     8.7170     7.6900     6.3490    24.5440     2.3820 
  233.3750   -18.6490    61.4160     8.6690     7.5590     6.1950    24.5290     2.3970 
  233.5000   -18.6720    62.4630     8.6660     7.4390     6.1840    24.4990     2.4080 
  233.6250   -18.7940    62.0740     8.7050     7.3430     6.3250    24.5010     2.4120 
  233.7500   -18.9190    59.9670     8.7620     7.2730     6.4640    24.5290     2.4150 
  233.8750   -19.1040    58.6790     8.8240     7.2300     6.4500    24.5470     2.4210 
  234.0000   -19.3010    59.5010     8.8890     7.2140     6.3660    24.5310     2.4330 
  234.1250   -19.5710    60.9040     8.9670     7.2340     6.2870    24.4410     2.4450 
  234.2500   -19.8870    61.3540     9.0710     7.2900     6.2990    24.2990     2.4520 
  234.3750   -20.2440    61.3250     9.2100     7.3820     6.4160    24.1800     2.4510 
  234.5000   -20.6680    61.3410     9.3820     7.5060     6.4470    24.1460     2.4440 
  234.6250   -21.1350    60.1620     9.5760     7.6520     6.3380    24.1600     2.4340 
  234.7500   -21.6110    59.6180     9.7620     7.7950     6.2110    24.1100     2.4240 
  234.8750   -22.0690    61.7460     9.9120     7.9130     6.1400    24.1510     2.4150 
  235.0000   -22.4380    66.1540    10.0070     7.9900     6.3170    24.3070     2.4090 
  235.1250   -22.7720    67.9400    10.0270     8.0090     6.6480    24.4790     2.4040 
  235.2500   -23.0520    66.2370     9.9940     7.9860     6.9470    24.5470     2.4010 
  235.3750   -23.3030    64.5470     9.9300     7.9370     7.2610    24.5630     2.3970 
  235.5000   -23.6100    64.8100     9.8660     7.8840     7.5270    24.5710     2.3930 
  235.6250   -23.8560    66.6520     9.8450     7.8600     7.8580    24.5740     2.3880 
  235.7500   -24.2050    67.2560     9.8950     7.8910     8.3310    24.5580     2.3850 
  235.8750   -24.5910    66.5710    10.0490     8.0040     9.4880    24.5130     2.3870 
  236.0000   -25.1480    64.8150    10.3210     8.2150    11.5260    24.4860     2.3960 
  236.1250   -25.6750    62.3910    10.7030     8.5300    12.4030    24.5240     2.4130 
  236.2500   -26.2100    61.5720    11.1020     8.8810    11.5610    24.5390     2.4340 
  236.3750   -26.7040    62.8090    11.4220     9.1950    11.5060    24.5240     2.4570 
  236.5000   -27.0710    64.8810    11.5720     9.3920    11.7370    24.4800     2.4790 
  236.6250   -27.4080    64.4580    11.4810     9.3900    10.6340    24.4620     2.4890 
  236.7500   -27.5830    62.7100    11.2360     9.2340     9.5470    24.4730     2.4810 
  236.8750   -27.7040    62.7080    10.9420     8.9980     9.1470    24.5060     2.4560 
  237.0000   -27.7120    64.0100    10.7050     8.7710     9.1740    24.5230     2.4210 
  237.1250   -27.6660    63.4630    10.6280     8.6540     9.2870    24.4990     2.3900 
  237.2500   -27.5130    61.1480    10.7050     8.6710     9.5150    24.4510     2.3720 
  237.3750   -27.2600    60.3210    10.9120     8.8200    10.0260    24.3860     2.3700 
  237.5000   -26.8510    62.2210    11.2110     9.0770    10.7230    24.2850     2.3800 
  237.6250   -26.3080    64.4290    11.5810     9.4280    11.9880    24.2040     2.3940 
  237.7500   -25.6460    66.0530    12.0050     9.8400    12.8530    24.1720     2.4050 
  237.8750   -24.8510    66.9190    12.4840    10.3040    13.9670    24.1670     2.4110 
  238.0000   -23.9760    65.8480    13.0170    10.8110    15.4710    24.1670     2.4110 
  238.1250   -22.8780    64.0060    13.5780    11.3450    15.6350    24.1550     2.4110 
  238.2500   -21.7090    63.3790    14.1090    11.8630    16.4270    24.1470     2.4150 
  238.3750   -20.5670    63.8120    14.5600    12.3290    18.2960    24.1800     2.4270 
  238.5000   -19.4900    63.5590    14.8980    12.7120    18.6660    24.2390     2.4490 
  238.6250   -18.5000    63.1740    15.1130    12.9920    16.0090    24.2730     2.4770 
  238.7500   -17.6380    63.1190    15.2620    13.2020    13.4070    24.2510     2.5010 
  238.8750   -16.8580    63.4920    15.3850    13.3700    11.5730    24.1790     2.5120 
  239.0000   -16.2430    64.4410    15.4960    13.5080    10.4910    24.1670     2.5080 
  239.1250   -15.8400    64.0920    15.5730    13.6040    10.3520    24.2760     2.4940 
  239.2500   -15.5380    62.8840    15.5860    13.6450    10.7060    24.4050     2.4860 
  239.3750   -15.3500    61.8570    15.5180    13.6190    11.4310    24.4580     2.4880 
  239.5000   -15.2540    61.2060    15.3830    13.5360    12.3380    24.4470     2.5000 
  239.6250   -15.1260    60.0930    15.2430    13.4410    13.7930    24.4610     2.5140 
  239.7500   -15.0680    59.5240    15.1790    13.4020    14.4340    24.5410     2.5180 
  239.8750   -15.0420    59.1770    15.2480    13.4720    13.9650    24.6050     2.5060 
  240.0000   -14.9740    57.1090    15.4650    13.6730    14.5750    24.6250     2.4790 
  240.1250   -14.9570    56.9710    15.8070    14.0020    15.2050    24.6220     2.4460 
  240.2500   -14.9950    60.8130    16.1660    14.3780    16.2730    24.6280     2.4220 
  240.3750   -14.9780    65.0390    16.4520    14.7230    18.3940    24.6280     2.4160 
  240.5000   -14.9000    65.8120    16.6040    14.9770    20.1470    24.6060     2.4320 
  240.6250   -14.8670    64.5510    16.5970    15.0970    20.5840    24.5440     2.4660 
  240.7500   -14.6990    64.6960    16.5160    15.1330    20.7760    24.4740     2.5040 
  240.8750   -14.5310    64.7840    16.4340    15.1430    18.8080    24.4450     2.5330 
  241.0000   -14.3270    63.7580    16.4070    15.1810    16.8720    24.4410     2.5460 
  241.1250   -13.9950    62.6500    16.4650    15.2850    16.0730    24.4420     2.5370 
  241.2500   -13.7380    63.5270    16.5610    15.4290    18.4560    24.4460     2.5180 
  241.3750   -13.4890    66.2530    16.6440    15.5710    25.4900    24.4480     2.5000 
  241.5000   -13.2220    67.7670    16.6640    15.6620    36.1420    24.4480     2.4960 
  241.6250   -13.0100    66.0510    16.5800    15.6530    28.6950    24.4450     2.5100 
  241.7500   -12.8980    62.5640    16.4070    15.5530    23.5430    24.4460     2.5310 
  241.8750   -12.7180    59.6920    16.1590    15.3740    22.6210    24.4490     2.5460 
