~V
VERS. 2.00: Ver 2.00
~W
STRT.M 61.0000:
STOP.M 325.0000:
STEP.M 0.1250:
NULL. -999.2500:
UWI. DF320:
~C
DEPT.M :
GR.API :
RML.OHMM :
RI. :
RXO.OHMM :
CALI.CM :
SP.MV :
DEN.GM/CC :
AC.US/MT :
~A
# ...
  111.0000    66.4140     8.1160     7.8230     9.7150    23.9300   -22.5400     2.1670   436.5110 
  111.1250    64.8740     8.1330     7.8110     9.7790    23.9430   -22.5970     2.1560   440.2350 
  111.2500    61.6340     8.2170     7.8510    10.0720    23.9580   -22.6170     2.1560   441.7950 
  111.3750    59.0180     8.3610     7.9490    10.4540    23.9650   -22.5630     2.1640   441.3160 
  111.5000    58.1730     8.5270     8.0870    10.7460    23.9570   -22.4000     2.1760   439.5680 
  111.6250    58.8190     8.6470     8.2160    10.9460    23.9360   -22.1130     2.1890   437.0570 
  111.7500    61.4610     8.6760     8.2850    11.1190    23.9250   -21.7650     2.1980   434.2140 
  111.8750    65.4420     8.6110     8.2750    11.1800    23.9170   -21.3940     2.2010   431.8270 
  112.0000    67.7630     8.5100     8.2100    10.9590    23.9080   -20.9960     2.1940   431.3660 
  112.1250    67.1840     8.5010     8.1690    10.4410    23.8870   -20.5370     2.1810   434.5290 
  112.2500    65.8270     8.6700     8.2300     9.9340    23.8490   -19.9680     2.1660   439.8070 
  112.3750    63.9280     9.0270     8.4190     9.5780    23.7950   -19.2840     2.1520   444.8480 
  112.5000    62.7620     9.4790     8.6920     9.3160    23.7350   -18.5300     2.1390   447.8440 
  112.6250    63.7230     9.7990     8.9030     9.0520    23.6960   -17.7350     2.1330   448.4330 
  112.7500    66.7540     9.7970     8.8990     8.6650    23.6740   -16.8760     2.1360   448.0780 
  112.8750    71.5750     9.3930     8.5920     8.0580    23.6980   -15.9070     2.1550   447.6260 
  113.0000    78.8780     8.6630     7.9990     7.1960    23.8080   -14.8010     2.1910   447.3270 
  113.1250    90.9120     7.8170     7.2470     6.1720    24.0300   -13.6000     2.2370   447.4210 
  113.2500   106.9850     7.0910     6.5370     5.2650    24.2850   -12.4630     2.2800   448.4700 
  113.3750   122.5850     6.5700     5.9690     4.6570    24.5390   -11.4680     2.3160   450.7300 
  113.5000   129.9840     6.2450     5.5750     4.3990    24.7410   -10.6020     2.3440   453.3210 
  113.6250   125.3780     6.0760     5.3560     4.3880    24.8330    -9.8500     2.3640   454.0230 
  113.7500   117.9990     5.9780     5.2460     4.4270    24.8720    -9.2190     2.3760   452.5930 
  113.8750   113.8300     5.9110     5.2060     4.4540    24.8950    -8.7630     2.3790   450.6650 
  114.0000   115.0470     5.8420     5.1970     4.4540    24.9160    -8.5330     2.3720   450.1810 
  114.1250   119.3910     5.7290     5.1700     4.4500    24.9120    -8.5490     2.3570   451.8720 
  114.2500   123.1300     5.5560     5.0990     4.4640    24.8010    -8.6820     2.3350   453.3390 
  114.3750   121.3690     5.3320     4.9800     4.5030    24.5980    -8.8520     2.2990   452.6040 
  114.5000   112.7230     5.0960     4.8380     4.5020    24.4210    -9.0580     2.2530   449.7190 
  114.6250   102.4840     4.9510     4.7360     4.4730    24.3630    -9.3760     2.2100   446.4470 
  114.7500    95.7650     4.9810     4.7450     4.5530    24.2780    -9.8240     2.1910   443.0860 
  114.8750    89.9920     5.2230     4.9040     4.8860    23.9830   -10.3940     2.2030   437.1360 
  115.0000    81.8800     5.6220     5.1980     5.4730    23.5280   -11.0350     2.2390   426.8710 
  115.1250    75.0230     5.9980     5.5240     6.2030    23.2210   -11.6610     2.2770   414.2660 
  115.2500    75.2640     6.1360     5.7140     6.9030    23.1430   -12.2340     2.2920   404.5820 
  115.3750    78.5660     5.9310     5.6570     7.3540    23.1830   -12.7400     2.2870   401.1960 
  115.5000    79.7970     5.4380     5.3440     7.3360    23.3270   -13.1530     2.2740   405.5740 
  115.6250    80.3670     4.9120     4.9210     6.6920    23.5770   -13.4380     2.2680   416.6070 
  115.7500    81.8820     4.6690     4.6450     6.2590    23.7710   -13.6050     2.2710   426.8680 
  115.8750    83.1140     4.9310     4.7220     6.7640    23.7820   -13.6660     2.2810   429.5070 
  116.0000    80.2970     5.8840     5.3510     8.6050    23.6660   -13.6720     2.2970   419.9410 
  116.1250    72.5100     7.8400     6.8850    12.1440    23.5950   -13.6840     2.3280   393.7000 
  116.2500    65.1740    10.6590     9.3090    16.7460    23.7070   -13.7360     2.3780   355.0860 
  116.3750    62.0540    14.0290    12.4570    21.9830    23.8820   -13.8660     2.4470   310.7280 
  116.5000    62.8750    17.2900    15.8010    26.9730    24.0390   -14.1050     2.5250   270.6640 
  116.6250    65.1480    19.2690    18.2540    29.3970    24.1150   -14.5340     2.5840   246.4260 
  116.7500    67.4260    19.4340    19.0620    29.4600    24.1400   -15.1430     2.6040   238.9100 
  116.8750    70.8020    17.8690    18.0510    27.2010    24.1200   -15.8750     2.5790   247.3700 
  117.0000    72.1210    15.3360    15.7700    22.2020    24.0650   -16.6750     2.5130   271.1440 
  117.1250    70.1050    12.8860    13.1830    16.3840    23.9790   -17.5340     2.4240   309.7760 
  117.2500    69.4050    11.0480    11.0330    12.2940    23.8660   -18.4050     2.3390   352.6070 
  117.3750    71.9270     9.8310     9.5000    10.4570    23.7720   -19.2580     2.2720   388.5630 
  117.5000    73.6960     9.0850     8.5420     9.9880    23.7270   -20.0810     2.2270   410.3390 
  117.6250    70.8000     8.6690     8.0870     9.9610    23.7160   -20.8040     2.2060   417.6530 
  117.7500    66.4800     8.4590     7.9010     9.9180    23.7020   -21.3780     2.1970   420.0360 
  117.8750    64.7150     8.4030     7.8470     9.8820    23.6800   -21.8000     2.1950   422.3260 
  118.0000    65.0710     8.3970     7.8220     9.8870    23.6650   -22.0760     2.1940   425.2550 
  118.1250    64.8520     8.3570     7.7750     9.9250    23.6600   -22.2050     2.1930   426.9870 
  118.2500    63.4150     8.3050     7.7500     9.9310    23.6600   -22.2350     2.1930   426.5300 
  118.3750    60.7950     8.3560     7.8330     9.8890    23.6600   -22.1510     2.1960   423.0970 
  118.5000    58.5980     8.6450     8.1000     9.8910    23.6610   -21.9050     2.2060   415.7260 
  118.6250    57.8340     9.3040     8.5800     9.9050    23.6620   -21.4540     2.2250   401.9250 
  118.7500    57.5490    10.0030     9.1110     9.9280    23.6660   -20.8680     2.2480   381.3700 
  118.8750    58.0780    10.4810     9.4940     9.8630    23.6760   -20.1630     2.2640   357.4260 
  119.0000    59.6490    10.5210     9.5320     9.5840    23.6940   -19.3300     2.2670   339.4980 
  119.1250    64.2090    10.0070     9.0690     8.9720    23.7290   -18.3170     2.2600   341.9020 
  119.2500    72.2250     9.2200     8.2980     8.0450    23.7670   -17.1480     2.2540   363.1820 
  119.3750    82.7070     8.4050     7.4280     6.8070    23.8300   -15.9100     2.2630   394.0980 
  119.5000    92.6050     7.7040     6.6220     5.4830    23.9400   -14.7220     2.2900   423.1620 
  119.6250    97.4940     7.1250     5.9620     4.5420    24.0830   -13.6980     2.3310   441.1600 
  119.7500    99.3390     6.5800     5.4110     4.2700    24.1500   -12.8450     2.3660   449.0120 
  119.8750    99.6180     6.0630     4.9570     4.2490    24.1450   -12.1660     2.3850   450.4290 
  120.0000    96.8330     5.6420     4.6190     4.1970    24.1170   -11.6820     2.3820   450.8260 
  120.1250    91.7390     5.4280     4.4570     4.1490    24.0720   -11.5010     2.3600   455.0090 
  120.2500    90.5730     5.3960     4.4420     4.2650    24.0100   -11.6490     2.3320   460.8600 
  120.3750    94.0700     5.4770     4.5290     4.6760    23.9570   -12.0990     2.3070   462.8440 
  120.5000    96.2230     5.5990     4.6620     5.3390    23.8990   -12.7620     2.2900   457.0990 
  120.6250    93.7750     5.7130     4.8020     5.9820    23.8310   -13.5380     2.2780   445.5220 
  120.7500    92.2020     5.8050     4.9480     6.3430    23.8020   -14.3430     2.2670   436.2180 
  120.8750    92.4850     5.8860     5.1080     6.4030    23.7890   -15.2180     2.2570   433.1370 
