~V
VERS. 2.00: Ver 2.00
~W
STRT.M 62.0000:
STOP.M 256.0000:
STEP.M 0.1250:
NULL. -999.2500:
UWI. DF32087:
~C
DEPT.M :
SP.MV :
GR.API :
RML.OHMM :
RI. :
RXO.OHMM :
CALI.CM :
DEN.GM/CC :
~A
# ...
  163.2500   -30.6720    60.1880   128.8300   116.1870   118.6160    25.2100     2.2300 
  163.3750   -30.4980    61.6890   130.5540   118.2180   122.1620    25.3130     2.2270 
  163.5000   -30.2320    64.6350   133.1170   121.3200   124.8000    25.3300     2.2260 
  163.6250   -29.9550    66.6580   135.6830   124.7950   130.8020    25.3300     2.2270 
  163.7500   -29.6190    66.8550   136.8360   127.3130   136.1130    25.3300     2.2310 
  163.8750   -29.2880    65.8050   135.0090   127.3970   137.8700    25.3270     2.2330 
  164.0000   -28.9570    65.0000   128.8200   123.6020   135.4170    25.3140     2.2330 
  164.1250   -28.6380    65.3430   116.9430   114.2560   131.1050    25.2780     2.2280 
  164.2500   -28.3130    65.8480   101.2790   100.6660   112.7950    25.2290     2.2210 
  164.3750   -27.9690    66.4490    83.9950    84.5780    88.6750    25.1810     2.2180 
  164.5000   -27.6020    66.8480    67.5510    68.3770    71.7700    25.1530     2.2210 
  164.6250   -27.2740    67.5060    54.5290    54.8780    65.9000    25.1320     2.2340 
  164.7500   -26.9850    69.0700    45.4070    45.0550    55.6580    25.1100     2.2500 
  164.8750   -26.7060    71.7360    40.3250    39.1740    38.9310    25.1000     2.2630 
  165.0000   -26.4600    74.2720    39.2420    37.1640    29.6150    25.1050     2.2670 
  165.1250   -26.2180    73.9680    42.9110    39.6720    30.0710    25.1090     2.2620 
  165.2500   -26.0730    70.9830    50.6950    46.0940    39.9930    25.1390     2.2540 
  165.3750   -25.8960    67.5620    62.1020    56.0060    60.7970    25.1920     2.2470 
  165.5000   -25.8810    65.3920    75.7050    68.0820    80.0920    25.2250     2.2410 
  165.6250   -25.7480    65.7890    88.5530    79.5560    92.2240    25.2320     2.2350 
  165.7500   -25.6460    66.3940    97.5940    87.5890    99.9560    25.2320     2.2280 
  165.8750   -25.5300    66.2530   101.2350    90.7410   103.1370    25.2320     2.2210 
  166.0000   -25.4230    66.0160    99.9360    89.3790    97.3290    25.2320     2.2150 
  166.1250   -25.2980    66.0840    95.7640    85.2070    87.2160    25.2230     2.2140 
  166.2500   -25.0930    66.6110    91.5830    80.8410    74.6810    25.1710     2.2190 
  166.3750   -24.9760    67.6070    88.4290    77.3760    69.2410    25.0630     2.2290 
  166.5000   -24.7880    68.8340    86.3200    75.0340    69.1310    24.9840     2.2420 
  166.6250   -24.7320    69.1710    84.4380    73.3340    79.0310    24.9580     2.2520 
  166.7500   -24.6660    67.4430    81.6650    71.2720    84.3700    24.9520     2.2590 
  166.8750   -24.6600    64.4110    77.5080    68.2980    91.5590    24.9190     2.2620 
  167.0000   -24.6600    63.2960    72.1990    64.4150    85.2510    24.8300     2.2660 
  167.1250   -24.7100    66.3800    66.5150    60.0860    62.1250    24.6990     2.2750 
  167.2500   -24.8090    70.2400    61.2090    55.9020    43.3480    24.5660     2.2850 
  167.3750   -24.9090    71.4870    56.4170    51.9970    35.2050    24.3830     2.2960 
  167.5000   -25.0080    70.9940    51.8890    48.1950    37.1440    24.1310     2.3030 
  167.6250   -25.1130    73.5320    47.1770    44.1300    36.9140    23.9390     2.3090 
  167.7500   -25.1910    77.1170    42.1440    39.7170    30.7020    23.8830     2.3160 
  167.8750   -25.2690    77.5910    37.0350    35.1800    24.5020    23.9200     2.3270 
  168.0000   -25.3370    75.7360    32.3540    30.9620    21.4560    24.0150     2.3430 
  168.1250   -25.4010    74.5650    28.8810    27.7460    19.5180    24.0750     2.3570 
  168.2500   -25.4930    74.7990    26.8130    25.7500    16.5480    24.0620     2.3640 
  168.3750   -25.5570    75.5050    26.1670    25.0390    14.5720    23.9960     2.3590 
  168.5000   -25.6910    76.8700    26.7500    25.5000    14.7230    23.9060     2.3460 
  168.6250   -25.7480    79.5920    28.3660    27.0190    17.3900    23.8710     2.3330 
  168.7500   -25.9080    82.3110    30.4980    29.1090    22.8310    23.9110     2.3260 
  168.8750   -26.0450    84.7330    32.8260    31.4410    28.7640    24.1660     2.3240 
  169.0000   -26.3020    85.1450    35.0750    33.6960    34.0810    24.6130     2.3190 
  169.1250   -26.5460    80.4310    36.9680    35.5350    34.7120    24.8610     2.3030 
  169.2500   -26.8570    73.0840    38.4310    36.8570    39.5330    24.8920     2.2780 
  169.3750   -27.2320    68.7530    39.4410    37.6300    40.2390    24.8070     2.2530 
  169.5000   -27.6380    70.1930    40.0870    37.9240    38.7650    24.7220     2.2390 
  169.6250   -28.1460    73.9850    40.6930    37.9710    33.3440    24.6910     2.2450 
  169.7500   -28.6240    74.7460    41.8770    38.3160    32.4780    24.6830     2.2630 
  169.8750   -29.1610    71.9590    44.4020    39.6450    37.1950    24.6790     2.2850 
  170.0000   -29.6400    67.4770    49.2070    42.8890    37.4150    24.6760     2.3020 
  170.1250   -30.1590    64.0760    58.3720    50.1030    35.9710    24.6580     2.3040 
  170.2500   -30.6500    63.4340    73.3470    62.6600    42.2480    24.6140     2.2930 
  170.3750   -31.1420    63.8900    96.2740    82.2500    60.9470    24.5600     2.2730 
  170.5000   -31.5810    63.1500   128.6760   109.7010   100.8820    24.4990     2.2500 
  170.6250   -31.9690    60.3520   171.0390   144.6040   142.6020    24.3240     2.2300 
  170.7500   -32.3500    56.1200   216.8490   181.4200   185.2110    24.1250     2.2170 
  170.8750   -32.7270    52.4710   258.3060   214.3850   234.1550    24.0990     2.2100 
  171.0000   -33.1070    51.3430   287.1320   238.0350   234.1490    24.2790     2.2060 
  171.1250   -33.5330    52.1060   295.4560   247.2270   173.7880    24.4440     2.2020 
  171.2500   -33.9070    50.3760   288.0000   244.8840   125.7240    24.4390     2.1980 
  171.3750   -34.3260    47.3690   269.8430   233.8710   106.6670    24.2260     2.1950 
  171.5000   -34.7240    46.6420   246.3680   217.5800    96.3700    23.8670     2.1960 
  171.6250   -35.1690    49.2650   222.8670   199.6960   141.8460    23.7000     2.2050 
  171.7500   -35.6520    52.8340   203.1160   183.8710   165.1150    23.7560     2.2190 
  171.8750   -36.0860    55.7470   188.3970   171.8670   131.7890    24.0640     2.2320 
  172.0000   -36.6040    58.3270   177.9650   163.7390    83.5450    24.5420     2.2400 
  172.1250   -37.0270    58.9470   169.3020   157.7580    67.6950    24.8430     2.2400 
  172.2500   -37.5260    57.3230   159.0920   150.7060    80.0790    24.9470     2.2370 
  172.3750   -37.9880    57.0310   146.1550   140.9700   116.5770    24.9620     2.2380 
  172.5000   -38.5880    60.8190   131.6300   128.9840   135.0790    24.9610     2.2450 
  172.6250   -39.1860    66.6300   119.4160   117.8750   102.1520    24.9760     2.2570 
  172.7500   -39.8030    67.4140   112.9000   111.3600    69.9050    24.9990     2.2680 
  172.8750   -40.5060    63.7820   113.8110   111.7480    60.2550    24.9980     2.2760 
  173.0000   -41.2190    60.7140   121.8860   119.3500    65.0310    24.9680     2.2780 
  173.1250   -42.0520    59.3080   134.9650   132.4050   102.6500    24.9880     2.2710 
  173.2500   -42.9090    57.7270   147.5340   145.3900   156.3880    25.0390     2.2600 
  173.3750   -43.7810    56.0750   155.2210   153.8180   173.4200    25.0350     2.2470 
  173.5000   -44.6060    56.7980   155.7470   155.0670   127.5710    24.9750     2.2340 
  173.6250   -45.4210    59.4160   150.5980   149.8070    82.1560    24.9320     2.2250 
  173.7500   -46.1720    62.3040   146.6060   144.6740    70.6720    24.9350     2.2200 
  173.8750   -46.8350    64.8260   149.3830   145.8090    73.7260    24.9440     2.2200 
  174.0000   -47.4200    64.8000   163.8980   158.6610    78.9420    24.9260     2.2230 
  174.1250   -47.8990    59.9230   198.6560   190.6990   100.4800    24.8680     2.2260 
  174.2500   -48.2530    53.9560   255.1300   241.1800   138.2910    24.8160     2.2260 
  174.3750   -48.5110    49.7450   332.8830   307.5060   180.1910    24.8170     2.2180 
