~V
VERS. 2.00: Ver 2.00
~W
STRT.M 61.0000:
STOP.M 325.0000:
STEP.M 0.1250:
NULL. -999.2500:
UWI. DF320:
~C
DEPT.M :
GR.API :
RML.OHMM :
RI. :
RXO.OHMM :
CALI.CM :
SP.MV :
DEN.GM/CC :
AC.US/MT :
~A
# ...
  281.0000    82.0930     5.6140     5.0820     5.8980    23.0740    -9.9790     2.3330   370.7040 
  281.1250    77.5270     5.7120     5.1890     6.4560    23.0920   -10.0980     2.3320   366.5060 
  281.2500    74.4430     6.2730     5.5680     7.4880    23.0920   -10.2050     2.3300   360.0090 
  281.3750    72.9410     7.5350     6.4000     9.2950    23.0630   -10.3160     2.3340   347.5560 
  281.5000    71.5770     9.7000     7.9010    12.3800    22.9850   -10.4430     2.3520   325.5700 
  281.6250    66.6600    12.9830    10.3900    17.3630    22.8780   -10.6090     2.3960   292.7660 
  281.7500    59.1730    16.6710    13.6500    23.5510    22.7750   -10.8060     2.4610   258.1790 
  281.8750    50.9400    20.4960    17.2680    29.7420    22.6770   -11.0260     2.5290   232.6180 
  282.0000    44.7550    23.6720    20.5410    33.0710    22.5830   -11.2790     2.5760   224.0330 
  282.1250    44.1500    25.1780    22.4200    30.8660    22.4970   -11.5460     2.5690   236.3370 
  282.2500    45.7910    25.0490    22.7020    26.8390    22.4790   -11.8100     2.5160   262.2160 
  282.3750    47.9300    23.7390    21.6650    23.4180    22.5220   -12.0560     2.4380   296.6040 
  282.5000    50.6850    21.9740    19.9580    21.1400    22.6280   -12.2860     2.3600   332.7720 
  282.6250    54.7090    20.4830    18.3030    19.4180    22.8070   -12.4980     2.2980   360.3380 
  282.7500    57.5570    19.5430    17.1330    18.7110    22.9850   -12.7070     2.2490   375.3350 
  282.8750    57.3460    19.2080    16.5980    18.9740    23.1570   -12.9300     2.2100   379.7230 
  283.0000    56.8130    19.4930    16.7190    20.2040    23.3450   -13.1840     2.1830   378.1310 
  283.1250    59.5410    20.4670    17.5620    22.3490    23.5540   -13.4770     2.1800   372.6900 
  283.2500    63.0840    22.2130    19.0060    25.2960    23.7830   -13.7880     2.2050   363.5420 
  283.3750    66.0260    24.9030    21.1320    29.4600    24.0230   -14.1130     2.2540   350.9790 
  283.5000    69.1910    28.8060    24.1690    35.2860    24.1900   -14.4290     2.3150   337.1630 
  283.6250    72.3680    34.4860    28.6630    42.3820    24.2480   -14.7220     2.3680   325.2380 
  283.7500    74.0570    40.9630    34.4660    51.3320    24.2480   -14.9870     2.3970   314.9280 
  283.8750    75.3490    48.0600    40.9780    60.2880    24.2000   -15.2210     2.4000   304.4980 
  284.0000    74.5700    54.1110    46.8690    67.8610    24.1470   -15.3930     2.3810   294.0220 
  284.1250    70.5500    56.3050    49.7470    72.4230    24.1450   -15.4940     2.3520   288.6500 
  284.2500    68.9520    53.9550    48.7520    70.0730    24.1340   -15.5520     2.3320   291.4490 
  284.3750    71.8870    47.9820    44.2900    58.6540    24.0900   -15.5590     2.3260   299.8670 
  284.5000    74.2590    40.7680    38.0960    40.8310    24.0090   -15.5330     2.3340   307.9070 
  284.6250    71.5580    34.9200    32.4480    27.9260    23.9030   -15.4600     2.3470   310.5150 
  284.7500    68.9510    31.1370    28.4500    24.6450    23.8610   -15.3660     2.3590   309.8000 
  284.8750    68.8140    29.2650    26.2310    27.0940    23.8830   -15.2530     2.3770   307.7120 
  285.0000    69.2230    28.9390    25.5730    31.4080    23.9710   -15.1180     2.4080   303.0600 
  285.1250    67.9960    29.9560    26.3530    35.1860    24.1040   -14.9460     2.4610   292.6610 
  285.2500    65.1830    31.7050    27.9870    36.4040    24.1710   -14.7640     2.5190   279.3020 
  285.3750    63.0550    33.6760    30.0030    34.9090    24.1300   -14.6150     2.5650   268.5550 
  285.5000    62.3200    35.2050    31.7830    33.6870    24.0260   -14.5140     2.5810   265.0500 
  285.6250    63.1000    35.3220    32.4120    33.9870    23.9740   -14.4930     2.5610   270.1730 
  285.7500    65.8000    33.8310    31.5710    32.7050    23.9570   -14.5110     2.5270   278.5670 
  285.8750    69.3040    31.0090    29.3510    28.9420    23.9550   -14.5340     2.4980   286.1520 
  286.0000    72.0570    27.6440    26.3450    23.2360    23.9390   -14.5630     2.4830   291.3200 
  286.1250    72.7150    24.7820    23.4730    18.9710    23.9100   -14.5930     2.4830   296.7190 
  286.2500    71.3960    22.8910    21.3540    18.1970    23.9000   -14.6120     2.4900   305.7230 
  286.3750    69.0120    22.0470    20.1920    20.2200    23.9350   -14.5750     2.4980   317.5420 
  286.5000    68.3770    22.1510    19.9900    24.1390    24.0190   -14.4650     2.5040   327.5100 
  286.6250    70.2900    23.1410    20.7750    28.4540    24.1250   -14.2900     2.5060   328.0430 
  286.7500    71.8990    24.6390    22.1940    31.8430    24.2220   -14.0780     2.5080   318.6180 
  286.8750    73.3860    26.3540    23.9640    32.8970    24.3010   -13.8660     2.5100   301.5730 
  287.0000    75.3260    27.9570    25.7360    32.4460    24.3680   -13.6600     2.5130   280.8660 
  287.1250    73.0340    29.0330    27.0580    33.9520    24.4190   -13.4830     2.5200   263.2000 
  287.2500    66.3240    29.4720    27.7370    33.8560    24.3490   -13.3360     2.5340   253.4980 
  287.3750    62.2450    29.2820    27.7260    30.6230    24.2010   -13.2220     2.5500   252.5100 
  287.5000    65.6040    28.6000    27.1190    28.0960    24.0670   -13.1530     2.5650   256.7920 
  287.6250    72.7570    27.6140    26.0630    26.9570    24.0050   -13.0900     2.5700   261.4210 
  287.7500    76.1450    26.5970    24.8610    26.6820    24.0470   -13.0250     2.5660   264.3910 
  287.8750    75.8240    25.7050    23.6980    26.2660    24.1300   -12.9640     2.5540   265.7570 
  288.0000    74.0650    25.0300    22.7140    24.1990    24.1850   -12.9030     2.5420   266.0320 
  288.1250    71.4050    24.6160    22.0300    21.9490    24.2000   -12.8330     2.5370   265.6220 
  288.2500    68.7640    24.3690    21.6080    21.6340    24.1880   -12.7590     2.5390   264.9620 
  288.3750    66.8700    24.2430    21.4260    22.8690    24.1710   -12.6950     2.5450   264.6170 
  288.5000    67.0410    24.2570    21.4820    24.0460    24.1620   -12.6340     2.5480   265.3910 
  288.6250    68.8720    24.6920    21.9690    24.9560    24.1700   -12.5640     2.5450   268.1080 
  288.7500    70.9880    26.0480    23.2320    25.0090    24.1360   -12.4820     2.5350   271.2430 
  288.8750    71.9590    29.0780    25.8900    25.0630    24.0760   -12.3580     2.5220   272.6000 
  289.0000    69.9360    34.3600    30.5080    26.2140    24.0310   -12.1830     2.5110   270.7160 
  289.1250    67.8990    41.8400    37.2300    29.1580    24.0130   -11.9700     2.5070   265.5360 
  289.2500    68.3110    49.2810    44.1900    32.5490    23.9910   -11.7220     2.5090   259.0100 
  289.3750    69.5550    53.9570    48.9250    34.9240    23.9620   -11.4500     2.5160   252.1660 
  289.5000    68.1230    53.2730    48.9730    36.1090    23.9930   -11.1690     2.5250   246.0290 
  289.6250    62.9340    45.8430    42.6970    31.2790    24.0650   -10.9080     2.5230   244.4250 
  289.7500    56.1460    35.7340    33.3880    23.9160    24.0700   -10.6780     2.4990   252.6530 
  289.8750    47.7070    26.4040    24.2620    14.8620    23.9850   -10.4800     2.4540   274.9060 
  290.0000    38.8180    19.3000    17.2280     9.3020    23.9180   -10.3030     2.3990   309.6990 
  290.1250    34.1940    14.6480    12.7990     7.7610    23.9160   -10.1490     2.3550   347.5370 
  290.2500    34.1710    11.5280     9.9300     6.5750    23.9210   -10.0310     2.3320   377.4350 
  290.3750    34.8840     9.6510     8.0940     5.3130    23.9180    -9.9370     2.3270   397.2380 
  290.5000    33.5550     8.3870     6.9720     4.5280    23.9050    -9.8510     2.3310   409.6730 
  290.6250    32.6760     7.6710     6.4350     4.3860    23.8770    -9.7840     2.3370   415.9840 
  290.7500    35.9800     7.3280     6.2660     4.6040    23.8390    -9.7380     2.3420   416.2620 
  290.8750    42.9750     7.2860     6.3850     5.1120    23.8110    -9.7430     2.3510   410.0430 
