~V
VERS. 2.00: Ver 2.00
~W
STRT.M 53.0000:
STOP.M 258.0000:
STEP.M 0.1250:
NULL. -999.2500:
UWI. DF32102:
~C
DEPT.M :
SP.MV :
GR.API :
RML.OHMM :
RI. :
RXO.OHMM :
CALI.CM :
DEN.GM/CC :
~A
# ...
  143.0000   -24.4250    68.1300    12.4720    11.1830    13.6750    24.8240     2.4160 
  143.1250   -24.3550    61.3020    15.7430    14.4010    20.3610    24.8790     2.5030 
  143.2500   -24.4010    54.7280    18.8640    17.6770    22.6900    24.8590     2.5750 
  143.3750   -24.4510    49.0050    20.9660    20.1660    22.5940    24.8500     2.6150 
  143.5000   -24.5050    47.9200    21.3400    21.0920    23.2240    24.8820     2.6170 
  143.6250   -24.5780    52.2270    19.6300    19.8950    21.7600    24.9300     2.5760 
  143.7500   -24.6790    57.9100    16.8690    17.4220    20.1100    25.0100     2.5110 
  143.8750   -24.7340    62.8690    13.9070    14.4800    15.6180    25.1100     2.4380 
  144.0000   -24.8710    68.7310    11.3520    11.7340    11.6650    25.1730     2.3730 
  144.1250   -25.0240    75.9710     9.6430     9.7020     9.5050    25.1750     2.3290 
  144.2500   -25.0480    79.6980     8.7530     8.4440     7.5810    25.1570     2.3010 
  144.3750   -25.1730    78.3510     8.6780     7.9970     6.9300    25.1560     2.2810 
  144.5000   -25.3350    74.2850     9.3840     8.3580     7.6480    25.1780     2.2610 
  144.6250   -25.3840    71.5830    10.8950     9.6030    10.5050    25.2120     2.2380 
  144.7500   -25.4880    70.0980    12.9210    11.4780    14.3090    25.2480     2.2180 
  144.8750   -25.5730    68.5230    15.2400    13.7890    16.1130    25.2770     2.2020 
  145.0000   -25.5980    67.5570    17.6060    16.2850    17.2550    25.3000     2.1930 
  145.1250   -25.6360    66.3270    19.7400    18.6510    18.8540    25.3040     2.1910 
  145.2500   -25.6650    64.7660    21.4880    20.6440    20.6940    25.2780     2.1890 
  145.3750   -25.6340    62.8740    22.6840    22.0580    21.6810    25.2460     2.1830 
  145.5000   -25.5250    61.8850    23.1100    22.6730    22.6010    25.1960     2.1690 
  145.6250   -25.4410    63.9920    22.3840    22.1100    22.4940    25.1480     2.1490 
  145.7500   -25.3290    65.3730    20.7370    20.5740    21.6700    25.0850     2.1300 
  145.8750   -25.1720    64.4210    18.6140    18.4510    19.9510    24.9690     2.1240 
  146.0000   -25.0000    63.9370    16.6450    16.3300    16.5340    24.7350     2.1400 
  146.1250   -24.7950    67.2820    15.5580    14.9060    12.2210    24.3490     2.1870 
  146.2500   -24.5940    69.0590    15.5130    14.4010    11.7300    24.0390     2.2590 
  146.3750   -24.3970    64.9450    16.4730    14.8460    14.1090    23.8150     2.3440 
  146.5000   -24.2250    59.6310    18.1750    16.0790    18.0540    23.7040     2.4250 
  146.6250   -24.0540    58.0250    20.1470    17.7840    19.7660    23.8230     2.4860 
  146.7500   -23.8800    57.6960    21.8000    19.4190    20.6590    23.9670     2.5250 
  146.8750   -23.7840    57.6040    22.8350    20.6550    21.2810    24.0330     2.5440 
  147.0000   -23.7550    57.9990    23.2650    21.3760    21.2040    24.1180     2.5540 
  147.1250   -23.7140    60.2520    23.3230    21.6470    19.7810    24.2240     2.5600 
  147.2500   -23.6540    62.4170    23.2540    21.6840    19.2980    24.2450     2.5640 
  147.3750   -23.6410    62.7530    22.9560    21.4530    19.9490    24.2220     2.5620 
  147.5000   -23.6820    60.8160    22.2070    20.8140    20.5510    24.1760     2.5540 
  147.6250   -23.6500    58.7760    20.8270    19.6170    20.1140    24.1350     2.5370 
  147.7500   -23.6670    59.4590    19.1730    18.1340    19.1080    24.0480     2.5210 
  147.8750   -23.6610    61.9890    17.7170    16.7360    16.2300    23.8890     2.5140 
  148.0000   -23.5600    63.5200    16.9280    15.8220    13.7750    23.7170     2.5190 
  148.1250   -23.5540    61.0370    17.2260    15.7970    13.7180    23.5270     2.5380 
  148.2500   -23.5170    57.0890    18.3560    16.5370    15.3130    23.3190     2.5610 
  148.3750   -23.3940    54.1900    19.9410    17.7940    16.7390    23.1910     2.5810 
  148.5000   -23.2120    52.5900    21.4480    19.1580    17.6090    23.2240     2.5930 
  148.6250   -23.1240    52.5230    22.2010    20.0510    18.8320    23.2730     2.5930 
  148.7500   -22.9530    52.7750    22.0720    20.2340    19.3430    23.2260     2.5810 
  148.8750   -22.7410    54.1360    21.2900    19.7820    18.1280    23.0840     2.5580 
  149.0000   -22.5720    58.0900    20.3300    19.0260    16.4410    22.9410     2.5310 
  149.1250   -22.3210    63.1360    19.6950    18.3890    15.8670    22.9590     2.5090 
  149.2500   -22.1810    63.6050    19.4880    18.0610    15.7720    23.1200     2.5010 
  149.3750   -22.0180    59.7380    19.6040    18.0190    15.8320    23.3740     2.5070 
  149.5000   -21.9060    55.3830    19.8240    18.1240    16.0620    23.6660     2.5200 
  149.6250   -21.8650    52.9600    19.8780    18.1700    16.6550    23.9420     2.5310 
  149.7500   -21.7900    51.8850    19.6880    18.0540    16.5530    24.1570     2.5350 
  149.8750   -21.7980    52.6830    19.3460    17.8160    16.2840    24.2780     2.5310 
  150.0000   -21.8760    54.7490    19.0430    17.5880    15.7080    24.3230     2.5220 
  150.1250   -21.9490    55.3220    18.9950    17.5430    14.9360    24.3270     2.5150 
  150.2500   -22.0260    55.2920    19.1860    17.6970    15.1730    24.3000     2.5140 
  150.3750   -22.1660    54.3490    19.4760    17.9590    16.3750    24.2330     2.5210 
  150.5000   -22.2610    51.9340    19.6500    18.1690    16.5310    24.1490     2.5350 
  150.6250   -22.3190    51.2170    19.4770    18.1250    16.0580    23.9760     2.5500 
  150.7500   -22.4500    53.5080    19.0010    17.8260    15.1230    23.8230     2.5610 
  150.8750   -22.5130    56.1390    18.3770    17.3720    13.6100    23.7320     2.5620 
  151.0000   -22.5230    56.1830    17.8170    16.9270    12.8180    23.7020     2.5560 
  151.1250   -22.5660    53.7340    17.5260    16.6750    13.1330    23.7110     2.5430 
  151.2500   -22.5780    51.6520    17.4890    16.6390    14.1460    23.7410     2.5300 
  151.3750   -22.5490    52.0650    17.6150    16.7660    14.9350    23.7720     2.5200 
  151.5000   -22.4870    55.9100    17.7760    16.9500    15.1820    23.7840     2.5150 
  151.6250   -22.4110    59.4930    17.8180    17.0460    14.8730    23.7750     2.5160 
  151.7500   -22.2850    59.1060    17.6730    16.9740    14.3090    23.7640     2.5190 
  151.8750   -22.1740    56.1020    17.3280    16.7090    13.7460    23.7980     2.5220 
  152.0000   -22.0780    52.9010    16.8110    16.2710    13.6340    23.9660     2.5260 
  152.1250   -21.9800    50.4800    16.1760    15.7100    14.0060    24.2100     2.5300 
  152.2500   -21.9380    49.4510    15.5430    15.1380    14.5430    24.4740     2.5360 
  152.3750   -21.8950    51.5400    15.0270    14.6570    15.1910    24.6570     2.5420 
  152.5000   -22.0110    54.9210    14.7480    14.3780    15.0320    24.7100     2.5480 
  152.6250   -22.2020    55.0870    14.8620    14.4520    14.9930    24.6920     2.5520 
  152.7500   -22.3530    53.6060    15.3420    14.8790    14.1470    24.6560     2.5560 
  152.8750   -22.5960    53.2770    16.1190    15.6240    14.1390    24.6400     2.5610 
  153.0000   -22.8230    54.6660    17.0410    16.5670    15.1180    24.6360     2.5650 
  153.1250   -23.0730    56.0900    17.8430    17.4740    16.0610    24.6150     2.5630 
  153.2500   -23.3810    58.8480    18.3070    18.0940    16.8030    24.5930     2.5530 
  153.3750   -23.7080    63.0990    18.3100    18.2660    17.2720    24.6090     2.5360 
  153.5000   -23.9640    66.5820    17.8560    17.9470    17.5030    24.6660     2.5160 
  153.6250   -24.2670    66.4530    17.0650    17.2060    15.9630    24.7120     2.4980 
  153.7500   -24.7150    63.5690    16.2580    16.3570    14.9300    24.7330     2.4860 
  153.8750   -25.1640    60.8550    15.6240    15.6610    14.0260    24.7600     2.4780 
  154.0000   -25.7280    61.3680    15.4500    15.3870    13.3830    24.7980     2.4690 
  154.1250   -26.3880    65.1280    16.3030    15.9850    13.4240    24.8570     2.4530 
