~V
VERS. 2.00: Ver 2.00
~W
STRT.M 63.0000:
STOP.M 291.0000:
STEP.M 0.1250:
NULL. -999.2500:
UWI. DF325:
~C
DEPT.M :
DEN.GM/CC :
SP.MV :
AC.US/MT :
GR.API :
RML.OHMM :
RI. :
RXO.OHMM :
CALI.CM :
~A
# ...
  123.0000     2.2100   -23.8120   450.1800    73.7390    11.4660    10.3420    12.0420    24.0930 
  123.1250     2.2090   -23.4200   449.5830    74.3660    11.4520    10.3290    12.1460    24.2800 
  123.2500     2.2060   -23.0040   448.3430    73.7040    11.4760    10.3510    12.3930    24.4410 
  123.3750     2.2050   -22.5320   446.7780    74.1280    11.4630    10.3390    12.5620    24.5290 
  123.5000     2.2100   -21.9930   444.9010    78.7630    11.3160    10.2020    12.5050    24.5710 
  123.6250     2.2260   -21.3780   441.3400    86.3590    10.9470     9.8570    12.1480    24.5830 
  123.7500     2.2470   -20.7060   434.8850    92.0040    10.4500     9.3930    11.5070    24.6030 
  123.8750     2.2690   -20.0230   425.4970    95.6620     9.9560     8.9310    10.6960    24.6330 
  124.0000     2.2860   -19.3810   414.8220    98.6220     9.5830     8.5840    10.0830    24.6410 
  124.1250     2.2990   -18.8270   405.5770    97.4220     9.4190     8.4250    10.1120    24.4890 
  124.2500     2.3150   -18.3470   398.9300    90.8760     9.4120     8.4150    10.5000    24.3030 
  124.3750     2.3350   -17.9760   395.5240    84.3860     9.5170     8.5120    10.8140    24.1770 
  124.5000     2.3570   -17.7210   395.9300    83.1820     9.6890     8.7000    10.5450    24.1500 
  124.6250     2.3660   -17.6250   400.5430    84.4890     9.9010     8.9390    10.2060    24.1620 
  124.7500     2.3590   -17.6630   407.3650    82.6850    10.1280     9.2180    10.2280    24.1440 
  124.8750     2.3410   -17.7700   414.3090    80.0550    10.3470     9.4940    10.4120    24.1200 
  125.0000     2.3210   -17.9160   419.2030    80.9590    10.5420     9.6660    10.3700    24.1080 
  125.1250     2.3100   -18.0550   420.1230    82.0500    10.6460     9.7480    10.1400    24.0980 
  125.2500     2.3070   -18.1570   417.4720    82.6640    10.6430     9.7730    10.0420    24.0940 
  125.3750     2.3080   -18.2320   412.1500    85.3340    10.5010     9.6870     9.9900    24.1330 
  125.5000     2.3090   -18.3130   405.5830    89.1040    10.2430     9.5140    10.0490    24.2390 
  125.6250     2.3060   -18.3860   400.3630    89.8020    10.0770     9.3750    10.2960    24.3860 
  125.7500     2.2990   -18.4590   399.2570    87.8660    10.0590     9.3060    10.7180    24.5010 
  125.8750     2.2860   -18.5780   403.9160    84.7640    10.2480     9.3920    11.2390    24.5810 
  126.0000     2.2690   -18.7160   413.6680    80.7810    10.6600     9.6910    11.8990    24.6410 
  126.1250     2.2500   -18.8230   424.7720    77.2840    11.3550    10.2380    12.7930    24.6860 
  126.2500     2.2350   -18.8740   432.6870    75.9470    12.0610    10.8980    13.3840    24.7310 
  126.3750     2.2270   -18.8440   435.9550    74.2720    12.6930    11.4880    13.5800    24.7610 
  126.5000     2.2260   -18.7160   435.5750    71.0550    12.9980    11.7740    13.4170    24.7790 
  126.6250     2.2370   -18.4560   433.4340    69.6210    12.6580    11.4560    12.7550    24.8100 
  126.7500     2.2590   -18.0440   430.7760    71.7920    11.7520    10.6050    11.6000    24.8560 
  126.8750     2.2910   -17.4540   427.5280    76.1860    10.4630     9.4160    10.0070    24.8890 
  127.0000     2.3280   -16.7500   423.5780    80.5130     9.1220     8.1680     8.3790    24.9010 
  127.1250     2.3620   -16.0590   418.7230    82.4290     8.0670     7.1750     7.4450    24.8990 
  127.2500     2.3880   -15.4320   412.0140    83.5760     7.4740     6.5680     7.5340    24.8900 
  127.3750     2.4030   -14.8870   401.0220    85.2220     7.3950     6.4360     8.3560    24.8710 
  127.5000     2.4090   -14.4560   382.2810    85.3740     8.0110     6.8520     9.7400    24.8670 
  127.6250     2.4130   -14.1630   352.7820    81.9060     9.2680     7.9800    12.0040    24.9000 
  127.7500     2.4230   -13.9980   319.3500    77.0000    11.0400     9.7020    15.1730    24.9330 
  127.8750     2.4440   -13.9790   290.7490    73.2660    13.2280    11.8780    19.0000    24.9310 
  128.0000     2.4770   -14.0770   273.2390    71.0250    15.7770    14.2380    22.4050    24.8820 
  128.1250     2.5140   -14.2330   266.9220    69.3570    18.1190    16.4070    25.6630    24.8670 
  128.2500     2.5420   -14.4220   265.0960    66.9550    20.0940    18.2350    27.9540    24.9000 
  128.3750     2.5510   -14.6620   266.1720    64.7430    21.8650    19.8750    28.7060    24.9610 
  128.5000     2.5420   -14.9070   269.4820    64.7220    23.8110    21.6770    29.1110    25.0140 
  128.6250     2.5240   -15.1350   269.6850    67.6680    26.3260    24.0060    31.0240    25.0370 
  128.7500     2.5060   -15.3560   261.9220    70.2570    29.1690    26.6380    36.3790    25.0590 
  128.8750     2.4880   -15.5680   248.8480    71.3170    31.7520    29.0290    43.7910    25.1310 
  129.0000     2.4690   -15.7680   239.2130    70.8020    33.3140    30.4760    49.2700    25.2770 
  129.1250     2.4550   -15.9680   241.8820    69.6200    33.0410    30.2230    45.0350    25.3410 
  129.2500     2.4500   -16.1650   252.8830    69.5450    31.3400    28.6480    34.6540    25.2610 
  129.3750     2.4570   -16.3340   266.7960    70.2600    28.8350    26.3290    26.0450    25.0500 
  129.5000     2.4720   -16.4880   280.6340    70.3500    26.1910    23.8810    19.9950    24.8220 
  129.6250     2.4770   -16.6410   294.8620    69.5260    23.9480    21.8030    18.0640    24.6920 
  129.7500     2.4660   -16.7840   309.3140    68.3160    22.2390    20.2210    17.5080    24.6870 
  129.8750     2.4420   -16.9140   321.0780    66.4160    21.0810    19.1490    17.2920    24.7900 
  130.0000     2.4170   -17.0430   327.1420    64.1710    20.4230    18.5410    16.8420    24.9570 
  130.1250     2.4050   -17.1610   325.6780    64.1380    20.2120    18.3470    16.8440    25.1790 
  130.2500     2.4050   -17.2450   321.0640    66.1970    20.2360    18.3590    17.5820    25.3180 
  130.3750     2.4130   -17.2880   317.8290    70.5970    20.3300    18.4370    18.7050    25.2860 
  130.5000     2.4180   -17.3120   318.4930    74.9340    20.3510    18.4600    19.8810    25.1220 
  130.6250     2.4140   -17.3120   323.0670    75.1290    20.1650    18.3410    20.0850    24.9560 
  130.7500     2.4020   -17.2630   328.0460    71.5240    19.8290    18.1190    19.7030    24.8080 
  130.8750     2.3880   -17.1460   330.7310    67.0940    19.4350    17.8600    19.2640    24.7100 
  131.0000     2.3800   -16.9340   329.3310    64.9020    19.1020    17.6560    18.9240    24.6590 
  131.1250     2.3840   -16.6060   323.4240    65.0200    19.2360    17.6790    19.4060    24.6130 
  131.2500     2.3990   -16.1980   316.3580    65.6260    19.8080    18.0370    20.4390    24.5600 
  131.3750     2.4210   -15.7360   309.1870    66.2960    20.6920    18.7890    21.8200    24.5710 
  131.5000     2.4440   -15.1880   299.8230    67.5770    21.8570    19.8680    23.4240    24.7390 
  131.6250     2.4630   -14.5620   284.7170    68.0670    23.1200    21.0370    25.9550    25.0970 
  131.7500     2.4780   -13.9490   267.7560    64.3100    24.0930    21.9380    28.8110    25.3610 
  131.8750     2.4890   -13.3860   255.9800    58.3510    24.5210    22.3340    30.4890    25.4200 
  132.0000     2.4960   -12.9050   253.5910    55.3250    24.3490    22.1750    29.5430    25.4200 
  132.1250     2.4980   -12.5300   259.0180    56.6050    23.7420    21.6130    26.5070    25.3970 
  132.2500     2.4950   -12.2250   265.4450    57.0590    23.1200    21.0370    24.2700    25.2610 
  132.3750     2.4920   -11.9700   270.2730    55.0060    22.7380    20.6830    23.4000    24.9630 
  132.5000     2.4930   -11.8010   273.1240    53.2120    22.7250    20.6720    23.3870    24.7390 
  132.6250     2.5020   -11.7440   273.0240    54.6120    23.1530    21.0700    24.5010    24.8030 
  132.7500     2.5150   -11.7520   270.3350    56.6040    23.8720    21.7350    24.8930    25.0690 
  132.8750     2.5230   -11.7780   266.3630    56.3740    24.7610    22.5500    25.9000    25.3310 
