~V
VERS. 2.00: Ver 2.00
~W
STRT.M 61.0000:
STOP.M 325.0000:
STEP.M 0.1250:
NULL. -999.2500:
UWI. DF320:
~C
DEPT.M :
GR.API :
RML.OHMM :
RI. :
RXO.OHMM :
CALI.CM :
SP.MV :
DEN.GM/CC :
AC.US/MT :
~A
# ...
  261.0000    55.9570    54.3560    48.1210    47.3540    24.5390   -17.5410     2.2780   378.2480 
  261.1250    56.9530    53.9990    47.6640    48.9570    24.4570   -17.4730     2.2710   381.8890 
  261.2500    57.0340    54.3640    47.9450    50.6640    24.4150   -17.4100     2.2680   382.7960 
  261.3750    57.5090    55.3180    48.8080    52.2970    24.3310   -17.3480     2.2660   381.0050 
  261.5000    59.5040    56.8310    50.1730    53.9470    24.2700   -17.2480     2.2620   379.0590 
  261.6250    61.0750    59.0200    52.0890    55.8480    24.1790   -17.1250     2.2520   380.8810 
  261.7500    59.3580    61.7230    54.4030    57.2790    24.1110   -16.9830     2.2390   386.2200 
  261.8750    55.7380    64.6710    56.9020    58.6580    24.0670   -16.8090     2.2280   391.6470 
  262.0000    53.2630    67.3470    59.1810    59.6510    24.0660   -16.6200     2.2220   393.5600 
  262.1250    54.2670    68.7450    60.4470    60.0930    24.0560   -16.4230     2.2220   391.3380 
  262.2500    56.0670    68.2590    60.2130    59.3840    24.0330   -16.2320     2.2260   388.4860 
  262.3750    57.1410    65.5630    58.1980    56.9420    23.9840   -16.0510     2.2290   386.9400 
  262.5000    57.4890    60.8500    54.5190    52.4280    23.9020   -15.9060     2.2330   386.7510 
  262.6250    57.2840    54.7970    49.6250    46.8300    23.8090   -15.7780     2.2370   387.1260 
  262.7500    57.1200    48.9210    44.6780    41.3020    23.7360   -15.6710     2.2410   387.2880 
  262.8750    55.9900    44.3920    40.6310    36.4970    23.6590   -15.6010     2.2460   386.9140 
  263.0000    55.3360    41.9140    38.1650    33.3540    23.5550   -15.5460     2.2500   386.1720 
  263.1250    56.4680    41.6260    37.6290    31.4080    23.4260   -15.5090     2.2500   385.9870 
  263.2500    56.6160    42.1540    38.0480    31.3010    23.3540   -15.4750     2.2470   387.1250 
  263.3750    55.6870    42.2330    38.4010    33.2570    23.3750   -15.4190     2.2420   389.4700 
  263.5000    54.7800    40.8480    37.7170    35.5770    23.4770   -15.3260     2.2390   391.8070 
  263.6250    56.6960    37.4800    35.2840    34.2570    23.6030   -15.2050     2.2410   392.4350 
  263.7500    60.7030    33.1430    31.7450    29.5450    23.6910   -15.0480     2.2490   391.6290 
  263.8750    66.9970    28.7730    27.8690    23.7440    23.7570   -14.8680     2.2610   390.4580 
  264.0000    73.3280    25.0270    24.3260    19.8950    23.8310   -14.6970     2.2720   389.7000 
  264.1250    74.1240    22.3040    21.6140    18.2840    23.8910   -14.5570     2.2810   389.2060 
  264.2500    70.7240    20.4040    19.6760    17.2670    23.9000   -14.4470     2.2880   388.4170 
  264.3750    67.9390    19.1750    18.4200    16.4960    23.8800   -14.3830     2.2950   387.4140 
  264.5000    68.4310    18.4420    17.7030    16.1210    23.8640   -14.3680     2.3020   386.6360 
  264.6250    69.1990    18.0830    17.4070    16.2820    23.8880   -14.4010     2.3110   386.4550 
  264.7500    68.4440    17.9060    17.3200    16.6470    23.9250   -14.4930     2.3200   386.6840 
  264.8750    67.6020    17.8350    17.3450    16.9290    23.9280   -14.6160     2.3270   387.1550 
  265.0000    67.8840    17.8230    17.4190    17.1180    23.8820   -14.7580     2.3290   387.8030 
  265.1250    67.8440    17.8730    17.5170    17.4090    23.8200   -14.9020     2.3260   388.5010 
  265.2500    66.4140    18.0170    17.6560    17.8970    23.7800   -15.0420     2.3170   388.9380 
  265.3750    65.8160    18.3230    17.8880    18.4790    23.7710   -15.1960     2.3050   389.0660 
  265.5000    67.0230    18.8610    18.2770    19.0540    23.7580   -15.3630     2.2930   389.1360 
  265.6250    67.2750    19.7200    18.9170    19.5930    23.6940   -15.5180     2.2830   389.4500 
  265.7500    65.9690    20.8400    19.7830    20.3840    23.5850   -15.6520     2.2750   389.9650 
  265.8750    64.0980    22.1580    20.8410    21.4360    23.4730   -15.7960     2.2700   390.4110 
  266.0000    63.5760    23.5770    22.0200    22.4810    23.3830   -15.9480     2.2670   390.4840 
  266.1250    63.5940    24.9650    23.2050    23.2720    23.2900   -16.1210     2.2680   389.7360 
  266.2500    62.4510    26.2140    24.2790    23.7140    23.2160   -16.3150     2.2740   388.2230 
  266.3750    60.5340    27.2800    25.1760    24.2660    23.2130   -16.5130     2.2840   386.3270 
  266.5000    59.4090    28.1890    25.8960    25.2640    23.2600   -16.6990     2.2940   384.5150 
  266.6250    59.9260    29.0230    26.4980    26.3920    23.3000   -16.8700     2.3000   383.1870 
  266.7500    60.0880    29.9020    27.1120    27.0990    23.3290   -17.0140     2.2990   382.4700 
  266.8750    60.9330    30.8670    27.8070    27.4400    23.3580   -17.1110     2.2910   382.7540 
  267.0000    63.6440    31.8800    28.5860    27.9510    23.3810   -17.1390     2.2810   384.3470 
  267.1250    64.8790    32.8180    29.3720    28.7110    23.3990   -17.1000     2.2720   386.7020 
  267.2500    63.8630    33.5830    30.0650    29.6160    23.3970   -17.0230     2.2680   388.3640 
  267.3750    62.9450    34.1480    30.6200    30.2880    23.4020   -16.9170     2.2680   388.7310 
  267.5000    64.1710    34.5710    31.0590    30.5910    23.4570   -16.7970     2.2700   388.2560 
  267.6250    65.0430    34.9960    31.4830    30.4110    23.5860   -16.6880     2.2700   388.2420 
  267.7500    63.4750    35.5920    32.0270    30.7930    23.7010   -16.6140     2.2680   389.3800 
  267.8750    60.6220    36.4720    32.7880    31.5180    23.7610   -16.5800     2.2640   391.2020 
  268.0000    58.6380    37.6640    33.8010    32.3950    23.7760   -16.6080     2.2600   392.3630 
  268.1250    61.1980    39.0620    35.0130    33.2730    23.7960   -16.6640     2.2550   391.0550 
  268.2500    65.0940    40.3170    36.1570    33.6340    23.8240   -16.7390     2.2500   387.2810 
  268.3750    66.3690    41.0750    36.9390    33.6340    23.8240   -16.8370     2.2450   381.6090 
  268.5000    63.9530    41.1200    37.1290    33.5070    23.7930   -16.9560     2.2400   375.5640 
  268.6250    61.5000    40.5260    36.6780    33.0140    23.7500   -17.0490     2.2410   371.6700 
  268.7500    62.6180    39.9130    36.0480    32.1200    23.7470   -17.1140     2.2470   370.3210 
  268.8750    66.2180    39.7340    35.6250    31.5510    23.7420   -17.1620     2.2550   369.5580 
  269.0000    69.9010    40.1890    35.6420    33.1680    23.7340   -17.1940     2.2640   366.0730 
  269.1250    72.8160    41.3060    36.2150    38.8290    23.7140   -17.2390     2.2700   354.7880 
  269.2500    73.2880    42.8070    37.1480    47.6000    23.6820   -17.2820     2.2700   333.6110 
  269.3750    70.4650    44.4590    38.2930    56.3500    23.6580   -17.3160     2.2660   305.1160 
  269.5000    67.4610    45.9280    39.3890    61.2640    23.6950   -17.3460     2.2580   278.6980 
  269.6250    68.8120    46.4700    39.9350    63.2320    23.7780   -17.3930     2.2490   267.3670 
  269.7500    72.4810    51.0290    44.5330    65.9780    23.8710   -17.4410     2.2430   269.1950 
  269.8750    75.9900    73.8350    66.4430    68.8860    23.9670   -17.4510     2.2400   273.6000 
  270.0000    79.1840   129.4080   118.9820    76.6050    24.0070   -17.3830     2.2470   268.3890 
  270.1250    82.9970   229.4680   212.1930    97.7080    23.9980   -17.1920     2.2800   245.9830 
  270.2500    87.2670   342.1600   316.5390   124.9110    24.0370   -16.9130     2.3500   216.0870 
  270.3750    91.5180   422.9460   391.3270   147.8490    24.0920   -16.5370     2.4590   190.2020 
  270.5000    92.7680   415.1910   384.1460   158.8500    24.0700   -16.0580     2.5900   175.9070 
  270.6250    88.4930   283.4050   262.1420   130.2660    24.0080   -15.4620     2.6860   178.9280 
  270.7500    84.4050   140.1470   129.5490    70.8560    23.9290   -14.7700     2.7050   199.4850 
  270.8750    84.4580    58.1750    53.6740    30.0260    23.8260   -14.0290     2.6450   240.1060 
