~V
VERS. 2.00: Ver 2.00
~W
STRT.M 60.0000:
STOP.M 264.0000:
STEP.M 0.1250:
NULL. -999.2500:
UWI. DF32130:
~C
DEPT.M :
SP.MV :
GR.API :
CALI.CM :
RXO.OHMM :
RI. :
RML.OHMM :
DEN.GM/CC :
~A
# ...
  172.5000   -23.8450    71.5100    24.1300    88.2890    98.8270   104.5210     2.2630 
  172.6250   -24.0190    68.5550    24.0880   101.8480   103.2690   108.2080     2.2620 
  172.7500   -24.2050    64.5800    24.0190   115.9160   106.1170   110.4860     2.2720 
  172.8750   -24.3770    63.3450    23.9540   120.4620   105.9930   110.1120     2.2810 
  173.0000   -24.5400    64.6610    23.8810   111.4010   103.1050   107.2160     2.2860 
  173.1250   -24.7280    65.3480    23.7630    93.2730    99.2500   103.3370     2.2900 
  173.2500   -24.8940    66.2050    23.6680    81.8300    96.5890   100.5330     2.2880 
  173.3750   -25.0600    68.4120    23.5990    82.3900    95.9440    99.7060     2.2770 
  173.5000   -25.1560    70.0260    23.5450    90.2300    97.1360   100.7960     2.2660 
  173.6250   -25.2880    68.6270    23.5500    94.3370    99.3150   103.1120     2.2650 
  173.7500   -25.3610    65.8600    23.6850    91.5320   101.4590   105.6100     2.2740 
  173.8750   -25.4660    63.7050    24.0470    86.9820   103.5920   108.2310     2.2740 
  174.0000   -25.5100    63.6340    24.5530    89.5850   106.5030   111.6630     2.2630 
  174.1250   -25.5240    64.1570    24.7870    99.7210   111.3760   116.9600     2.2530 
  174.2500   -25.5100    63.4750    24.8510   113.1950   117.6500   123.4660     2.2540 
  174.3750   -25.5280    61.6290    24.8520   126.6470   123.5210   129.3500     2.2630 
  174.5000   -25.5770    60.8560    24.8520   132.7030   126.5260   132.2830     2.2680 
  174.6250   -25.5900    62.3680    24.8520   120.0910   124.9750   130.6770     2.2700 
  174.7500   -25.6720    63.3070    24.8520    97.0520   121.4680   127.0290     2.2730 
  174.8750   -25.7450    62.5400    24.8520    81.7870   118.8510   124.2050     2.2690 
  175.0000   -25.8760    60.8920    24.8520    82.7560   119.2900   124.4990     2.2540 
  175.1250   -26.0010    61.6120    24.8520    99.0120   124.4370   129.5550     2.2370 
  175.2500   -26.1480    63.9160    24.8520   113.3080   133.1490   138.0140     2.2300 
  175.3750   -26.2990    65.6550    24.8520   118.8910   143.7070   148.0080     2.2350 
  175.5000   -26.4680    66.4010    24.8520   118.2340   153.6340   157.1820     2.2440 
  175.6250   -26.7360    65.8820    24.8520   118.7880   160.2910   163.2160     2.2570 
  175.7500   -27.0080    64.2750    24.8520   120.5920   164.0490   166.5020     2.2680 
  175.8750   -27.2750    62.8760    24.8520   120.2300   166.2350   168.2470     2.2680 
  176.0000   -27.5170    63.3960    24.8520   117.1900   168.2170   169.7920     2.2580 
  176.1250   -27.6920    64.4890    24.8520   116.3630   171.0190   172.2550     2.2440 
  176.2500   -27.8070    63.1680    24.8520   119.3820   174.9630   175.9730     2.2340 
  176.3750   -27.9760    59.7740    24.8520   124.6430   180.3520   181.2300     2.2290 
  176.5000   -28.1210    57.2970    24.8530   128.9760   187.4340   188.2880     2.2260 
  176.6250   -28.2350    59.0100    24.8700   130.6440   196.2630   197.2590     2.2220 
  176.7500   -28.2400    61.5710    24.9090   133.7590   205.2720   206.5610     2.2170 
  176.8750   -28.2400    61.1920    24.9480   139.8720   212.0020   213.7820     2.2070 
  177.0000   -28.1580    59.0910    24.9660   149.1590   213.3500   216.0600     2.1910 
  177.1250   -28.0680    60.3450    24.9660   153.6330   205.7330   210.1310     2.1750 
  177.2500   -27.9750    63.1940    24.9650   145.7180   191.4800   197.7300     2.1750 
  177.3750   -27.8450    64.8580    24.9620   126.6800   174.4080   181.8310     2.1960 
  177.5000   -27.7250    64.6870    24.9790   107.3070   158.8050   166.3580     2.2170 
  177.6250   -27.5890    64.2680    25.0450    98.6480   148.5260   155.6200     2.2290 
  177.7500   -27.4560    63.6050    25.1790    95.7650   143.5700   150.5040     2.2330 
  177.8750   -27.2780    62.9480    25.2950    94.6490   143.1340   150.5710     2.2330 
  178.0000   -27.1880    62.0840    25.2220    95.3220   145.8430   154.3890     2.2290 
  178.1250   -27.1150    62.6450    24.7680    99.4670   150.4490   160.3590     2.2240 
  178.2500   -27.0440    65.0660    24.3070   101.6790   155.5780   166.6100     2.2210 
  178.3750   -26.9470    65.4020    24.0900    96.6790   160.3070   171.9500     2.2190 
  178.5000   -26.8890    63.1380    24.0470    86.8230   163.3680   175.1240     2.2140 
  178.6250   -26.8370    62.0780    24.0470    90.3080   163.0890   174.6760     2.2080 
  178.7500   -26.7850    62.5460    24.0470   100.8730   160.1250   171.4630     2.2060 
  178.8750   -26.6690    62.0850    24.0470   103.2100   156.0750   167.0750     2.2060 
  179.0000   -26.5110    60.9070    24.0270    91.9900   153.2610   163.9480     2.2020 
  179.1250   -26.3380    62.4420    23.9490    82.4650   155.0870   166.1930     2.1950 
  179.2500   -26.2090    63.8410    23.8010    81.9040   163.1450   175.9140     2.1910 
  179.3750   -26.1020    62.8780    23.6310    82.8830   178.8210   194.4970     2.1980 
  179.5000   -25.9860    59.9880    23.4730    81.1590   202.7740   222.1030     2.2100 
  179.6250   -25.8350    56.9740    23.3800    79.9750   235.1840   258.4260     2.2140 
  179.7500   -25.7050    56.3410    23.3560    80.9320   270.4730   298.0690     2.2070 
  179.8750   -25.6400    56.9550    23.3800    84.0230   299.3090   332.7620     2.2020 
  180.0000   -25.5220    57.7980    23.4500    90.3220   306.1120   348.6640     2.2120 
  180.1250   -25.3650    58.9010    23.5120   100.4170   272.6570   325.8830     2.2350 
  180.2500   -25.1380    59.8810    23.5410   102.3040   217.4360   273.4500     2.2620 
  180.3750   -24.9660    60.4380    23.5700    89.8020   163.3710   210.8990     2.2870 
  180.5000   -24.7360    62.2440    23.6430    67.9270   122.6410   156.5720     2.3070 
  180.6250   -24.5250    67.7570    23.7700    56.6570    97.8790   120.9980     2.3210 
  180.7500   -24.2960    73.4910    23.9760    54.3550    83.3210   100.3010     2.3290 
  180.8750   -24.0810    75.5380    24.2650    53.4660    76.6930    91.6130     2.3280 
  181.0000   -23.9240    72.9390    24.5210    54.2180    77.1560    93.4430     2.3100 
  181.1250   -23.8140    69.2220    24.6160    64.3530    86.7540   108.5620     2.2760 
  181.2500   -23.7660    67.1330    24.6330    92.4410   106.5830   138.0020     2.2350 
  181.3750   -23.6890    65.5600    24.6330   138.4740   140.1690   183.9050     2.2030 
  181.5000   -23.6560    62.7300    24.6330   192.3160   190.3820   243.2390     2.1900 
  181.6250   -23.6360    59.0360    24.6330   224.1930   247.8700   296.5770     2.1950 
  181.7500   -23.5800    57.6840    24.6330   230.8110   276.9510   316.0780     2.2130 
  181.8750   -23.4450    57.4540    24.6330   215.6460   259.6520   293.4520     2.2290 
  182.0000   -23.2170    55.8770    24.6240   182.4050   217.9070   246.9720     2.2360 
  182.1250   -22.9450    53.4580    24.5950   138.5610   181.2750   203.2900     2.2360 
  182.2500   -22.5910    52.8310    24.5560   108.7030   157.0380   173.3260     2.2330 
  182.3750   -22.1410    55.9620    24.5410   101.4460   143.4400   156.4530     2.2310 
  182.5000   -21.6180    60.0600    24.5400   106.7220   137.4960   148.9530     2.2240 
  182.6250   -20.9990    60.7590    24.5220   108.2480   136.4510   147.2090     2.2180 
  182.7500   -20.4290    58.5350    24.4650   105.7390   136.4880   146.8810     2.2210 
  182.8750   -19.8910    57.6240    24.3710   105.7390   135.9260   146.3510     2.2410 
  183.0000   -19.4290    59.8820    24.2580   106.0580   134.8700   145.7760     2.2600 
  183.1250   -18.9280    61.5200    24.0760   101.5300   135.5090   147.2520     2.2620 
  183.2500   -18.4530    60.7630    23.8980    96.6070   139.4670   151.9860     2.2460 
  183.3750   -18.0410    58.2050    23.7910    99.0320   146.5390   159.2150     2.2300 
  183.5000   -17.6900    54.8850    23.7590   110.7690   153.5850   165.5990     2.2240 
  183.6250   -17.3880    52.5740    23.7580   127.4660   153.0210   164.5030     2.2250 
