~V
VERS. 2.00: Ver 2.00
~W
STRT.M 62.0000:
STOP.M 272.0000:
STEP.M 0.1250:
NULL. -999.2500:
UWI. DF32144:
~C
DEPT.M :
SP.MV :
DEN.GM/CC :
GR.API :
RML.OHMM :
RI. :
RXO.OHMM :
CALI.CM :
~A
# ...
  219.5000   -10.3520     2.2260    64.6980    70.6430    60.3230    56.0700    25.2350 
  219.6250   -10.5360     2.2450    67.3740    71.9610    61.8750    60.2540    24.9550 
  219.7500   -10.6840     2.2710    67.4970    75.0120    64.6550    64.2990    24.7230 
  219.8750   -10.7950     2.3150    63.7000    80.7580    69.5660    66.1730    24.7630 
  220.0000   -10.7450     2.3860    60.6660    88.2080    76.1330    68.0580    25.0050 
  220.1250   -10.6010     2.4880    59.5240    90.8290    79.7200    74.1680    25.2190 
  220.2500   -10.4600     2.5940    57.4470    81.5300    73.9560   112.1690    25.1000 
  220.3750   -10.2030     2.6750    56.4710    61.2970    57.7710   149.0960    24.8970 
  220.5000    -9.9180     2.7060    58.3300    39.2830    38.1910   113.2040    24.7430 
  220.6250    -9.6470     2.6760    60.9240    23.8300    23.7030    43.4910    24.5250 
  220.7500    -9.2780     2.6140    61.6730    14.5370    14.9080    16.3860    24.2100 
  220.8750    -8.8980     2.5460    61.2300     9.5850    10.1510     7.9200    23.9490 
  221.0000    -8.6040     2.4900    61.8350     7.2810     7.7830     6.1500    23.8030 
  221.1250    -8.2850     2.4540    64.6000     6.5680     6.8530     6.1580    23.7660 
  221.2500    -7.9630     2.4290    65.7600     6.4270     6.5310     6.2310    23.7580 
  221.3750    -7.7030     2.4060    61.5620     6.4020     6.4580     5.9200    23.7560 
  221.5000    -7.5200     2.3850    55.5900     6.2160     6.3600     5.4930    23.7510 
  221.6250    -7.3840     2.3620    56.0080     5.8110     6.1150     5.3790    23.7540 
  221.7500    -7.3370     2.3410    61.0760     5.3990     5.8400     5.2160    23.7760 
  221.8750    -7.4270     2.3230    68.1390     5.1480     5.6710     5.0520    23.8380 
  222.0000    -7.5470     2.3130    79.0670     5.1500     5.6980     4.9160    23.9830 
  222.1250    -7.6760     2.3190    93.7760     5.4610     5.9970     5.2350    24.2940 
  222.2500    -7.8110     2.3360   102.6680     5.9750     6.4890     6.0050    24.6340 
  222.3750    -7.9520     2.3550   101.6990     6.5820     7.0800     6.7970    24.7910 
  222.5000    -8.0620     2.3680    96.6470     7.1400     7.6320     7.0810    24.8450 
  222.6250    -8.1850     2.3690    97.3100     7.4950     7.9760     7.0240    24.9190 
  222.7500    -8.2820     2.3640   103.1710     7.6420     8.1000     7.0970    25.0100 
  222.8750    -8.2360     2.3580   109.2440     7.6390     8.0600     7.2200    25.0410 
  223.0000    -8.1700     2.3570   111.9560     7.5720     7.9430     7.2980    25.0180 
  223.1250    -8.1350     2.3600   109.9220     7.5080     7.8150     7.2850    24.9490 
  223.2500    -8.0620     2.3660   108.0300     7.4700     7.7070     7.2690    24.8870 
  223.3750    -8.0040     2.3710   108.3710     7.4750     7.6370     7.3140    24.8320 
  223.5000    -7.8990     2.3730   109.6800     7.5610     7.6310     7.3090    24.7840 
  223.6250    -7.7010     2.3710   109.6430     7.8000     7.7330     7.5500    24.7420 
  223.7500    -7.4960     2.3670   108.6260     8.1820     7.9330     7.8890    24.7080 
  223.8750    -7.3060     2.3610   106.0930     8.6500     8.1970     8.0810    24.6920 
  224.0000    -7.1270     2.3530   100.4460     9.1000     8.4580     8.3670    24.6490 
  224.1250    -6.9830     2.3440    97.1950     9.3730     8.6090     8.8250    24.5530 
  224.2500    -6.8960     2.3340   100.6440     9.4160     8.6020     9.0660    24.4810 
  224.3750    -6.8760     2.3280   105.6050     9.2880     8.4660     8.4990    24.5230 
  224.5000    -6.9440     2.3290   104.3490     9.1600     8.3190     8.1090    24.5140 
  224.6250    -7.1010     2.3380    98.0840     9.3530     8.3900     8.3190    24.4410 
  224.7500    -7.2860     2.3470    93.8930    10.1140     8.8520     8.6890    24.3390 
  224.8750    -7.4760     2.3470    91.0520    11.6520     9.8750     9.7070    24.3070 
  225.0000    -7.6820     2.3340    88.5140    14.0660    11.5960    12.1010    24.4480 
  225.1250    -7.9360     2.3100    87.3560    17.3540    14.1690    15.7650    24.6780 
  225.2500    -8.1770     2.2890    87.1750    21.0010    17.2890    20.0190    24.7700 
  225.3750    -8.3970     2.2800    85.1180    24.5030    20.5610    24.6050    24.7340 
  225.5000    -8.6100     2.2870    81.6580    27.4360    23.5300    26.6430    24.6000 
  225.6250    -8.8270     2.3010    81.3240    29.7440    25.9520    25.4890    24.4740 
  225.7500    -9.0680     2.3080    83.4080    32.1990    28.3450    26.8130    24.4520 
  225.8750    -9.3080     2.3000    84.3890    35.7050    31.4500    30.4810    24.5780 
  226.0000    -9.4980     2.2770    80.9350    41.2040    36.1390    34.6230    24.7110 
  226.1250    -9.6780     2.2490    74.1970    50.2570    43.9700    40.8580    24.7580 
  226.2500    -9.8810     2.2230    68.7480    66.9520    55.4970    57.4430    24.6870 
  226.3750   -10.0230     2.2050    64.8800    89.0560    70.9520    85.6700    24.5780 
  226.5000   -10.1620     2.1930    62.7020   111.8550    89.4090   106.6220    24.5630 
  226.6250   -10.3130     2.1830    63.2980   134.8100   107.9540   101.3150    24.6570 
  226.7500   -10.4160     2.1730    64.8680   151.7200   122.2970   103.6440    24.7840 
  226.8750   -10.5400     2.1660    65.1350   157.3640   129.0130   114.1280    24.9870 
  227.0000   -10.6560     2.1650    65.2330   150.1760   126.6410   124.2670    25.3100 
  227.1250   -10.6900     2.1740    66.2060   132.4810   115.4990   119.5790    25.4660 
  227.2500   -10.7240     2.1890    67.2040   112.0800   100.6380    97.1800    25.4900 
  227.3750   -10.7380     2.2080    68.1430    93.6690    85.8340    76.6500    25.3810 
  227.5000   -10.6770     2.2260    69.3680    79.8990    73.9560    68.6670    25.1820 
  227.6250   -10.5090     2.2380    70.2410    72.2800    67.0670    60.9510    24.9220 
  227.7500   -10.3450     2.2400    70.4670    68.9610    64.0910    58.8440    24.7970 
  227.8750   -10.1300     2.2340    71.6360    68.1480    63.6220    55.7700    24.7650 
  228.0000    -9.9250     2.2240    73.5120    67.4180    63.5470    62.1760    24.7580 
  228.1250    -9.7320     2.2190    72.2420    63.7750    61.0560    72.6680    24.7410 
  228.2500    -9.4370     2.2210    70.0830    57.1380    55.6930    69.8030    24.7600 
  228.3750    -9.1780     2.2280    69.8810    50.5100    48.9620    53.3210    24.7920 
  228.5000    -9.0100     2.2340    73.0320    44.5150    43.1670    34.2500    24.8070 
  228.6250    -8.9170     2.2320    75.8920    42.2610    40.6730    27.3050    24.8210 
  228.7500    -8.8370     2.2270    74.0530    44.3470    41.8830    26.6330    24.8560 
  228.8750    -8.7980     2.2240    68.1820    50.4700    46.7760    33.9210    24.8860 
  229.0000    -8.6920     2.2290    63.0260    59.0200    54.1860    54.6090    24.8660 
  229.1250    -8.5360     2.2410    62.4660    65.6580    60.5070    77.4950    24.8230 
  229.2500    -8.4680     2.2530    64.8010    66.2880    61.8530    80.0420    24.7680 
  229.3750    -8.3450     2.2580    67.3120    60.7430    57.6170    55.2040    24.6890 
  229.5000    -8.1770     2.2610    68.8480    52.7680    50.7140    31.4750    24.6560 
  229.6250    -8.0010     2.2720    69.7660    47.2640    45.4150    23.9550    24.6930 
  229.7500    -7.8010     2.2960    70.5150    45.9310    43.5860    24.2020    24.7620 
  229.8750    -7.6210     2.3210    71.0950    48.8430    45.5090    30.9760    24.6940 
  230.0000    -7.5130     2.3320    71.9500    55.3280    50.7590    41.8690    24.3150 
  230.1250    -7.5100     2.3150    73.2480    64.1010    58.3910    49.1170    23.6220 
  230.2500    -7.5060     2.2800    73.9970    72.4310    65.9410    52.1450    23.4140 
  230.3750    -7.5590     2.2450    73.8310    78.4410    71.5940    53.2420    23.3270 
  230.5000    -7.5870     2.2220    73.2510    81.6570    74.7170    54.5840    23.0500 
  230.6250    -7.6010     2.2110    72.4660    82.9750    75.9050    56.6360    22.8060 
