~V
VERS. 2.00: Ver 2.00
~W
STRT.M 55.0000:
STOP.M 285.0000:
STEP.M 0.1250:
NULL. -999.2500:
UWI. DF32159:
~C
DEPT.M :
GR.API :
CALI.CM :
RXO.OHMM :
RI. :
RML.OHMM :
DEN.GM/CC :
SP.MV :
~A
# ...
  111.2500    72.6870    25.1740     9.0360     6.8740     8.8450     2.1870   -28.7810 
  111.3750    77.1950    25.2230     9.0010     6.7380     8.4850     2.1990   -28.9890 
  111.5000    81.6410    25.2780     8.9440     6.5900     8.1090     2.2010   -29.2660 
  111.6250    82.7530    25.3230     8.8570     6.4640     7.9030     2.1930   -29.5610 
  111.7500    79.9950    25.3490     8.7530     6.3890     7.9290     2.1870   -29.8270 
  111.8750    75.1790    25.3380     8.6830     6.3890     8.1530     2.1840   -30.0490 
  112.0000    70.4980    25.2900     8.7490     6.4660     8.4680     2.1830   -30.2130 
  112.1250    69.7450    25.2330     9.0330     6.6110     8.7480     2.1840   -30.2620 
  112.2500    72.6620    25.1950     9.3840     6.7740     8.9400     2.1850   -30.1960 
  112.3750    75.1560    25.1740     9.6450     6.9140     9.0410     2.1830   -30.0090 
  112.5000    73.4720    25.1660     9.7340     7.0020     9.0510     2.1750   -29.7000 
  112.6250    68.3530    25.1830     9.6700     7.0200     8.9870     2.1700   -29.2780 
  112.7500    66.1770    25.2220     9.5700     7.0030     8.9440     2.1690   -28.8170 
  112.8750    67.2660    25.2650     9.5000     6.9720     8.9720     2.1650   -28.3410 
  113.0000    67.9820    25.2920     9.5050     6.9290     9.0310     2.1590   -27.8900 
  113.1250    66.1440    25.2990     9.5990     6.8350     8.9820     2.1570   -27.5450 
  113.2500    65.1660    25.3000     9.6380     6.6730     8.7570     2.1570   -27.3650 
  113.3750    66.7380    25.3010     9.3370     6.4640     8.4070     2.1520   -27.3470 
  113.5000    69.5740    25.3020     8.6060     6.2700     8.0810     2.1390   -27.4700 
  113.6250    72.5410    25.3040     7.9450     6.1850     7.9710     2.1330   -27.7280 
  113.7500    74.3460    25.3060     7.9900     6.2420     8.1020     2.1440   -28.0610 
  113.8750    74.0470    25.3080     8.7840     6.4310     8.4260     2.1670   -28.4410 
  114.0000    72.3070    25.3090     9.8030     6.7010     8.8320     2.1920   -28.8460 
  114.1250    70.0290    25.3090    10.3460     6.9510     9.1550     2.2050   -29.2470 
  114.2500    68.5690    25.3090    10.3790     7.0990     9.2940     2.2000   -29.6000 
  114.3750    70.0880    25.3090    10.2010     7.1200     9.2480     2.1820   -29.9320 
  114.5000    74.6410    25.3090    10.0250     7.0460     9.0930     2.1670   -30.2710 
  114.6250    77.2930    25.3100     9.8980     6.9400     8.9440     2.1630   -30.6410 
  114.7500    74.7420    25.3130     9.8190     6.8590     8.8710     2.1590   -31.0250 
  114.8750    70.2680    25.3170     9.8440     6.8170     8.8760     2.1520   -31.3990 
  115.0000    67.9280    25.3200     9.9480     6.8080     8.9220     2.1430   -31.7310 
  115.1250    67.3620    25.3240    10.0250     6.8140     8.9880     2.1390   -31.9780 
  115.2500    66.1580    25.3330    10.0300     6.8100     9.0830     2.1420   -32.1330 
  115.3750    65.5610    25.3510     9.9660     6.7850     9.1820     2.1500   -32.1890 
  115.5000    68.4780    25.3690     9.8360     6.7430     9.2310     2.1560   -32.1450 
  115.6250    70.1160    25.3850     9.6730     6.6960     9.1620     2.1500   -31.9900 
  115.7500    66.2370    25.4120     9.5570     6.6630     8.9980     2.1370   -31.7500 
  115.8750    61.4160    25.4630     9.5100     6.6520     8.8120     2.1290   -31.4480 
  116.0000    61.5300    25.5280     9.4980     6.6650     8.6880     2.1360   -31.1160 
  116.1250    65.5950    25.5710     9.4760     6.6960     8.6840     2.1550   -30.7850 
  116.2500    67.8880    25.5840     9.4560     6.7250     8.7270     2.1680   -30.4890 
  116.3750    68.5420    25.5840     9.4530     6.7410     8.7580     2.1710   -30.2400 
  116.5000    68.4230    25.5880     9.4930     6.7600     8.7900     2.1650   -30.0620 
  116.6250    67.8950    25.6090     9.5820     6.7500     8.7740     2.1580   -29.9870 
  116.7500    69.0070    25.6390     9.6200     6.7090     8.7130     2.1560   -30.0250 
  116.8750    71.2560    25.6630     9.5370     6.6390     8.6180     2.1580   -30.1840 
  117.0000    71.5670    25.6740     9.3460     6.5570     8.4830     2.1630   -30.4280 
  117.1250    68.3120    25.6740     9.1360     6.4840     8.2930     2.1690   -30.7300 
  117.2500    65.2130    25.6730     9.0150     6.4320     8.1130     2.1730   -31.0450 
  117.3750    64.3460    25.6710     9.0550     6.3990     8.0240     2.1730   -31.3410 
  117.5000    66.0070    25.6710     9.2520     6.3840     8.0780     2.1710   -31.5740 
  117.6250    68.7080    25.6770     9.4380     6.4010     8.2840     2.1720   -31.6620 
  117.7500    70.1950    25.6980     9.4490     6.4610     8.5730     2.1740   -31.5600 
  117.8750    69.7160    25.7350     9.3650     6.5710     8.9220     2.1730   -31.2050 
  118.0000    68.2640    25.7820     9.4130     6.7260     9.2960     2.1670   -30.5690 
  118.1250    68.2330    25.8200     9.6740     6.8980     9.6020     2.1620   -29.6240 
  118.2500    69.5510    25.8470     9.8880     7.0390     9.7310     2.1610   -28.4220 
  118.3750    71.1960    25.8700     9.9220     7.1080     9.5970     2.1600   -26.9900 
  118.5000    73.1950    25.8930     9.8280     7.0760     9.2190     2.1550   -25.4060 
  118.6250    75.0750    25.9210     9.6420     6.9080     8.6860     2.1510   -23.7860 
  118.7500    75.7830    25.9520     9.2430     6.6270     8.1220     2.1470   -22.2410 
  118.8750    75.5290    25.9830     8.5100     6.2560     7.5500     2.1470   -20.8540 
  119.0000    77.3190    26.0070     7.4920     5.8390     6.9770     2.1580   -19.6820 
  119.1250    82.8070    26.0250     6.4110     5.4440     6.4770     2.1920   -18.7510 
  119.2500    88.7530    26.0470     5.4910     5.1310     6.1150     2.2400   -18.0230 
  119.3750    93.1810    26.0740     4.9480     4.9270     5.9210     2.2900   -17.4880 
  119.5000    97.8760    26.0960     5.0530     4.8280     5.8800     2.3270   -17.0950 
  119.6250   104.4670    26.1050     5.7210     4.8070     5.9270     2.3410   -16.7810 
  119.7500   108.2930    26.1070     6.0590     4.8020     5.9330     2.3420   -16.4760 
  119.8750   105.2180    26.1070     5.6360     4.7800     5.8410     2.3420   -16.1710 
  120.0000    98.4600    26.1070     4.8470     4.7380     5.6810     2.3400   -15.8710 
  120.1250    96.6360    26.1070     4.4480     4.6940     5.5560     2.3290   -15.6280 
  120.2500    98.4610    26.1160     4.5410     4.6650     5.5370     2.3110   -15.4630 
  120.3750    97.7850    26.1450     5.0160     4.6670     5.6310     2.3000   -15.3790 
  120.5000    93.8920    26.1970     5.7450     4.7200     5.8160     2.3000   -15.3870 
  120.6250    92.4290    26.2620     6.3100     4.8850     6.1080     2.3070   -15.5000 
  120.7500    93.9770    26.3190     6.4020     5.1810     6.5310     2.3110   -15.6950 
  120.8750    95.3160    26.3600     6.5260     5.6130     7.1140     2.3190   -15.9410 
  121.0000    95.6540    26.3830     7.6860     6.1320     7.7990     2.3450   -16.1930 
  121.1250    96.1940    26.3730     9.9630     6.5900     8.3470     2.3900   -16.3710 
  121.2500    95.1010    26.3290    11.2910     6.8090     8.5030     2.4300   -16.4510 
  121.3750    93.7970    26.2570    10.5710     6.7070     8.1850     2.4420   -16.4400 
  121.5000    94.3490    26.1760     8.6320     6.3450     7.5500     2.4180   -16.3340 
  121.6250    97.7760    26.1120     7.0970     5.8870     6.9100     2.3650   -16.1500 
  121.7500    99.3590    26.0810     6.2250     5.5060     6.5000     2.3100   -15.9290 
  121.8750    97.2120    26.0810     5.7590     5.2750     6.3740     2.2690   -15.7120 
  122.0000    93.9220    26.0960     5.5060     5.1940     6.4650     2.2490   -15.5530 
  122.1250    92.8470    26.1050     5.4170     5.2170     6.6490     2.2480   -15.5170 
  122.2500    93.3900    26.1080     5.4270     5.2510     6.8000     2.2580   -15.6290 
  122.3750    94.2130    26.1090     5.5060     5.2400     6.8530     2.2690   -15.8910 
