~V
VERS. 2.00: Ver 2.00
~W
STRT.M 62.0000:
STOP.M 318.0000:
STEP.M 0.1250:
NULL. -999.2500:
UWI. DF321:
~C
DEPT.M :
DEN.GM/CC :
SP.MV :
AC.US/MT :
GR.API :
CALI.CM :
RXO.OHMM :
RI. :
RML.OHMM :
~A
# ...
   82.0000     2.2550   -25.6750   389.4240    82.4920    23.7400     9.2510     7.0340    10.0940 
   82.1250     2.2900   -26.0580   379.7780    80.9930    23.6480    11.3390     7.8950    11.5030 
   82.2500     2.3100   -26.4980   375.8270    82.6820    23.5780    11.9880     8.5830    12.5000 
   82.3750     2.3010   -27.0260   376.6250    84.3320    23.4740    11.5790     8.8650    12.7070 
   82.5000     2.2730   -27.5600   380.6180    83.4890    23.3990    11.1290     8.7170    12.1910 
   82.6250     2.2460   -28.1210   387.1700    81.7590    23.3870    10.3870     8.3170    11.3930 
   82.7500     2.2210   -28.7100   395.8270    81.3810    23.4110     9.4790     7.9580    10.7930 
   82.8750     2.1960   -29.2480   406.4820    81.0950    23.4150     9.2170     7.7530    10.5300 
   83.0000     2.1760   -29.7740   418.4270    79.1410    23.4410     9.9010     7.7010    10.5480 
   83.1250     2.1690   -30.1980   430.3810    74.8720    23.5660    10.8270     7.7310    10.6750 
   83.2500     2.1680   -30.6190   441.2400    70.9130    23.7750    11.0880     7.7380    10.7160 
   83.3750     2.1610   -31.0030   450.5420    68.0480    23.9940    10.5190     7.6710    10.5900 
   83.5000     2.1470   -31.3600   458.1990    66.3730    24.3400     9.6570     7.5250    10.3210 
   83.6250     2.1340   -31.6590   463.5560    64.7110    24.7320     9.1990     7.3530    10.0370 
   83.7500     2.1240   -31.8330   465.5910    63.0140    24.9900     9.0150     7.2360     9.8730 
   83.8750     2.1070   -31.9750   462.3680    62.0400    25.2840     8.9090     7.2120     9.8690 
   84.0000     2.0830   -32.0310   452.7460    62.5940    25.7610     8.7270     7.2790    10.0010 
   84.1250     2.0800   -32.0590   438.1210    63.8910    26.0780     8.5590     7.3980    10.2010 
   84.2500     2.1160   -32.0280   424.9750    64.9900    25.8860     8.4620     7.5020    10.3640 
   84.3750     2.1790   -31.9840   418.9080    66.2100    25.0860     8.3670     7.5460    10.4180 
   84.5000     2.2240   -31.8790   422.5620    68.1460    24.0940     8.1540     7.5120    10.3340 
   84.6250     2.2160   -31.8100   434.4750    69.4700    23.9040     7.9110     7.4160    10.1490 
   84.7500     2.1800   -31.7720   447.4620    70.0330    24.1740     7.7810     7.3140     9.9690 
   84.8750     2.1430   -31.7290   457.0730    71.2440    24.5320     7.8740     7.2430     9.8650 
   85.0000     2.1210   -31.7870   461.6480    72.5130    24.8060     8.2870     7.2260     9.8660 
   85.1250     2.1160   -31.8070   461.5680    71.7610    25.2280     8.9160     7.2650     9.9590 
   85.2500     2.1160   -31.8510   459.5050    70.3100    25.9740     9.4350     7.3250    10.0740 
   85.3750     2.1140   -31.8720   456.9120    71.5610    26.7630     9.7070     7.3840    10.1730 
   85.5000     2.1060   -31.8850   454.8390    75.4690    27.2300     9.8340     7.4330    10.2410 
   85.6250     2.0960   -31.8620   454.3200    77.5050    27.3970     9.9960     7.4750    10.2840 
   85.7500     2.0850   -31.7870   455.3360    75.1010    27.4830    10.1180     7.5260    10.3230 
   85.8750     2.0760   -31.7080   457.2980    70.3680    27.6410    10.0040     7.5930    10.3780 
   86.0000     2.0730   -31.5190   459.2120    67.6570    27.9210     9.6180     7.6790    10.4630 
   86.1250     2.0790   -31.3540   460.0910    67.8160    27.8300     9.2230     7.7800    10.5900 
   86.2500     2.0890   -31.1980   460.0760    69.3040    26.7430     9.0250     7.8840    10.7390 
   86.3750     2.0960   -31.0290   459.8640    70.3770    25.1370     8.9140     7.9710    10.8760 
   86.5000     2.1020   -30.9330   460.3200    69.8560    24.0350     8.8750     8.0130    10.9540 
   86.6250     2.1020   -30.8450   461.7950    67.4700    23.8100     9.1970     7.9690    10.9130 
   86.7500     2.0860   -30.8290   462.9350    65.9110    24.1120     9.7390     7.8500    10.7740 
   86.8750     2.0590   -30.8230   462.0610    67.7800    24.7150     9.8390     7.6940    10.5830 
   87.0000     2.0430   -30.9580   458.3820    73.1340    25.1420     9.1870     7.5540    10.4110 
   87.1250     2.0590   -31.1470   453.0430    78.4010    24.8960     8.6650     7.5020    10.3510 
   87.2500     2.0930   -31.3780   449.0960    79.8230    24.2360     9.1280     7.5470    10.4220 
   87.3750     2.1310   -31.6650   448.3360    78.4410    23.6690    10.1390     7.6680    10.6040 
   87.5000     2.1640   -31.9270   450.6690    76.6450    23.4780    10.7350     7.8260    10.8430 
   87.6250     2.1840   -32.1880   454.2690    73.5340    23.6210    10.5920     7.9690    11.0570 
   87.7500     2.1880   -32.4210   456.9530    69.8550    23.7530    10.1640     8.0640    11.1840 
   87.8750     2.1750   -32.6820   458.2270    67.7380    23.8010     9.9400     8.1070    11.2140 
   88.0000     2.1520   -32.8180   458.5550    67.4170    23.8510    10.1790     8.1040    11.1800 
   88.1250     2.1360   -32.9220   458.5310    66.9400    24.1630    10.6720     8.0690    11.1240 
   88.2500     2.1340   -32.9490   458.4360    66.1340    24.9730    11.0140     8.0110    11.0660 
   88.3750     2.1410   -32.9490   458.3300    66.2800    26.2330    11.1480     7.9400    11.0070 
   88.5000     2.1450   -32.9160   458.3470    67.0490    27.5980    11.1250     7.8680    10.9440 
   88.6250     2.1370   -32.8580   458.5320    68.8510    28.3980    10.9200     7.8100    10.8840 
   88.7500     2.1250   -32.8120   458.5690    70.5360    28.8260    10.6580     7.7720    10.8460 
   88.8750     2.1200   -32.6840   458.1630    70.2030    29.2160    10.5360     7.7550    10.8420 
   89.0000     2.1290   -32.5740   457.3340    67.7370    29.6760    10.7090     7.7530    10.8650 
   89.1250     2.1450   -32.4540   456.5340    66.0730    30.1240    11.0720     7.7620    10.8930 
   89.2500     2.1490   -32.3120   456.1650    65.8630    30.3800    11.3480     7.7700    10.9030 
   89.3750     2.1340   -32.1650   456.1670    64.5160    30.5350    11.3950     7.7740    10.8880 
   89.5000     2.1060   -31.9880   456.1990    61.8530    30.7030    11.2990     7.7750    10.8580 
   89.6250     2.0760   -31.7700   456.0220    61.5970    30.7320    11.2810     7.7850    10.8380 
   89.7500     2.0380   -31.5070   455.9150    63.2500    30.7090    11.3310     7.8180    10.8460 
   89.8750     1.9870   -31.1830   456.1460    63.5330    30.8210    11.3770     7.8830    10.8930 
   90.0000     1.9310   -30.8110   456.3740    62.2630    31.1650    11.3520     7.9850    10.9900 
   90.1250     1.8880   -30.3630   454.8240    63.1370    31.3370    11.1350     8.1320    11.1470 
   90.2500     1.8730   -29.8870   450.0600    65.7220    30.8860    10.7540     8.3050    11.3330 
   90.3750     1.8990   -29.2880   442.1590    68.8930    29.7240    10.4920     8.4910    11.5310 
   90.5000     1.9720   -28.6700   433.5540    71.6990    28.1840    10.7030     8.6690    11.7190 
   90.6250     2.0640   -28.0740   429.2150    72.7600    26.2470    11.4760     8.7720    11.8160 
   90.7500     2.1200   -27.3920   431.1970    71.6590    24.6010    11.4880     8.7350    11.7430 
   90.8750     2.1250   -26.6650   438.2520    69.2610    23.7700    10.6230     8.5060    11.4410 
   91.0000     2.1120   -25.9310   446.5510    67.8570    23.6910     9.6790     8.0670    10.8710 
   91.1250     2.1270   -25.2190   451.3260    70.9040    23.8180     8.5690     7.4400    10.0160 
   91.2500     2.1630   -24.5530   451.6490    77.4530    23.9000     7.5590     6.7740     9.0700 
   91.3750     2.1920   -24.0690   448.6870    84.0420    23.9370     6.8170     6.1970     8.2350 
   91.5000     2.2020   -23.6680   444.1310    90.1640    23.9960     6.4470     5.8120     7.6860 
   91.6250     2.2060   -23.3610   439.2090    98.4530    24.0390     6.3220     5.7470     7.6370 
   91.7500     2.2220   -23.2140   434.9790   105.3030    24.0590     6.7110     6.0010     8.0700 
   91.8750     2.2420   -23.1710   432.6760   104.5820    24.0280     7.4880     6.5300     8.8830 
