~V
VERS. 2.00: Ver 2.00
~W
STRT.M 62.0000:
STOP.M 260.0000:
STEP.M 0.1250:
NULL. -999.2500:
UWI. DF32117:
~C
DEPT.M :
GR.API :
CALI.CM :
RXO.OHMM :
RI. :
RML.OHMM :
DEN.GM/CC :
SP.MV :
~A
# ...
  152.0000    60.5580    25.7650    18.0880    17.8140    20.5350     2.5730   -19.6650 
  152.1250    61.0590    25.7270    17.6930    17.3850    20.0060     2.5930   -19.5350 
  152.2500    61.8940    25.7050    16.2880    16.5030    18.8370     2.6090   -19.4560 
  152.3750    62.9540    25.7300    14.5790    15.2820    17.2250     2.6030   -19.4410 
  152.5000    64.7820    25.7420    13.1130    13.9850    15.5720     2.5740   -19.5330 
  152.6250    65.8720    25.7370    12.0460    12.9570    14.3690     2.5490   -19.7620 
  152.7500    65.6380    25.7400    11.4080    12.3520    13.7760     2.5500   -20.0750 
  152.8750    65.2510    25.7480    11.3690    12.2080    13.7980     2.5670   -20.4230 
  153.0000    64.5040    25.7430    11.9290    12.4570    14.3040     2.5780   -20.7710 
  153.1250    62.6020    25.7370    12.7950    12.9330    15.0440     2.5740   -21.0610 
  153.2500    60.9110    25.7580    13.4530    13.3300    15.6310     2.5640   -21.2710 
  153.3750    60.0320    25.7880    13.5870    13.4440    15.8170     2.5570   -21.3960 
  153.5000    58.4580    25.7930    13.0460    13.2030    15.5240     2.5600   -21.4110 
  153.6250    56.0840    25.7810    11.9280    12.6680    14.8470     2.5670   -21.2770 
  153.7500    55.1910    25.7770    10.8900    12.0500    14.0690     2.5650   -21.0590 
  153.8750    55.1070    25.7750    10.4070    11.4580    13.3440     2.5510   -20.8190 
  154.0000    53.5310    25.7640    10.4450    10.9510    12.7530     2.5360   -20.6090 
  154.1250    50.8330    25.7690    10.3870    10.5780    12.3490     2.5370   -20.4710 
  154.2500    49.3700    25.7990     9.9860    10.3320    12.1110     2.5480   -20.4120 
  154.3750    50.3120    25.8200     9.6870    10.2280    12.0540     2.5550   -20.4530 
  154.5000    52.9530    25.8110     9.8980    10.2670    12.1740     2.5460   -20.6000 
  154.6250    56.1130    25.7940    10.4660    10.4400    12.4310     2.5220   -20.8890 
  154.7500    57.5970    25.7950    10.9400    10.6600    12.7010     2.5020   -21.2620 
  154.8750    56.9530    25.7940    11.1750    10.8460    12.8850     2.4990   -21.6630 
  155.0000    55.8270    25.7870    11.1300    10.9260    12.9130     2.5090   -22.0600 
  155.1250    56.6290    25.7630    10.8370    10.8680    12.7820     2.5180   -22.4340 
  155.2500    57.8700    25.8010    10.5620    10.7490    12.6160     2.5160   -22.7630 
  155.3750    56.8860    25.8860    10.4650    10.6320    12.4880     2.5120   -23.0150 
  155.5000    54.2330    25.8370    10.5920    10.5490    12.4260     2.5150   -23.1790 
  155.6250    53.0680    25.5220    10.9310    10.5120    12.4350     2.5270   -23.2240 
  155.7500    54.1240    25.1910    11.1570    10.5050    12.4870     2.5370   -23.1960 
  155.8750    56.1440    25.0560    11.0280    10.5120    12.5530     2.5410   -23.1300 
  156.0000    57.8980    25.0530    10.8070    10.5190    12.6130     2.5410   -23.0470 
  156.1250    57.2510    24.9890    11.0530    10.5180    12.6420     2.5480   -22.9530 
  156.2500    54.4060    24.8880    11.4120    10.4880    12.6020     2.5620   -22.8800 
  156.3750    51.8170    24.8030    11.3120    10.4030    12.4630     2.5740   -22.8590 
  156.5000    52.6440    24.7610    10.7520    10.2610    12.2350     2.5750   -22.9100 
  156.6250    57.5900    24.7540    10.2340    10.1040    11.9990     2.5650   -23.0670 
  156.7500    62.1060    24.7530     9.9710    10.0040    11.8680     2.5530   -23.2920 
  156.8750    63.0540    24.7520     9.9590    10.0200    11.9290     2.5470   -23.5590 
  157.0000    61.3570    24.7540    10.2730    10.1760    12.2040     2.5460   -23.8450 
  157.1250    60.4350    24.7560    10.8790    10.4560    12.6310     2.5470   -24.1200 
  157.2500    61.6540    24.7490    11.3540    10.7510    13.0220     2.5460   -24.3300 
  157.3750    65.0160    24.7200    11.4370    10.9830    13.2450     2.5460   -24.4220 
  157.5000    68.7250    24.6660    11.1510    11.1080    13.2420     2.5500   -24.3490 
  157.6250    67.8520    24.5970    10.8300    11.1190    13.0300     2.5580   -24.0530 
  157.7500    62.5630    24.5590    10.8440    11.0830    12.7430     2.5750   -23.6100 
  157.8750    58.8250    24.6080    11.1720    11.0430    12.4550     2.5880   -23.0940 
  158.0000    59.9550    24.7320    11.3350    11.0200    12.2030     2.5930   -22.5470 
  158.1250    62.3290    24.8180    10.8730    11.0130    12.0090     2.5890   -22.0170 
  158.2500    61.8850    24.8120    10.1730    11.0120    11.8760     2.5840   -21.5420 
  158.3750    61.0060    24.7680     9.6900    11.0190    11.8190     2.5820   -21.1470 
  158.5000    61.8880    24.7490     9.5030    11.0430    11.8380     2.5780   -20.8610 
  158.6250    61.8020    24.7540     9.4480    11.0660    11.8870     2.5580   -20.7080 
  158.7500    58.7230    24.7570     9.4240    11.0250    11.8540     2.5240   -20.6450 
  158.8750    56.4770    24.7590     9.4380    10.8350    11.6190     2.4890   -20.6170 
  159.0000    58.3320    24.7540     9.3850    10.4290    11.1020     2.4670   -20.5960 
  159.1250    61.3880    24.7540     8.9940     9.8130    10.3310     2.4570   -20.5770 
  159.2500    61.0780    24.8010     8.2650     9.2130     9.6200     2.4460   -20.5740 
  159.3750    60.2000    24.9040     7.4550     8.8900     9.3340     2.4320   -20.6040 
  159.5000    61.5980    25.0140     7.0630     9.1160     9.8610     2.4220   -20.6900 
  159.6250    63.9870    25.0620     8.3680    10.3910    11.8580     2.4180   -20.8990 
  159.7500    66.1650    25.0690    12.7630    13.0530    15.5960     2.4100   -21.2060 
  159.8750    70.0920    25.0880    21.1100    17.6210    21.4480     2.3890   -21.5940 
  160.0000    76.5780    25.1330    31.0910    24.4180    29.4970     2.3540   -22.0520 
  160.1250    78.7600    25.1840    37.4830    33.1190    39.0680     2.3210   -22.5730 
  160.2500    75.1010    25.2130    39.8840    41.6450    47.9010     2.3040   -23.1090 
  160.3750    71.0610    25.2220    40.5930    48.4090    54.3830     2.3020   -23.6450 
  160.5000    71.4310    25.2220    41.2450    53.1500    58.5450     2.3040   -24.1530 
  160.6250    73.6230    25.2210    43.0960    56.9800    62.0290     2.2970   -24.5660 
  160.7500    72.9060    25.2210    46.4320    61.3660    66.4860     2.2840   -24.8980 
  160.8750    71.0260    25.2210    50.2600    66.5200    72.0180     2.2710   -25.1530 
  161.0000    70.5620    25.2210    53.3980    71.4800    77.2860     2.2600   -25.3270 
  161.1250    69.6660    25.2210    55.1720    73.1810    78.2270     2.2470   -25.4210 
  161.2500    68.9390    25.2210    53.6740    69.1810    72.0450     2.2370   -25.4740 
  161.3750    71.2170    25.2210    46.0780    59.3890    59.6620     2.2380   -25.5020 
  161.5000    76.0630    25.2210    33.7650    47.0190    45.7610     2.2530   -25.5020 
  161.6250    79.5040    25.2210    22.7240    36.7050    35.4290     2.2780   -25.4860 
  161.7500    81.2180    25.2240    15.7490    30.1490    29.5400     2.3000   -25.4740 
  161.8750    83.0430    25.2300    12.8040    27.4300    27.8100     2.3100   -25.4880 
  162.0000    84.6960    25.2360    14.4070    28.2830    29.8460     2.3040   -25.5410 
  162.1250    82.1830    25.2280    22.8380    33.0370    36.0020     2.2900   -25.6440 
  162.2500    76.2610    25.1870    34.8030    40.6260    45.1690     2.2830   -25.7950 
  162.3750    71.0540    25.1260    43.5280    49.6860    55.7430     2.2830   -26.0000 
  162.5000    70.8070    25.0760    45.4910    57.9410    64.9320     2.2830   -26.2710 
  162.6250    75.9170    25.0350    44.3560    62.8780    69.8550     2.2740   -26.6190 
  162.7500    80.0330    24.9830    44.5060    65.1470    71.8570     2.2670   -26.9940 
  162.8750    81.3680    24.9300    45.6430    66.2200    72.9070     2.2680   -27.3640 
  163.0000    80.3990    24.9060    46.7290    67.3170    74.3530     2.2770   -27.7050 
  163.1250    78.6470    24.9080    46.9850    69.1010    76.8340     2.2780   -28.0010 
