~V
VERS. 2.00: Ver 2.00
~W
STRT.M 62.0000:
STOP.M 282.0000:
STEP.M 0.1250:
NULL. -999.2500:
UWI. DF32160:
~C
DEPT.M :
GR.API :
CALI.CM :
RXO.OHMM :
RI. :
RML.OHMM :
DEN.GM/CC :
SP.MV :
~A
# ...
  275.7500    98.4690    25.5980     7.3010     8.2190     9.0800     2.3490   -10.5990 
  275.8750    98.4690    25.5980     8.0930     8.2190     9.0800     2.3290   -10.1620 
  276.0000    98.4690    25.6000     8.6000     8.2190     9.0800     2.2940    -9.9070 
  276.1250    98.4690    25.5980     8.6910     8.2190     9.0800     2.2640    -9.8840 
  276.2500    98.4690    25.5660     8.6470     8.2190     9.0800     2.2470   -10.0330 
  276.3750    98.4690    25.5070     8.4960     8.2190     9.0800     2.2380   -10.3300 
  276.5000    98.4690    25.4550     8.1520     8.2190     9.0800     2.2310   -10.7060 
  276.6250    98.4690    25.4390     7.7100     8.2190     9.0800     2.2330   -11.0860 
  276.7500    98.4690    25.4430     7.4410     8.2190     9.0800     2.2500   -11.4270 
  276.8750    98.4690    25.4390     7.5190     8.2190     9.0800     2.2760   -11.6920 
  277.0000    98.4690    25.4090     7.9310     8.2190     9.0800     2.2940   -11.8630 
  277.1250    98.4690    25.3540     8.2710     8.2190     9.0800     2.2920   -11.9320 
  277.2500    98.4690    25.3030     8.1360     8.2190     9.0800     2.2820   -11.9550 
  277.3750    98.4690    25.2600     7.7580     8.2190     9.0800     2.2780   -11.9830 
  277.5000    98.4690    25.2090     7.7750     8.2190     9.0800     2.2790   -12.0380 
  277.6250    98.4690    25.1490     8.6280     8.2190     9.0800     2.2800   -12.1100 
  277.7500    98.4690    25.0860     9.7410     8.2190     9.0800     2.2800   -12.2110 
  277.8750    98.4690    24.9970    10.5510     8.2190     9.0800     2.2850   -12.3620 
  278.0000    98.4690    24.8510    10.8940     8.2190     9.0800     2.2970   -12.5670 
  278.1250    98.4690    24.6570    10.5750     8.2190     9.0800     2.3090   -12.8230 
  278.2500    98.4690    23.7270     9.3370     8.2190     9.0800     2.3020   -13.0990 
  278.3750    98.4690    21.4390     7.3780     8.2190     9.0800     2.2580   -13.3390 
  278.5000    98.4690    18.4700     5.5980     8.2190     9.0800     2.1820   -13.5110 
  278.6250    98.4690    16.6470     4.8380     8.2190     9.0800     2.1120   -13.6200 
  278.7500    98.4690    16.2320     4.6960     8.2190     9.0800     2.0820   -13.6650 
  278.8750    98.4690    16.3270     4.7180     8.2190     9.0800     2.0890   -13.6650 
  279.0000    98.4690    16.3310     4.7220     8.2190     9.0800     2.1100   -13.6650 
  279.1250    98.4690    16.3310     4.7190     8.2190     9.0800     2.1210  -999.2500 
  279.2500    98.4690    16.3310     4.7180     8.2190     9.0800     2.1220  -999.2500 
  279.3750    98.4690    16.3310     4.7180     8.2190     9.0800     2.1160  -999.2500 
  279.5000    98.4690    16.3740     4.7190     8.2190     9.0800     2.1100  -999.2500 
  279.6250    98.4690    16.1520     4.7190     8.2190     9.0800     2.1050  -999.2500 
  279.7500    98.4690    16.7280     4.7190     8.2190     9.0800     2.1050  -999.2500 
  279.8750    98.4690    19.4340     4.7200     8.2190     9.0800     2.1080  -999.2500 
  280.0000    98.4690    23.4810     4.7210     8.2190     9.0800     2.1120  -999.2500 
  280.1250    98.4690    25.9330     4.7210     8.2190     9.0800     2.1130  -999.2500 
  280.2500    98.4690    26.2590     4.7210     8.2190     9.0800     2.1150  -999.2500 
  280.3750    98.4690    25.9560     4.7210     8.2190     9.0800     2.1150  -999.2500 
  280.5000  -999.2500  -999.2500  -999.2500  -999.2500  -999.2500     2.1110  -999.2500 
  280.6250  -999.2500  -999.2500  -999.2500  -999.2500  -999.2500     2.1040  -999.2500 
  280.7500  -999.2500  -999.2500  -999.2500  -999.2500  -999.2500     2.1010  -999.2500 
  280.8750  -999.2500  -999.2500  -999.2500  -999.2500  -999.2500     2.1040  -999.2500 
  281.0000  -999.2500  -999.2500  -999.2500  -999.2500  -999.2500     2.1110  -999.2500 
  281.1250  -999.2500  -999.2500  -999.2500  -999.2500  -999.2500     2.1150  -999.2500 
  281.2500  -999.2500  -999.2500  -999.2500  -999.2500  -999.2500     2.1150  -999.2500 
  281.3750  -999.2500  -999.2500  -999.2500  -999.2500  -999.2500     2.1090  -999.2500 
  281.5000  -999.2500  -999.2500  -999.2500  -999.2500  -999.2500     2.0990  -999.2500 
  281.6250  -999.2500  -999.2500  -999.2500  -999.2500  -999.2500     2.0920  -999.2500 
  281.7500  -999.2500  -999.2500  -999.2500  -999.2500  -999.2500     2.0940  -999.2500 
  281.8750  -999.2500  -999.2500  -999.2500  -999.2500  -999.2500     2.1030  -999.2500 
  282.0000  -999.2500  -999.2500  -999.2500  -999.2500  -999.2500     2.1130  -999.2500 
