~V
VERS. 2.00: Ver 2.00
~W
STRT.M 62.0000:
STOP.M 235.0000:
STEP.M 0.1250:
NULL. -999.2500:
UWI. DF32059:
~C
DEPT.M :
SP.MV :
GR.API :
CALI.CM :
RXO.OHMM :
RI. :
RML.OHMM :
DEN.GM/CC :
~A
# ...
  163.2500   -31.2260    73.1130    23.4640   117.6660   144.9120   151.6250     2.2170 
  163.3750   -31.4610    73.5920    23.3840   123.8160   152.7300   159.8380     2.2230 
  163.5000   -31.6960    73.5830    23.4970   130.8560   165.5830   173.3410     2.2250 
  163.6250   -31.8690    71.8630    23.7710   137.0340   178.8030   187.2280     2.2170 
  163.7500   -32.0520    69.3560    24.0710   157.3090   185.0140   193.7530     2.2020 
  163.8750   -32.2220    66.8960    24.2610   190.9830   180.4980   189.0090     2.1880 
  164.0000   -32.4030    65.0450    24.0800   196.6150   167.7480   175.6150     2.1870 
  164.1250   -32.5300    64.1750    23.9600   145.7970   154.8210   162.0350     2.1960 
  164.2500   -32.6500    65.6330    23.8870    87.0950   149.3820   156.3210     2.2020 
  164.3750   -32.7660    67.6460    23.8930    73.0300   154.6560   161.8620     2.1980 
  164.5000   -32.8910    67.9440    23.9000   121.5750   169.9500   177.9280     2.1890 
  164.6250   -33.0130    66.3600    23.8990   218.0500   190.8200   199.8520     2.1800 
  164.7500   -33.1350    65.3720    23.8970   259.3740   208.7500   218.6880     2.1760 
  164.8750   -33.2300    66.5810    23.8920   222.7380   218.2740   228.6920     2.1750 
  165.0000   -33.2880    69.9840    23.8850   166.7070   218.9790   229.4340     2.1780 
  165.1250   -33.3240    72.7280    23.8830   145.0690   216.1780   226.4910     2.1800 
  165.2500   -33.3300    72.3270    23.8780   157.8190   216.2800   226.5980     2.1810 
  165.3750   -33.3090    68.4380    23.8740   191.5790   220.1040   230.6150     2.1840 
  165.5000   -33.2510    63.9820    23.8690   224.2370   225.0980   235.8620     2.1870 
  165.6250   -33.1870    62.2740    23.8790   226.2480   227.5160   238.4010     2.1850 
  165.7500   -33.0740    63.1680    23.8850   211.6560   226.5200   237.3560     2.1810 
  165.8750   -32.9480    65.8060    23.8910   201.3080   223.5340   234.2190     2.1790 
  166.0000   -32.8000    67.3240    23.8830   202.9100   221.0320   231.5910     2.1800 
  166.1250   -32.6470    65.8490    23.8750   200.3150   221.3400   231.9140     2.1830 
  166.2500   -32.4860    64.0850    23.8530   190.6850   224.2820   235.0050     2.1860 
  166.3750   -32.3100    65.0530    23.7930   191.9910   229.3020   240.2780     2.1910 
  166.5000   -32.1230    67.7870    23.7520   207.3600   235.8940   247.2030     2.1950 
  166.6250   -31.9380    68.1050    23.8280   219.3430   243.9300   255.6440     2.1980 
  166.7500   -31.7870    65.3400    24.0620   226.1990   252.6020   264.7550     2.2010 
  166.8750   -31.6540    62.6620    24.2630   230.8030   259.6120   272.1190     2.2030 
  167.0000   -31.5370    62.7090    24.3640   230.1890   260.4850   273.0360     2.2000 
  167.1250   -31.3950    65.7500    24.2510   218.1430   249.6480   261.6520     2.1910 
  167.2500   -31.2590    67.3710    24.0560   202.9850   230.0440   241.0570     2.1880 
  167.3750   -31.1510    65.8300    24.0470   198.1830   206.6520   216.4840     2.1940 
  167.5000   -31.0860    62.6320    24.3220   221.3100   184.8890   193.6210     2.2040 
  167.6250   -31.0400    60.7110    24.4410   288.4690   169.6450   177.6080     2.2160 
  167.7500   -31.0060    60.8830    24.3800   310.6770   160.8200   168.3380     2.2300 
  167.8750   -30.9910    62.9550    24.2090   251.2730   157.0860   164.4140     2.2410 
  168.0000   -30.9880    66.4290    24.1170   169.7800   156.6970   164.0060     2.2440 
  168.1250   -31.0220    68.8200    24.1910   136.2310   158.0140   165.3900     2.2330 
  168.2500   -31.0980    67.9490    24.2510   134.7300   158.7140   166.1250     2.2180 
  168.3750   -31.1690    65.1570    24.2390   140.5500   157.2770   164.6150     2.2090 
  168.5000   -31.2440    63.0020    24.2030   142.9300   152.7550   159.8650     2.2130 
  168.6250   -31.2700    63.1900    24.1580   132.0650   144.0030   150.6710     2.2260 
  168.7500   -31.2810    64.8500    24.1140   114.9240   132.3190   138.3970     2.2310 
  168.8750   -31.2590    66.1160    24.0940   100.3210   120.0330   125.4900     2.2270 
  169.0000   -31.2260    66.7990    24.0690    91.1260   110.1060   115.0620     2.2180 
  169.1250   -31.1530    67.5270    24.0010    84.7300   105.8770   110.6190     2.2130 
  169.2500   -31.0150    68.5770    23.9190    82.3670   107.7410   112.5780     2.2130 
  169.3750   -30.8600    69.0360    23.9060    96.0370   115.3140   120.5330     2.2140 
  169.5000   -30.6650    68.7850    23.9550   126.7910   126.3540   132.1310     2.2120 
  169.6250   -30.5060    69.5320    23.9750   155.2370   135.9070   142.1660     2.2090 
  169.7500   -30.3080    69.7460    23.9210   162.5890   139.5730   146.0170     2.2110 
  169.8750   -30.1280    67.6520    23.9100   149.4830   136.4600   142.7470     2.2200 
  170.0000   -29.9450    65.1430    23.9920   124.8860   129.5010   135.4360     2.2280 
  170.1250   -29.7950    65.4180    23.9970   103.6400   124.4200   130.0990     2.2280 
  170.2500   -29.6730    66.1200    23.8950    97.9010   124.9690   130.6750     2.2250 
  170.3750   -29.5700    64.4190    23.9040   110.9810   132.0330   138.0960     2.2230 
  170.5000   -29.5060    60.8740    24.1230   136.4940   144.2270   150.9060     2.2220 
  170.6250   -29.4280    56.5890    24.2870   155.8720   157.9390   165.3110     2.2170 
  170.7500   -29.4050    53.0530    24.3210   163.0200   168.2700   176.1630     2.2090 
  170.8750   -29.3870    51.9790    24.3140   161.7230   172.7650   180.8850     2.2000 
  171.0000   -29.3780    53.7680    24.3110   154.5110   172.2920   180.3880     2.1950 
  171.1250   -29.3530    55.9090    24.3110   146.3520   171.2740   179.3040     2.1940 
  171.2500   -29.2680    56.4130    24.3110   146.0650   175.0570   184.8180     2.1930 
  171.3750   -29.1050    57.0120    24.3110   156.8260   187.4130   198.8190     2.1890 
  171.5000   -28.8290    59.1690    24.3110   179.6970   211.3220   224.7030     2.1810 
  171.6250   -28.4410    61.6850    24.3110   226.7040   250.9790   268.5570     2.1790 
  171.7500   -27.9350    59.6030    24.3040   311.0180   301.4310   327.7630     2.1930 
  171.8750   -27.3140    53.2060    24.2740   415.3050   351.5010   391.0240     2.2270 
  172.0000   -26.5900    48.2000    24.3320   497.8760   380.9060   429.3660     2.2730 
  172.1250   -25.7560    50.0630    24.5060   507.7220   363.1400   400.2710     2.3020 
  172.2500   -24.8880    55.1360    24.6560   442.4750   310.1520   326.7390     2.3010 
  172.3750   -24.0070    58.8610    24.5150   325.9210   244.9300   248.0690     2.2720 
  172.5000   -23.1500    59.8360    24.3110   212.8820   187.1820   187.3370     2.2310 
  172.6250   -22.3230    59.8450    24.2190   146.7310   147.3570   149.8640     2.2020 
  172.7500   -21.5420    59.8010    24.1500   110.0970   121.0770   126.0290     2.1920 
  172.8750   -20.8070    58.3040    24.1090    91.2780   103.9850   110.2790     2.1950 
  173.0000   -20.1120    56.4300    24.0930    85.1980    91.8630    98.4080     2.1970 
  173.1250   -19.4730    57.6870    24.0900    85.6820    81.7230    87.7820     2.1970 
  173.2500   -18.8550    61.9630    24.0720    80.2030    72.0940    77.4680     2.2020 
  173.3750   -18.2600    66.2800    24.0310    66.8030    63.2900    68.0790     2.2140 
  173.5000   -17.6720    69.8890    24.0000    52.6470    55.9460    60.3980     2.2230 
  173.6250   -17.1000    71.7020    23.9810    46.5210    50.7260    55.0810     2.2250 
  173.7500   -16.5100    69.4320    23.9590    45.8950    47.2280    51.5650     2.2320 
  173.8750   -15.9240    64.8340    23.9310    46.7890    45.1780    49.4730     2.2560 
  174.0000   -15.3350    62.1890    23.9130    46.6290    44.3260    48.4960     2.3000 
  174.1250   -14.7330    63.7140    23.9000    46.8390    44.7410    48.7140     2.3630 
  174.2500   -14.1310    66.0910    23.8730    49.7790    46.2310    50.0590     2.4450 
  174.3750   -13.5420    66.8330    23.8640    58.7390    48.6440    52.5330     2.5420 
