~V
VERS. 2.00: Ver 2.00
~W
STRT.M 50.0000:
STOP.M 264.0000:
STEP.M 0.1250:
NULL. -999.2500:
UWI. DF32158:
~C
DEPT.M :
GR.API :
RML.OHMM :
RI. :
RXO.OHMM :
CALI.CM :
DEN.GM/CC :
SP.MV :
~A
# ...
  185.0000    76.9000    69.2470    66.2570    62.5750    25.1190     2.1760   -28.0400 
  185.1250    75.1150    70.6940    67.8230    64.6090    25.1760     2.1790   -28.0850 
  185.2500    71.6060    72.0540    69.2470    66.9070    25.1580     2.1830   -28.0710 
  185.3750    69.6160    72.5190    69.8530    67.7740    25.1090     2.1940   -28.0440 
  185.5000    70.7510    71.0930    68.7760    71.7770    25.0710     2.2150   -28.0400 
  185.6250    73.6850    66.8390    65.0610    74.9260    24.9890     2.2420   -28.0200 
  185.7500    75.8180    60.9540    59.7130    70.9020    24.7610     2.2570   -27.9810 
  185.8750    75.9340    55.1380    54.2340    58.9600    24.3730     2.2520   -27.9500 
  186.0000    74.2480    51.2410    50.2670    44.2170    23.9890     2.2290   -27.8880 
  186.1250    71.6500    51.3330    49.6970    39.1910    23.8010     2.2030   -27.8340 
  186.2500    68.2360    55.5300    52.7950    41.4050    23.7520     2.1920   -27.8070 
  186.3750    65.1980    63.6470    59.5740    52.5480    23.7600     2.2000   -27.7470 
  186.5000    65.3590    74.4820    69.1290    66.5540    23.8590     2.2180   -27.6530 
  186.6250    69.6980    84.8560    78.8200    76.0170    24.1430     2.2350   -27.5680 
  186.7500    73.5800    91.0240    85.1960    82.4840    24.4800     2.2410   -27.4780 
  186.8750    74.7180    91.6670    86.7810    80.3570    24.6770     2.2390   -27.3930 
  187.0000    74.1760    88.6070    84.7720    70.4130    24.7920     2.2340   -27.3210 
  187.1250    74.6170    85.3560    81.9610    66.7960    24.9490     2.2340   -27.2030 
  187.2500    76.0510    83.9220    80.3280    70.1220    25.0330     2.2370   -27.1160 
  187.3750    76.2510    84.0800    79.8950    74.2460    25.0590     2.2400   -27.0590 
  187.5000    73.9360    84.5650    79.7650    78.3730    25.0600     2.2420   -26.9450 
  187.6250    70.9900    83.6310    78.6440    83.0670    25.0600     2.2410   -26.8540 
  187.7500    71.0050    81.0250    76.2450    79.3140    25.0580     2.2380   -26.8160 
  187.8750    73.7870    77.7780    73.2850    69.6140    25.0520     2.2340   -26.7360 
  188.0000    77.4970    75.6460    71.2180    63.5620    25.0410     2.2270   -26.6310 
  188.1250    80.5150    76.8010    71.9370    63.3540    24.9670     2.2190   -26.5770 
  188.2500    80.9480    81.4420    75.7090    66.6280    24.7510     2.2140   -26.4820 
  188.3750    77.8440    88.8680    82.1870    75.1970    24.4890     2.2160   -26.3650 
  188.5000    72.8210    96.9480    89.7440    92.9980    24.4810     2.2240   -26.3220 
  188.6250    71.7670   101.4120    94.6560   113.5980    24.9110     2.2310   -26.2530 
  188.7500    74.7060    99.8380    94.3920   112.0750    25.2320     2.2290   -26.1530 
  188.8750    78.4210    92.5060    88.7370    95.4820    25.3680     2.2190   -26.1080 
  189.0000    81.6260    82.1510    79.7230    80.5220    25.4060     2.2080   -26.0800 
  189.1250    82.5160    72.5020    70.6860    67.5250    25.4410     2.2080   -26.0720 
  189.2500    79.4500    65.5790    64.0130    62.9180    25.5160     2.2210   -26.0690 
  189.3750    75.3940    61.6830    60.2520    61.0090    25.6200     2.2440   -26.1080 
  189.5000    74.5420    60.3840    59.0620    61.0450    25.7320     2.2690   -26.1480 
  189.6250    77.5090    61.2210    59.9600    64.6990    25.8160     2.2820   -26.2010 
  189.7500    79.8300    62.9670    61.5920    72.0360    25.6980     2.2770   -26.3050 
  189.8750    80.7220    64.6970    62.9840    71.1850    25.3990     2.2560   -26.4300 
  190.0000    80.7160    65.5160    63.4330    67.5400    25.4480     2.2260   -26.5630 
  190.1250    80.1380    64.5700    62.3300    64.6130    26.0660     2.2020   -26.6540 
  190.2500    78.0670    62.3950    60.1610    63.7440    26.4450     2.1940   -26.7880 
  190.3750    74.7590    60.0610    57.8620    57.4620    26.1000     2.1990   -26.9080 
  190.5000    71.9880    58.9110    56.5830    52.8910    25.2370     2.2090   -26.9840 
  190.6250    70.7300    60.5090    57.6750    53.5770    24.4840     2.2140   -27.1150 
  190.7500    68.8770    65.0420    61.3450    58.7640    23.9290     2.2130   -27.2370 
  190.8750    67.3600    72.3050    67.4840    72.0580    23.6770     2.2120   -27.2920 
  191.0000    68.2410    81.1590    75.1840    88.9550    23.6130     2.2170   -27.3550 
  191.1250    69.5830    88.6160    81.9810    99.1320    23.6170     2.2330   -27.4320 
  191.2500    68.8550    91.3690    85.0030    97.4020    23.6300     2.2550   -27.4390 
  191.3750    68.6630    87.8100    82.7050    90.2280    23.6580     2.2730   -27.4460 
  191.5000    71.3900    79.1940    75.8310    80.8650    23.6940     2.2800   -27.4560 
  191.6250    76.0470    68.9500    67.0260    69.9650    23.7330     2.2710   -27.4240 
  191.7500    79.4340    60.2930    59.2560    57.5800    23.7440     2.2560   -27.4110 
  191.8750    81.7420    54.2160    53.5910    45.8180    23.7540     2.2430   -27.4150 
  192.0000    84.5400    50.6750    50.1130    48.1680    23.8180     2.2420   -27.4280 
  192.1250    87.3760    49.2700    48.5520    52.0380    23.9850     2.2540   -27.4690 
  192.2500    88.1320    48.8070    47.9460    55.7180    24.0780     2.2680   -27.5350 
  192.3750    87.7380    48.6000    47.6950    54.6000    23.9530     2.2780   -27.6170 
  192.5000    86.9840    48.1450    47.2920    50.6290    23.7370     2.2820   -27.7310 
  192.6250    85.9620    47.1720    46.4480    48.7540    23.6280     2.2860   -27.8390 
  192.7500    84.1140    45.9450    45.3010    47.4300    23.5240     2.2940   -27.9360 
  192.8750    83.0770    44.8220    44.0710    46.5030    23.3010     2.3040   -28.0370 
  193.0000    83.4040    44.1360    43.0630    45.1880    23.0340     2.3120   -28.0900 
  193.1250    83.3850    44.4100    42.7520    42.7730    22.8700     2.3110   -28.1560 
  193.2500    83.6890    46.0630    43.5290    40.8480    22.7550     2.3020   -28.2480 
  193.3750    83.3870    49.7250    46.0020    40.2230    22.5610     2.2870   -28.2880 
  193.5000    79.8310    55.9830    50.8000    40.5850    22.3100     2.2660   -28.3490 
  193.6250    73.5480    65.6520    58.8470    42.9200    22.2640     2.2410   -28.4500 
  193.7500    67.4720    77.9310    69.5670    53.4410    22.6550     2.2200   -28.4920 
  193.8750    62.2010    91.6970    82.0270    77.2240    23.4850     2.2050   -28.5430 
  194.0000    59.7570   105.0460    94.4710    95.7520    24.5060     2.2000   -28.6580 
  194.1250    62.4880   115.0550   104.1730    93.1620    25.2960     2.1990   -28.7030 
  194.2500    65.8990   120.4800   109.8730    85.1470    25.8120     2.1980   -28.6830 
  194.3750    65.1430   120.7930   111.0290    91.1870    26.0170     2.1990   -28.6800 
  194.5000    62.2740   116.2390   107.7870   103.5850    25.9630     2.2070   -28.6070 
  194.6250    63.2450   107.0710   100.2150   104.2710    25.9060     2.2300   -28.4820 
  194.7500    67.3650    95.1990    89.9120    91.1650    25.8770     2.2640   -28.3820 
  194.8750    72.4630    82.1300    78.1890    74.1070    25.8820     2.2980   -28.2360 
  195.0000    75.7400    69.7560    66.8180    59.5430    25.9260     2.3180   -28.0620 
  195.1250    76.8910    60.3630    58.0000    53.8460    26.0950     2.3160   -27.8940 
  195.2500    77.4630    54.5530    52.4340    47.0770    26.3180     2.2990   -27.7730 
  195.3750    76.0240    52.5840    50.3440    43.7110    26.4150     2.2780   -27.6780 
  195.5000    70.3340    54.2540    51.5440    43.4320    26.1930     2.2580   -27.6080 
  195.6250    64.3650    59.2500    55.9880    52.4350    25.8480     2.2440   -27.6010 
  195.7500    64.9200    65.7520    62.2270    65.6850    25.6810     2.2340   -27.5960 
  195.8750    70.6430    72.2570    68.9250    74.6070    25.6790     2.2300   -27.6010 
  196.0000    74.1680    77.3870    74.7210    76.6740    25.5770     2.2330   -27.6130 
  196.1250    71.8180    80.1340    78.3150    76.6740    25.3930     2.2460   -27.6960 
