~V
VERS. 2.00: Ver 2.00
~W
STRT.M 60.0000:
STOP.M 270.0000:
STEP.M 0.1250:
NULL. -999.2500:
UWI. DF32131:
~C
DEPT.M :
DEN.GM/CC :
GR.API :
CALI.CM :
RXO.OHMM :
RI. :
RML.OHMM :
SP.MV :
~A
# ...
  183.7500     2.2400    66.8040    24.9490   138.2420   180.1000   190.5360   -30.0170 
  183.8750     2.2480    65.7780    24.9490   132.2790   186.5690   197.0530   -30.0250 
  184.0000     2.2480    64.5550    24.9490   134.6840   194.9570   205.9490   -30.0020 
  184.1250     2.2400    64.6280    24.9490   152.3510   202.5710   214.3270   -29.9820 
  184.2500     2.2380    66.3160    24.9490   171.5810   205.7070   217.7660   -29.9440 
  184.3750     2.2440    68.3890    24.9490   185.1800   202.8110   214.3410   -29.9150 
  184.5000     2.2530    69.6920    24.9490   188.5060   195.6180   206.0720   -29.9470 
  184.6250     2.2550    69.0940    24.9490   176.8180   188.8130   198.1430   -30.0610 
  184.7500     2.2510    67.5670    24.9490   161.2540   186.9430   195.1790   -30.2060 
  184.8750     2.2450    65.6210    24.9490   157.9360   192.0060   199.3010   -30.4060 
  185.0000     2.2430    64.2530    24.9490   176.1700   202.4490   209.5710   -30.6480 
  185.1250     2.2480    63.8330    24.9440   201.7680   211.7940   219.7470   -30.9290 
  185.2500     2.2610    64.3960    24.9240   219.2950   212.6970   220.7810   -31.2400 
  185.3750     2.2780    64.7130    24.8880   221.5100   202.3200   208.8160   -31.5600 
  185.5000     2.2890    64.1390    24.8640   207.0290   183.7900   188.2160   -31.7710 
  185.6250     2.2840    64.9610    24.8570   178.7240   164.6360   168.3730   -31.8260 
  185.7500     2.2730    67.5850    24.8570   151.3550   150.8660   154.8120   -31.7130 
  185.8750     2.2750    70.7000    24.8550   134.8600   144.1810   148.4790   -31.4080 
  186.0000     2.3060    72.6620    24.8370   131.7370   144.5060   149.0640   -30.9900 
  186.1250     2.3690    72.7320    24.7500   136.5910   152.5430   157.4180   -30.3800 
  186.2500     2.4260    71.1210    24.6090   144.5170   166.5380   172.1290   -29.6510 
  186.3750     2.4410    66.6790    24.4970   160.4070   185.4710   192.4190   -28.8310 
  186.5000     2.4000    60.8380    24.4670   201.5500   208.0170   216.9990   -28.0010 
  186.6250     2.3300    57.4870    24.5680   250.0740   231.9800   243.7810   -27.2000 
  186.7500     2.2730    57.3830    24.7970   260.2570   252.1470   266.8350   -26.4460 
  186.8750     2.2410    59.8870    25.0630   232.0030   260.9970   276.2360   -25.7820 
  187.0000     2.2290    62.9390    25.2080   220.5650   252.0340   263.2400   -25.0980 
  187.1250     2.2260    63.9150    25.2370   237.6360   224.3640   230.0020   -24.5620 
  187.2500     2.2250    63.1970    25.2370   229.3810   191.4890   195.1660   -24.0790 
  187.3750     2.2300    62.0890    25.2260   168.1410   163.4440   168.5020   -23.6640 
  187.5000     2.2420    62.3840    25.1880    99.7070   146.2430   153.3870   -23.2860 
  187.6250     2.2520    63.1010    25.1110    83.7170   145.0050   152.5270   -22.9880 
  187.7500     2.2550    63.1760    25.0800   106.0440   158.5730   164.8540   -22.7340 
  187.8750     2.2490    63.0650    25.1080   150.2630   187.0580   192.4800   -22.4790 
  188.0000     2.2400    63.1450    25.1860   193.1190   228.5980   237.5390   -22.2610 
  188.1250     2.2310    63.0460    25.2090   217.8190   275.5410   297.2210   -21.9710 
  188.2500     2.2180    61.5420    25.1850   232.3250   312.0380   348.6130   -21.6630 
  188.3750     2.2030    59.3290    25.1430   240.6140   326.9600   370.1480   -21.3000 
  188.5000     2.1960    57.7930    25.0990   238.4240   320.4190   360.9030   -20.8820 
  188.6250     2.2060    56.2720    25.0310   223.5770   302.6560   338.1230   -20.3780 
  188.7500     2.2200    54.9870    24.9740   213.6050   287.6680   319.8790   -19.8270 
  188.8750     2.2320    55.1440    24.9520   219.7930   282.2640   313.1020   -19.2310 
  189.0000     2.2440    57.4110    24.9490   250.9260   290.4150   321.4560   -18.5770 
  189.1250     2.2740    59.9120    24.9490   294.4080   314.8060   347.7750   -17.8510 
  189.2500     2.3320    59.4170    24.9390   330.8240   340.2140   366.6600   -17.0850 
  189.3750     2.4200    57.1810    24.8970   360.3590   331.7240   316.7590   -16.2460 
  189.5000     2.5290    55.3860    24.7730   434.8660   256.0140   192.9570   -15.3560 
  189.6250     2.6380    55.0300    24.6350   409.0330   148.1370    97.0940   -14.3390 
  189.7500     2.7200    55.2300    24.4860   261.9140    72.7510    47.9930   -13.2330 
  189.8750     2.7590    55.6830    24.3840    96.9500    33.3560    24.6420   -12.0910 
  190.0000     2.7600    57.5600    24.2970    24.9180    15.6540    13.3640   -10.9880 
  190.1250     2.7320    60.5760    24.1590     9.9000     9.0800     8.2970    -9.9730 
  190.2500     2.6840    62.8220    24.0290     5.8290     6.1170     5.7480    -9.0210 
  190.3750     2.6200    63.9300    23.9220     4.9630     4.7790     4.6430    -8.1750 
  190.5000     2.5510    63.9850    23.8130     4.8550     4.3110     4.3890    -7.4320 
  190.6250     2.5010    63.7030    23.7450     4.8250     4.3780     4.6170    -6.9070 
  190.7500     2.4670    62.1940    23.6720     4.7780     4.6280     4.9460    -6.5440 
  190.8750     2.4410    60.9330    23.5680     4.7500     4.9150     5.2280    -6.3230 
  191.0000     2.4170    62.6860    23.3610     4.7240     5.1810     5.4470    -6.1690 
  191.1250     2.4000    64.8270    23.0870     4.6670     5.4400     5.6660    -6.0910 
  191.2500     2.3900    63.3280    22.8500     4.6740     5.7020     5.9170    -6.0530 
  191.3750     2.3890    59.0640    22.7610     4.8600     5.9390     6.1780    -6.0520 
  191.5000     2.3950    55.7480    22.7480     5.2480     6.1000     6.3980    -6.0530 
  191.6250     2.4070    54.9860    22.7520     5.5930     6.1150     6.5120    -5.9980 
  191.7500     2.4200    54.8890    22.7590     5.6550     6.0100     6.5260    -5.9560 
  191.8750     2.4270    56.2120    22.7730     5.5170     5.8270     6.4740    -5.8950 
  192.0000     2.4310    58.0990    22.7840     5.3910     5.6280     6.4050    -5.8460 
  192.1250     2.4380    58.2360    22.7880     5.3420     5.4680     6.3570    -5.8060 
  192.2500     2.4460    55.9640    22.8030     5.3910     5.3620     6.3440    -5.7850 
  192.3750     2.4470    52.1040    22.8780     5.5660     5.3100     6.3830    -5.7820 
  192.5000     2.4410    49.0160    23.0750     5.7680     5.3050     6.5020    -5.8460 
  192.6250     2.4390    50.3720    23.3450     5.9550     5.3580     6.7440    -6.0010 
  192.7500     2.4470    56.2210    23.6440     6.1320     5.4610     7.0830    -6.2210 
  192.8750     2.4580    64.5170    23.9090     6.4390     5.6090     7.4710    -6.5180 
  193.0000     2.4650    71.9270    24.0430     6.8170     5.7780     7.8320    -6.8950 
  193.1250     2.4640    78.6570    24.0660     6.8930     5.9260     8.0810    -7.3680 
  193.2500     2.4630    84.6920    24.0210     6.7580     6.0420     8.2480    -7.9080 
  193.3750     2.4650    89.9700    23.8770     6.7210     6.1490     8.4310    -8.5440 
  193.5000     2.4660    95.1420    23.6450     6.8990     6.2950     8.7530    -9.2620 
  193.6250     2.4600    99.7300    23.4890     7.2580     6.5570     9.3390   -10.1170 
  193.7500     2.4480   103.5630    23.6010     7.8300     6.9300    10.1360   -11.0100 
  193.8750     2.4350   105.9580    23.9710     8.7510     7.3610    11.0130   -11.9470 
  194.0000     2.4210   105.5290    24.4030     9.7680     7.7560    11.7590   -12.8550 
  194.1250     2.4120   101.3620    24.7070    10.2910     7.9910    12.1350   -13.7160 
  194.2500     2.4140    94.9680    24.8130    10.2750     8.0810    12.2230   -14.5810 
  194.3750     2.4200    89.0200    24.8340     9.7530     8.1210    12.2200   -15.4410 
  194.5000     2.4180    86.2930    24.8250     9.3830     8.2230    12.3570   -16.2710 
  194.6250     2.4030    88.8830    24.7970     9.9490     8.5000    12.8560   -16.9740 
  194.7500     2.3910    94.4360    24.7610    11.3390     8.9310    13.6570   -17.5670 
  194.8750     2.3930    96.5520    24.7450    13.1830     9.4340    14.5850   -17.9960 
