~V
VERS. 2.00: Ver 2.00
~W
STRT.M 62.0000:
STOP.M 272.0000:
STEP.M 0.1250:
NULL. -999.2500:
UWI. DF32143:
~C
DEPT.M :
SP.MV :
GR.API :
CALI.CM :
RXO.OHMM :
RI. :
RML.OHMM :
DEN.GM/CC :
~A
# ...
  242.0000   -12.4150    62.9730    25.2280    89.8380    63.5340    67.5300     2.5220 
  242.1250   -12.4170    60.2400    25.0690    80.3110    60.8090    64.0420     2.5690 
  242.2500   -12.4660    61.6510    24.9050    68.2950    55.4730    57.4940     2.6020 
  242.3750   -12.5510    66.6230    24.7580    58.4250    47.1590    47.8100     2.6100 
  242.5000   -12.6780    73.2890    24.6810    48.6660    37.1100    36.7790     2.5890 
  242.6250   -12.8540    79.7640    24.7240    35.7410    27.9450    27.2690     2.5300 
  242.7500   -13.0520    87.1720    24.8010    23.0440    21.0940    20.3700     2.4510 
  242.8750   -13.2600    94.4140    24.8310    14.6390    16.6510    16.0290     2.3750 
  243.0000   -13.4830    96.8850    24.8100    11.1760    14.1630    13.7720     2.3190 
  243.1250   -13.7340    91.7790    24.8670    11.3940    13.2940    13.2810     2.2910 
  243.2500   -13.9810    87.1360    25.0060    12.9610    13.3950    13.8200     2.2860 
  243.3750   -14.2400    86.2900    25.1320    14.9930    14.1400    14.9640     2.2990 
  243.5000   -14.5230    87.8730    25.1990    17.0240    15.1500    16.2420     2.3250 
  243.6250   -14.8010    91.0260    25.2410    18.4430    15.9780    17.1440     2.3540 
  243.7500   -15.0670    95.3430    25.2780    18.8730    16.4170    17.5280     2.3740 
  243.8750   -15.3220    97.4410    25.3110    18.7700    16.4620    17.4490     2.3680 
  244.0000   -15.5620    94.5460    25.3460    19.0800    16.1750    17.0340     2.3370 
  244.1250   -15.7780    88.7000    25.3350    19.8450    15.5930    16.3550     2.3040 
  244.2500   -15.9750    86.3690    25.2800    19.6250    14.8360    15.5290     2.2880 
  244.3750   -16.1600    88.3510    25.2590    17.8530    13.9810    14.6100     2.2860 
  244.5000   -16.3580    91.5000    25.3090    15.3280    13.1080    13.6800     2.2880 
  244.6250   -16.6030    92.3940    25.3680    13.4830    12.3340    12.9080     2.2940 
  244.7500   -16.8870    92.6990    25.3780    12.7400    11.7460    12.4030     2.3100 
  244.8750   -17.1860    94.4930    25.3680    12.5600    11.3880    12.1970     2.3270 
  245.0000   -17.4610    96.5930    25.3610    12.3360    11.2440    12.2350     2.3390 
  245.1250   -17.6490    93.7610    25.3400    12.4830    11.2500    12.3920     2.3390 
  245.2500   -17.7510    88.1080    25.3160    13.4560    11.2600    12.4810     2.3310 
  245.3750   -17.7330    84.4230    25.3240    14.0490    11.1610    12.3750     2.3140 
  245.5000   -17.5390    83.8700    25.3730    12.9290    10.8820    12.0120     2.2950 
  245.6250   -17.1210    84.9530    25.4280    11.0580    10.3860    11.3740     2.2810 
  245.7500   -16.5580    86.8130    25.4400    10.2570     9.7580    10.5880     2.2730 
  245.8750   -15.9100    88.5340    25.4020     9.9350     9.0750     9.7700     2.2700 
  246.0000   -15.2550    88.5500    25.3480     8.9190     8.4230     9.0350     2.2770 
  246.1250   -14.6810    88.4080    25.3260     7.4970     7.8930     8.4920     2.2970 
  246.2500   -14.2230    89.6340    25.3220     6.7900     7.5040     8.1340     2.3160 
  246.3750   -13.9070    88.5400    25.3140     6.8050     7.2670     7.9620     2.3250 
  246.5000   -13.7760    84.2660    25.2950     7.0410     7.1880     7.9750     2.3280 
  246.6250   -13.9040    83.1070    25.2940     7.2740     7.2830     8.1810     2.3300 
  246.7500   -14.2500    84.9680    25.3230     7.6050     7.4940     8.5030     2.3360 
  246.8750   -14.8070    87.8180    25.3680     8.0850     7.7810     8.8880     2.3430 
  247.0000   -15.5530    90.2800    25.3960     8.7120     8.1020     9.2860     2.3500 
  247.1250   -16.4440    90.3630    25.3890     9.3100     8.4190     9.6570     2.3550 
  247.2500   -17.3580    88.3880    25.3630     9.6870     8.7170    10.0180     2.3510 
  247.3750   -18.2210    87.2710    25.3290     9.9620     8.9980    10.4010     2.3310 
  247.5000   -18.9590    89.9870    25.3020    10.4400     9.2570    10.7900     2.3000 
  247.6250   -19.4880    92.5800    25.3060    11.0640     9.4240    11.0530     2.2750 
  247.7500   -19.8250    90.0220    25.3290    11.4770     9.4350    11.0730     2.2700 
  247.8750   -19.9600    85.3550    25.3470    11.5740     9.2610    10.8070     2.2810 
  248.0000   -19.9150    85.2620    25.3540    11.1530     8.9390    10.3370     2.2930 
  248.1250   -19.7310    89.5530    25.3510     9.9690     8.5780     9.8710     2.3010 
  248.2500   -19.5250    91.1360    25.3430     8.9000     8.3130     9.5990     2.3060 
  248.3750   -19.3590    90.3840    25.3430     8.8180     8.2050     9.5710     2.3130 
  248.5000   -19.2710    91.5880    25.3550     9.5520     8.2390     9.7170     2.3140 
  248.6250   -19.2610    95.1500    25.3620    10.0030     8.3370     9.8750     2.3030 
  248.7500   -19.3000    95.6840    25.3610     9.8840     8.3740     9.8790     2.2870 
  248.8750   -19.3650    92.9710    25.3650     9.5990     8.2780     9.6610     2.2740 
  249.0000   -19.4130    89.4460    25.3830     9.3330     8.0450     9.2640     2.2700 
  249.1250   -19.4160    87.0750    25.3890     8.8690     7.7370     8.8210     2.2760 
  249.2500   -19.3690    84.3710    25.3750     8.2150     7.4490     8.4560     2.2840 
  249.3750   -19.2810    82.0090    25.3510     7.5870     7.2240     8.2040     2.2830 
  249.5000   -19.1880    82.1790    25.3270     7.2210     7.0720     8.0600     2.2680 
  249.6250   -19.1780    83.7410    25.3250     7.2780     6.9970     8.0100     2.2520 
  249.7500   -19.2560    82.8430    25.3580     7.5510     6.9730     8.0130     2.2530 
  249.8750   -19.4370    80.3040    25.3970     7.7710     6.9820     8.0480     2.2720 
  250.0000   -19.7250    79.6590    25.3980     7.8490     7.0140     8.1100     2.2910 
  250.1250   -20.0960    83.1450    25.3800     8.0610     7.0800     8.2200     2.2950 
  250.2500   -20.4810    86.8670    25.3940     8.4880     7.1840     8.3870     2.2890 
  250.3750   -20.8380    87.2630    25.4080     8.7330     7.3260     8.6130     2.2850 
  250.5000   -21.1350    83.4690    25.3900     8.6120     7.4990     8.8870     2.2880 
  250.6250   -21.3380    81.5060    25.3770     8.6580     7.6820     9.1700     2.2980 
  250.7500   -21.4840    85.2030    25.4050     9.1080     7.8450     9.4160     2.3110 
  250.8750   -21.5900    89.5720    25.4520     9.4630     7.9750     9.6110     2.3180 
  251.0000   -21.6670    89.9670    25.4840     9.3990     8.0710     9.7570     2.3150 
  251.1250   -21.7400    88.1260    25.4860     9.2300     8.1300     9.8530     2.3010 
  251.2500   -21.8700    88.4160    25.4620     9.2560     8.1680     9.9260     2.2900 
  251.3750   -22.1020    90.7730    25.4280     9.3670     8.2140    10.0170     2.2870 
  251.5000   -22.4430    93.3290    25.4050     9.4150     8.3010    10.1830     2.2920 
  251.6250   -22.9070    94.9740    25.3980     9.3290     8.4800    10.4980     2.2930 
  251.7500   -23.4260    95.2320    25.3990     9.2690     8.7760    10.9910     2.2890 
  251.8750   -23.9640    93.0520    25.3850     9.6450     9.2070    11.6620     2.2860 
  252.0000   -24.5070    89.3680    25.3280    10.6850     9.7410    12.4250     2.2870 
  252.1250   -25.0250    87.8420    25.2440    12.1640    10.2580    13.0750     2.2940 
  252.2500   -25.4880    88.9040    25.1700    13.7200    10.6230    13.4450     2.3020 
  252.3750   -25.8790    90.8550    25.1280    15.3010    10.7780    13.4890     2.3040 
  252.5000   -26.2010    90.0490    25.1260    16.3390    10.7580    13.3080     2.2990 
  252.6250   -26.4140    87.0380    25.1580    15.8820    10.6940    13.1430     2.3010 
  252.7500   -26.5130    85.7170    25.1840    14.8610    10.7250    13.1780     2.3150 
  252.8750   -26.4620    86.1040    25.1850    14.5920    10.8830    13.4080     2.3300 
  253.0000   -26.2200    85.8610    25.1880    15.2180    11.0890    13.6730     2.3330 
  253.1250   -25.7740    86.9150    25.2310    15.6430    11.1420    13.6460     2.3260 
