~V
VERS. 2.00: Ver 2.00
~W
STRT.M 55.0000:
STOP.M 285.0000:
STEP.M 0.1250:
NULL. -999.2500:
UWI. DF32159:
~C
DEPT.M :
GR.API :
CALI.CM :
RXO.OHMM :
RI. :
RML.OHMM :
DEN.GM/CC :
SP.MV :
~A
# ...
  268.7500    89.5420    24.5990    13.0200     8.6080     9.3980     2.3590    -6.3010 
  268.8750    90.2450    24.6000     9.5950     7.4120     7.9780     2.3760    -6.0790 
  269.0000    89.7770    24.6180     7.0800     6.5170     7.0510     2.3990    -6.1840 
  269.1250    88.6520    24.6360     6.1570     6.0210     6.6600     2.4170    -6.5790 
  269.2500    88.3490    24.6440     6.0700     5.8290     6.6200     2.4270    -7.1300 
  269.3750    86.1450    24.6450     6.2590     5.8850     6.8330     2.4310    -7.7660 
  269.5000    81.1010    24.6410     6.5180     6.1380     7.2200     2.4350    -8.4090 
  269.6250    78.2460    24.6370     6.9000     6.5560     7.7390     2.4390    -9.0010 
  269.7500    79.5830    24.6360     7.3880     7.0610     8.3120     2.4330    -9.5120 
  269.8750    81.7770    24.6370     7.9340     7.5880     8.8650     2.4100    -9.9350 
  270.0000    83.1890    24.6340     8.4970     8.0560     9.3060     2.3770   -10.2880 
  270.1250    84.0580    24.6190     8.9670     8.3560     9.5190     2.3490   -10.5680 
  270.2500    85.2840    24.5990     9.1920     8.4780     9.5370     2.3330   -10.7660 
  270.3750    86.1540    24.5830     9.1010     8.4610     9.4430     2.3290   -10.8540 
  270.5000    87.0020    24.5790     8.8310     8.3820     9.3540     2.3300   -10.8340 
  270.6250    87.7240    24.5890     8.7220     8.3230     9.3720     2.3220   -10.7450 
  270.7500    87.4140    24.6020     8.9000     8.3010     9.4680     2.3020   -10.6950 
  270.8750    86.1500    24.6060     9.2840     8.2770     9.5450     2.2810   -10.7480 
  271.0000    85.2290    24.5940     9.7190     8.1950     9.4990     2.2740   -10.9030 
  271.1250    84.4540    24.5770     9.8560     8.0250     9.2850     2.2840   -11.1240 
  271.2500    83.1920    24.5690     9.4240     7.8390     9.0480     2.3010   -11.3860 
  271.3750    82.8540    24.5670     8.6490     7.7350     8.9500     2.3230   -11.6810 
  271.5000    84.6830    24.5670     8.2140     7.7990     9.1160     2.3410   -12.0060 
  271.6250    87.0400    24.5670     8.6860     8.1060     9.6170     2.3440   -12.3280 
  271.7500    87.5430    24.5670     9.6530     8.5820    10.3010     2.3320   -12.5910 
  271.8750    87.7160    24.5670    10.8120     9.1170    10.9770     2.3120   -12.7600 
  272.0000    89.1850    24.5670    12.1510     9.5480    11.4170     2.2990   -12.8500 
  272.1250    89.9930    24.5670    13.3570     9.6760    11.3840     2.2990   -12.8800 
  272.2500    89.4950    24.5670    13.4750     9.5180    10.9900     2.3080   -12.8820 
  272.3750    87.7910    24.5670    12.1060     9.1820    10.4320     2.3190   -12.8610 
  272.5000    85.1160    24.5670    10.1940     8.8290     9.9380     2.3290   -12.7960 
  272.6250    84.2450    24.5680     9.5300     8.6180     9.7070     2.3370   -12.6410 
  272.7500    85.7710    24.5730    10.2570     8.5710     9.7180     2.3390   -12.3550 
  272.8750    88.2660    24.5900    11.3800     8.6430     9.8670     2.3340   -11.9100 
  273.0000    89.5710    24.6210    11.8030     8.7290     9.9860     2.3270   -11.2830 
  273.1250    88.1920    24.6590    11.1440     8.6740     9.8630     2.3290   -10.4960 
  273.2500    86.3290    24.6900    10.1100     8.4260     9.4720     2.3340    -9.6050 
  273.3750    85.4640    24.7070     9.0770     8.0140     8.8940     2.3350    -8.6540 
  273.5000    87.2990    24.7150     8.1840     7.5240     8.2650     2.3260    -7.7210 
  273.6250    89.9340    24.7300     7.6380     7.0600     7.7260     2.3210    -6.8890 
  273.7500    89.2660    24.7630     7.3900     6.6750     7.3140     2.3280    -6.1910 
  273.8750    87.3670    24.8080     7.1970     6.3760     7.0140     2.3500    -5.6290 
  274.0000    87.2440    24.8470     6.8620     6.1490     6.7900     2.3780    -5.1930 
  274.1250    89.7110    24.8650     6.4570     5.9870     6.6260     2.3980    -4.9190 
  274.2500    89.7110    24.8690     6.1630     5.8770     6.5220     2.4000    -4.8440 
  274.3750    89.7110    24.8680     6.0590     5.8240     6.4890     2.3860    -5.0260 
  274.5000    89.7110    24.8620     6.1720     5.8270     6.5270     2.3730    -5.5100 
  274.6250    89.7110    24.8510     6.4270     5.8750     6.6090     2.3780    -6.3580 
  274.7500    89.7110    24.8430     6.6540     5.9320     6.6870     2.3870    -7.4790 
  274.8750    89.7110    24.8450     6.8430     5.9780     6.7390     2.3820    -8.7980 
  275.0000    89.7110    24.8540     7.0500     6.0040     6.7640     2.3620   -10.2150 
  275.1250    89.7110    24.8500     7.4070     6.0130     6.7710     2.3470   -11.5530 
  275.2500    89.7110    24.8170     8.1050     6.0140     6.7740     2.3450   -12.6990 
  275.3750    89.7110    24.7480     9.2570     6.0140     6.7760     2.3430   -13.5590 
  275.5000    89.7110    24.6470    10.7860     6.0140     6.7770     2.3290   -14.0650 
  275.6250    89.7110    24.5330    12.7640     6.0140     6.7740     2.3040   -14.1640 
  275.7500    89.7110    24.4300    15.0600     6.0150     6.7700     2.2810   -13.9550 
  275.8750    89.7110    24.3520    16.6510     6.0140     6.7680     2.2640   -13.4980 
  276.0000    89.7110    24.3060    16.1450     6.0130     6.7710     2.2510   -12.8890 
  276.1250    89.7110    24.2970    13.5710     6.0100     6.7770     2.2440   -12.2830 
  276.2500    89.7110    24.3090    11.1100     6.0080     6.7820     2.2430   -11.7860 
  276.3750    89.7110    24.3230     9.6230     6.0080     6.7830     2.2480   -11.4290 
  276.5000    89.7110    24.3320     8.8710     6.0090     6.7800     2.2570   -11.1910 
  276.6250    89.7110    24.3320     8.4750     6.0110     6.7780     2.2700   -11.0380 
  276.7500    89.7110    24.3050     8.2780     6.0130     6.7790     2.2850   -10.9250 
  276.8750    89.7110    24.2130     8.3030     6.0130     6.7830     2.3010   -10.8620 
  277.0000    89.7110    24.0370     8.6530     6.0130     6.7900     2.3130   -10.8440 
  277.1250    89.7110    23.8240     9.6340     6.0130     6.7940     2.3110   -10.8580 
  277.2500    89.7110    23.6590    10.9210     6.0110     6.7950     2.2950   -10.8710 
  277.3750    89.7110    23.5570    11.6680     6.0090     6.7920     2.2750   -10.8730 
  277.5000    89.7110    23.4730    11.3200     6.0070     6.7890     2.2660   -10.8730 
  277.6250    89.7110    23.3530    10.5600     6.0070     6.7860     2.2690   -10.8530 
  277.7500    89.7110    23.2030    10.7110     6.0080     6.7840     2.2770   -10.8250 
  277.8750    89.7110    23.0400    11.9600     6.0100     6.7830     2.2790   -10.8000 
  278.0000    89.7110    22.8620    13.4240     6.0110     6.7810     2.2750   -10.7660 
  278.1250    89.7110    22.6610    13.8980     6.0120     6.7770     2.2680   -10.7040 
  278.2500    89.7110    22.4720    13.5390     6.0120     6.7710     2.2670   -10.6390 
  278.3750    89.7110    22.3410    12.7970     6.0120     6.7660     2.2680   -10.5750 
  278.5000    89.7110    22.2720    11.6470     6.0120     6.7620     2.2670   -10.5070 
  278.6250    89.7110    22.2050     9.9520     6.0110     6.7600     2.2680   -10.4680 
  278.7500    89.7110    22.0710     8.5180     6.0080     6.7610     2.2750   -10.4460 
  278.8750    89.7110    21.8630     8.2280     6.0060     6.7630     2.2900   -10.4350 
  279.0000    89.7110    21.6150     9.3040     6.0050     6.7650     2.3050   -10.4390 
  279.1250    89.7110    21.3150    10.6300     6.0050     6.7650     2.3090   -10.4640 
  279.2500    89.7110    20.8710    10.6890     6.0080     6.7630     2.3020   -10.4830 
  279.3750    89.7110    20.1860     9.5070     6.0090     6.7640     2.2920   -10.4990 
  279.5000    89.7110    19.2990     8.1310     6.0100     6.7670     2.2920   -10.5220 
  279.6250    89.7110    18.4580     7.3720     6.0100     6.7750     2.2750   -10.5310 
  279.7500    89.7110    17.8920     7.0410     6.0100     6.7840     2.1810   -10.5170 
  279.8750    89.7110    17.6270     6.9330     6.0100     6.7910     2.0000   -10.4850 
