~V
VERS. 2.00: Ver 2.00
~W
STRT.M 60.0000:
STOP.M 264.0000:
STEP.M 0.1250:
NULL. -999.2500:
UWI. DF32130:
~C
DEPT.M :
SP.MV :
GR.API :
CALI.CM :
RXO.OHMM :
RI. :
RML.OHMM :
DEN.GM/CC :
~A
   60.0000    -0.5190    50.2610    24.9560     1.3570    -0.1240    -0.2570     2.1880 
   60.1250    -0.9560    51.7350    24.8220     1.4270    -0.1150    -0.2590     2.1680 
   60.2500    -1.9400    52.6290    24.5360     2.0720    -0.0540    -0.2100     2.1530 
   60.3750    -3.4130    53.3320    23.9280     3.6150     0.1120    -0.0880     2.1520 
   60.5000    -5.3370    55.6400    22.9150     5.7010     0.4510     0.1840     2.1510 
   60.6250    -7.6650    62.0650    21.3390     6.9820     1.1060     0.8640     2.1370 
   60.7500   -10.1750    69.7030    19.7250     7.6130     2.0510     1.9770     2.1240 
   60.8750   -12.6480    74.6060    18.5420     7.9040     3.1360     3.0690     2.1250 
   61.0000   -14.8780    76.0110    17.9310     8.1030     4.1860     3.7340     2.1300 
   61.1250   -16.7120    75.6310    17.6100     8.1520     5.1880     4.1910     2.1250 
   61.2500   -18.1720    74.3070    17.4360     8.0790     6.2860     4.7750     2.1280 
   61.3750   -19.3250    72.3570    17.3350     7.8770     7.5520     5.5910     2.1670 
   61.5000   -20.2950    70.9560    17.1680     7.6010     8.9060     6.6200     2.2500 
   61.6250   -21.0920    72.0610    16.8320     7.3070     9.9410     7.5340     2.3480 
   61.7500   -21.7560    74.5810    16.6860     7.0370    10.2590     7.8580     2.4070 
   61.8750   -22.3600    77.2310    16.8570     6.8680     9.7880     7.5140     2.3940 
   62.0000   -22.9180    78.2460    17.3450     6.9680     8.8560     6.8660     2.3220 
   62.1250   -23.3800    75.7300    17.9400     7.4920     7.9360     6.3280     2.2370 
   62.2500   -23.7840    72.0580    18.5250     8.3160     7.3010     6.0460     2.1820 
   62.3750   -24.1240    70.6670    19.1940     9.1700     6.9980     6.0270     2.1610 
   62.5000   -24.3940    71.9480    20.1110     9.7220     6.9740     6.2090     2.1610 
   62.6250   -24.6270    73.0690    21.0030     9.7570     7.1390     6.4950     2.1700 
   62.7500   -24.8450    73.0390    21.5730     9.5250     7.3500     6.7750     2.1800 
   62.8750   -25.0270    72.6330    21.6350     9.3060     7.5350     7.0310     2.1840 
   63.0000   -25.1690    71.3990    21.3350     9.2730     7.6580     7.2690     2.1810 
   63.1250   -25.3010    69.9230    21.1000     9.3080     7.7000     7.4390     2.1780 
   63.2500   -25.4060    70.0550    21.0190     9.1940     7.6770     7.4880     2.1790 
   63.3750   -25.5160    72.3170    21.0590     9.0800     7.5910     7.3950     2.1790 
   63.5000   -25.6750    73.9060    21.2290     9.0110     7.4450     7.2100     2.1740 
   63.6250   -25.8720    72.1990    21.5610     8.9990     7.2580     7.0270     2.1720 
   63.7500   -26.0960    69.8510    21.9860     8.9320     7.0790     6.9070     2.1780 
   63.8750   -26.3020    69.7810    22.3650     8.8720     6.9430     6.8500     2.1860 
   64.0000   -26.4620    71.5850    22.6020     8.6620     6.8740     6.8290     2.1890 
   64.1250   -26.6020    72.5700    22.6710     8.6210     6.9050     6.8800     2.1840 
   64.2500   -26.7420    72.5760    22.6860     8.8800     7.0360     7.0530     2.1780 
   64.3750   -26.9240    71.8890    22.6970     9.2880     7.2740     7.3630     2.1780 
   64.5000   -27.0780    70.7740    22.7330     9.9250     7.5950     7.7690     2.1960 
   64.6250   -27.2060    69.0220    22.8090    11.6760     7.9120     8.1400     2.2400 
   64.7500   -27.3460    69.2420    22.8010    13.7100     8.0830     8.3030     2.2890 
   64.8750   -27.5870    70.6260    22.6510    13.6010     8.0210     8.1710     2.3160 
   65.0000   -27.9750    70.9510    22.3600    11.3620     7.7610     7.8410     2.3060 
   65.1250   -28.4500    70.5130    22.1200     9.5640     7.4440     7.5440     2.2800 
   65.2500   -28.9260    72.3090    22.0200     8.7970     7.2150     7.4370     2.2760 
   65.3750   -29.3520    75.6360    22.0000     8.3230     7.1280     7.5590     2.3120 
   65.5000   -29.7380    76.2630    21.9970     8.2000     7.1660     7.8590     2.3680 
   65.6250   -30.1540    73.2960    21.9920     8.3680     7.2650     8.1610     2.3920 
   65.7500   -30.5730    70.5060    21.9870     8.5410     7.3470     8.3120     2.3590 
   65.8750   -30.9240    68.7730    21.9800     8.7190     7.4030     8.3150     2.2880 
   66.0000   -31.1650    68.2980    21.9770     8.9460     7.4530     8.2750     2.2170 
   66.1250   -31.2880    69.5930    21.9770     8.9960     7.5280     8.3200     2.1760 
   66.2500   -31.3390    71.2310    21.9770     8.9600     7.6500     8.4980     2.1670 
   66.3750   -31.3480    69.7770    21.9770     9.0000     7.8140     8.7930     2.1910 
   66.5000   -31.3170    65.1650    21.9680     9.2170     7.9870     9.1220     2.2440 
   66.6250   -31.1660    61.7100    21.9400     9.6330     8.1040     9.3420     2.2920 
   66.7500   -30.9610    62.4230    21.9030    10.0350     8.1320     9.3810     2.3010 
   66.8750   -30.7680    66.3610    21.8840    10.2530     8.0650     9.2490     2.2670 
   67.0000   -30.6040    70.4590    21.8770    10.2390     7.9200     9.0260     2.2160 
   67.1250   -30.4710    71.0270    21.8770    10.0490     7.7310     8.8370     2.1800 
   67.2500   -30.4050    67.3410    21.8950     9.7420     7.5510     8.7550     2.1660 
   67.3750   -30.3900    61.4550    21.9380     9.4020     7.4130     8.7950     2.1660 
   67.5000   -30.4270    58.7550    21.9740     9.1540     7.3400     8.9310     2.1720 
   67.6250   -30.5750    62.4120    21.9870     9.1550     7.3540     9.1260     2.1790 
   67.7500   -30.7590    65.9450    21.9880     9.2190     7.4330     9.3270     2.1880 
   67.8750   -30.9250    65.5070    21.9880     9.2570     7.5440     9.4960     2.1960 
   68.0000   -31.0730    63.9190    21.9880     9.2490     7.6430     9.6020     2.2020 
   68.1250   -31.1940    65.1670    21.9880     9.2020     7.6710     9.6000     2.2020 
   68.2500   -31.2750    67.7430    21.9860     9.1510     7.6150     9.5020     2.1950 
   68.3750   -31.3510    68.1960    21.9810     9.1490     7.4820     9.3380     2.1810 
   68.5000   -31.4090    65.5680    21.9780     9.1570     7.3060     9.1560     2.1640 
   68.6250   -31.3920    62.2130    21.9740     9.0500     7.1360     9.0260     2.1610 
   68.7500   -31.3330    62.1060    21.9520     8.8040     7.0080     8.9840     2.1760 
   68.8750   -31.2320    66.0730    21.8790     8.5780     6.9370     9.0450     2.2000 
   69.0000   -31.0610    70.9520    21.7380     8.5320     6.9220     9.2040     2.2180 
   69.1250   -30.8550    73.4930    21.6380     8.6810     6.9520     9.4270     2.2200 
   69.2500   -30.6890    73.0120    21.6020     8.7870     6.9930     9.6370     2.2130 
   69.3750   -30.5090    70.9890    21.5900     8.8190     7.0180     9.7670     2.2020 
   69.5000   -30.2860    69.7420    21.5700     8.8090     7.0110     9.7770     2.1930 
   69.6250   -30.1130    68.7120    21.5280     8.8200     6.9820     9.6580     2.1840 
   69.7500   -29.9630    67.3850    21.5100     8.8160     6.9510     9.4810     2.1780 
   69.8750   -29.7770    68.6950    21.5050     8.7160     6.9240     9.2910     2.1760 
   70.0000   -29.6030    71.9050    21.5050     8.5720     6.8940     9.1080     2.1780 
   70.1250   -29.4690    71.7880    21.5050     8.5030     6.8400     8.9340     2.1790 
   70.2500   -29.2740    69.7950    21.5050     8.4850     6.7670     8.7730     2.1790 
   70.3750   -28.9730    71.3370    21.5050     8.4390     6.6970     8.6360     2.1800 
   70.5000   -28.6640    75.4900    21.5050     8.3580     6.6670     8.5360     2.1800 
   70.6250   -28.3060    76.5970    21.5050     8.3250     6.7230     8.5280     2.1810 
   70.7500   -27.8340    74.6980    21.5050     8.4280     6.8610     8.6550     2.1810 
   70.8750   -27.3590    71.4010    21.5100     8.5600     7.0390     8.9060     2.1790 
   71.0000   -26.8640    68.8130    21.5260     8.6040     7.1520     9.1580     2.1790 
   71.1250   -26.2500    69.4860    21.5570     8.5850     7.0150     9.1010     2.1840 
