~V
VERS. 2.00: Ver 2.00
~W
STRT.M 60.0000:
STOP.M 232.0000:
STEP.M 0.1250:
NULL. -999.2500:
UWI. DF323:
~C
DEPT.M :
GR.API :
RML.OHMM :
RI. :
RXO.OHMM :
CALI.CM :
SP.MV :
DEN.GM/CC :
AC.US/MT :
~A
# ...
  130.0000    65.8080    20.1750    20.0900    21.5130    26.8820    -7.7610     2.5340   280.9180 
  130.1250    65.1120    22.7390    22.4390    24.0380    26.8720    -7.6320     2.5440   275.7040 
  130.2500    64.6460    24.3130    24.0430    25.7360    26.8650    -7.5090     2.5490   274.4100 
  130.3750    63.7010    24.3480    24.2950    25.5520    26.8640    -7.4670     2.5480   275.9300 
  130.5000    61.9290    23.0190    23.3080    23.4690    26.8630    -7.5200     2.5430   279.4130 
  130.6250    61.1370    21.1290    21.7890    20.4420    26.8590    -7.6690     2.5370   283.6340 
  130.7500    63.5290    19.6470    20.5640    18.2580    26.8590    -7.9060     2.5330   286.4210 
  130.8750    67.3100    19.0330    19.9830    17.9020    26.8650    -8.1880     2.5340   286.3170 
  131.0000    69.5600    19.4340    20.1720    19.6080    26.8740    -8.4590     2.5370   283.3680 
  131.1250    68.7210    20.8000    21.1660    22.3170    26.8760    -8.7300     2.5390   279.3940 
  131.2500    66.5710    22.5530    22.5770    24.0390    26.8680    -8.9360     2.5350   276.6220 
  131.3750    64.8070    24.2220    24.0290    24.8100    26.8560    -9.0270     2.5250   275.4570 
  131.5000    63.4690    25.4160    25.1540    25.8160    26.8550    -9.0230     2.5120   275.0890 
  131.6250    64.8880    25.9110    25.6950    27.4880    26.8620    -8.9760     2.5060   274.5010 
  131.7500    70.0870    26.0310    25.8850    27.9750    26.8420    -8.8960     2.5100   273.4880 
  131.8750    74.6190    26.0620    25.9760    26.6330    26.7720    -8.7900     2.5250   272.1760 
  132.0000    74.1140    26.1840    26.1580    25.2530    26.7590    -8.7010     2.5450   270.6510 
  132.1250    70.8030    26.5250    26.5610    26.2970    26.9380    -8.6290     2.5600   269.1160 
  132.2500    68.6300    27.1250    27.1520    28.9700    27.1820    -8.5900     2.5630   267.9720 
  132.3750    66.3800    27.9910    27.8820    30.8500    27.3310    -8.6120     2.5550   267.4810 
  132.5000    62.4900    29.0610    28.6800    30.4240    27.3500    -8.6680     2.5440   267.3280 
  132.6250    60.1750    30.1700    29.4410    29.4840    27.3370    -8.7060     2.5380   266.6160 
  132.7500    61.4360    31.0290    30.0280    29.9600    27.3330    -8.7250     2.5400   265.0960 
  132.8750    63.5900    31.3760    30.2950    31.2310    27.3240    -8.7330     2.5440   263.4430 
  133.0000    64.2540    31.1160    30.1500    31.8260    27.3210    -8.7350     2.5450   262.6800 
  133.1250    63.3130    30.4030    29.6250    30.4780    27.3230    -8.7310     2.5400   263.2490 
  133.2500    64.0410    29.7290    29.0450    28.0530    27.3240    -8.7450     2.5340   263.8070 
  133.3750    66.3750    29.4550    28.7050    26.1510    27.3360    -8.7430     2.5320   262.9400 
  133.5000    69.1710    29.7580    28.8040    26.2390    27.3770    -8.7680     2.5390   260.0650 
  133.6250    73.9000    30.5210    29.3420    29.2090    27.4400    -8.8470     2.5500   256.3230 
  133.7500    77.8170    31.1640    29.9030    32.3630    27.4930    -8.9560     2.5580   254.1790 
  133.8750    77.4340    31.2680    30.1200    32.5480    27.5260    -9.1160     2.5580   255.0010 
  134.0000    73.1200    30.7250    29.8380    29.9420    27.5420    -9.3050     2.5490   258.5780 
  134.1250    70.5240    29.7890    29.1860    27.1760    27.5450    -9.5400     2.5370   263.1370 
  134.2500    71.5120    29.0390    28.6030    25.8770    27.5560    -9.7690     2.5270   266.2830 
  134.3750    74.0120    28.8590    28.3880    26.5220    27.5960    -9.9820     2.5230   267.0280 
  134.5000    77.4010    29.4120    28.6810    28.9220    27.6680   -10.1580     2.5240   265.7960 
  134.6250    78.5710    30.7120    29.5120    30.9310    27.7630   -10.3010     2.5280   263.9420 
  134.7500    76.6140    32.3710    30.6330    31.0440    27.8680   -10.4400     2.5340   262.2350 
  134.8750    76.9590    34.0770    31.8400    31.3410    27.9770   -10.5590     2.5390   260.2670 
  135.0000    82.4940    35.4750    32.9060    33.5540    28.0870   -10.6750     2.5430   257.8810 
  135.1250    84.8370    36.1260    33.5480    35.2510    28.1850   -10.7660     2.5460   256.3200 
  135.2500    79.8280    36.0480    33.7240    34.3590    28.2890   -10.8660     2.5450   256.9980 
  135.3750    74.5850    35.4510    33.4960    32.1830    28.4400   -11.0070     2.5430   260.0750 
  135.5000    74.6710    34.7760    33.0610    30.4540    28.6500   -11.1520     2.5390   264.1170 
  135.6250    77.9290    34.6450    32.7550    30.1190    28.8470   -11.2570     2.5350   266.6730 
  135.7500    78.8400    35.2460    32.8270    30.6110    28.9590   -11.3460     2.5330   266.9000 
  135.8750    77.3140    36.4470    33.3450    32.0750    29.0100   -11.4250     2.5320   265.4460 
  136.0000    75.4180    37.8110    34.1680    34.6040    29.0630   -11.4940     2.5340   263.4300 
  136.1250    75.5750    38.5640    34.8290    37.4770    29.1460   -11.5800     2.5410   261.2240 
  136.2500    76.4140    38.1920    34.7900    39.4910    29.2290   -11.6590     2.5510   258.8350 
  136.3750    75.4370    36.5380    33.7650    40.0210    29.2910   -11.6970     2.5590   257.2340 
  136.5000    74.1470    33.9000    31.8440    39.9000    29.3190   -11.7360     2.5560   258.5070 
  136.6250    74.9950    30.8920    29.4350    37.6170    29.3250   -11.8570     2.5380   265.4920 
  136.7500    76.8580    28.1620    27.1410    33.9210    29.3500   -12.0410     2.5120   276.8970 
  136.8750    77.0350    25.9640    25.2550    30.5820    29.4300   -12.2660     2.4860   289.5670 
  137.0000    75.4480    24.3320    23.8680    29.0570    29.5980   -12.4880     2.4670   299.1250 
  137.1250    74.8780    23.2270    22.9620    28.6620    29.8780   -12.6810     2.4600   301.2340 
  137.2500    74.6670    22.3210    22.2150    27.3450    30.1800   -12.8870     2.4610   297.8520 
  137.3750    73.3570    21.2470    21.2640    25.2130    30.4140   -13.1490     2.4690   292.7240 
  137.5000    71.1770    19.6490    19.7580    23.4810    30.5570   -13.4750     2.4790   290.4360 
  137.6250    73.5360    17.2730    17.4920    22.9500    30.6440   -13.8320     2.4800   298.5010 
  137.7500    78.5190    14.5280    14.8890    22.2400    30.7510   -14.2230     2.4620   321.2230 
  137.8750    79.4860    11.9150    12.3910    18.8130    31.0430   -14.6650     2.4240   358.0640 
  138.0000    74.2710     9.8420    10.3480    13.3950    31.6200   -15.1800     2.3770   399.3040 
  138.1250    68.2330     8.5820     9.0280     9.6110    32.2690   -15.7780     2.3390   426.5630 
  138.2500    65.4780     7.9300     8.3040     8.3380    32.7570   -16.4320     2.3170   434.5450 
  138.3750    63.7180     7.7250     8.0710     8.6480    33.0890   -17.1270     2.3090   429.7330 
  138.5000    61.1990     7.8090     8.1890     9.1940    33.2220   -17.8450     2.3090   422.7900 
  138.6250    60.8900     8.0420     8.5030     9.3660    32.9430   -18.5860     2.3150   420.5850 
  138.7500    62.4200     8.2930     8.8240     9.5140    32.4680   -19.2790     2.3250   421.1290 
  138.8750    64.2780     8.5190     9.0640     9.7070    32.0400   -19.9270     2.3390   421.5240 
  139.0000    65.9910     8.6910     9.1920     9.8400    31.6770   -20.5440     2.3550   420.1840 
  139.1250    65.7510     8.7400     9.1840     9.9640    31.3410   -21.1320     2.3680   417.3580 
  139.2500    61.1340     8.6200     9.0540    10.2020    31.1680   -21.6720     2.3720   415.3580 
  139.3750    56.2600     8.2910     8.7890    10.3610    31.2290   -22.1720     2.3640   416.1490 
  139.5000    56.2890     7.7620     8.3820    10.1560    31.4720   -22.5990     2.3420   420.7780 
  139.6250    59.2750     7.1100     7.8510     9.5410    31.8120   -22.8790     2.3110   429.9830 
  139.7500    60.1850     6.5100     7.2940     8.7490    32.2030   -23.0390     2.2790   442.1490 
  139.8750    59.6790     6.0890     6.7970     7.9480    32.6620   -23.1070     2.2440   454.5920 
