~V
VERS. 2.00: Ver 2.00
~W
STRT.M 62.0000:
STOP.M 243.0000:
STEP.M 0.1250:
NULL. -999.2500:
UWI. DF32072:
~C
DEPT.M :
SP.MV :
GR.API :
CALI.CM :
RXO.OHMM :
RI. :
RML.OHMM :
DEN.GM/CC :
~A
# ...
  208.2500   -19.0500    61.8500    23.5140     4.8550     4.6110     5.8990     2.3230 
  208.3750   -19.2230    63.4410    23.5440     4.5320     4.2420     5.2450     2.3310 
  208.5000   -19.4100    72.1350    23.7320     4.7800     4.4240     5.3330     2.3390 
  208.6250   -19.6680    85.0470    24.0750     5.5290     5.0190     6.0010     2.3400 
  208.7500   -19.9900    95.3450    24.3360     6.7190     5.7830     6.9460     2.3390 
  208.8750   -20.2470   101.4460    24.6790     7.7620     6.5330     7.9390     2.3400 
  209.0000   -20.5390   105.1190    24.9580     8.1410     7.0890     8.7340     2.3490 
  209.1250   -20.8150   106.8710    25.0800     8.1700     7.2870     9.0800     2.3630 
  209.2500   -21.0300   108.5350    25.0820     8.2680     7.2410     9.0740     2.3770 
  209.3750   -21.2400   111.7860    25.0480     8.4370     7.1380     8.9190     2.3870 
  209.5000   -21.4720   113.2350    25.0260     8.5840     7.1700     8.8400     2.3870 
  209.6250   -21.6530   110.0300    25.0210     8.9380     7.5100     9.0180     2.3720 
  209.7500   -21.8230   106.9930    25.0120    10.1740     8.1470     9.4440     2.3500 
  209.8750   -22.0380   106.2620    24.9840    12.9080     9.0620    10.1040     2.3340 
  210.0000   -22.1730   104.7650    24.9360    15.2950    10.2150    10.9850     2.3310 
  210.1250   -22.2630   100.4480    24.9130    15.7080    11.6480    12.1730     2.3360 
  210.2500   -22.3960    98.2970    24.8970    15.2300    13.4370    13.7610     2.3320 
  210.3750   -22.4600    98.4990    24.8590    16.8070    15.7600    15.9090     2.3120 
  210.5000   -22.5150    96.7710    24.7600    21.0980    18.5570    18.9720     2.2850 
  210.6250   -22.5930    89.4050    24.6770    26.3750    22.0890    22.8130     2.2640 
  210.7500   -22.6010    81.1830    24.6180    31.0110    25.7930    26.8300     2.2540 
  210.8750   -22.6130    77.0690    24.5980    33.8990    28.9470    30.1780     2.2530 
  211.0000   -22.6490    77.6090    24.5960    35.0420    30.9470    32.1600     2.2580 
  211.1250   -22.5970    79.7540    24.5960    34.5460    31.6310    32.6780     2.2690 
  211.2500   -22.5460    80.0700    24.5970    33.7250    31.7550    32.6910     2.2820 
  211.3750   -22.5170    77.8680    24.6080    33.2630    31.8180    32.7770     2.2910 
  211.5000   -22.4480    75.1840    24.6360    33.5360    32.0640    33.1720     2.2900 
  211.6250   -22.4280    76.4270    24.6780    34.4340    32.4540    33.7820     2.2890 
  211.7500   -22.4020    79.5860    24.6980    35.4780    32.6850    34.1920     2.2940 
  211.8750   -22.3530    81.4600    24.6980    35.3050    32.4470    33.9880     2.3000 
  212.0000   -22.3320    80.8360    24.6760    33.1800    31.5250    32.8920     2.2970 
  212.1250   -22.3370    79.0630    24.6730    30.6100    29.8890    30.8960     2.2840 
  212.2500   -22.3500    79.8520    24.7570    29.1560    27.9820    28.6040     2.2720 
  212.3750   -22.3460    83.4570    24.8580    27.9470    26.1580    26.4770     2.2630 
  212.5000   -22.3500    87.6100    24.9050    26.2020    24.7080    24.8550     2.2560 
  212.6250   -22.3530    88.5940    24.9060    24.8570    23.9440    24.0340     2.2540 
  212.7500   -22.3690    87.1060    24.9060    24.7670    23.8370    23.9040     2.2580 
  212.8750   -22.3570    86.5010    24.9060    25.6240    24.1560    24.5150     2.2630 
  213.0000   -22.3630    86.7500    24.9060    27.1020    24.9570    25.4760     2.2660 
  213.1250   -22.4620    87.7710    24.9060    29.5180    25.9580    26.5630     2.2690 
  213.2500   -22.5150    88.3050    24.9060    31.3620    26.7750    27.4690     2.2730 
  213.3750   -22.5550    87.1920    24.9060    31.2360    27.1550    27.9420     2.2740 
  213.5000   -22.5820    85.2350    24.9060    29.1290    26.9410    27.8240     2.2690 
  213.6250   -22.5870    84.8380    24.9060    27.3470    26.1110    27.0820     2.2650 
  213.7500   -22.6680    84.3190    24.9060    27.4200    25.0910    26.1170     2.2670 
  213.8750   -22.7800    81.6200    24.9050    28.1410    24.2700    25.2960     2.2700 
  214.0000   -22.8320    78.9830    24.9030    26.9100    23.9750    24.9450     2.2690 
  214.1250   -22.8050    80.8080    24.8990    27.1270    24.5720    25.4450     2.2680 
  214.2500   -22.8260    83.8260    24.9010    29.3720    26.0070    26.7820     2.2700 
  214.3750   -22.9480    85.2090    24.9050    33.0830    28.2000    28.9070     2.2730 
  214.5000   -23.0820    84.3250    24.9100    36.7930    30.9750    31.6820     2.2720 
  214.6250   -23.1560    80.0710    24.9280    39.4990    34.1200    34.9540     2.2690 
  214.7500   -23.2200    75.3710    24.9590    41.6080    37.3280    38.3930     2.2670 
  214.8750   -23.2970    72.4780    24.9810    43.6720    40.4560    41.7940     2.2640 
  215.0000   -23.3810    69.8020    24.9910    47.2640    43.4100    44.9650     2.2590 
  215.1250   -23.4960    65.7330    24.9870    53.2470    45.8100    47.4540     2.2560 
  215.2500   -23.6250    63.4100    24.9760    58.4690    47.1720    48.8570     2.2600 
  215.3750   -23.6950    64.9050    24.9610    59.2040    47.1780    48.9300     2.2750 
  215.5000   -23.7530    68.2290    24.9380    55.0500    45.9580    47.8140     2.3020 
  215.6250   -23.8720    71.4460    24.9150    49.4050    43.9210    45.8940     2.3300 
  215.7500   -24.0130    74.1350    24.9020    45.6470    41.7220    43.8220     2.3400 
  215.8750   -24.1850    75.7090    24.8970    43.4160    39.6480    41.9210     2.3210 
  216.0000   -24.4180    76.5520    24.9010    41.8820    37.8630    40.3770     2.2830 
  216.1250   -24.6350    76.3540    24.9120    40.5390    36.6970    39.5090     2.2520 
  216.2500   -24.7900    73.8430    24.9190    39.6980    36.4300    39.5540     2.2420 
  216.3750   -24.9410    71.3910    24.9140    39.3840    37.3950    40.8370     2.2450 
  216.5000   -25.1260    71.7950    24.9060    40.7580    39.7820    43.5510     2.2480 
  216.6250   -25.3260    74.9460    24.9010    47.1240    43.5340    47.6850     2.2430 
  216.7500   -25.4830    77.2090    24.9010    60.1680    47.4280    52.0570     2.2370 
  216.8750   -25.5940    77.3110    24.9030    71.4830    49.8400    55.0750     2.2360 
  217.0000   -25.6690    76.5680    24.9040    70.0950    49.2910    55.2100     2.2390 
  217.1250   -25.7620    77.0780    24.8900    58.8520    45.5090    51.8990     2.2420 
  217.2500   -25.8550    79.1110    24.8290    50.1310    40.9670    47.4030     2.2490 
  217.3750   -25.9340    80.7350    24.6950    45.1270    37.4880    43.6320     2.2640 
  217.5000   -25.9860    80.4540    24.5140    40.2770    36.1380    41.9270     2.2840 
  217.6250   -26.0120    78.8150    24.4150    37.7500    37.9030    43.6180     2.2920 
  217.7500   -26.0040    78.5710    24.4820    43.0320    42.6210    48.6670     2.2820 
  217.8750   -25.9420    80.0210    24.6860    59.9730    50.2040    56.9120     2.2640 
  218.0000   -25.8090    80.5130    24.8270    88.2700    59.5840    67.0070     2.2490 
  218.1250   -25.5990    76.0460    24.9640   111.6910    67.0420    75.0640     2.2400 
  218.2500   -25.3790    69.5530    25.0460   113.4260    68.9880    77.6820     2.2280 
  218.3750   -25.1640    66.6480    25.0910    95.3480    65.5390    74.7020     2.2190 
  218.5000   -24.9250    69.3720    25.0850    74.3510    60.0110    68.9820     2.2210 
  218.6250   -24.6590    72.4840    25.0390    62.7300    56.0140    64.3130     2.2360 
  218.7500   -24.4150    70.7450    24.9970    60.3810    54.6710    62.4270     2.2490 
  218.8750   -24.2120    67.4260    24.9360    65.5310    56.0660    63.5690     2.2520 
  219.0000   -24.0400    68.4630    24.8670    75.5940    59.8390    67.2800     2.2460 
  219.1250   -23.8250    72.9740    24.8660    84.5960    65.1310    72.5700     2.2410 
  219.2500   -23.5770    74.2530    24.8530    91.4590    69.8920    77.4450     2.2450 
  219.3750   -23.3330    72.0250    24.8090    96.9350    72.3690    80.3480     2.2620 
