~V
VERS. 2.00: Ver 2.00
~W
STRT.M 59.0000:
STOP.M 261.0000:
STEP.M 0.1250:
NULL. -999.2500:
UWI. DF32116:
~C
DEPT.M :
SP.MV :
GR.API :
CALI.CM :
RXO.OHMM :
RI. :
RML.OHMM :
DEN.GM/CC :
~A
# ...
  126.5000   -26.0730    54.1010    24.5530    11.0840     9.3580    11.1990     2.1620 
  126.6250   -26.0750    55.6070    24.5850    10.7620     9.1310    10.9750     2.1450 
  126.7500   -26.0490    59.5070    24.6120    10.5940     8.9120    10.7740     2.1400 
  126.8750   -25.9820    61.3180    24.6340    10.4070     8.7080    10.5810     2.1390 
  127.0000   -25.9070    58.4490    24.6570    10.2170     8.5150    10.3690     2.1340 
  127.1250   -25.8220    55.5660    24.6860    10.0440     8.3290    10.0970     2.1260 
  127.2500   -25.7090    57.6570    24.7050     9.8700     8.1550     9.7920     2.1200 
  127.3750   -25.5940    62.3630    24.7060     9.8380     8.0510     9.5840     2.1230 
  127.5000   -25.4680    64.2740    24.7010    10.1160     8.1380     9.7130     2.1320 
  127.6250   -25.3350    62.8880    24.6970    10.9340     8.6550    10.5700     2.1520 
  127.7500   -25.2120    61.5340    24.7020    13.5790     9.6700    12.2150     2.1940 
  127.8750   -25.1070    59.8830    24.7260    20.5940    11.1680    14.5490     2.2660 
  128.0000   -25.0190    58.2920    24.7630    30.5710    12.8780    17.0490     2.3600 
  128.1250   -24.9730    59.0690    24.7600    32.1850    13.9890    18.3250     2.4370 
  128.2500   -24.9680    61.5250    24.6420    24.0810    13.8970    17.6120     2.4610 
  128.3750   -24.9810    62.5220    24.3920    14.7870    12.7020    15.3780     2.4230 
  128.5000   -25.0240    61.1440    24.1000    10.5020    11.0560    12.8310     2.3430 
  128.6250   -25.0950    61.4250    23.9200     9.9110     9.6600    11.0220     2.2630 
  128.7500   -25.1510    63.3760    23.8630     9.9720     8.7440    10.0700     2.2110 
  128.8750   -25.1920    63.9360    23.8560     9.9860     8.2960     9.8210     2.1870 
  129.0000   -25.2090    61.0080    23.8500     9.8420     8.2010    10.0160     2.1810 
  129.1250   -25.1760    58.8690    23.9080     9.5880     8.3210    10.3790     2.1800 
  129.2500   -25.0970    60.4190    24.0420     9.4400     8.4880    10.6940     2.1790 
  129.3750   -24.9850    62.5090    24.1700     9.4480     8.6330    10.8930     2.1770 
  129.5000   -24.8380    61.6440    24.1980     9.5090     8.7090    10.9410     2.1780 
  129.6250   -24.6620    59.3120    24.1410     9.5250     8.6580    10.7590     2.1830 
  129.7500   -24.4870    60.4740    24.1160     9.4420     8.4850    10.3700     2.1910 
  129.8750   -24.3200    66.0040    24.1360     9.0810     8.2150     9.8330     2.2020 
  130.0000   -24.1750    71.6330    24.1630     8.4750     7.9060     9.2750     2.2130 
  130.1250   -24.0670    72.4550    24.1700     8.2050     7.6650     8.9040     2.2200 
  130.2500   -23.9750    69.7010    24.1650     8.5770     7.5850     8.8520     2.2110 
  130.3750   -23.8820    65.9810    24.1670     9.2170     7.7290     9.1890     2.1880 
  130.5000   -23.7550    64.2450    24.1890     9.6730     8.1100     9.8940     2.1620 
  130.6250   -23.5650    65.5040    24.2350    10.0360     8.6620    10.7850     2.1480 
  130.7500   -23.2940    68.1760    24.3280    10.5250     9.1300    11.4170     2.1460 
  130.8750   -22.9430    69.0870    24.4960    10.6610     9.2490    11.3830     2.1560 
  131.0000   -22.4860    67.8340    24.7020     9.8280     8.8530    10.5090     2.1780 
  131.1250   -21.9120    67.2800    24.9010     8.1090     7.9610     8.9850     2.2130 
  131.2500   -21.2960    69.7740    25.1010     6.5430     6.9340     7.4300     2.2480 
  131.3750   -20.6570    74.5280    25.3030     5.5960     6.0130     6.1890     2.2720 
  131.5000   -20.0510    80.9520    25.4460     5.1670     5.3300     5.3920     2.2840 
  131.6250   -19.5140    86.6720    25.4670     5.0340     4.9550     5.0630     2.2940 
  131.7500   -19.0600    88.3940    25.4400     5.0950     4.7920     4.9980     2.3090 
  131.8750   -18.7090    86.0180    25.4070     5.2390     4.7590     5.0520     2.3250 
  132.0000   -18.4600    84.3850    25.3750     5.2550     4.7750     5.1010     2.3300 
  132.1250   -18.3190    86.0940    25.3170     5.0950     4.7830     5.0830     2.3170 
  132.2500   -18.2430    86.1530    25.2270     4.9560     4.7790     5.0370     2.3020 
  132.3750   -18.2260    83.6880    25.1370     4.8740     4.7810     5.0100     2.2970 
  132.5000   -18.2260    83.0480    25.0620     4.8550     4.8060     5.0350     2.3040 
  132.6250   -18.2260    86.6130    24.9480     4.9880     4.8620     5.1210     2.3140 
  132.7500   -18.2090    90.6990    24.8260     5.1980     4.9210     5.2140     2.3170 
  132.8750   -18.1480    92.0400    24.8360     5.3080     4.9530     5.2630     2.3160 
  133.0000   -18.0650    89.8960    25.0530     5.2570     4.9340     5.2330     2.3150 
  133.1250   -17.9650    87.1960    25.3430     5.1210     4.8520     5.1130     2.3180 
  133.2500   -17.8500    87.8140    25.5080     4.9690     4.7400     4.9560     2.3180 
  133.3750   -17.7280    90.1800    25.5320     4.8020     4.6320     4.8200     2.3130 
  133.5000   -17.6310    91.0360    25.4990     4.6870     4.5610     4.7540     2.3040 
  133.6250   -17.6000    91.5810    25.4760     4.7730     4.5650     4.8050     2.2960 
  133.7500   -17.6570    93.0800    25.4580     5.0550     4.6410     4.9590     2.2890 
  133.8750   -17.8210    93.0650    25.4340     5.4130     4.7840     5.2000     2.2810 
  134.0000   -18.0600    89.5760    25.4030     5.7100     4.9770     5.5010     2.2700 
  134.1250   -18.3910    84.3520    25.3400     5.9250     5.2020     5.8290     2.2600 
  134.2500   -18.7900    79.3430    25.2100     6.1810     5.4240     6.1420     2.2490 
  134.3750   -19.2250    73.8580    25.0280     6.5140     5.6220     6.4080     2.2300 
  134.5000   -19.6750    69.1270    24.8650     6.8390     5.7770     6.6060     2.2070 
  134.6250   -20.0910    69.8970    24.7870     6.9700     5.8730     6.7220     2.1940 
  134.7500   -20.4370    75.1110    24.7620     6.8950     5.9340     6.7950     2.1970 
  134.8750   -20.7090    79.5020    24.7570     6.7400     5.9790     6.8570     2.2050 
  135.0000   -20.9300    80.6470    24.7610     6.6890     6.0280     6.9350     2.2090 
  135.1250   -21.0820    80.2510    24.7590     6.8800     6.0940     7.0440     2.2110 
  135.2500   -21.1780    79.9110    24.7370     7.1730     6.1780     7.1770     2.2190 
  135.3750   -21.2560    77.5240    24.7100     7.3700     6.2760     7.3300     2.2310 
  135.5000   -21.3100    74.2140    24.6960     7.3690     6.3870     7.5080     2.2310 
  135.6250   -21.3650    75.5670    24.6970     7.3230     6.5170     7.7220     2.2100 
  135.7500   -21.4470    79.2320    24.6990     7.4870     6.6570     7.9560     2.1810 
  135.8750   -21.5320    80.0380    24.6940     7.8940     6.8000     8.1960     2.1600 
  136.0000   -21.6220    76.9350    24.6750     8.3430     6.9410     8.4350     2.1560 
  136.1250   -21.7140    75.5860    24.6500     8.5480     7.0800     8.6690     2.1660 
  136.2500   -21.8030    76.1670    24.6300     8.6780     7.2210     8.9050     2.1800 
  136.3750   -21.8850    75.1980    24.5940     9.1570     7.3770     9.1600     2.1860 
  136.5000   -21.9590    72.8000    24.5260    10.0140     7.5640     9.4490     2.1770 
  136.6250   -22.0200    73.0380    24.4630    10.4550     7.8050     9.7980     2.1580 
  136.7500   -22.0890    74.4320    24.4410    10.2040     8.1290    10.2670     2.1480 
  136.8750   -22.1680    74.7530    24.4270     9.9510     8.6090    10.9950     2.1530 
  137.0000   -22.2370    72.3530    24.3810    10.3750     9.3320    12.1300     2.1680 
  137.1250   -22.3170    68.1090    24.3200    11.6420    10.3930    13.8040     2.1860 
  137.2500   -22.4250    66.5140    24.2880    13.8850    11.6420    15.7290     2.2090 
  137.3750   -22.5480    68.7620    24.2970    17.4990    12.7880    17.3720     2.2380 
  137.5000   -22.7060    71.4230    24.3340    20.8220    13.4080    18.0150     2.2590 
  137.6250   -22.8950    69.8290    24.3730    19.9710    13.0760    17.0770     2.2550 
