~V
VERS. 2.00: Ver 2.00
~W
STRT.M 62.0000:
STOP.M 318.0000:
STEP.M 0.1250:
NULL. -999.2500:
UWI. DF321:
~C
DEPT.M :
DEN.GM/CC :
SP.MV :
AC.US/MT :
GR.API :
CALI.CM :
RXO.OHMM :
RI. :
RML.OHMM :
~A
# ...
  112.0000     2.2000   -28.8410   400.4160    81.6120    23.2380    19.1670     7.8010     9.4550 
  112.1250     2.2960   -28.8970   380.3720    81.7330    23.5260    28.5630     8.3670    10.2350 
  112.2500     2.3670   -29.1120   370.6220    78.4160    23.7340    27.6270     8.6060    10.4880 
  112.3750     2.3690   -29.4550   373.8900    73.9870    23.7290    18.5050     8.4580    10.1450 
  112.5000     2.3000   -29.8960   387.0290    69.2830    23.5880    11.5980     8.0440     9.4610 
  112.6250     2.2130   -30.4690   402.6330    64.0040    23.4630    10.6440     7.5790     8.8190 
  112.7500     2.1620   -30.9670   414.1260    61.1250    23.4100    10.7970     7.2350     8.4350 
  112.8750     2.1500   -31.3770   420.3200    62.1040    23.4000    11.0800     7.0640     8.3280 
  113.0000     2.1540   -31.7810   422.9790    65.1390    23.4190    11.2020     7.0330     8.4060 
  113.1250     2.1550   -32.0230   424.4630    68.8680    23.6380    11.1440     7.0660     8.5270 
  113.2500     2.1540   -32.1960   426.1090    70.0210    24.0950    11.0010     7.0860     8.6020 
  113.3750     2.1550   -32.3130   427.9160    69.3500    24.5270    10.8560     7.0720     8.6150 
  113.5000     2.1590   -32.3540   429.6920    69.4030    24.7800    10.7460     7.0270     8.5740 
  113.6250     2.1600   -32.3760   431.3020    70.1470    24.7010    10.6930     6.9600     8.4970 
  113.7500     2.1570   -32.4030   432.7430    68.8850    24.4110    10.6330     6.8920     8.4150 
  113.8750     2.1530   -32.4540   434.1200    66.0380    24.1210    10.5510     6.8330     8.3480 
  114.0000     2.1500   -32.4580   435.7460    65.8030    24.0650    10.4670     6.7870     8.3080 
  114.1250     2.1410   -32.4080   438.1730    68.0770    24.1370    10.4250     6.7630     8.3040 
  114.2500     2.1290   -32.3300   441.3520    68.8860    24.1950    10.3990     6.7660     8.3280 
  114.3750     2.1230   -32.2160   444.8020    67.5220    24.2270    10.3940     6.8010     8.3840 
  114.5000     2.1230   -32.0070   447.8310    66.6540    24.1610    10.4310     6.8650     8.4720 
  114.6250     2.1250   -31.7260   449.9310    68.1960    23.8650    10.6080     6.9570     8.5900 
  114.7500     2.1270   -31.4150   451.5380    70.1110    23.4610    10.8740     7.0620     8.7120 
  114.8750     2.1330   -30.9670   453.1110    72.1760    23.1790    11.1610     7.1560     8.8010 
  115.0000     2.1410   -30.4630   454.6710    74.7350    23.0770    11.3640     7.2060     8.8060 
  115.1250     2.1440   -29.9660   455.3520    76.0810    23.0700    11.3670     7.1570     8.6620 
  115.2500     2.1440   -29.3380   454.3510    75.0850    23.0760    11.0320     7.0170     8.4040 
  115.3750     2.1440   -28.7100   451.4860    72.7760    23.0900    10.2540     6.8230     8.1000 
  115.5000     2.1480   -28.1210   447.5060    72.5490    23.1000     9.2990     6.6350     7.8380 
  115.6250     2.1540   -27.4530   444.1560    77.1700    23.1020     8.6760     6.5100     7.7120 
  115.7500     2.1620   -26.8250   442.8550    83.0090    23.1000     8.6030     6.4540     7.7170 
  115.8750     2.1740   -26.2280   443.9900    86.7780    23.0980     8.8000     6.4390     7.8010 
  116.0000     2.1880   -25.5900   446.8630    87.7150    23.0950     8.9080     6.4010     7.8590 
  116.1250     2.1990   -24.9640   449.8370    87.9380    23.0910     8.5560     6.2380     7.7340 
  116.2500     2.2080   -24.3700   451.3010    88.3030    23.0760     8.3130     5.9150     7.3810 
  116.3750     2.2200   -23.7790   450.5520    88.9140    23.0450     8.2070     5.4440     6.8110 
  116.5000     2.2420   -23.2410   447.7080    89.4120    23.0050     7.7020     4.8880     6.0940 
  116.6250     2.2770   -22.8310   443.4280    90.7760    22.9910     6.7090     4.3710     5.3790 
  116.7500     2.3130   -22.5730   438.4680    96.1800    22.9880     5.9040     4.0410     4.8750 
  116.8750     2.3320   -22.4800   431.6630   104.2720    22.9890     5.7240     4.0500     4.8030 
  117.0000     2.3270   -22.5330   419.6810   108.3930    22.9890     6.1570     4.5600     5.3940 
  117.1250     2.3150   -22.7530   396.3230   102.8140    22.9900     8.3110     5.8850     7.0680 
  117.2500     2.3300   -23.1190   362.6280    91.9050    23.0030    14.8400     8.0120     9.8400 
  117.3750     2.3940   -23.5490   325.1300    80.4440    23.0470    27.9730    10.6610    13.3680 
  117.5000     2.4980   -24.0710   295.6960    70.8980    23.1060    39.9700    12.8520    16.2000 
  117.6250     2.5810   -24.6070   290.3270    64.3890    23.1570    36.4440    12.9410    15.8190 
  117.7500     2.5780   -25.0620   308.6740    60.1080    23.0980    23.3920    11.3670    13.1870 
  117.8750     2.4840   -25.5300   343.0320    59.0370    22.9690    13.2300     9.3170    10.3100 
  118.0000     2.3510   -25.9550   380.8380    62.5050    22.8210     9.6610     7.6410     8.3130 
  118.1250     2.2510   -26.3150   409.1850    67.8000    22.7420     9.5020     6.7140     7.5020 
  118.2500     2.1960   -26.6720   425.7650    70.9040    22.6750     9.8230     6.3650     7.4710 
  118.3750     2.1690   -26.9740   433.2480    70.9270    22.6080     9.8750     6.4420     7.9400 
  118.5000     2.1590   -27.2180   435.8510    69.1780    22.5870     9.7190     6.7440     8.5810 
  118.6250     2.1610   -27.4880   436.5460    67.2710    22.7130     9.6770     7.0290     9.0030 
  118.7500     2.1730   -27.6910   436.6240    66.4580    22.9780     9.7990     7.1500     9.0570 
  118.8750     2.1890   -27.8070   436.0080    67.3940    23.1820     9.9420     7.0930     8.8090 
  119.0000     2.2030   -27.9810   434.6980    69.4860    23.1610     9.8730     6.9190     8.4260 
  119.1250     2.2030   -28.1180   433.3920    70.5290    23.0980     9.4610     6.7320     8.1000 
  119.2500     2.1950   -28.2310   433.5740    70.0560    23.0800     9.2100     6.6190     7.9370 
  119.3750     2.1890   -28.4260   436.7130    68.9450    23.1010     9.3550     6.6110     7.9550 
  119.5000     2.1900   -28.5600   443.3260    68.2850    23.1440     9.7040     6.6850     8.0970 
  119.6250     2.1920   -28.6580   451.6360    68.0920    23.1660     9.8500     6.7830     8.2550 
  119.7500     2.1890   -28.7860   456.8490    68.1920    23.1730     9.9000     6.8540     8.3480 
  119.8750     2.1800   -28.9280   454.6110    68.9890    23.1730     9.9550     6.8960     8.3770 
  120.0000     2.1690   -29.0240   442.7620    70.8980    23.1730     9.9740     6.9330     8.3890 
  120.1250     2.1650   -29.1230   422.8900    72.6990    23.1730     9.8890     6.9980     8.4360 
  120.2500     2.1680   -29.2650   403.6990    72.8510    23.1730     9.8520     7.0910     8.5060 
  120.3750     2.1790   -29.3520   392.8760    71.6350    23.1720    10.0740     7.1890     8.5630 
  120.5000     2.1920   -29.4690   395.0960    69.6350    23.1690    10.5290     7.2550     8.5720 
  120.6250     2.2010   -29.6090   410.5900    66.4440    23.1570    10.7580     7.2480     8.5140 
  120.7500     2.2010   -29.7160   429.7980    63.3100    23.1410    10.5860     7.1710     8.4130 
  120.8750     2.1910   -29.7680   444.8420    63.6380    23.1340    10.2410     7.0460     8.2880 
  121.0000     2.1750   -29.8350   450.9960    67.9440    23.1470     9.9900     6.9030     8.1560 
  121.1250     2.1660   -29.8880   447.6360    70.6390    23.1570     9.8880     6.7850     8.0490 
  121.2500     2.1670   -29.8500   440.8600    68.7290    23.1490     9.8080     6.7190     7.9980 
  121.3750     2.1730   -29.8400   434.8240    66.1940    23.1200     9.6360     6.7110     8.0180 
  121.5000     2.1730   -29.7990   431.7120    67.1330    23.1030     9.3230     6.7500     8.0970 
  121.6250     2.1650   -29.7270   432.2570    70.1670    23.2140     9.1460     6.8080     8.1960 
  121.7500     2.1570   -29.7070   435.2610    71.5130    23.3950     9.2590     6.8450     8.2590 
  121.8750     2.1560   -29.6690   440.1460    70.7880    23.4110     9.3530     6.8360     8.2470 
