~V
VERS. 2.00: Ver 2.00
~W
STRT.M 62.0000:
STOP.M 282.0000:
STEP.M 0.1250:
NULL. -999.2500:
UWI. DF32160:
~C
DEPT.M :
GR.API :
CALI.CM :
RXO.OHMM :
RI. :
RML.OHMM :
DEN.GM/CC :
SP.MV :
~A
   62.0000    54.2650    25.1460     2.1060     0.7220     0.7690     2.3120    12.7030 
   62.1250    59.4600    24.7230     4.6080     0.9430     1.1480     2.2810     6.1270 
   62.2500    62.3310    24.4230     7.5210     1.3740     2.0310     2.2210    -0.3190 
   62.3750    62.4980    24.1640     9.4370     2.1120     3.5860     2.1800    -6.3320 
   62.5000    62.4970    23.9820     9.8870     3.1580     5.5240     2.1770   -11.4310 
   62.6250    66.2900    23.8490     9.5680     4.2640     6.6230     2.1850   -14.9460 
   62.7500    69.0830    23.7340     9.1930     5.1400     6.8540     2.1760   -17.1510 
   62.8750    67.9060    23.6550     8.8900     5.7330     6.8400     2.1450   -18.3510 
   63.0000    64.2170    23.6760     8.8070     6.0750     6.8570     2.1040   -18.8100 
   63.1250    61.8360    23.9790     8.8570     6.1310     6.8100     2.0730   -18.7180 
   63.2500    61.4560    24.5340     8.4530     5.9550     6.5770     2.0620   -18.3680 
   63.3750    65.7410    25.1500     7.2340     5.6180     6.1800     2.0710   -17.8830 
   63.5000    75.5210    25.5370     5.6590     5.2420     5.7640     2.0900   -17.3620 
   63.6250    85.3300    25.5180     4.8060     4.9740     5.5190     2.1150   -16.8960 
   63.7500    89.6830    25.3810     4.8390     4.8580     5.4840     2.1530   -16.5210 
   63.8750    88.9540    25.3370     5.2880     4.8830     5.6310     2.2050   -16.2910 
   64.0000    86.6300    25.3580     5.6740     5.0000     5.8930     2.2560   -16.2690 
   64.1250    85.9990    25.3030     5.7570     5.1410     6.1590     2.2770   -16.5080 
   64.2500    85.3930    25.2340     5.6210     5.2420     6.3400     2.2670   -16.9120 
   64.3750    82.5810    25.2760     5.4750     5.2860     6.4240     2.2420   -17.4180 
   64.5000    78.3380    25.4770     5.6120     5.2960     6.4550     2.2180   -18.0030 
   64.6250    77.1010    25.7760     6.0210     5.3070     6.4890     2.2050   -18.6450 
   64.7500    77.0560    25.9800     6.2160     5.3410     6.5540     2.2030   -19.3270 
   64.8750    76.5370    25.9460     6.1350     5.4060     6.6610     2.2050   -20.0440 
   65.0000    75.3560    25.6960     6.1910     5.5160     6.8310     2.2010   -20.7610 
   65.1250    73.9630    25.4220     6.7300     5.7180     7.1400     2.1890   -21.3950 
   65.2500    71.9880    25.2870     7.3190     6.0420     7.6370     2.1730   -21.9290 
   65.3750    69.4550    25.2380     7.9060     6.4960     8.3440     2.1520   -22.3570 
   65.5000    66.4450    25.1650     9.4700     7.0320     9.1940     2.1280   -22.6530 
   65.6250    64.2000    25.0770    12.8050     7.5100     9.9460     2.1050   -22.7900 
   65.7500    65.6910    24.9290    14.6870     7.7760    10.3040     2.0940   -22.7920 
   65.8750    68.9800    24.6350    12.9140     7.7420    10.1370     2.0980   -22.6790 
   66.0000    70.4850    24.2420     9.2600     7.4330     9.5590     2.1130   -22.4610 
   66.1250    69.9870    23.9920     7.2900     6.9490     8.8190     2.1190   -22.1810 
   66.2500    70.7890    23.8860     6.7200     6.4570     8.1570     2.1120   -21.8930 
   66.3750    74.2810    23.6930     6.4550     6.0530     7.6760     2.1050   -21.6180 
   66.5000    78.3080    23.3620     6.0730     5.7950     7.4200     2.1130   -21.3810 
   66.6250    80.1840    23.0470     5.7900     5.7290     7.4360     2.1260   -21.1720 
   66.7500    78.4000    22.8730     5.8320     5.8130     7.6600     2.1230   -20.9510 
   66.8750    75.6090    22.8310     6.1790     6.0020     8.0100     2.1100   -20.6790 
   67.0000    75.6100    22.8910     6.5660     6.2090     8.3190     2.1090   -20.3430 
   67.1250    79.8260    23.0410     6.6280     6.2750     8.2950     2.1310   -19.9430 
   67.2500    85.0520    23.1990     6.3050     6.1220     7.8730     2.1580   -19.5270 
   67.3750    89.8360    23.2970     5.6900     5.7710     7.1930     2.1800   -19.1510 
   67.5000    94.3250    23.3190     4.9850     5.3340     6.5100     2.1960   -18.8570 
   67.6250    96.8300    23.3160     4.5210     4.9780     6.0830     2.2030   -18.7290 
   67.7500    94.4760    23.3570     4.4950     4.7930     5.9530     2.2000   -18.7610 
   67.8750    87.5940    23.4460     4.9350     4.8000     6.0970     2.1890   -18.9590 
   68.0000    80.2020    23.5470     5.6510     4.9750     6.4410     2.1760   -19.3270 
   68.1250    77.8030    23.6740     6.2760     5.2620     6.8670     2.1600   -19.8380 
   68.2500    77.6170    23.9270     6.6400     5.5600     7.2320     2.1370   -20.3750 
   68.3750    77.2010    24.3190     6.8400     5.8130     7.4830     2.1080   -20.8350 
   68.5000    76.4540    24.7070     7.0120     6.0040     7.6410     2.0810   -21.1370 
   68.6250    76.4950    24.8510     7.1840     6.1210     7.7320     2.0630   -21.1800 
   68.7500    77.0380    24.7480     7.3720     6.1650     7.7590     2.0590   -21.0110 
   68.8750    79.0740    24.5340     7.5950     6.1150     7.6800     2.0750   -20.6660 
   69.0000    83.5390    24.3580     7.6470     5.9550     7.4710     2.1110   -20.1760 
   69.1250    88.3540    24.2170     7.0710     5.6830     7.1460     2.1480   -19.5970 
   69.2500    89.4450    23.9330     6.1210     5.3640     6.7870     2.1660   -19.0150 
   69.3750    87.4720    23.4690     5.4100     5.0440     6.4410     2.1650   -18.4780 
   69.5000    85.3870    22.9980     5.2530     4.7600     6.1250     2.1570   -18.0240 
   69.6250    87.5870    22.7230     5.3550     4.5550     5.8840     2.1550   -17.7460 
   69.7500    91.3700    22.7260     5.3780     4.4710     5.8120     2.1740   -17.6530 
   69.8750    91.5380    23.1720     5.5110     4.5900     6.0800     2.2230   -17.7460 
   70.0000    85.9320    24.0570     6.1030     5.0340     6.9110     2.3000   -18.0290 
   70.1250    78.1120    24.9630     7.6770     6.0630     8.7100     2.3790   -18.5270 
   70.2500    74.5750    25.5070    10.8580     7.7510    11.5170     2.4400   -19.1900 
   70.3750    75.6880    25.7350    16.6520    10.0440    15.1180     2.4860   -19.9970 
   70.5000    77.9470    25.8140    23.8560    12.4280    18.4900     2.5190   -20.9360 
   70.6250    76.7680    25.7220    25.6440    13.5370    19.2880     2.5150   -21.9530 
   70.7500    73.5470    25.5320    20.5960    12.8730    17.2730     2.4530   -22.9670 
   70.8750    71.8080    25.4070    13.7270    11.0600    13.9900     2.3450   -23.9300 
   71.0000    71.5120    25.4300     9.7610     9.0770    11.0470     2.2330   -24.7920 
   71.1250    71.0040    25.5060     8.7670     7.5910     9.2360     2.1640   -25.4520 
   71.2500    72.0240    25.5320     8.4830     6.6300     8.2980     2.1340   -25.9150 
   71.3750    74.0370    25.5460     8.2330     6.1080     7.9830     2.1250   -26.2120 
   71.5000    74.2960    25.5710     8.0140     5.9000     8.0380     2.1260   -26.3680 
   71.6250    71.7110    25.5630     7.9680     5.8830     8.2170     2.1290   -26.4180 
   71.7500    70.5370    25.5370     8.0070     5.9040     8.3100     2.1290   -26.4300 
   71.8750    72.3540    25.5400     7.9390     5.8990     8.2490     2.1260   -26.4420 
   72.0000    76.5140    25.5890     7.6930     5.8470     8.0590     2.1170   -26.4790 
   72.1250    80.7460    25.6780     7.3630     5.7880     7.8600     2.0980   -26.5710 
   72.2500    79.5370    25.8080     7.1210     5.7910     7.8110     2.0850   -26.6880 
   72.3750    74.2130    25.9710     7.1180     5.9100     8.0050     2.0990   -26.7800 
   72.5000    71.5660    26.0750     7.3960     6.1580     8.4510     2.1520   -26.7910 
   72.6250    73.3800    25.9920     7.7800     6.4910     9.0340     2.2190   -26.6710 
   72.7500    71.8650    25.8400     8.0650     6.7520     9.4500     2.2570   -26.4450 
   72.8750    68.4980    25.8020     8.2750     6.7910     9.4340     2.2510   -26.1260 
   73.0000    70.3960    25.9290     8.3180     6.5430     8.9210     2.2210   -25.7400 
   73.1250    79.3370    26.0870     7.7320     6.0730     8.1120     2.1980   -25.3480 
