~V
VERS. 2.00: Ver 2.00
~W
STRT.M 61.0000:
STOP.M 262.0000:
STEP.M 0.1250:
NULL. -999.2500:
UWI. DF32115:
~C
DEPT.M :
GR.API :
CALI.CM :
RXO.OHMM :
RI. :
RML.OHMM :
DEN.GM/CC :
SP.MV :
~A
# ...
  139.7500    83.7680    24.5030     6.9830     7.3710     8.7800     2.2560   -23.8630 
  139.8750    85.9880    24.5410     6.5580     6.8990     8.0200     2.2750   -23.6340 
  140.0000    88.2250    24.5410     6.2230     6.5590     7.5130     2.2820   -23.4780 
  140.1250    88.8180    24.5000     6.0180     6.5760     7.6280     2.2750   -23.4940 
  140.2500    86.3680    24.4660     6.4530     7.0440     8.4650     2.2520   -23.6630 
  140.3750    80.5080    24.4450     8.3280     8.0280    10.0750     2.2160   -23.9570 
  140.5000    73.5270    24.4260    11.8040     9.4690    12.2940     2.1730   -24.3850 
  140.6250    68.3490    24.4310    14.8840    11.0060    14.4550     2.1430   -24.8930 
  140.7500    64.9070    24.4610    15.2510    11.9870    15.5510     2.1310   -25.4080 
  140.8750    62.0640    24.4850    13.2020    12.0280    15.1280     2.1360   -25.9190 
  141.0000    61.3950    24.4850    10.7560    11.2870    13.6700     2.1480   -26.3960 
  141.1250    64.4610    24.4930     9.4430    10.3190    12.1910     2.1580   -26.7730 
  141.2500    67.7110    24.4940     9.2870     9.5890    11.2650     2.1640   -27.0450 
  141.3750    68.3640    24.4660    10.2890     9.1950    10.9150     2.1730   -27.2470 
  141.5000    66.4820    24.4560    11.8860     9.0750    10.9560     2.1870   -27.3820 
  141.6250    64.1210    24.4940    12.2180     9.1030    11.1260     2.2020   -27.4490 
  141.7500    63.6010    24.4750    10.9010     9.1220    11.1940     2.2040   -27.4790 
  141.8750    65.1750    24.3490     9.2150     9.0770    11.1070     2.1950   -27.4840 
  142.0000    68.3910    24.1790     8.3210     8.9680    10.9080     2.1850   -27.4740 
  142.1250    70.7450    24.0510     8.1750     8.8250    10.6590     2.1860   -27.4510 
  142.2500    71.3220    23.9460     8.1790     8.6810    10.4010     2.1920   -27.4350 
  142.3750    71.3450    23.8530     8.2350     8.5470    10.1360     2.1910   -27.4230 
  142.5000    72.4610    23.7860     8.3520     8.4260     9.8680     2.1800   -27.4160 
  142.6250    76.0010    23.7450     8.6170     8.3390     9.6500     2.1670   -27.4150 
  142.7500    78.2350    23.7130     9.0910     8.3190     9.5510     2.1590   -27.4040 
  142.8750    75.9360    23.6890     9.6600     8.4100     9.6450     2.1610   -27.3630 
  143.0000    69.9480    23.6770    10.0550     8.6570     9.9900     2.1710   -27.2500 
  143.1250    65.9430    23.6760    10.0700     9.0840    10.5780     2.1840   -27.0240 
  143.2500    65.2440    23.6760    10.0020     9.5410    11.1390     2.1880   -26.6860 
  143.3750    64.9540    23.6760    10.1950     9.7990    11.3270     2.1830   -26.2170 
  143.5000    65.9700    23.6750    10.5030     9.6210    10.8450     2.1790   -25.5960 
  143.6250    71.5750    23.6790     9.9010     8.8490     9.5850     2.1980   -24.8450 
  143.7500    78.3980    23.7320     8.2470     7.7690     8.0300     2.2450   -24.0340 
  143.8750    84.5780    23.8670     6.4050     6.6650     6.5840     2.3040   -23.2040 
  144.0000    89.8550    24.0570     5.2210     5.7440     5.4870     2.3540   -22.4190 
  144.1250    93.5700    24.2230     4.8000     5.1340     4.8480     2.3770   -21.7480 
  144.2500    94.5870    24.3300     4.6560     4.7820     4.5350     2.3790   -21.1870 
  144.3750    92.4360    24.3960     4.7000     4.6600     4.4880     2.3680   -20.7500 
  144.5000    87.8350    24.4090     4.9490     4.7520     4.6820     2.3520   -20.4620 
  144.6250    82.8210    24.3840     5.3890     5.0770     5.1470     2.3410   -20.2970 
  144.7500    79.7320    24.4300     6.1980     5.5940     5.8440     2.3340   -20.2030 
  144.8750    78.5050    24.5930     7.8410     6.2920     6.7530     2.3270   -20.1640 
  145.0000    76.9290    24.8100    10.0670     7.1410     7.8130     2.3300   -20.1540 
  145.1250    74.3210    24.9850    11.1780     8.0920     8.9450     2.3590   -20.1570 
  145.2500    69.3860    25.1000    11.0360     9.0760    10.0960     2.3990   -20.1790 
  145.3750    63.3000    25.1540    11.3530    10.0910    11.3080     2.4240   -20.2340 
  145.5000    61.1790    25.1590    13.5500    11.1670    12.6520     2.4200   -20.3200 
  145.6250    64.6000    25.1740    16.8990    12.3720    14.2140     2.3860   -20.4720 
  145.7500    68.2630    25.2010    19.1240    13.7180    15.9590     2.3400   -20.6770 
  145.8750    69.8340    25.1970    19.5840    15.1600    17.7880     2.2930   -20.9110 
  146.0000    70.4200    25.1710    19.3090    16.5740    19.5330     2.2520   -21.1600 
  146.1250    71.7350    25.1750    19.5740    17.7600    20.9410     2.2210   -21.4170 
  146.2500    72.7460    25.2010    20.0670    18.5880    21.8570     2.2010   -21.6750 
  146.3750    70.7340    25.2210    20.1460    18.9210    22.1100     2.1890   -21.9100 
  146.5000    66.5690    25.2250    19.6730    18.6950    21.6500     2.1840   -22.1110 
  146.6250    65.4440    25.2100    18.5850    17.9650    20.6150     2.1840   -22.2700 
  146.7500    68.5600    25.1700    16.9280    17.0770    19.4790     2.1920   -22.3920 
  146.8750    73.3480    25.0950    15.2720    16.2890    18.5720     2.2050   -22.4770 
  147.0000    77.6160    24.9820    14.5340    15.7760    18.0860     2.2180   -22.5410 
  147.1250    79.0560    24.8580    15.1390    15.6800    18.1570     2.2230   -22.5930 
  147.2500    77.0710    24.7750    16.1290    15.9650    18.7040     2.2230   -22.6290 
  147.3750    73.8760    24.7490    16.8830    16.6380    19.7150     2.2200   -22.6460 
  147.5000    70.9910    24.7550    17.6140    17.6830    21.1560     2.2160   -22.6580 
  147.6250    69.1880    24.7480    19.3100    19.0830    22.9910     2.2060   -22.6630 
  147.7500    69.1000    24.7080    21.9730    20.6770    25.0250     2.1940   -22.6650 
  147.8750    70.0500    24.8280    24.4840    22.3410    27.0970     2.1810   -22.6790 
  148.0000    67.9930    25.2390    25.5630    23.9210    29.0090     2.1690   -22.7160 
  148.1250    63.7960    25.6890    25.1620    25.1800    30.4720     2.1530   -22.7960 
  148.2500    64.3560    25.8430    25.0950    26.0390    31.4220     2.1400   -22.9160 
  148.3750    69.3210    25.7720    26.0520    26.4980    31.8910     2.1440   -23.0920 
  148.5000    73.5110    25.7010    26.9980    26.6450    32.0070     2.1670   -23.3170 
  148.6250    74.9290    25.6460    26.3440    26.6050    31.9450     2.1940   -23.5510 
  148.7500    75.6790    25.5630    25.0720    26.5730    31.9420     2.2050   -23.7660 
  148.8750    74.0840    25.5450    24.7830    26.6760    32.1520     2.1980   -23.9580 
  149.0000    68.9950    25.6240    25.6620    26.9900    32.6480     2.1860   -24.0930 
  149.1250    64.4770    25.6930    26.8000    27.5380    33.4280     2.1900   -24.1270 
  149.2500    63.9520    25.6860    28.1380    28.1860    34.2890     2.2300   -24.0780 
  149.3750    66.2230    25.6690    29.8960    28.7770    35.0050     2.3150   -23.9520 
  149.5000    67.8040    25.6840    31.0480    29.1180    35.3180     2.4310   -23.7360 
  149.6250    65.3810    25.6650    30.5810    28.9350    34.8920     2.5380   -23.4680 
  149.7500    60.0930    25.5750    29.8860    28.1940    33.7290     2.6010   -23.1950 
  149.8750    57.0290    25.4810    29.5250    26.9140    31.9070     2.6190   -22.9100 
  150.0000    58.6660    25.5100    28.4460    25.2480    29.6690     2.6100   -22.6380 
  150.1250    61.0290    25.6920    25.7160    23.4580    27.3950     2.5930   -22.4210 
  150.2500    60.5670    25.8040    22.5110    21.8230    25.4050     2.5740   -22.2430 
  150.3750    59.0830    25.7090    20.1250    20.4750    23.8400     2.5480   -22.0870 
  150.5000    59.0500    25.4990    19.2810    19.4650    22.7220     2.5190   -21.9840 
  150.6250    60.9160    25.3900    19.6300    18.8270    22.0540     2.5030   -21.9420 
  150.7500    62.9340    25.3800    19.5050    18.4570    21.6870     2.5010   -21.9280 
  150.8750    63.4020    25.3660    18.4580    18.3190    21.5800     2.5110   -21.9260 
