~V
VERS. 2.00: Ver 2.00
~W
STRT.M 62.0000:
STOP.M 243.0000:
STEP.M 0.1250:
NULL. -999.2500:
UWI. DF32072:
~C
DEPT.M :
SP.MV :
GR.API :
CALI.CM :
RXO.OHMM :
RI. :
RML.OHMM :
DEN.GM/CC :
~A
# ...
  174.5000   -42.8770    70.9940    24.2860    94.2080   100.0000   117.2590     2.2220 
  174.6250   -42.7350    72.7160    24.2940    86.6250    94.1190   109.5720     2.2250 
  174.7500   -42.6090    71.9860    24.3100    90.2230    93.0760   107.7540     2.2180 
  174.8750   -42.4870    71.7990    24.3280   100.6740    97.7950   113.1080     2.2070 
  175.0000   -42.3400    72.4810    24.3360   118.1710   109.5770   127.5140     2.1930 
  175.1250   -42.2330    71.9840    24.3410   154.5680   132.4970   156.3530     2.1760 
  175.2500   -42.0810    70.0490    24.3460   215.9230   168.9670   201.8650     2.1550 
  175.3750   -41.8690    68.0190    24.3590   296.4160   224.1500   267.5560     2.1340 
  175.5000   -41.6570    65.4990    24.3880   375.9890   302.4060   352.3430     2.1210 
  175.6250   -41.2920    61.8860    24.4420   427.7680   387.9780   433.3190     2.1160 
  175.7500   -40.8640    59.2450    24.5690   442.6970   416.6270   461.3320     2.1090 
  175.8750   -40.4030    58.4300    24.7790   410.9460   354.2450   409.7960     2.1000 
  176.0000   -39.9060    58.6000    24.9830   329.2700   253.1500   309.1320     2.0980 
  176.1250   -39.3790    58.0090    25.1310   220.4150   176.4270   216.1830     2.1140 
  176.2500   -38.8940    57.0200    25.2530   133.0430   128.4390   152.3850     2.1390 
  176.3750   -38.4270    58.7860    25.2920    86.6230   100.6200   114.6980     2.1590 
  176.5000   -37.9730    63.8880    25.2290    73.3970    85.5940    95.1940     2.1680 
  176.6250   -37.5930    68.5050    25.0740    76.8680    79.4510    88.0080     2.1650 
  176.7500   -37.2650    68.7860    24.8810    81.8930    77.7320    86.3970     2.1530 
  176.8750   -36.9640    66.5230    24.7840    82.5220    78.2830    87.4090     2.1290 
  177.0000   -36.6670    64.8550    24.8460    77.4300    79.0460    88.5630     2.1000 
  177.1250   -36.3390    64.5740    24.9170    69.1860    77.7990    87.3400     2.0830 
  177.2500   -35.9840    65.2710    24.9980    60.5110    73.9890    83.1420     2.0890 
  177.3750   -35.5970    67.0000    25.1170    51.2560    67.9270    76.3290     2.1110 
  177.5000   -35.0990    68.0310    25.3080    41.9790    60.3660    67.7940     2.1370 
  177.6250   -34.6180    67.4490    25.5280    35.0490    52.1660    58.6460     2.1580 
  177.7500   -34.1080    67.7050    25.7350    30.4180    44.4290    50.1810     2.1760 
  177.8750   -33.4980    67.4140    25.9300    26.3230    38.0590    43.3430     2.1890 
  178.0000   -32.9460    65.2790    26.0520    21.7620    33.7210    38.7640     2.1930 
  178.1250   -32.4170    63.1540    26.1160    18.6190    32.1450    37.1630     2.1930 
  178.2500   -31.8760    61.1310    26.1900    19.7880    33.0730    38.2690     2.2150 
  178.3750   -31.3660    57.8140    26.2130    26.3600    36.5520    42.1500     2.2700 
  178.5000   -30.9640    55.1950    26.0210    36.7850    42.1800    48.2720     2.3440 
  178.6250   -30.5690    56.8840    25.4690    47.5150    47.3500    53.5530     2.4170 
  178.7500   -30.2440    58.0400    24.9570    54.3260    47.1850    52.9260     2.4800 
  178.8750   -30.0290    55.6850    24.6060    53.2420    39.7950    44.6090     2.5210 
  179.0000   -29.7740    54.8180    24.3350    42.7860    28.9820    32.5600     2.5200 
  179.1250   -29.5990    60.4880    24.1910    27.4130    20.2000    22.6170     2.4640 
  179.2500   -29.4390    69.5460    24.1490    15.8610    14.6520    16.2320     2.3950 
  179.3750   -29.2650    77.7850    24.1720    10.6740    11.8370    12.8280     2.3450 
  179.5000   -29.0790    83.0560    24.2610    10.1730    11.1640    11.6440     2.3280 
  179.6250   -28.8320    83.1070    24.4430    13.9420    12.4740    12.7970     2.3340 
  179.7500   -28.5140    78.8140    24.7790    21.7710    15.2410    16.2300     2.3380 
  179.8750   -28.1520    73.4300    24.9350    31.2390    19.7620    21.4490     2.3220 
  180.0000   -27.7730    70.4750    24.9730    37.4120    25.3310    27.5530     2.2860 
  180.1250   -27.3360    71.2510    24.9970    36.6610    29.9970    32.1680     2.2700 
  180.2500   -26.8860    73.1680    24.9840    33.3790    32.5190    34.1340     2.3060 
  180.3750   -26.4180    75.2250    24.8720    32.1440    33.3240    34.3250     2.3790 
  180.5000   -25.9430    75.7120    24.7760    34.5070    33.5850    34.3060     2.4520 
  180.6250   -25.5090    71.8680    24.7490    38.0930    34.0920    35.0310     2.5040 
  180.7500   -25.0740    68.0810    24.7460    39.9190    34.5950    36.0830     2.5480 
  180.8750   -24.6530    68.8050    24.7510    39.9230    34.3970    36.5880     2.5870 
  181.0000   -24.2480    72.2770    24.7580    39.1050    32.8280    35.6330     2.6120 
  181.1250   -23.8050    71.8340    24.7020    37.8770    29.5130    32.5700     2.6090 
  181.2500   -23.3840    70.0940    24.6560    32.7640    25.3480    28.3250     2.5900 
  181.3750   -23.0050    71.2390    24.6340    25.5920    21.1260    23.8090     2.5600 
  181.5000   -22.6190    74.7150    24.6350    19.2820    17.4290    19.7520     2.5230 
  181.6250   -22.2410    78.6070    24.6610    14.9680    14.7160    16.7690     2.4890 
  181.7500   -21.8780    83.8210    24.7020    12.7250    12.9220    14.8730     2.4790 
  181.8750   -21.5100    89.2090    24.7120    12.1800    11.9950    14.0250     2.4990 
  182.0000   -21.1370    91.1900    24.6910    12.7510    11.8290    14.0910     2.5330 
  182.1250   -20.8390    88.3040    24.6220    13.7290    12.3080    14.9240     2.5600 
  182.2500   -20.5170    85.5960    24.5310    14.6060    12.9820    15.9780     2.5780 
  182.3750   -20.1730    85.0820    24.4200    15.1650    13.4030    16.6890     2.5880 
  182.5000   -19.8430    86.0440    24.3090    15.2950    13.1420    16.5070     2.5770 
  182.6250   -19.4510    85.7730    24.2240    14.0300    11.9370    15.0230     2.5400 
  182.7500   -19.0530    83.6810    24.1370    12.2080    10.2600    12.8230     2.5030 
  182.8750   -18.6600    82.7860    24.0820    10.1400     8.5450    10.5480     2.4850 
  183.0000   -18.2700    83.7320    24.0160     7.9700     7.0920     8.6910     2.4830 
  183.1250   -17.8780    82.4330    23.9680     6.2470     6.0900     7.5340     2.4900 
  183.2500   -17.5220    74.9730    24.0110     5.3730     5.4590     6.8810     2.5000 
  183.3750   -17.1900    64.7970    24.1140     5.0960     5.1240     6.5710     2.5050 
  183.5000   -16.8790    58.8260    23.9780     5.0290     4.9990     6.4710     2.4950 
  183.6250   -16.6940    61.0700    23.7520     4.9900     5.0250     6.4950     2.4800 
  183.7500   -16.5130    66.8110    23.5300     4.9640     5.1110     6.5480     2.4730 
  183.8750   -16.3270    68.4540    23.3920     4.9680     5.2100     6.5890     2.4660 
  184.0000   -16.2320    63.4200    23.3170     5.0050     5.2890     6.6100     2.4470 
  184.1250   -16.1160    57.1660    23.3680     5.0330     5.3210     6.6120     2.4160 
  184.2500   -15.9910    55.1610    23.5600     4.9120     5.3010     6.5800     2.3910 
  184.3750   -15.9260    55.9800    23.8110     4.6340     5.2090     6.4810     2.3800 
  184.5000   -15.8480    55.8010    23.9910     4.4080     5.0260     6.2920     2.3770 
  184.6250   -15.7620    53.6700    24.1480     4.3340     4.7420     6.0020     2.3720 
  184.7500   -15.7290    51.8700    24.0900     4.3090     4.4200     5.6720     2.3600 
  184.8750   -15.7360    51.1950    23.7960     4.1950     4.1220     5.3710     2.3450 
  185.0000   -15.6830    52.2630    23.5900     4.0350     3.9070     5.1650     2.3330 
  185.1250   -15.6630    52.6340    23.2780     4.0190     3.8460     5.1260     2.3270 
  185.2500   -15.6590    51.5470    23.1850     4.1320     3.9270     5.2400     2.3260 
  185.3750   -15.6220    50.9030    23.1740     4.3110     4.1250     5.4770     2.3330 
  185.5000   -15.6340    51.4070    23.1800     4.5290     4.3960     5.7820     2.3530 
  185.6250   -15.6420    52.4560    23.2230     4.7740     4.6810     6.0840     2.3840 
