~V
VERS. 2.00: Ver 2.00
~W
STRT.M 61.0000:
STOP.M 238.0000:
STEP.M 0.1250:
NULL. -999.2500:
UWI. DF32044:
~C
DEPT.M :
DEN.GM/CC :
SP.MV :
GR.API :
RML.OHMM :
RI. :
RXO.OHMM :
CALI.CM :
~A
# ...
  151.0000     2.2930   -24.8720    73.0620    31.0870    28.0900    30.9550    23.1110 
  151.1250     2.3020   -24.9180    72.4550    28.2020    25.6580    27.4310    22.8370 
  151.2500     2.3170   -25.0850    70.2030    25.1220    22.8450    22.3910    22.5340 
  151.3750     2.3330   -25.2300    72.7330    22.5320    20.3090    18.2990    22.3490 
  151.5000     2.3470   -25.2750    81.6700    20.7870    18.4200    15.7780    22.2860 
  151.6250     2.3540   -25.4420    87.9540    20.0880    17.4080    14.7960    22.2650 
  151.7500     2.3570   -25.6160    87.2150    20.1160    17.0560    15.0080    22.2320 
  151.8750     2.3590   -25.6670    85.0480    20.6350    17.2030    16.0320    22.1970 
  152.0000     2.3610   -25.7990    84.4530    21.4030    17.6630    17.3050    22.1810 
  152.1250     2.3640   -25.9140    82.9250    22.1920    18.2530    18.7290    22.1800 
  152.2500     2.3650   -25.8760    79.3730    22.8040    18.7690    20.0480    22.1800 
  152.3750     2.3670   -25.9200    75.6350    23.0840    19.0620    20.8360    22.1800 
  152.5000     2.3690   -26.0250    73.4840    22.9010    19.0090    21.3550    22.1800 
  152.6250     2.3720   -25.9780    73.9290    22.1110    18.4690    21.8730    22.1690 
  152.7500     2.3780   -25.8940    75.9910    20.9550    17.5950    21.9080    22.1400 
  152.8750     2.3840   -25.8970    79.8680    19.8420    16.6570    20.6450    22.1050 
  153.0000     2.3910   -25.8730    85.3240    19.4040    16.1010    18.1850    22.0860 
  153.1250     2.3910   -25.7800    88.9910    20.6310    16.6720    16.0590    22.0830 
  153.2500     2.3820   -25.7810    87.0840    23.6550    18.6120    16.1070    22.0830 
  153.3750     2.3610   -25.8010    80.6090    28.1320    21.8510    20.2040    22.0830 
  153.5000     2.3350   -25.6840    75.3470    33.0290    25.7880    31.1200    22.0830 
  153.6250     2.3140   -25.6650    73.1070    36.4400    29.0800    48.3730    22.0790 
  153.7500     2.3060   -25.7630    72.1910    37.2780    30.5950    50.0250    22.0460 
  153.8750     2.3120   -25.7320    73.3250    35.7420    30.1130    36.4970    21.9510 
  154.0000     2.3270   -25.6840    76.4390    33.4210    28.5780    27.1190    21.8230 
  154.1250     2.3370   -25.7110    79.3640    32.5810    27.7280    24.6580    21.6960 
  154.2500     2.3330   -25.6410    78.4670    33.7860    28.3550    24.2680    21.6870 
  154.3750     2.3150   -25.5750    74.0910    36.4700    30.2650    25.5150    21.8470 
  154.5000     2.2940   -25.5610    70.6430    39.4200    32.6540    30.3130    22.2200 
  154.6250     2.2830   -25.4180    71.6280    40.9370    34.2110    37.6070    23.0040 
  154.7500     2.2880   -25.2840    74.5640    40.4760    34.2730    37.1640    23.8750 
  154.8750     2.3020   -25.2870    74.6700    38.6090    33.0600    29.5300    24.4330 
  155.0000     2.3160   -25.2010    71.5190    36.9800    31.5810    23.0640    24.6290 
  155.1250     2.3210   -25.1510    69.2950    37.5170    31.4820    21.2100    24.6510 
  155.2500     2.3160   -25.2750    69.6560    41.0600    33.7870    22.7750    24.6570 
  155.3750     2.3030   -25.3430    70.7560    47.6650    39.2710    27.3310    24.6800 
  155.5000     2.2860   -25.3840    69.9540    57.7420    48.3580    35.1170    24.7250 
  155.6250     2.2680   -25.5970    65.6350    70.2080    61.3070    46.9560    24.7550 
  155.7500     2.2510   -25.8180    60.6480    84.0560    76.2010    60.6580    24.7710 
  155.8750     2.2370   -25.9110    57.6410    99.0260    91.0540    69.3760    24.7760 
  156.0000     2.2270   -25.9950    56.5730   113.0190   103.8000    65.8950    24.7760 
  156.1250     2.2220   -26.1490    57.6760   122.5870   112.4360    56.4930    24.7720 
  156.2500     2.2220   -26.1840    60.5940   128.3150   117.5200    50.3950    24.7840 
  156.3750     2.2250   -26.1090    63.4350   131.2150   119.8960    49.5920    24.8380 
  156.5000     2.2290   -26.0990    62.8020   132.4960   120.6170    53.6400    24.9020 
  156.6250     2.2340   -26.0390    59.6050   133.1450   120.6150    61.5110    24.9290 
  156.7500     2.2380   -25.7960    59.0690   134.0280   120.7900    68.1750    24.9340 
  156.8750     2.2400   -25.5630    61.1750   135.6770   121.7000    69.3800    24.9340 
  157.0000     2.2370   -25.3910    62.6850   138.3890   123.6890    65.8940    24.9340 
  157.1250     2.2300   -25.0000    62.1130   142.1280   126.8400    61.1790    24.9330 
  157.2500     2.2220   -24.6520    59.9310   146.0830   130.4290    57.2980    24.9260 
  157.3750     2.2160   -24.4460    57.4200   149.5070   133.7710    55.4580    24.9110 
  157.5000     2.2140   -24.1820    55.3380   151.8020   136.3010    57.8790    24.9090 
  157.6250     2.2170   -24.0050    55.8420   152.5290   137.6310    66.1470    24.9140 
  157.7500     2.2220   -23.9530    58.0780   152.1710   138.1880    76.5440    24.9270 
  157.8750     2.2280   -23.9060    60.0130   151.1300   138.3900    84.1740    24.9330 
  158.0000     2.2320   -23.9380    59.4940   149.6870   138.5230    84.4580    24.9260 
  158.1250     2.2330   -24.1120    57.3640   147.8610   138.5910    78.7040    24.8900 
  158.2500     2.2330   -24.1640    58.6710   145.7230   138.4520    76.3660    24.8300 
  158.3750     2.2330   -24.1930    63.7140   143.4030   138.0200    80.6420    24.7800 
  158.5000     2.2350   -24.3410    66.3810   140.9480   137.2480    86.6190    24.7420 
  158.6250     2.2370   -24.3060    62.0900   137.5660   135.7030    84.7470    24.6880 
  158.7500     2.2380   -24.1550    57.8890   132.6040   132.5820    78.5200    24.6450 
  158.8750     2.2350   -24.0860    57.8170   124.6620   126.6310    73.8000    24.5860 
  159.0000     2.2300   -23.9750    59.4640   113.9400   116.7800    70.5270    24.5180 
  159.1250     2.2230   -23.7230    60.5940    99.9460   102.6110    65.6520    24.4690 
  159.2500     2.2230   -23.5500    61.3840    87.1280    86.9560    57.7050    24.4130 
  159.3750     2.2340   -23.4420    61.9240    77.3890    72.8520    45.6260    24.3060 
  159.5000     2.2540   -23.2180    62.1610    69.0430    63.0980    32.7630    24.1660 
  159.6250     2.2760   -22.9690    63.5250    67.9840    60.9310    25.4430    24.0570 
  159.7500     2.2880   -22.8850    64.4580    74.7390    66.3390    24.5560    24.0170 
  159.8750     2.2830   -22.7510    62.9150    88.6390    78.9480    29.7460    24.0100 
  160.0000     2.2640   -22.5160    60.9350   107.0420    96.4400    39.4050    24.0090 
  160.1250     2.2410   -22.4850    61.2270   123.9050   113.3040    48.0470    24.0080 
  160.2500     2.2250   -22.4090    62.5690   132.6020   123.1480    53.8040    24.0250 
  160.3750     2.2220   -22.1910    63.8870   129.9740   122.6680    60.2650    24.0950 
  160.5000     2.2300   -22.0890    64.2680   118.7960   113.4430    62.8770    24.2550 
  160.6250     2.2460   -22.0530    64.9470   107.1700   101.8020    52.6220    24.3940 
  160.7500     2.2600   -21.9150    65.9080   101.1550    94.3110    43.2410    24.4970 
  160.8750     2.2670   -21.8860    64.6980   101.9440    93.0980    42.7170    24.5510 
  161.0000     2.2640   -21.8870    60.8570   108.4930    97.6740    52.1040    24.5710 
  161.1250     2.2550   -21.7320    58.1010   118.5390   106.0930    66.5380    24.5740 
  161.2500     2.2460   -21.7320    58.8830   127.9890   114.4720    73.9620    24.5760 
  161.3750     2.2410   -21.8050    60.0910   133.9660   120.1450    73.6590    24.5740 
  161.5000     2.2390   -21.7100    60.8420   135.0970   121.7140    69.7540    24.5530 
  161.6250     2.2370   -21.6630    62.4180   131.9550   119.3400    66.0440    24.5200 
  161.7500     2.2350   -21.7500    62.8040   127.9530   115.8490    63.1450    24.4830 
  161.8750     2.2310   -21.7270    60.9220   125.1370   113.1330    61.0970    24.4680 
  162.0000     2.2280   -21.6490    59.6650   124.4030   112.1960    60.4970    24.4660 
  162.1250     2.2250   -21.6980    60.0850   125.9710   113.4740    61.4400    24.4620 
