~V
VERS. 2.00: Ver 2.00
~W
STRT.M 61.0000:
STOP.M 238.0000:
STEP.M 0.1250:
NULL. -999.2500:
UWI. DF32044:
~C
DEPT.M :
DEN.GM/CC :
SP.MV :
GR.API :
RML.OHMM :
RI. :
RXO.OHMM :
CALI.CM :
~A
# ...
  173.5000     2.3560   -20.5020    38.4120     4.6460     3.5820     4.0120    24.4560 
  173.6250     2.3500   -20.7550    39.4700     5.1470     4.0520     4.4780    24.4560 
  173.7500     2.3540   -21.0630    38.8890     5.6480     4.5520     4.7320    24.4560 
  173.8750     2.3690   -21.2430    37.4890     6.0660     5.0020     4.9710    24.4560 
  174.0000     2.3930   -21.4900    38.0660     6.3400     5.3290     5.3030    24.4560 
  174.1250     2.4200   -21.8690    39.8870     6.4400     5.4800     5.6220    24.4560 
  174.2500     2.4430   -22.0790    39.0750     6.4390     5.5060     5.7870    24.4560 
  174.3750     2.4610   -22.2210    38.3090     6.4020     5.4550     5.7830    24.4560 
  174.5000     2.4730   -22.4610    41.1840     6.3780     5.3770     5.7350    24.4560 
  174.6250     2.4820   -22.7320    45.7450     6.3980     5.3090     5.7640    24.4560 
  174.7500     2.4890   -23.0500    48.6700     6.4670     5.2770     5.8270    24.4500 
  174.8750     2.4970   -23.4310    52.3470     6.6020     5.3040     5.8540    24.4330 
  175.0000     2.5020   -23.8460    58.4610     6.8320     5.4130     5.8640    24.4080 
  175.1250     2.4950   -24.3670    66.0010     7.2160     5.6460     6.0040    24.4480 
  175.2500     2.4700   -25.0270    74.6170     7.7420     5.9900     6.2850    24.6140 
  175.3750     2.4260   -25.7890    82.2710     8.3700     6.4220     6.7120    24.9050 
  175.5000     2.3760   -26.6480    83.1480     9.0110     6.8940     7.4180    25.1630 
  175.6250     2.3380   -27.6200    76.6390     9.5230     7.3230     8.4630    25.2140 
  175.7500     2.3230   -28.6070    73.8240     9.8350     7.6470     9.3670    25.1040 
  175.8750     2.3310   -29.6540    77.9750     9.9460     7.8380     9.6890    24.8980 
  176.0000     2.3510   -30.7680    83.4360     9.9230     7.9120     9.5320    24.7000 
  176.1250     2.3680   -31.7430    83.1960     9.8760     7.9140     9.3400    24.5830 
  176.2500     2.3770   -32.6170    80.2600     9.8880     7.9110     9.2630    24.4930 
  176.3750     2.3790   -33.5140    78.7240     9.9730     7.9300     9.3140    24.4180 
  176.5000     2.3760   -34.3200    79.2830    10.0970     7.9700     9.4150    24.3760 
  176.6250     2.3690   -34.7850    80.4990    10.1850     8.0000     9.5220    24.3520 
  176.7500     2.3590   -35.1740    78.7320    10.1960     7.9990     9.6800    24.3220 
  176.8750     2.3470   -35.4810    74.1120    10.1450     7.9750     9.8750    24.2990 
  177.0000     2.3350   -35.4610    70.7060    10.1190     7.9840    10.0400    24.3000 
  177.1250     2.3270   -35.2660    71.3390    10.3420     8.1800    10.1320    24.3240 
  177.2500     2.3270   -35.0310    72.5030    10.9670     8.6740    10.2610    24.3500 
  177.3750     2.3430   -34.5260    71.3340    12.0320     9.5090    10.5610    24.3490 
  177.5000     2.3780   -33.6970    69.0220    13.3690    10.5860    11.6150    24.3090 
  177.6250     2.4270   -32.7730    68.7390    14.4960    11.5840    14.6330    24.2620 
  177.7500     2.4720   -31.6770    73.2970    14.9010    12.1100    18.9020    24.2140 
  177.8750     2.4980   -30.3210    80.3270    14.3000    11.8990    20.3400    24.1950 
  178.0000     2.4960   -28.9250    84.0340    12.8120    10.9370    16.5210    24.1830 
  178.1250     2.4710   -27.5100    82.9360    10.9730     9.4870    11.9160    24.1570 
  178.2500     2.4420   -25.9090    80.9530     9.4150     8.0680     9.2110    24.1210 
  178.3750     2.4210   -24.2770    77.1990     8.3660     6.9450     7.7130    24.0960 
  178.5000     2.4140   -22.8330    68.7670     7.8340     6.2210     6.6870    24.0670 
  178.6250     2.4200   -21.5760    59.8310     7.7710     5.9250     6.2950    24.0240 
  178.7500     2.4300   -20.3890    56.9000     7.9560     5.8970     6.4660    23.9820 
  178.8750     2.4360   -19.3710    58.2770     8.2580     6.0310     6.7810    23.9200 
  179.0000     2.4330   -18.5670    58.1300     8.5610     6.2330     6.9620    23.8540 
  179.1250     2.4240   -17.8410    54.8650     8.7540     6.4130     7.0150    23.8270 
  179.2500     2.4150   -17.2550    52.9290     8.8110     6.5200     6.9820    23.8160 
  179.3750     2.4120   -16.8930    53.0930     8.7470     6.5440     6.8250    23.7970 
  179.5000     2.4160   -16.5400    51.0160     8.6080     6.5020     6.5610    23.7530 
  179.6250     2.4260   -16.0950    46.4050     8.4540     6.4250     6.3090    23.7310 
  179.7500     2.4380   -15.7840    44.2770     8.3330     6.3500     6.1750    23.7230 
  179.8750     2.4490   -15.5270    44.7990     8.2620     6.2960     6.1760    23.7230 
  180.0000     2.4550   -15.2040    46.3190     8.2370     6.2670     6.2640    23.7230 
  180.1250     2.4550   -14.9700    49.3280     8.2490     6.2590     6.3330    23.7230 
  180.2500     2.4520   -14.7400    52.6130     8.2770     6.2640     6.3270    23.7230 
  180.3750     2.4470   -14.4230    55.8230     8.3170     6.2820     6.2750    23.7230 
  180.5000     2.4420   -14.1850    60.6640     8.3700     6.3170     6.2340    23.7280 
  180.6250     2.4390   -14.0620    67.2300     8.4190     6.3710     6.2680    23.7500 
  180.7500     2.4400   -13.8370    70.3720     8.4320     6.4220     6.4510    23.7870 
  180.8750     2.4430   -13.5920    70.2170     8.3700     6.4380     6.7630    23.8150 
  181.0000     2.4480   -13.4580    71.6940     8.2130     6.3930     6.9880    23.8370 
  181.1250     2.4500   -13.3160    75.6530     7.9660     6.2620     6.8540    23.8770 
  181.2500     2.4480   -13.1810    78.0880     7.6990     6.0820     6.5130    23.9400 
  181.3750     2.4420   -13.1500    78.5630     7.4730     5.8960     6.1770    23.9830 
  181.5000     2.4330   -13.2200    78.2240     7.3280     5.7480     5.9750    23.9970 
  181.6250     2.4230   -13.2540    78.1240     7.2900     5.6740     5.9780    23.9970 
  181.7500     2.4140   -13.3180    78.7810     7.3160     5.6640     6.1400    23.9920 
  181.8750     2.4050   -13.5280    80.4590     7.3740     5.6980     6.3940    23.9760 
  182.0000     2.3950   -13.7510    81.5880     7.4320     5.7550     6.6080    23.9460 
  182.1250     2.3830   -13.8950    80.4170     7.4650     5.8200     6.5960    23.9540 
  182.2500     2.3700   -14.1940    79.5970     7.4890     5.8940     6.5400    23.9790 
  182.3750     2.3600   -14.5750    79.7230     7.5400     5.9990     6.8440    23.9890 
  182.5000     2.3550   -14.8250    79.9630     7.6680     6.1660     7.4330    23.9830 
  182.6250     2.3590   -15.1280    80.3150     7.9400     6.4470     7.7110    23.9940 
  182.7500     2.3650   -15.5730    80.6890     8.3520     6.8450     7.8530    24.0000 
  182.8750     2.3710   -15.9180    81.4120     8.8710     7.3490     8.6100    24.0090 
  183.0000     2.3740   -16.1680    82.5860     9.4170     7.9070     9.9440    24.0200 
  183.1250     2.3760   -16.5270    83.7380     9.8370     8.4130    10.6400    24.0150 
  183.2500     2.3800   -16.7570    82.4690    10.0250     8.7620    10.7090    24.0050 
  183.3750     2.3890   -16.9010    77.7490     9.9390     8.8980    10.9650    24.0030 
  183.5000     2.4010   -17.1200    73.9980     9.6340     8.8330    11.3370    24.0030 
  183.6250     2.4120   -17.2180    77.5110     9.2790     8.6620    10.8770    23.9990 
  183.7500     2.4180   -17.1690    82.9180     9.0700     8.5480     9.9850    23.9970 
  183.8750     2.4200   -17.2390    84.1540     9.0920     8.5870     9.5420    23.9980 
  184.0000     2.4180   -17.3520    81.1060     9.3340     8.8090     9.9540    24.0000 
  184.1250     2.4120   -17.3280    78.0670     9.6890     9.1760    11.1940    24.0040 
  184.2500     2.4050   -17.4040    75.4440     9.9700     9.5360    12.2150    24.0060 
  184.3750     2.3980   -17.5120    71.9910    10.0480     9.7540    12.2230    24.0060 
  184.5000     2.3940   -17.5230    71.9650     9.8730     9.7400    11.6870    24.0040 
  184.6250     2.3950   -17.5340    77.2010     9.4900     9.4730    11.6770    24.0010 
