~V
VERS. 2.00: Ver 2.00
~W
STRT.M 60.0000:
STOP.M 266.0000:
STEP.M 0.1250:
NULL. -999.2500:
UWI. DF32129:
~C
DEPT.M :
SP.MV :
GR.API :
CALI.CM :
RXO.OHMM :
RI. :
RML.OHMM :
DEN.GM/CC :
~A
# ...
  240.0000   -25.4250    95.1290    26.0740    26.1000    19.7410    21.4780     2.2090 
  240.1250   -25.5320    94.5680    25.7580    31.9850    21.1670    22.6980     2.2040 
  240.2500   -25.5930    95.3180    25.6320    40.3740    22.9490    24.3460     2.1980 
  240.3750   -25.6120    99.6350    25.6740    46.7900    25.2030    26.6370     2.1960 
  240.5000   -25.6020   103.3900    25.8040    49.4570    27.7190    29.3910     2.2010 
  240.6250   -25.5900   101.3650    25.9300    49.3060    29.7340    31.7430     2.2120 
  240.7500   -25.5960    99.0410    25.8270    48.3980    30.4260    32.6380     2.2240 
  240.8750   -25.6060    99.5470    25.6870    46.1370    29.2920    31.4370     2.2360 
  241.0000   -25.6020    99.9870    25.6530    40.6000    26.4160    28.2440     2.2440 
  241.1250   -25.5640    97.9960    25.7090    31.2710    22.3770    23.8480     2.2490 
  241.2500   -25.5410    97.7490    25.7720    22.0630    18.2610    19.5370     2.2530 
  241.3750   -25.5730   101.0680    25.7960    15.5800    14.6350    15.8890     2.2600 
  241.5000   -25.6750   102.7210    25.7820    11.7240    11.7490    13.0800     2.2710 
  241.6250   -25.8240   100.1210    25.7860     9.8570     9.7380    11.1660     2.2790 
  241.7500   -26.0010    98.9930    25.7870     9.3940     8.3680     9.8600     2.2780 
  241.8750   -26.1920    96.7940    25.7850     9.3880     7.5260     9.0420     2.2680 
  242.0000   -26.3580    90.5960    25.7760     9.4400     7.1380     8.6660     2.2570 
  242.1250   -26.4790    85.5960    25.7780     9.7430     7.2510     8.8270     2.2600 
  242.2500   -26.6080    88.2160    25.7790    11.0910     7.7760     9.4550     2.2840 
  242.3750   -26.7700    93.8390    25.7760    14.9190     8.6330    10.4710     2.3250 
  242.5000   -26.9010    95.0880    25.7300    21.6380     9.6120    11.6260     2.3640 
  242.6250   -26.9600    94.3340    25.7160    26.0410    10.2410    12.3030     2.3790 
  242.7500   -26.9500    95.8310    25.6660    22.6920    10.1690    12.0550     2.3650 
  242.8750   -26.8380    97.2700    25.5890    14.8930     9.3840    10.9500     2.3330 
  243.0000   -26.7180    95.2780    25.6220     8.9800     8.2190     9.5080     2.2960 
  243.1250   -26.6520    91.5880    25.8850     7.3470     7.1220     8.3180     2.2730 
  243.2500   -26.5590    90.3300    26.1350     7.1980     6.3230     7.5570     2.2650 
  243.3750   -26.4300    90.4940    26.0290     7.5780     5.8470     7.2000     2.2680 
  243.5000   -26.2420    90.4440    25.8770     7.9460     5.6210     7.1250     2.2740 
  243.6250   -26.0610    90.6300    25.8460     7.9620     5.5360     7.1760     2.2780 
  243.7500   -25.8580    89.1380    25.8800     7.6440     5.4810     7.2050     2.2800 
  243.8750   -25.7190    84.8650    25.9650     7.2740     5.4220     7.1750     2.2810 
  244.0000   -25.6140    80.5480    26.0670     7.0630     5.3670     7.1050     2.2870 
  244.1250   -25.5730    79.4990    26.1040     7.0210     5.3450     7.0440     2.3030 
  244.2500   -25.5680    79.7070    26.0780     7.0810     5.3570     7.0330     2.3190 
  244.3750   -25.5820    79.1090    25.9950     7.2370     5.3900     7.0700     2.3260 
  244.5000   -25.6870    77.8690    25.8990     7.4120     5.4280     7.1310     2.3230 
  244.6250   -25.8910    75.9120    25.8490     7.4430     5.4530     7.1860     2.3210 
  244.7500   -26.2030    72.6370    25.8380     7.3440     5.4600     7.2260     2.3270 
  244.8750   -26.5780    69.1560    25.8310     7.2260     5.4570     7.2550     2.3340 
  245.0000   -27.0110    67.2640    25.8170     7.2310     5.4600     7.2790     2.3300 
  245.1250   -27.3940    67.9220    25.8150     7.3910     5.4740     7.3120     2.3090 
  245.2500   -27.7700    69.5820    25.8200     7.6020     5.4980     7.3580     2.2850 
  245.3750   -28.0780    69.5920    25.8180     7.8360     5.5370     7.4120     2.2630 
  245.5000   -28.3160    68.6890    25.8120     8.0100     5.5890     7.4770     2.2440 
  245.6250   -28.4230    68.1950    25.8090     8.1180     5.6580     7.5610     2.2330 
  245.7500   -28.4630    68.2260    25.8090     8.1150     5.7510     7.6780     2.2370 
  245.8750   -28.4380    69.3990    25.8200     8.1020     5.8840     7.8510     2.2560 
  246.0000   -28.3530    71.4330    25.8250     8.2080     6.0750     8.1080     2.2800 
  246.1250   -28.2580    73.4060    25.7930     8.6350     6.3370     8.4590     2.2910 
  246.2500   -28.1330    75.4700    25.6750     9.2390     6.6210     8.8280     2.2880 
  246.3750   -28.0080    79.8320    25.6210     9.7280     6.8440     9.1060     2.2780 
  246.5000   -27.8950    84.6110    25.6840     9.9290     6.9250     9.1790     2.2770 
  246.6250   -27.8600    83.3430    25.7430     9.6360     6.8110     8.9730     2.2940 
  246.7500   -27.8130    78.6450    25.6720     8.7020     6.5970     8.6450     2.3170 
  246.8750   -27.8250    75.1490    25.4650     7.6740     6.4050     8.3690     2.3330 
  247.0000   -27.8650    73.8880    25.4030     7.1180     6.3570     8.3020     2.3370 
  247.1250   -27.9240    75.0450    25.5990     7.4340     6.5690     8.5880     2.3330 
  247.2500   -28.0330    79.5560    25.6180     8.6050     7.0020     9.1720     2.3280 
  247.3750   -28.1450    86.1300    25.5610     9.6610     7.5790     9.9460     2.3250 
  247.5000   -28.2920    90.7290    25.6050     9.7500     8.1540    10.7100     2.3240 
  247.6250   -28.4240    91.4240    25.5860     9.0110     8.5050    11.1490     2.3240 
  247.7500   -28.5140    90.3450    25.5010     8.7190     8.5590    11.1520     2.3250 
  247.8750   -28.5180    89.7630    25.4540     8.5520     8.3500    10.7740     2.3290 
  248.0000   -28.4930    90.7610    25.4310     8.4550     7.9980    10.2090     2.3370 
  248.1250   -28.4600    91.6560    25.3550     8.3890     7.6730     9.7060     2.3360 
  248.2500   -28.3800    90.7090    25.3200     8.3060     7.4980     9.4140     2.3240 
  248.3750   -28.2740    88.9680    25.2890     8.5120     7.5290     9.4000     2.3100 
  248.5000   -28.0480    87.5720    25.2260     9.3700     7.7890     9.6980     2.3080 
  248.6250   -27.7020    87.5910    25.0580    10.7250     8.3110    10.3620     2.3200 
  248.7500   -27.3220    86.3570    24.7720    11.9380     8.9900    11.2560     2.3290 
  248.8750   -26.8460    83.2190    24.4210    13.0250     9.6870    12.1900     2.3250 
  249.0000   -26.2240    79.6920    23.9670    14.1520    10.2090    12.8860     2.3070 
  249.1250   -25.5210    77.5150    23.5650    15.4460    10.3140    12.9860     2.2880 
  249.2500   -24.8580    74.8740    23.2690    16.4460    10.0440    12.5610     2.2860 
  249.3750   -24.2400    71.2830    23.4390    16.1700     9.5460    11.8430     2.3020 
  249.5000   -23.7110    72.0710    23.9970    14.3000     9.0140    11.1140     2.3220 
  249.6250   -23.3130    79.6520    24.8170    12.4980     8.6040    10.5930     2.3300 
  249.7500   -22.9670    86.2330    25.3870    11.2480     8.3180    10.2840     2.3300 
  249.8750   -22.7390    88.0340    25.3750    10.4440     8.1220    10.1360     2.3250 
  250.0000   -22.6430    88.2940    25.2070     9.7250     7.9740    10.0710     2.3200 
  250.1250   -22.6370    90.5220    25.1290     9.1030     7.8620    10.0190     2.3180 
  250.2500   -22.6010    91.8420    25.1380     8.9390     7.8050     9.9830     2.3210 
  250.3750   -22.5730    90.9680    25.1310     9.3610     7.8530    10.0290     2.3220 
  250.5000   -22.5640    89.3530    25.0860    10.2070     8.0580    10.2460     2.3150 
  250.6250   -22.5320    89.0560    25.0040    10.8980     8.4940    10.7500     2.3040 
  250.7500   -22.5300    90.0350    24.9670    11.8370     9.1160    11.4960     2.3020 
  250.8750   -22.5200    91.9260    24.9510    13.9310     9.8190    12.3580     2.3170 
  251.0000   -22.4850    94.6170    24.9070    17.2390    10.3960    13.0570     2.3440 
  251.1250   -22.3730    97.1500    24.7980    18.3430    10.4960    13.1020     2.3700 
