~V
VERS. 2.00: Ver 2.00
~W
STRT.M 62.0000:
STOP.M 318.0000:
STEP.M 0.1250:
NULL. -999.2500:
UWI. DF321:
~C
DEPT.M :
DEN.GM/CC :
SP.MV :
AC.US/MT :
GR.API :
CALI.CM :
RXO.OHMM :
RI. :
RML.OHMM :
~A
# ...
  242.0000     2.3540   -29.5180   383.8800    72.7560    22.6560    14.8660    10.8000    12.1660 
  242.1250     2.3700   -29.0790   388.2090    75.7240    22.5990    13.2870    10.4630    11.8420 
  242.2500     2.3930   -28.6610   393.2300    80.9700    22.4570    11.8270    10.1920    11.5840 
  242.3750     2.4160   -28.2930   397.5710    86.9150    22.2660    11.1300    10.0500    11.4730 
  242.5000     2.4250   -27.9990   400.3040    90.5450    22.1410    11.2820    10.0780    11.5560 
  242.6250     2.4160   -27.7950   400.7510    88.9150    22.1160    11.9290    10.3210    11.8610 
  242.7500     2.3990   -27.6390   399.4050    84.1800    22.1210    12.6870    10.7150    12.3030 
  242.8750     2.3800   -27.5610   396.7280    78.2130    22.1280    13.4820    11.1950    12.7940 
  243.0000     2.3650   -27.6570   393.4410    73.8830    22.1670    14.3880    11.6690    13.2360 
  243.1250     2.3600   -27.8880   390.6130    73.0710    22.3370    15.3100    12.0140    13.4990 
  243.2500     2.3690   -28.0970   388.9420    73.3390    22.6330    15.7780    12.1890    13.5560 
  243.3750     2.3810   -28.2640   388.5290    73.1120    22.8770    15.6890    12.2090    13.4430 
  243.5000     2.3860   -28.4930   388.9490    72.4380    22.9780    15.3950    12.1410    13.2510 
  243.6250     2.3780   -28.6610   389.4420    71.1110    22.9850    15.3740    12.0770    13.1010 
  243.7500     2.3710   -28.7860   389.4040    69.6430    22.9650    15.5640    12.0860    13.0590 
  243.8750     2.3750   -28.9520   388.6830    69.6610    22.9270    15.8260    12.1830    13.1110 
  244.0000     2.3890   -29.0660   387.4860    70.4710    22.9080    16.0450    12.3350    13.1950 
  244.1250     2.3980   -29.0330   386.4350    71.1300    22.9220    16.0300    12.4750    13.2290 
  244.2500     2.3960   -28.9840   386.2550    71.7780    22.9490    15.8880    12.5530    13.1850 
  244.3750     2.3850   -29.0040   387.4220    71.5560    22.9970    15.7080    12.5590    13.0850 
  244.5000     2.3680   -29.0300   389.9950    70.1290    23.0430    15.5630    12.5200    12.9770 
  244.6250     2.3480   -29.0420   393.6870    70.3440    23.0390    15.3800    12.4580    12.9120 
  244.7500     2.3300   -29.0270   397.7300    72.1630    23.0050    15.0900    12.3840    12.8880 
  244.8750     2.3180   -28.9840   401.7920    71.5520    22.9800    14.8310    12.2800    12.8620 
  245.0000     2.3090   -28.9570   405.7740    68.2740    22.9490    14.7200    12.1110    12.7700 
  245.1250     2.3010   -28.9610   409.5020    66.0030    22.9040    14.5870    11.8460    12.5310 
  245.2500     2.2930   -28.9080   412.4070    67.2960    22.8420    14.3460    11.5450    12.2010 
  245.3750     2.2840   -28.6990   413.2950    69.5330    22.7500    14.1350    11.3330    11.9400 
  245.5000     2.2730   -28.3530   410.3740    68.2030    22.6510    14.1330    11.4160    12.0180 
  245.6250     2.2650   -27.9940   400.1030    63.6200    22.5490    14.6150    12.2290    12.9700 
  245.7500     2.2700   -27.5870   381.3880    61.1560    22.4990    16.0920    14.1080    15.1740 
  245.8750     2.2970   -27.0340   353.9080    61.3190    22.5230    19.5450    17.4270    19.0740 
  246.0000     2.3500   -26.3830   320.1210    61.4360    22.6410    26.5370    22.2410    24.7790 
  246.1250     2.4370   -25.6000   286.9800    61.0950    22.8470    47.1990    27.5050    30.9630 
  246.2500     2.5360   -24.7390   262.8310    61.1170    23.1580    79.3890    30.8880    34.5180 
  246.3750     2.6180   -23.9230   252.0820    59.9980    23.4460    93.9450    31.3680    34.2190 
  246.5000     2.6710   -23.1860   253.2820    58.1840    23.5780    70.7450    30.0630    31.8900 
  246.6250     2.7040   -22.4100   259.3030    58.8750    23.5460    37.7100    28.8770    30.2410 
  246.7500     2.7210   -21.6460   261.9110    61.0830    23.4480    28.2350    28.4120    29.9610 
  246.8750     2.7110   -20.9960   260.4830    61.2770    23.3320    40.6490    27.9750    30.1680 
  247.0000     2.6770   -20.4350   260.3910    58.8900    23.2000    58.6730    26.3350    29.1030 
  247.1250     2.6510   -20.0160   270.4690    57.3220    23.0210    52.7130    22.6530    25.1910 
  247.2500     2.6390   -19.7000   290.3460    58.4920    22.8230    31.9890    18.3220    20.1630 
  247.3750     2.6120   -19.3800   313.5400    63.2820    22.7750    16.0650    14.6590    15.8920 
  247.5000     2.5570   -19.0200   330.8090    70.5710    22.8620    10.4310    12.3080    13.2470 
  247.6250     2.5050   -18.7480   333.4520    75.0130    22.8090    10.5960    11.5720    12.5580 
  247.7500     2.4950   -18.5590   324.4530    74.8640    22.7110    12.6090    12.0890    13.3570 
  247.8750     2.5220   -18.3700   309.3150    72.1720    22.7410    15.0920    13.7030    15.4360 
  248.0000     2.5560   -18.1230   293.8090    69.3600    22.9380    17.1140    16.0980    18.3820 
  248.1250     2.5680   -17.8070   282.2380    65.8190    23.0690    18.7060    18.3790    21.0210 
  248.2500     2.5640   -17.4980   275.3780    63.1560    23.0520    19.5990    19.2780    21.8270 
  248.3750     2.5590   -17.2480   274.1910    63.1170    23.0050    19.5140    18.1810    20.2140 
  248.5000     2.5570   -17.0500   279.9720    64.4980    22.9830    18.0670    15.5830    16.9850 
  248.6250     2.5550   -16.8830   293.8880    67.7390    22.9480    14.4900    12.6360    13.5910 
  248.7500     2.5570   -16.7080   311.7560    74.6930    22.7750    10.0900    10.1880    10.9020 
  248.8750     2.5670   -16.4820   329.3340    83.9240    22.4610     7.2180     8.4350     9.0870 
  249.0000     2.5750   -16.2630   343.4100    91.5820    22.3170     6.8430     7.3240     8.0480 
  249.1250     2.5610   -16.1440   352.7710    94.4400    22.6880     7.3720     6.7680     7.6320 
  249.2500     2.5440   -16.0520   359.7250    94.3430    23.0770     7.2450     6.5070     7.4890 
  249.3750     2.5440   -15.9100   365.6950    93.1930    23.2400     6.5550     6.3760     7.3990 
  249.5000     2.5540   -15.7380   371.2830    91.5760    23.3260     6.1210     6.2190     7.1930 
  249.6250     2.5450   -15.5600   376.7610    90.6370    23.4380     6.1450     5.9230     6.7890 
  249.7500     2.5190   -15.4300   382.6680    90.2400    23.4730     5.9900     5.5240     6.2770 
  249.8750     2.4900   -15.3830   389.2470    88.1850    23.4070     5.3750     5.0870     5.7360 
  250.0000     2.4720   -15.3480   395.9280    81.7740    23.2060     4.5670     4.6810     5.2340 
  250.1250     2.4630   -15.2760   401.2760    71.1040    22.8820     4.0190     4.3830     4.8630 
  250.2500     2.4550   -15.2590   404.9640    60.8250    22.4770     3.8140     4.1980     4.6460 
  250.3750     2.4370   -15.3250   407.6390    53.4360    22.1470     3.7700     4.1160     4.5740 
  250.5000     2.4080   -15.4020   410.1690    51.0210    22.0450     3.7640     4.1100     4.6110 
  250.6250     2.3760   -15.4500   412.4990    53.9790    22.1260     3.7790     4.1540     4.7060 
  250.7500     2.3550   -15.4880   413.5710    59.7570    22.1710     3.8390     4.2190     4.8080 
  250.8750     2.3490   -15.5850   412.5930    67.5450    22.1980     3.9550     4.2920     4.9070 
  251.0000     2.3600   -15.7200   409.9710    76.2480    22.2900     4.0980     4.3470     4.9900 
  251.1250     2.3900   -15.8260   407.6660    85.1120    22.4440     4.2120     4.3420     5.0210 
  251.2500     2.4160   -15.9090   407.4470    90.7000    22.6660     4.2790     4.2630     4.9660 
  251.3750     2.4200   -16.0320   409.3020    90.5740    23.0170     4.3170     4.1290     4.8190 
  251.5000     2.4030   -16.1830   411.6250    86.0470    23.4280     4.2750     3.9890     4.6290 
  251.6250     2.3880   -16.3250   412.0690    82.6840    23.6540     4.2310     3.9220     4.5230 
  251.7500     2.3870   -16.4970   410.6220    83.0970    23.7200     4.4070     3.9730     4.6090 
  251.8750     2.3910   -16.6930   408.8490    84.9510    23.8170     4.8730     4.1600     4.9360 
