~V
VERS. 2.00: Ver 2.00
~W
STRT.M 62.0000:
STOP.M 272.0000:
STEP.M 0.1250:
NULL. -999.2500:
UWI. DF32144:
~C
DEPT.M :
SP.MV :
DEN.GM/CC :
GR.API :
RML.OHMM :
RI. :
RXO.OHMM :
CALI.CM :
~A
# ...
  208.2500   -14.1560     1.9580    63.8540    92.7540    91.9320    34.8420    32.6410 
  208.3750   -14.2520     1.9090    62.8680    75.1260    75.2710    27.4810    33.4980 
  208.5000   -14.2130     1.8800    59.2650    60.8390    61.4420    20.8110    35.1460 
  208.6250   -14.1200     1.8910    57.6910    53.8120    53.8530    13.0320    37.0430 
  208.7500   -14.0980     1.9310    59.3190    52.9140    52.0190     8.7520    37.3440 
  208.8750   -14.0200     1.9840    59.8180    57.5950    55.6340    10.1920    36.0620 
  209.0000   -13.8680     2.0330    57.2740    67.1180    64.1900    16.8750    33.6380 
  209.1250   -13.7030     2.0740    56.7980    80.6740    77.1790    27.7100    32.1520 
  209.2500   -13.4780     2.1130    60.8320    95.4710    91.8570    38.2790    30.5310 
  209.3750   -13.2730     2.1480    65.7220   109.3170   105.9140    53.9390    28.5330 
  209.5000   -13.1230     2.1750    68.2680   120.8870   117.7390    77.7460    26.8940 
  209.6250   -12.9900     2.1830    69.3630   129.6520   126.4530    99.0310    26.0130 
  209.7500   -12.8140     2.1790    71.1450   135.7320   132.1940   109.1740    25.7640 
  209.8750   -12.6380     2.1700    72.8540   137.9480   134.0180   107.0560    25.7840 
  210.0000   -12.5260     2.1660    73.3560   135.4680   131.2660   110.3560    25.8150 
  210.1250   -12.3760     2.1650    72.9180   129.0460   124.5720   101.3480    25.7170 
  210.2500   -12.2490     2.1590    71.4010   122.1380   117.1850    94.3160    25.5700 
  210.3750   -12.1620     2.1420    69.5820   116.8890   111.2320    83.6020    25.4680 
  210.5000   -12.1130     2.1210    69.1680   114.2790   107.7970    78.6670    25.4620 
  210.6250   -12.0130     2.1220    69.8990   114.4250   107.1880    85.4350    25.6910 
  210.7500   -11.9230     2.1560    69.9410   115.6960   107.9520   101.6740    25.9840 
  210.8750   -11.9200     2.2130    68.4220   116.7250   108.8270   106.4850    25.9150 
  211.0000   -11.9030     2.2640    67.1180   116.5310   108.8020    96.6670    25.2880 
  211.1250   -11.9390     2.2830    66.6270   114.9170   107.4500    84.7970    25.0980 
  211.2500   -12.0280     2.2740    65.7030   113.1900   105.7520    83.3280    25.3650 
  211.3750   -12.0170     2.2610    63.3940   112.6730   104.8530    85.8290    25.6760 
  211.5000   -11.9710     2.2610    61.4730   114.4400   105.7640    87.5040    25.8470 
  211.6250   -12.0520     2.2720    60.6880   119.5230   109.4280    85.8320    25.9100 
  211.7500   -12.1370     2.2790    60.1020   127.2660   115.2620    90.2860    25.9210 
  211.8750   -12.2010     2.2730    59.6820   136.9100   122.5370    95.3450    25.9290 
  212.0000   -12.2890     2.2560    60.1980   147.1780   130.1480   110.8520    25.7770 
  212.1250   -12.3490     2.2360    59.6340   155.7970   136.2980   102.5590    25.2680 
  212.2500   -12.3770     2.2190    57.6780   160.9670   139.7020    97.3150    25.0860 
  212.3750   -12.4320     2.2050    56.1930   161.8690   139.7860    90.9880    25.2490 
  212.5000   -12.4920     2.1920    56.3280   158.8920   136.8870    94.5340    25.4150 
  212.6250   -12.5200     2.1750    56.1380   152.8140   131.6930    91.0220    25.4950 
  212.7500   -12.5500     2.1530    56.5040   145.3170   125.5760    87.0400    25.4330 
  212.8750   -12.5650     2.1330    59.1970   137.2450   119.2260    77.3980    25.2070 
  213.0000   -12.5740     2.1280    61.6820   129.1700   113.0640    74.4170    25.1060 
  213.1250   -12.5330     2.1550    60.8350   121.2220   107.1640    74.7660    25.1310 
  213.2500   -12.4760     2.2050    60.0410   112.6040   100.8350    78.1320    24.6570 
  213.3750   -12.4130     2.2570    61.5920   101.9890    92.8740    67.0920    23.7300 
  213.5000   -12.2690     2.2880    63.6930    88.5150    82.2480    50.5440    23.1240 
  213.6250   -12.1050     2.2840    63.7340    72.9470    69.1170    40.0250    23.2070 
  213.7500   -11.9370     2.2640    64.6970    57.5390    56.0390    34.1230    23.5460 
  213.8750   -11.6680     2.2430    66.3480    44.9510    44.9750    26.8920    23.8600 
  214.0000   -11.3610     2.2300    67.0340    36.4720    36.8890    20.1190    24.3120 
  214.1250   -11.1730     2.2290    65.6320    31.6120    32.1250    17.8550    24.8730 
  214.2500   -10.9820     2.2320    64.1020    29.0540    29.4960    17.6630    25.1650 
  214.3750   -10.7800     2.2370    64.2610    28.0690    28.3530    18.6540    25.0770 
  214.5000   -10.7310     2.2410    65.1560    28.0760    28.1950    18.4780    24.8970 
  214.6250   -10.7290     2.2430    66.5540    28.7540    28.7520    17.3690    24.8300 
  214.7500   -10.7720     2.2430    68.0330    29.8320    29.7220    17.7290    24.8470 
  214.8750   -10.9610     2.2430    68.9980    31.3230    31.0660    19.5470    24.8960 
  215.0000   -11.1580     2.2440    68.9560    33.2800    32.7940    22.0510    24.9300 
  215.1250   -11.3150     2.2470    68.4610    35.7630    34.9250    25.9720    24.9240 
  215.2500   -11.5470     2.2480    66.3490    38.5940    37.2800    29.1100    24.9150 
  215.3750   -11.7900     2.2460    62.3460    41.6450    39.7030    30.6480    24.9900 
  215.5000   -11.9500     2.2390    59.1450    44.7810    42.0440    32.0620    25.2050 
  215.6250   -11.9760     2.2300    61.2860    47.7970    44.1020    32.9860    25.2780 
  215.7500   -11.9030     2.2270    66.8610    50.4370    45.7490    33.7400    25.2510 
  215.8750   -11.7240     2.2340    71.0280    52.3670    46.7900    34.6160    25.1950 
  216.0000   -11.4900     2.2500    71.2020    53.1880    46.9690    36.1220    25.2660 
  216.1250   -11.2530     2.2670    67.8820    52.3420    45.8840    38.7280    25.5610 
  216.2500   -10.9680     2.2760    66.0970    50.1270    43.7650    37.6860    25.7780 
  216.3750   -10.6480     2.2750    66.0750    46.9670    40.9510    32.3590    25.8410 
  216.5000   -10.3040     2.2670    64.6490    43.4830    37.9410    28.4500    25.7110 
  216.6250   -10.0080     2.2570    62.5030    40.4210    35.3400    26.9620    25.2940 
  216.7500    -9.7280     2.2470    61.4430    38.1680    33.4440    27.7410    24.8060 
  216.8750    -9.4180     2.2370    62.3070    36.8390    32.3430    28.2500    24.5170 
  217.0000    -9.1590     2.2260    64.6930    36.3460    31.9720    28.1780    24.5970 
  217.1250    -8.8780     2.2150    67.3560    36.5530    32.2340    27.5620    24.9550 
  217.2500    -8.5390     2.2040    67.9130    37.0630    32.7910    27.1520    25.2770 
  217.3750    -8.2720     2.1970    65.4980    37.6240    33.4130    27.3500    25.4250 
  217.5000    -8.0140     2.1950    63.1000    38.0040    33.8840    27.9960    25.4970 
  217.6250    -7.7750     2.2010    63.0910    37.8850    33.9090    27.5900    25.5240 
  217.7500    -7.6210     2.2140    63.5550    37.1620    33.3780    26.8770    25.5320 
  217.8750    -7.5230     2.2310    64.0460    35.8400    32.2780    26.6380    25.5320 
  218.0000    -7.4660     2.2470    65.9950    34.1340    30.7780    26.0920    25.5290 
  218.1250    -7.4980     2.2600    70.0240    32.5370    29.2710    24.3540    25.5250 
  218.2500    -7.6080     2.2660    72.5610    31.6130    28.2330    23.6540    25.5250 
  218.3750    -7.7380     2.2670    71.1110    31.8100    28.0330    23.1620    25.5280 
  218.5000    -7.8860     2.2620    67.1610    33.4670    28.9570    23.7700    25.5300 
  218.6250    -8.1130     2.2530    64.0530    37.0880    31.4690    26.4940    25.5110 
  218.7500    -8.3800     2.2430    63.2490    42.3580    35.4150    32.3750    25.4670 
  218.8750    -8.6930     2.2320    64.2270    48.8730    40.5520    39.7760    25.4260 
  219.0000    -9.0510     2.2210    66.1030    55.8380    46.2780    45.0860    25.4080 
  219.1250    -9.4170     2.2100    68.2550    61.9970    51.5920    47.9980    25.4080 
  219.2500    -9.7420     2.2060    67.8470    66.5650    55.7860    50.9180    25.4040 
  219.3750   -10.0570     2.2120    65.3350    69.3010    58.6100    53.0140    25.3660 
