~V
VERS. 2.00: Ver 2.00
~W
STRT.M 62.0000:
STOP.M 318.0000:
STEP.M 0.1250:
NULL. -999.2500:
UWI. DF321:
~C
DEPT.M :
DEN.GM/CC :
SP.MV :
AC.US/MT :
GR.API :
CALI.CM :
RXO.OHMM :
RI. :
RML.OHMM :
~A
# ...
  292.0000     2.4400   -15.5490   321.6080    68.6650    22.8960     8.8590     7.4700     8.8300 
  292.1250     2.4660   -15.5640   308.0690    65.9650    22.9160    10.7680     8.7900    10.4500 
  292.2500     2.5120   -15.4940   295.8890    61.0070    22.9580    13.3580    10.1470    12.1390 
  292.3750     2.5640   -15.3640   287.5450    56.6350    22.9340    15.1900    11.1130    13.3060 
  292.5000     2.6000   -15.2500   285.3970    54.1940    22.9040    14.8840    11.2240    13.2930 
  292.6250     2.5900   -15.1460   292.0950    54.6080    22.9340    12.5660    10.2020    11.7870 
  292.7500     2.5470   -15.0000   306.1860    57.4660    22.9110     9.9800     8.6180     9.6870 
  292.8750     2.4910   -14.9040   326.4140    60.1660    22.8500     7.7600     6.9580     7.6750 
  293.0000     2.4370   -14.8170   350.7060    58.7280    22.8060     5.9830     5.5420     6.1020 
  293.1250     2.4000   -14.6690   375.8220    52.1800    22.7730     4.8670     4.5600     5.1140 
  293.2500     2.3840   -14.5030   397.9020    45.3440    22.7580     4.3240     3.9330     4.5520 
  293.3750     2.3900   -14.3050   414.4620    41.0770    22.7470     4.1740     3.6000     4.3350 
  293.5000     2.4100   -14.0790   424.6570    38.5830    22.7310     4.1740     3.4930     4.3730 
  293.6250     2.4290   -13.8650   428.7920    36.1520    22.6910     4.1840     3.5400     4.5650 
  293.7500     2.4330   -13.6120   429.8990    35.0880    22.6840     4.1950     3.6310     4.7520 
  293.8750     2.4240   -13.3910   429.5210    36.2210    22.7020     4.2220     3.7130     4.8410 
  294.0000     2.4130   -13.2370   428.3990    38.3970    22.7060     4.2580     3.7590     4.8060 
  294.1250     2.4140   -13.0810   426.6410    38.6960    22.7010     4.2750     3.7570     4.6820 
  294.2500     2.4240   -13.0110   424.5830    37.0030    22.6890     4.2620     3.7270     4.5500 
  294.3750     2.4300   -12.9910   422.7790    34.5960    22.6720     4.2310     3.6780     4.4500 
  294.5000     2.4300   -12.9750   421.9480    32.1240    22.6480     4.1900     3.6160     4.3940 
  294.6250     2.4320   -13.0650   422.8940    30.2300    22.6220     4.1350     3.5450     4.3660 
  294.7500     2.4430   -13.2130   425.2080    30.3420    22.6140     4.1140     3.4710     4.3350 
  294.8750     2.4540   -13.3830   428.0550    32.7260    22.6180     4.1270     3.3970     4.2880 
  295.0000     2.4550   -13.6150   430.1870    35.5140    22.6280     4.1490     3.3400     4.2420 
  295.1250     2.4500   -13.8900   429.7380    35.3220    22.6420     4.1640     3.3390     4.2520 
  295.2500     2.4440   -14.1820   425.9500    33.2780    22.6510     4.1830     3.4120     4.3650 
  295.3750     2.4360   -14.5390   418.5500    33.4200    22.6600     4.2890     3.5660     4.6040 
  295.5000     2.4230   -14.8900   408.2430    37.3130    22.6860     4.5830     3.7860     4.9480 
  295.6250     2.4080   -15.2030   397.0580    44.0300    22.7270     5.0280     4.0300     5.3120 
  295.7500     2.3990   -15.6070   387.9600    50.8940    22.7410     5.3450     4.2260     5.5740 
  295.8750     2.3950   -16.0430   382.9020    55.4700    22.7390     5.3950     4.3270     5.6440 
  296.0000     2.3960   -16.4520   382.4170    56.6210    22.7400     5.2990     4.3290     5.5220 
  296.1250     2.3990   -16.8540   385.3650    55.5530    22.7790     5.2200     4.2930     5.3520 
  296.2500     2.4040   -17.1870   387.8820    55.7190    22.7830     5.2230     4.3480     5.3540 
  296.3750     2.4050   -17.4280   386.6590    56.7240    22.6720     5.4170     4.5920     5.6760 
  296.5000     2.3980   -17.5980   379.5990    57.2650    22.4300     6.1340     5.0660     6.3740 
  296.6250     2.3840   -17.6760   366.8610    60.3190    22.2120     7.6610     5.7270     7.3680 
  296.7500     2.3690   -17.6660   353.8300    68.0160    22.2030     9.0270     6.3400     8.2540 
  296.8750     2.3570   -17.5500   345.8360    78.4040    22.3480     9.3270     6.6480     8.6100 
  297.0000     2.3500   -17.3610   346.6780    84.3540    22.4630     8.4170     6.4840     8.2190 
  297.1250     2.3480   -17.1090   357.8860    79.9040    22.5090     6.7850     5.8720     7.2360 
  297.2500     2.3460   -16.7690   374.1900    69.8010    22.4670     5.5120     5.1420     6.2030 
  297.3750     2.3460   -16.3920   391.2220    59.4660    22.4310     4.8110     4.4930     5.3990 
  297.5000     2.3510   -16.0490   405.7880    52.8800    22.3940     4.4810     4.0230     4.9130 
  297.6250     2.3640   -15.7650   415.9390    49.6310    22.3190     4.2860     3.7660     4.7380 
  297.7500     2.3760   -15.5210   422.5790    47.3090    22.3000     4.1410     3.6500     4.7270 
  297.8750     2.3880   -15.3510   426.4230    44.9860    22.3050     4.0940     3.6380     4.8000 
  298.0000     2.4030   -15.2620   428.1450    43.3930    22.3010     4.1190     3.7110     4.9150 
  298.1250     2.4230   -15.2590   428.0640    43.8560    22.2590     4.2120     3.8580     5.0720 
  298.2500     2.4360   -15.3780   426.7690    46.2220    22.1760     4.3500     4.0420     5.2540 
  298.3750     2.4330   -15.6070   424.3050    50.2540    22.1190     4.4700     4.2360     5.4360 
  298.5000     2.4190   -15.9090   420.5020    54.5190    22.0710     4.5680     4.4220     5.5980 
  298.6250     2.4050   -16.2350   414.7200    57.4680    21.9780     4.7730     4.6230     5.7760 
  298.7500     2.3960   -16.5650   407.0350    59.4330    21.8560     5.1760     4.8960     6.0670 
  298.8750     2.3890   -16.9080   397.7870    60.9480    21.7690     5.6630     5.2820     6.5480 
  299.0000     2.3830   -17.2390   388.0290    63.3400    21.6480     6.1230     5.7550     7.1970 
  299.1250     2.3760   -17.5250   380.0210    68.8330    21.3710     6.5540     6.1610     7.7760 
  299.2500     2.3710   -17.7450   375.6170    75.7900    21.0620     6.9550     6.3070     7.9570 
  299.3750     2.3720   -17.8500   375.7090    81.6820    20.8170     6.9350     6.1150     7.6060 
  299.5000     2.3790   -17.8420   379.4760    81.9320    20.8030     6.1910     5.7010     6.9220 
  299.6250     2.3880   -17.7430   383.7710    73.2800    21.1000     5.3740     5.3470     6.3720 
  299.7500     2.3940   -17.6020   384.4450    63.3470    21.5250     5.3200     5.2620     6.2730 
  299.8750     2.3960   -17.4370   379.3740    59.2930    22.1170     6.2900     5.5110     6.7040 
  300.0000     2.3920   -17.2750   369.3910    63.7650    22.6150     7.9210     6.0330     7.5470 
  300.1250     2.3800   -17.1200   359.1110    71.8410    22.7960     9.0170     6.5720     8.3840 
  300.2500     2.3690   -16.9580   354.4020    77.3300    22.7680     8.8800     6.7640     8.6320 
  300.3750     2.3700   -16.7920   358.2760    77.8680    22.7200     7.5990     6.4460     8.0710 
  300.5000     2.3860   -16.6590   370.1900    71.5210    22.7140     6.0160     5.7400     6.9960 
  300.6250     2.4040   -16.5140   386.4210    60.4410    22.6910     4.9430     4.9630     5.9550 
  300.7500     2.4120   -16.4180   401.0970    51.0580    22.6630     4.5740     4.3730     5.2420 
  300.8750     2.4090   -16.3590   411.0930    47.3100    22.6330     4.5260     4.0510     4.9080 
  301.0000     2.4010   -16.3360   415.2470    48.9400    22.5930     4.6130     4.0020     4.9350 
  301.1250     2.3970   -16.4780   413.0500    52.8690    22.5510     4.8300     4.2300     5.3330 
  301.2500     2.4030   -16.7600   406.5860    57.9600    22.5770     5.2400     4.6510     5.9770 
  301.3750     2.4120   -17.2160   397.2590    64.3160    22.6720     5.8990     5.2170     6.7720 
  301.5000     2.4090   -17.7940   386.7730    71.3900    22.8120     6.6010     5.8710     7.5980 
  301.6250     2.3760   -18.5530   377.1960    78.3530    22.9410     7.2020     6.5460     8.3160 
  301.7500     2.3300   -19.3000   369.6280    85.4880    22.9720     7.9060     7.1660     8.8780 
  301.8750     2.2950   -19.9840   364.1760    92.7950    22.9790     8.7860     7.6760     9.2750 
