~V
VERS. 2.00: Ver 2.00
~W
STRT.M 61.0000:
STOP.M 257.0000:
STEP.M 0.1250:
NULL. -999.2500:
UWI. DF32086:
~C
DEPT.M :
SP.MV :
GR.API :
CALI.CM :
RXO.OHMM :
RI. :
RML.OHMM :
DEN.GM/CC :
~A
# ...
  139.7500   -25.6380   103.0380    24.1490     6.2030     5.8620     6.3910     2.3760 
  139.8750   -25.5770   104.5410    24.1430     5.8470     5.1380     5.5810     2.3460 
  140.0000   -25.5410   102.1120    24.1330     5.6110     4.7160     5.2600     2.3370 
  140.1250   -25.5560   103.0690    24.1020     5.3880     4.7290     5.5060     2.3420 
  140.2500   -25.6350   104.9130    24.0430     5.4790     5.1590     6.2100     2.3550 
  140.3750   -25.7240   102.4420    23.9640     6.4530     5.9810     7.2890     2.3820 
  140.5000   -25.7970    94.3850    23.9100     9.2150     7.0470     8.5350     2.4260 
  140.6250   -25.9400    84.7630    23.8380    11.6900     8.0520     9.5390     2.4730 
  140.7500   -26.0870    79.8100    23.6990    11.8740     8.7680    10.1100     2.4900 
  140.8750   -26.2510    80.9410    23.5400    10.0220     9.2400    10.4450     2.4620 
  141.0000   -26.4190    85.1060    23.4510     9.0890     9.6890    10.9430     2.4100 
  141.1250   -26.5650    87.3740    23.4350    11.7760    10.3720    11.9900     2.3900 
  141.2500   -26.6750    85.3670    23.4770    16.4540    11.2380    13.4110     2.4230 
  141.3750   -26.8130    80.1950    23.5700    19.0500    11.9830    14.6550     2.4750 
  141.5000   -26.9500    75.9060    23.5730    17.0070    12.1910    14.9530     2.4860 
  141.6250   -27.0250    77.4470    23.6600    12.7800    11.6220    13.9120     2.4190 
  141.7500   -27.0840    81.4980    23.8500    10.4410    10.7550    12.4670     2.3270 
  141.8750   -27.1160    82.8920    24.0140     9.5450    10.0010    11.3300     2.2580 
  142.0000   -27.1390    81.0140    24.0510     9.3020     9.5960    10.8090     2.2250 
  142.1250   -27.1740    79.6950    23.8960     9.5830     9.6530    10.9700     2.2160 
  142.2500   -27.1940    81.4380    23.7030    10.2730    10.0440    11.5260     2.2150 
  142.3750   -27.1820    85.0540    23.6320    11.0530    10.7040    12.3240     2.2190 
  142.5000   -27.1630    87.1790    23.7520    11.5810    11.5910    13.2960     2.2260 
  142.6250   -27.1360    85.2390    24.0180    11.8440    12.6450    14.4300     2.2320 
  142.7500   -27.1150    82.1250    24.1970    12.3130    13.6130    15.5300     2.2290 
  142.8750   -27.0930    81.0500    24.3230    13.1310    14.1390    16.2060     2.2180 
  143.0000   -27.0410    82.5240    24.3450    14.1110    13.8470    15.9570     2.2030 
  143.1250   -26.9740    85.2170    24.3190    13.6990    12.5360    14.4430     2.1970 
  143.2500   -26.9220    87.9800    24.2610    11.3870    10.8260    12.4170     2.2070 
  143.3750   -26.8570    89.9190    24.2030     8.4050     9.2910    10.5940     2.2330 
  143.5000   -26.7550    91.8600    24.2410     6.5290     8.3120     9.4510     2.2710 
  143.6250   -26.6810    93.7520    24.4850     6.7090     8.1620     9.3520     2.3200 
  143.7500   -26.5900    92.7810    24.4960     8.4440     8.7180    10.1970     2.3740 
  143.8750   -26.5170    88.2180    24.3390    11.2970     9.9140    11.9310     2.4190 
  144.0000   -26.4740    82.4990    24.1830    14.2000    11.6310    14.3810     2.4470 
  144.1250   -26.4570    77.9580    24.1340    16.4340    13.6590    17.1640     2.4660 
  144.2500   -26.4620    75.3800    24.1160    17.4590    15.6170    19.6680     2.4940 
  144.3750   -26.4800    74.4110    24.1030    17.5110    17.2980    21.5930     2.5260 
  144.5000   -26.5530    74.0240    24.0680    18.1460    18.7040    23.0070     2.5480 
  144.6250   -26.6220    72.3140    23.9840    20.3660    19.9010    24.1120     2.5540 
  144.7500   -26.6940    70.0980    23.8810    22.6250    20.8700    25.0040     2.5580 
  144.8750   -26.7610    69.2740    23.7220    23.6290    21.4360    25.5470     2.5650 
  145.0000   -26.8280    69.4340    23.5670    23.4520    21.4590    25.5950     2.5730 
  145.1250   -26.8640    70.0710    23.5020    23.1310    20.8960    25.0290     2.5820 
  145.2500   -26.8860    69.4360    23.4930    21.8130    20.1400    24.2060     2.5910 
  145.3750   -26.9300    67.9580    23.5280    20.0610    19.5600    23.5150     2.5930 
  145.5000   -26.9310    68.4750    23.5890    19.0510    19.3830    23.2210     2.5890 
  145.6250   -26.9310    69.7810    23.7500    19.7100    19.6430    23.4140     2.5790 
  145.7500   -26.9250    69.5140    23.8910    20.6160    20.0390    23.8170     2.5730 
  145.8750   -26.8920    68.4780    23.9430    21.4990    20.2420    24.0550     2.5730 
  146.0000   -26.8700    69.2380    23.9300    21.9340    19.9000    23.6510     2.5810 
  146.1250   -26.8400    72.9860    23.9070    20.8170    18.7500    22.2220     2.5900 
  146.2500   -26.7940    76.8980    23.9070    18.4200    17.1810    20.2350     2.5920 
  146.3750   -26.7260    79.4110    23.9390    15.9320    15.6010    18.1880     2.5830 
  146.5000   -26.6750    80.9480    24.0220    13.8360    14.3300    16.4910     2.5660 
  146.6250   -26.6170    82.6360    24.1500    12.2660    13.6340    15.5260     2.5460 
  146.7500   -26.5930    81.2330    24.1340    11.6970    13.4480    15.2670     2.5310 
  146.8750   -26.5500    76.4710    24.0890    11.9940    13.6720    15.6150     2.5240 
  147.0000   -26.4980    72.3680    24.0680    13.0020    14.1480    16.3620     2.5260 
  147.1250   -26.4650    71.9580    24.0940    14.3150    14.6690    17.1790     2.5340 
  147.2500   -26.4280    72.9080    24.0810    15.0630    15.0560    17.7200     2.5400 
  147.3750   -26.4100    73.7810    23.9760    14.8300    15.2900    17.9050     2.5410 
  147.5000   -26.3950    72.4090    23.9000    14.1110    15.4900    17.9250     2.5380 
  147.6250   -26.3890    68.5860    23.8320    14.3280    15.8630    18.1530     2.5340 
  147.7500   -26.3730    64.7040    23.6850    15.3380    16.4550    18.7580     2.5400 
  147.8750   -26.3720    61.7790    23.5110    16.3490    17.1620    19.6580     2.5590 
  148.0000   -26.3460    60.3240    23.3330    16.7430    17.7140    20.5160     2.5820 
  148.1250   -26.3340    62.5830    23.2460    17.1090    17.6620    20.7180     2.5870 
  148.2500   -26.3150    67.1560    23.3800    17.6680    16.9620    20.0960     2.5750 
  148.3750   -26.2830    69.5880    23.6590    17.2450    15.8290    18.8590     2.5580 
  148.5000   -26.2300    67.8410    23.9530    15.3830    14.6660    17.4710     2.5440 
  148.6250   -26.1600    65.2050    24.0680    13.5810    13.9630    16.5300     2.5340 
  148.7500   -26.0870    63.5470    24.0710    13.4760    13.8770    16.3100     2.5210 
  148.8750   -26.0410    61.9030    23.9990    14.1590    14.4300    16.8980     2.5080 
  149.0000   -25.9980    59.4210    23.9310    15.0190    15.5220    18.2120     2.5030 
  149.1250   -25.9910    59.5150    23.8980    16.6320    16.8850    19.9530     2.5140 
  149.2500   -25.9920    62.9760    23.8790    18.4360    17.9780    21.4280     2.5390 
  149.3750   -25.9890    65.8640    23.8150    19.0410    18.3830    22.0840     2.5680 
  149.5000   -26.0100    65.1430    23.6850    17.9680    17.9910    21.7440     2.5850 
  149.6250   -26.0450    63.4490    23.5410    16.2180    17.0420    20.6690     2.5810 
  149.7500   -26.0590    64.4240    23.4100    15.1870    16.0990    19.5600     2.5640 
  149.8750   -26.0500    67.0140    23.2840    14.8740    15.4750    18.8200     2.5500 
  150.0000   -26.0410    68.1060    23.2090    14.8700    15.2970    18.6160     2.5500 
  150.1250   -25.9920    64.6530    23.2490    15.1500    15.5680    18.9450     2.5640 
  150.2500   -25.9650    60.3700    23.2080    15.5040    16.0450    19.4980     2.5810 
  150.3750   -25.9420    58.9410    22.9800    15.8220    16.5530    20.0620     2.5940 
  150.5000   -25.9010    59.4940    22.5770    16.0480    16.9550    20.5000     2.5970 
  150.6250   -25.8610    58.3070    22.2430    16.3130    17.1560    20.7480     2.5890 
  150.7500   -25.8520    56.9550    22.1020    16.5120    17.2050    20.8760     2.5790 
  150.8750   -25.8380    57.1300    22.0410    15.9360    17.1640    20.9240     2.5740 
