~V
VERS. 2.00: Ver 2.00
~W
STRT.M 60.0000:
STOP.M 229.0000:
STEP.M 0.1250:
NULL. -999.2500:
UWI. DF32026:
~C
DEPT.M :
SP.MV :
GR.API :
CALI.CM :
RXO.OHMM :
RI. :
RML.OHMM :
DEN.GM/CC :
~A
# ...
  150.0000    66.9780    73.6200    24.8000   122.8590   119.0760   131.8950     2.2080 
  150.1250    66.9550    75.5120    24.7490   110.2680   113.5300   125.4530     2.2180 
  150.2500    66.9140    75.5830    24.7540   106.3710   110.4630   121.8090     2.2230 
  150.3750    66.8860    73.9470    24.7360   109.9530   108.9040   119.8500     2.2180 
  150.5000    66.8680    71.9800    24.6720   112.7170   108.2010   118.8460     2.2070 
  150.6250    66.8760    72.2970    24.7620   102.2760   108.2890   118.7580     2.1950 
  150.7500    66.9170    74.0580    25.0480    87.9120   109.4650   119.8490     2.1870 
  150.8750    66.9760    75.2310    25.3680    89.8700   112.1990   122.5670     2.1860 
  151.0000    67.0330    74.5840    25.5590   112.8200   116.4470   126.8250     2.1900 
  151.1250    67.0710    71.4480    25.6770   131.6360   121.3640   131.6450     2.1940 
  151.2500    67.1060    68.2720    25.7470   130.4000   125.5730   135.5960     2.1960 
  151.3750    67.1550    67.4500    25.6880   122.8080   128.3870   138.0710     2.1970 
  151.5000    67.2100    69.3010    25.4620   119.4140   130.0660   139.3770     2.1980 
  151.6250    67.2810    72.3500    25.1790   118.4590   132.1160   140.9050     2.2020 
  151.7500    67.3740    73.6930    25.0490   123.1720   136.0740   144.2040     2.2100 
  151.8750    67.4810    72.2780    25.0450   134.7390   142.6350   150.0960     2.2200 
  152.0000    67.6180    71.1850    25.0860   149.2630   151.9740   158.8200     2.2240 
  152.1250    67.7910    71.5610    25.0600   161.2200   164.6780   170.9500     2.2190 
  152.2500    67.9880    71.7070    24.9950   173.0930   180.2560   185.9320     2.2100 
  152.3750    68.1610    69.9600    24.9570   191.2310   198.1780   203.1610     2.2040 
  152.5000    68.3200    68.0800    24.9540   214.8690   217.2790   221.3830     2.2020 
  152.6250    68.4660    69.2860    24.9520   238.4190   235.1100   238.1970     2.2030 
  152.7500    68.5850    71.8430    24.9420   252.4940   248.9070   251.0730     2.2020 
  152.8750    68.6860    72.3500    24.9410   252.2100   256.3380   257.7900     2.2010 
  153.0000    68.7780    68.6070    24.9760   240.1600   255.4730   256.6390     2.2010 
  153.1250    68.8580    65.0960    25.0430   225.0140   242.0110   244.3880     2.2040 
  153.2500    68.9450    64.8750    25.0510   208.0950   217.0670   222.1730     2.2070 
  153.3750    69.0640    66.5310    24.9970   188.6110   185.0630   192.7770     2.2100 
  153.5000    69.1740    68.6470    24.9200   174.6300   153.3850   161.8990     2.2190 
  153.6250    69.3020    72.3850    24.8520   160.8500   129.3530   136.9590     2.2380 
  153.7500    69.4210    75.8380    24.7430   134.3770   114.0950   120.8900     2.2630 
  153.8750    69.5400    77.1240    24.6250   107.8500   107.3760   114.4310     2.2740 
  154.0000    69.6500    76.3860    24.5630    98.5110   108.3000   116.9470     2.2670 
  154.1250    69.7580    75.0500    24.5110   104.2460   116.5650   127.9020     2.2480 
  154.2500    69.8510    73.8510    24.5480   115.0020   128.2340   142.4590     2.2290 
  154.3750    69.8940    73.9520    24.7790   123.5540   137.4400   154.4210     2.2180 
  154.5000    69.9550    75.8470    25.2530   128.3310   136.4380   156.2240     2.2130 
  154.6250    69.9690    76.2620    25.4660   129.0640   120.7640   142.0260     2.2110 
  154.7500    69.9730    74.7140    25.4720   121.3980    99.5870   119.3120     2.2160 
  154.8750    69.9640    75.7410    25.3260   100.3730    79.7300    95.6400     2.2330 
  155.0000    69.9370    81.7670    25.0830    71.4970    64.2120    76.0800     2.2590 
  155.1250    69.8750    87.3650    25.3110    51.5760    54.0770    63.2010     2.2840 
  155.2500    69.7960    87.8700    25.4310    42.7230    47.7660    55.2680     2.2990 
  155.3750    69.7080    85.1780    25.4780    38.5050    44.5820    51.2290     2.2980 
  155.5000    69.5830    82.0170    25.4850    35.7260    44.1360    50.4720     2.2900 
  155.6250    69.4380    78.4710    25.4890    35.9200    46.8540    53.4930     2.2830 
  155.7500    69.2840    74.9200    25.4400    45.5010    52.6710    60.3220     2.2750 
  155.8750    69.1160    73.4090    25.3270    61.4500    62.3430    71.9020     2.2590 
  156.0000    68.9480    73.2330    25.1840    79.6420    76.9290    89.3410     2.2360 
  156.1250    68.7760    72.8830    25.0550   111.9220    98.2270   114.0710     2.2160 
  156.2500    68.5980    70.6830    24.9980   165.9860   123.7980   142.3690     2.2030 
  156.3750    68.4280    68.4520    24.9830   226.0530   147.9430   167.6380     2.1980 
  156.5000    68.2590    68.6170    24.9770   255.0860   161.4730   181.2190     2.1960 
  156.6250    68.1070    70.5310    24.9700   231.3190   156.1150   175.3890     2.2010 
  156.7500    67.9600    71.0850    24.9610   193.2440   140.8870   158.0730     2.2150 
  156.8750    67.8230    70.6410    24.9570   155.5100   125.4580   138.8040     2.2350 
  157.0000    67.6800    71.0020    24.9990   117.9170   115.8080   125.0840     2.2500 
  157.1250    67.5450    72.6160    25.0900    99.8650   115.2820   121.9880     2.2500 
  157.2500    67.4290    74.3120    25.1460   108.9070   122.5320   128.1510     2.2350 
  157.3750    67.3270    75.3280    25.0800   145.7300   136.7340   142.0760     2.2160 
  157.5000    67.2280    72.7860    25.0010   188.6110   155.9810   161.0410     2.2070 
  157.6250    67.1310    67.7180    24.9820   209.0670   175.8010   180.3810     2.2090 
  157.7500    67.0360    66.4880    24.9840   215.7230   190.4770   195.3200     2.2130 
  157.8750    66.9600    68.7610    25.0020   225.4600   197.7190   204.0900     2.2120 
  158.0000    66.9110    70.4270    25.0380   233.8800   198.8300   207.4260     2.2050 
  158.1250    66.8580    67.9520    25.0640   224.7970   195.6230   206.2530     2.1980 
  158.2500    66.7980    64.9840    25.0730   211.3540   189.9210   202.0630     2.1940 
  158.3750    66.7390    63.9020    25.0230   205.2640   182.6350   195.6290     2.1920 
  158.5000    66.7030    65.0740    24.9790   199.5470   174.9400   188.1690     2.1930 
  158.6250    66.6750    68.1210    24.9750   183.4110   167.8830   180.9610     2.2000 
  158.7500    66.6700    70.7560    25.0100   163.0490   161.4480   174.3010     2.2110 
  158.8750    66.6790    71.8890    25.0640   159.6770   155.1030   167.7170     2.2200 
  159.0000    66.6850    72.0950    25.1230   165.3310   148.5120   160.8560     2.2210 
  159.1250    66.7450    71.6450    25.1190   155.7680   142.4080   154.4460     2.2190 
  159.2500    66.8470    70.3120    25.0620   133.3260   138.3070   150.0830     2.2230 
  159.3750    66.9860    68.1300    24.9920   124.5150   137.7140   149.4070     2.2290 
  159.5000    67.1610    68.0010    24.9390   134.9410   141.7160   153.6120     2.2280 
  159.6250    67.3680    69.8870    24.8790   149.7470   151.3290   163.5420     2.2160 
  159.7500    67.5760    68.5180    24.7970   180.6890   164.3700   176.5770     2.1980 
  159.8750    67.7880    64.5570    24.7590   230.4960   178.1510   189.8940     2.1840 
  160.0000    68.0210    62.8010    24.7500   266.4990   189.5060   200.5650     2.1820 
  160.1250    68.2990    63.5970    24.8060   250.8010   195.3230   205.7310     2.1940 
  160.2500    68.5760    62.6160    25.0370   198.2360   196.3260   206.0080     2.2140 
  160.3750    68.8540    60.9140    25.4410   158.9490   193.4650   202.2340     2.2310 
  160.5000    69.1190    61.8910    25.6090   156.0160   187.4510   195.2700     2.2330 
  160.6250    69.3950    65.4470    25.4110   166.8000   178.3860   185.4970     2.2230 
  160.7500    69.6800    67.5220    25.1060   168.4220   167.8320   174.4400     2.2090 
  160.8750    69.9790    66.1750    25.2310   157.4200   157.4900   163.6430     2.2040 
  161.0000    70.2960    63.8910    25.6450   147.5880   149.2570   154.9360     2.2090 
  161.1250    70.5830    67.5320    25.8230   139.2770   145.4110   150.8000     2.2140 
