~V
VERS. 2.00: Ver 2.00
~W
STRT.M 60.0000:
STOP.M 266.0000:
STEP.M 0.1250:
NULL. -999.2500:
UWI. DF32129:
~C
DEPT.M :
SP.MV :
GR.API :
CALI.CM :
RXO.OHMM :
RI. :
RML.OHMM :
DEN.GM/CC :
~A
# ...
  150.0000   -28.4690    69.0160    26.2950    36.8890    24.0210    23.1750     2.6310 
  150.1250   -28.3130    72.9320    26.2900    28.0520    18.5850    17.6720     2.5890 
  150.2500   -28.1850    77.2420    26.2670    18.1830    14.5970    13.9520     2.5300 
  150.3750   -28.0800    79.7220    26.2490    11.6310    12.2730    11.9930     2.4920 
  150.5000   -27.9930    81.9960    26.2460    10.8380    11.5040    11.5680     2.4900 
  150.6250   -27.9260    82.9580    26.2460    14.6700    12.3740    12.7460     2.5250 
  150.7500   -27.8890    80.6260    26.2460    19.0720    14.5230    15.2130     2.5670 
  150.8750   -27.8250    74.5730    26.2460    22.2080    17.6590    18.6850     2.5970 
  151.0000   -27.8040    66.6850    26.2460    24.8960    21.0890    22.3650     2.6080 
  151.1250   -27.7660    61.9490    26.2460    27.3210    23.5750    24.7770     2.6070 
  151.2500   -27.7520    64.1170    26.2460    28.1030    24.6880    25.5780     2.6080 
  151.3750   -27.7340    70.6220    26.2460    27.2030    24.6980    25.2650     2.6090 
  151.5000   -27.7120    75.5350    26.2460    25.7740    24.1000    24.4640     2.6040 
  151.6250   -27.7230    76.7240    26.2460    24.5310    23.2870    23.6210     2.5900 
  151.7500   -27.7120    76.6460    26.2460    23.3290    22.5940    23.0350     2.5720 
  151.8750   -27.7430    74.2850    26.2460    22.7830    22.2010    22.8620     2.5540 
  152.0000   -27.7310    68.5980    26.2460    23.0890    22.1670    23.1320     2.5440 
  152.1250   -27.7630    64.5760    26.2460    24.4760    22.4300    23.7440     2.5450 
  152.2500   -27.7580    65.1970    26.2460    25.8010    22.7060    24.3260     2.5500 
  152.3750   -27.7810    67.5310    26.2460    26.5480    22.7520    24.5600     2.5540 
  152.5000   -27.7920    68.0120    26.2460    26.3180    22.4280    24.2690     2.5550 
  152.6250   -27.7820    67.7150    26.2490    25.0180    21.7660    23.5050     2.5510 
  152.7500   -27.8010    68.4380    26.2540    23.7400    21.0510    22.6670     2.5460 
  152.8750   -27.7870    67.8050    26.2540    23.0320    20.4830    22.0310     2.5430 
  153.0000   -27.8040    64.6840    26.2530    22.7280    20.1670    21.7290     2.5450 
  153.1250   -27.7610    63.9480    26.2500    22.6670    20.0930    21.7400     2.5510 
  153.2500   -27.7670    67.0350    26.2500    22.4470    20.0700    21.8180     2.5580 
  153.3750   -27.7460    70.1120    26.2490    22.0070    19.9630    21.7930     2.5630 
  153.5000   -27.7490    69.6590    26.2470    21.1910    19.6800    21.5510     2.5640 
  153.6250   -27.7580    66.0870    26.2470    20.2980    19.1510    21.0030     2.5650 
  153.7500   -27.7550    62.3350    26.2530    19.8510    18.4500    20.2460     2.5700 
  153.8750   -27.7750    61.6950    26.2000    20.1770    17.6500    19.3740     2.5750 
  154.0000   -27.8160    64.9710    26.0850    20.3260    16.8320    18.4830     2.5700 
  154.1250   -27.8560    68.1980    25.9140    19.0910    16.1080    17.6950     2.5560 
  154.2500   -27.8770    66.7090    26.0230    17.3740    15.5700    17.1090     2.5470 
  154.3750   -27.9030    62.1390    26.1200    16.7730    15.2740    16.7900     2.5490 
  154.5000   -27.9140    59.6220    26.1720    17.2630    15.2270    16.7530     2.5580 
  154.6250   -27.9240    62.7490    26.3410    17.9270    15.4300    17.0220     2.5620 
  154.7500   -27.8980    66.9880    26.4540    18.4200    15.7710    17.4680     2.5600 
  154.8750   -27.9090    68.6830    26.4960    18.6920    16.1300    17.9350     2.5580 
  155.0000   -27.8710    66.6150    26.4970    18.9260    16.3670    18.2490     2.5580 
  155.1250   -27.8620    62.9880    26.3220    19.1410    16.3410    18.2310     2.5570 
  155.2500   -27.8560    60.0340    25.9340    18.9150    16.0500    17.8840     2.5560 
  155.3750   -27.8500    59.4810    25.5790    17.9560    15.5030    17.2420     2.5560 
  155.5000   -27.8650    62.0730    25.4730    16.4660    14.7740    16.4210     2.5610 
  155.6250   -27.8650    66.1680    25.5030    15.0520    13.9990    15.5880     2.5620 
  155.7500   -27.9080    69.3260    25.5110    14.0760    13.3160    14.8870     2.5520 
  155.8750   -27.9090    72.0070    25.5160    13.3830    12.8160    14.4050     2.5370 
  156.0000   -27.9620    73.1550    25.5260    13.0750    12.5600    14.2000     2.5260 
  156.1250   -28.0160    70.6300    25.5330    13.3980    12.5830    14.3270     2.5230 
  156.2500   -28.0750    66.4840    25.5360    14.1470    12.7740    14.6610     2.5200 
  156.3750   -28.1160    65.1670    25.5370    14.9750    13.0280    15.0750     2.5110 
  156.5000   -28.1520    68.7620    25.5630    15.4940    13.2230    15.4020     2.4970 
  156.6250   -28.1700    71.3650    25.7300    15.4010    13.2290    15.4440     2.4860 
  156.7500   -28.1790    67.9500    26.0290    14.9250    13.0860    15.2510     2.4880 
  156.8750   -28.1740    63.0640    26.3290    15.0730    12.9240    15.0020     2.5020 
  157.0000   -28.1520    63.1700    26.4500    15.6140    12.9020    14.9270     2.5170 
  157.1250   -28.1380    68.4420    26.2810    16.4130    13.2030    15.2860     2.5190 
  157.2500   -28.1210    71.0460    25.9140    17.7460    13.8190    16.0830     2.5140 
  157.3750   -28.1360    71.6430    25.6060    19.4300    14.6640    17.2020     2.5100 
  157.5000   -28.1330    73.7580    25.4870    20.2970    15.5360    18.3490     2.5150 
  157.6250   -28.1580    75.3160    25.4870    19.6120    16.0630    18.9950     2.5270 
  157.7500   -28.1670    74.3990    25.4870    18.6090    16.0710    18.9150     2.5400 
  157.8750   -28.1940    71.0210    25.4870    17.3310    15.5970    18.2150     2.5460 
  158.0000   -28.1880    68.0960    25.4870    15.8690    14.8810    17.2790     2.5430 
  158.1250   -28.2140    66.7880    25.4870    14.6300    14.2430    16.5770     2.5370 
  158.2500   -28.2000    65.7820    25.4870    14.1480    13.8520    16.2750     2.5360 
  158.3750   -28.1960    63.8520    25.4870    14.4710    13.7260    16.3320     2.5440 
  158.5000   -28.1940    60.3320    25.4860    15.4040    13.7890    16.5860     2.5520 
  158.6250   -28.1850    59.4180    25.4830    16.1300    13.9430    16.8320     2.5590 
  158.7500   -28.2090    61.5100    25.4780    15.6540    14.1260    17.0110     2.5720 
  158.8750   -28.2160    64.9520    25.4760    14.4250    14.3740    17.2200     2.5970 
  159.0000   -28.2740    68.4080    25.4760    13.6070    14.7410    17.5850     2.6240 
  159.1250   -28.2810    69.5210    25.4840    13.9490    15.2730    18.1950     2.6340 
  159.2500   -28.3340    68.8710    25.5160    15.1660    15.8880    18.9230     2.6240 
  159.3750   -28.3700    69.1490    25.5430    16.4950    16.4330    19.5420     2.6060 
  159.5000   -28.4200    71.8610    25.4110    17.2050    16.7210    19.8030     2.5910 
  159.6250   -28.4720    74.2690    25.2870    17.2540    16.6260    19.5760     2.5890 
  159.7500   -28.4990    74.5300    25.2290    17.2690    16.3170    19.1200     2.5910 
  159.8750   -28.5270    74.8300    25.2230    17.3710    15.9440    18.6410     2.5900 
  160.0000   -28.5480    76.2540    25.2320    17.4090    15.5990    18.2470     2.5830 
  160.1250   -28.6000    76.3630    25.2380    17.2810    15.2820    17.9030     2.5720 
  160.2500   -28.6360    74.1180    25.2560    17.0160    14.9260    17.4940     2.5640 
  160.3750   -28.6500    71.0900    25.2920    16.2540    14.5160    16.9910     2.5590 
  160.5000   -28.6760    68.8730    25.3600    14.9050    14.1250    16.4890     2.5590 
  160.6250   -28.7390    69.7240    25.4040    13.9680    13.9110    16.1940     2.5640 
  160.7500   -28.7890    71.4520    25.6660    14.2810    13.9340    16.1950     2.5720 
  160.8750   -28.8850    72.0250    25.9520    15.6320    14.1870    16.4850     2.5790 
  161.0000   -28.9380    72.4250    26.1590    17.0500    14.5950    16.9580     2.5840 
  161.1250   -29.0130    75.0510    26.1260    17.3260    15.0350    17.4210     2.5860 
