~V
VERS. 2.00: Ver 2.00
~W
STRT.M 60.0000:
STOP.M 266.0000:
STEP.M 0.1250:
NULL. -999.2500:
UWI. DF32129:
~C
DEPT.M :
SP.MV :
GR.API :
CALI.CM :
RXO.OHMM :
RI. :
RML.OHMM :
DEN.GM/CC :
~A
# ...
  195.0000   -19.6420    63.3490    25.6490     5.8800     5.0550     7.6890     2.4240 
  195.1250   -19.8950    66.9950    25.1670     5.9510     5.0980     7.6940     2.4290 
  195.2500   -20.1570    70.0020    24.7320     5.9430     5.1310     7.7090     2.4280 
  195.3750   -20.4840    75.4310    24.6790     5.9070     5.1560     7.7270     2.4230 
  195.5000   -20.7890    81.3170    25.0350     5.9670     5.1770     7.7440     2.4240 
  195.6250   -21.1410    83.6580    25.4970     6.1470     5.2150     7.7540     2.4310 
  195.7500   -21.4960    83.8140    25.7680     6.3370     5.2810     7.7740     2.4330 
  195.8750   -21.8470    83.2980    25.8230     6.4790     5.3850     7.8510     2.4250 
  196.0000   -22.1800    83.0410    26.0230     6.6560     5.5340     8.0400     2.4140 
  196.1250   -22.4480    84.3520    26.0720     7.0910     5.7460     8.3870     2.4080 
  196.2500   -22.6860    88.0380    25.9890     7.7420     5.9770     8.8030     2.4030 
  196.3750   -22.9050    92.9750    25.9520     8.4980     6.1570     9.1500     2.3910 
  196.5000   -23.0950    95.9880    26.1530     9.0570     6.2150     9.2820     2.3650 
  196.6250   -23.2900    95.2280    26.5330     8.7610     6.0940     9.0980     2.3350 
  196.7500   -23.4510    92.8620    26.9470     7.9080     5.8620     8.7280     2.3200 
  196.8750   -23.6180    89.6320    27.3740     7.1350     5.5970     8.2960     2.3250 
  197.0000   -23.7960    85.6230    27.5500     7.0770     5.3840     7.9160     2.3310 
  197.1250   -23.9750    82.2680    27.1480     7.8410     5.3560     7.7700     2.3210 
  197.2500   -24.1710    81.5600    26.5660     8.8260     5.6270     8.0140     2.3150 
  197.3750   -24.3450    82.4910    26.2950     9.8760     6.3750     8.8790     2.3330 
  197.5000   -24.5590    81.9400    26.2530    12.0010     7.8710    10.7010     2.3730 
  197.6250   -24.7080    78.3340    26.2210    17.8750    10.8850    14.3630     2.4180 
  197.7500   -24.8700    74.5130    26.1370    32.1650    16.0610    20.5720     2.4560 
  197.8750   -24.9720    72.9740    26.0070    56.9450    24.1580    30.3170     2.4850 
  198.0000   -25.0710    73.9750    25.8940    82.3510    34.9730    43.5560     2.4970 
  198.1250   -25.1270    74.2210    25.8120    89.2350    45.2500    55.6480     2.4780 
  198.2500   -25.1530    73.2930    25.7240    82.0630    50.6500    60.3070     2.4350 
  198.3750   -25.1750    72.2280    25.6560    71.3910    50.7410    58.1350     2.3830 
  198.5000   -25.1630    70.5690    25.6310    60.2010    48.2490    53.9970     2.3370 
  198.6250   -25.1700    67.1760    25.6240    51.4640    46.1060    51.6050     2.3040 
  198.7500   -25.1290    64.9390    25.6180    50.1450    45.4480    51.5090     2.2810 
  198.8750   -25.1200    65.4080    25.6400    53.5150    46.2970    53.3990     2.2630 
  199.0000   -25.0770    67.1980    25.6800    56.6320    48.2050    56.5350     2.2460 
  199.1250   -25.0940    69.0400    25.7650    60.2380    50.4590    59.8110     2.2310 
  199.2500   -25.1140    71.2430    25.8010    62.4810    52.4170    62.4130     2.2180 
  199.3750   -25.1470    72.4730    25.8160    61.9140    54.0730    64.4110     2.2090 
  199.5000   -25.1750    70.8380    25.8740    59.1540    55.8730    66.4510     2.2070 
  199.6250   -25.2100    69.0410    25.9770    60.8540    58.5620    69.4850     2.2100 
  199.7500   -25.2720    69.7910    26.0180    69.8340    62.2900    73.7110     2.2150 
  199.8750   -25.3620    71.4530    26.0340    81.8380    66.8260    78.8640     2.2180 
  200.0000   -25.4430    71.8120    26.0370    87.9820    71.5150    84.1690     2.2180 
  200.1250   -25.5240    69.5530    26.0350    85.7130    75.1900    88.1150     2.2160 
  200.2500   -25.6020    66.3400    26.0380    84.1680    77.2020    89.8110     2.2130 
  200.3750   -25.6700    63.2640    26.0390    86.5230    77.4130    89.1080     2.2110 
  200.5000   -25.7540    62.5710    26.0390    88.4760    76.1350    86.5960     2.2110 
  200.6250   -25.7680    65.0260    26.0390    86.6060    73.8490    83.0740     2.2100 
  200.7500   -25.8300    66.7860    26.0390    84.3750    71.3370    79.4460     2.2030 
  200.8750   -25.8520    66.8250    26.0390    81.5660    69.1080    76.2990     2.1870 
  201.0000   -25.9130    66.6220    26.0390    76.0800    67.5450    74.0390     2.1680 
  201.1250   -25.9430    67.3370    26.0390    70.8160    66.7830    72.6750     2.1550 
  201.2500   -25.9740    67.8710    26.0390    70.0170    66.2130    71.3800     2.1520 
  201.3750   -26.0180    68.3170    26.0390    72.7390    65.1590    69.3140     2.1580 
  201.5000   -26.0470    69.8320    26.0390    73.7640    63.0410    65.8540     2.1680 
  201.6250   -26.1570    70.3360    26.0390    67.2620    59.5560    60.6330     2.1860 
  201.7500   -26.2240    69.2680    26.0350    57.2500    55.0140    54.8370     2.2080 
  201.8750   -26.3180    68.7650    26.0160    49.8780    49.4190    49.9670     2.2270 
  202.0000   -26.3890    70.0770    25.9740    45.9760    44.6210    45.4740     2.2410 
  202.1250   -26.4890    71.6800    25.9480    42.2480    41.1300    41.9780     2.2510 
  202.2500   -26.5900    71.2490    25.9220    38.2950    38.7760    39.5220     2.2570 
  202.3750   -26.6950    70.5000    25.8830    35.8860    37.4600    38.1080     2.2580 
  202.5000   -26.8090    71.5780    25.8360    35.6610    37.1180    37.6960     2.2550 
  202.6250   -26.9380    74.2270    25.8090    37.0320    37.9010    38.4760     2.2540 
  202.7500   -27.0410    77.1460    25.8130    38.7000    39.6940    40.3660     2.2550 
  202.8750   -27.1270    78.2870    25.8690    41.3360    42.6060    43.4730     2.2530 
  203.0000   -27.2060    76.8020    25.9750    47.7300    46.7670    47.9100     2.2480 
  203.1250   -27.2990    73.5450    26.0180    59.0920    52.3760    53.8550     2.2380 
  203.2500   -27.4010    69.6670    26.0190    70.5370    58.8940    60.6460     2.2270 
  203.3750   -27.4710    65.9590    25.9980    78.9690    65.7410    67.5690     2.2180 
  203.5000   -27.5410    63.3800    25.9600    83.6170    72.3210    73.9750     2.2140 
  203.6250   -27.5750    64.3260    25.9350    80.0520    78.4200    79.7040     2.2130 
  203.7500   -27.6360    65.6050    25.9130    73.4650    84.9090    85.7990     2.2090 
  203.8750   -27.6740    65.1790    25.9100    74.5590    93.1030    93.7160     2.2020 
  204.0000   -27.7310    64.0630    25.9250    92.9780   104.2720   104.7860     2.1970 
  204.1250   -27.7020    63.1210    25.9330   128.4360   119.7690   119.9890     2.1920 
  204.2500   -27.6940    63.6380    25.9200   164.2610   138.1140   137.3460     2.1900 
  204.3750   -27.6590    65.3520    25.8950   187.2100   156.2740   154.0100     2.1960 
  204.5000   -27.6150    67.0080    25.8300   194.7490   169.7990   166.5960     2.2120 
  204.6250   -27.5700    65.7970    25.7450   193.3660   174.7510   172.1350     2.2330 
  204.7500   -27.4960    63.4110    25.6450   187.5440   174.3290   172.8810     2.2540 
  204.8750   -27.4390    62.5510    25.5920   178.5770   171.9020   171.3750     2.2720 
  205.0000   -27.3400    63.1150    25.6050   168.0290   169.6910   169.6360     2.2830 
  205.1250   -27.3080    63.7720    25.5750   164.7220   168.6830   168.7840     2.2730 
  205.2500   -27.2430    63.2070    25.6220   169.9410   168.4190   168.7010     2.2470 
  205.3750   -27.2140    62.4050    25.6950   176.5950   168.1760   168.9190     2.2170 
  205.5000   -27.1690    63.1210    25.6390   173.4250   167.0990   168.7530     2.1950 
  205.6250   -27.1180    66.2660    25.6100   164.6430   164.0110   167.0920     2.1830 
  205.7500   -27.0810    68.9170    25.5620   159.9940   158.6710   163.3630     2.1800 
  205.8750   -27.0670    69.7310    25.4870   160.7020   151.0220   157.2160     2.1810 
  206.0000   -27.0720    68.6320    25.4460   157.5570   141.4110   148.7820     2.1780 
  206.1250   -27.0720    65.7560    25.4660   146.3550   130.7060   138.6570     2.1700 
