~V
VERS. 2.00: Ver 2.00
~W
STRT.M 60.0000:
STOP.M 229.0000:
STEP.M 0.1250:
NULL. -999.2500:
UWI. DF32026:
~C
DEPT.M :
SP.MV :
GR.API :
CALI.CM :
RXO.OHMM :
RI. :
RML.OHMM :
DEN.GM/CC :
~A
# ...
  138.7500    71.1500    73.9310    24.9990   121.1370   124.9270   129.7920     2.2130 
  138.8750    70.9610    74.9290    24.9870   119.3440   125.4830   131.1340     2.2110 
  139.0000    70.8090    74.6710    25.0160   132.6130   133.9820   134.0800     2.2100 
  139.1250    70.6760    74.8150    25.0630   162.1480   141.5620   141.4610     2.2080 
  139.2500    70.5650    73.8800    25.0820   185.5950   145.3870   146.2470     2.2030 
  139.3750    70.4760    71.0100    25.0690   186.9530   142.6360   145.8870     2.1970 
  139.5000    70.3940    67.6060    25.0550   166.6580   134.3360   140.5020     2.1910 
  139.6250    70.3330    67.8800    25.0380   143.4360   124.1220   132.3000     2.1840 
  139.7500    70.2750    70.9580    25.0040   128.4810   115.1160   124.2870     2.1830 
  139.8750    70.2260    73.6060    24.9800   121.1380   107.8710   117.3870     2.1910 
  140.0000    70.1740    73.7780    25.0080   116.6660   101.7890   111.3360     2.2060 
  140.1250    70.1360    73.2440    25.1110   111.0080    95.5190   104.9490     2.2190 
  140.2500    70.1040    74.7690    25.2170   102.1040    87.7870    96.9870     2.2230 
  140.3750    70.0680    77.5270    25.2350    90.4070    78.3540    87.1000     2.2210 
  140.5000    70.0520    78.4810    25.2230    78.4230    68.2280    76.2090     2.2250 
  140.6250    70.0170    78.5940    25.1790    69.3030    59.5120    66.5150     2.2380 
  140.7500    69.9980    79.6890    25.1120    60.7730    53.4140    59.6010     2.2540 
  140.8750    69.9910    81.1700    25.0380    53.6920    50.5220    56.2810     2.2650 
  141.0000    69.9730    81.3940    24.9950    49.9070    51.2140    57.0500     2.2640 
  141.1250    69.9500    80.7480    24.9740    54.9980    56.5740    63.1750     2.2510 
  141.2500    69.9270    79.8250    24.9730    67.8110    66.2160    74.0040     2.2330 
  141.3750    69.9090    77.9040    25.0120    80.8680    79.7800    88.7290     2.2180 
  141.5000    69.8630    74.6690    25.1140    93.5310    95.5370   105.1480     2.2070 
  141.6250    69.8240    72.0980    25.2230   106.7700   108.8700   118.6530     2.2010 
  141.7500    69.7750    71.8970    25.2240   117.1480   115.5490   125.7470     2.1980 
  141.8750    69.7120    73.4610    25.1370   117.8330   114.4230   125.3090     2.1990 
  142.0000    69.6560    74.8200    25.0620   119.7590   107.2920   118.5290     2.2110 
  142.1250    69.5960    74.8600    25.0740   117.5030    96.9690   107.7080     2.2340 
  142.2500    69.5460    74.7690    25.1350   101.4910    86.7190    96.4520     2.2610 
  142.3750    69.4960    74.3220    25.2000    79.8640    78.0890    86.7570     2.2790 
  142.5000    69.4670    73.0740    25.2530    69.1900    71.7990    79.6450     2.2810 
  142.6250    69.4410    73.7410    25.2510    66.1700    68.6190    75.9950     2.2730 
  142.7500    69.4030    76.3920    25.2060    62.9910    68.3910    75.6790     2.2620 
  142.8750    69.3650    77.1360    25.1390    59.6930    71.3980    79.1500     2.2530 
  143.0000    69.3390    75.6340    25.1090    61.1170    77.8490    86.7490     2.2440 
  143.1250    69.3020    73.1200    25.1050    74.6720    87.7070    98.2580     2.2350 
  143.2500    69.2590    68.2220    25.1740    99.7730    97.7360   109.7390     2.2280 
  143.3750    69.2080    62.3500    25.2720   129.8860   102.7970   115.8780     2.2260 
  143.5000    69.1500    61.8200    25.3410   148.6370    98.2530   112.0440     2.2330 
  143.6250    69.0840    68.2840    25.3470   130.3400    84.8660    97.9670     2.2520 
  143.7500    69.0310    73.3180    25.3040    87.5480    71.0630    82.1390     2.2770 
  143.8750    68.9680    75.4530    25.1920    50.0140    61.3130    70.1740     2.2980 
  144.0000    68.8930    78.4310    25.0120    35.8750    57.2530    64.7170     2.3030 
  144.1250    68.8160    79.8930    24.9150    43.3170    60.4500    68.0580     2.2960 
  144.2500    68.7100    78.2570    25.0010    67.8530    70.5180    79.7160     2.2800 
  144.3750    68.6010    75.1400    25.2580   102.8230    88.0110    99.7500     2.2600 
  144.5000    68.5090    72.9640    25.4150   138.5920   111.7120   125.5270     2.2420 
  144.6250    68.4080    70.7590    25.3610   165.0520   134.0790   148.3050     2.2380 
  144.7500    68.3050    70.2570    25.1380   172.2780   144.7760   159.4300     2.2490 
  144.8750    68.2060    73.6510    25.0350   156.9740   142.1300   157.6520     2.2540 
  145.0000    68.1060    78.2610    25.0410   124.4010   132.9250   148.4670     2.2390 
  145.1250    68.0000    79.3890    25.0480    93.8270   125.0670   139.4730     2.2100 
  145.2500    67.9170    76.4290    25.0430    84.3110   121.4080   134.6390     2.1860 
  145.3750    67.8440    71.8550    25.0260    98.5170   121.6840   134.0930     2.1800 
  145.5000    67.7470    68.4020    25.0140   121.0630   124.1140   135.9940     2.1830 
  145.6250    67.6570    67.5890    25.0030   131.1090   125.5800   137.1720     2.1850 
  145.7500    67.5700    68.4620    24.9910   130.9490   123.8410   135.3180     2.1860 
  145.8750    67.4830    69.8380    24.9870   125.9850   118.9730   130.2880     2.1920 
  146.0000    67.4050    70.4630    25.0020   117.5520   113.0870   123.9700     2.2030 
  146.1250    67.3560    71.8100    25.0410   112.2290   109.1920   119.5080     2.2130 
  146.2500    67.3010    74.5970    25.0690   113.0010   108.3320   118.3030     2.2130 
  146.3750    67.2510    77.3940    25.0660   121.0220   110.6450   120.6100     2.2030 
  146.5000    67.2160    76.7380    25.0580   134.6340   116.0460   126.3410     2.1900 
  146.6250    67.2020    72.3420    25.0710   146.8470   125.1660   136.2140     2.1810 
  146.7500    67.2010    69.6220    25.0930   147.2600   137.8520   150.0670     2.1750 
  146.8750    67.2130    69.2250    25.0990   145.0660   154.3300   167.8610     2.1760 
  147.0000    67.2280    68.9360    25.1170   157.1090   173.4430   187.7680     2.1800 
  147.1250    67.2560    67.4610    25.1570   211.4940   189.1390   203.4100     2.1840 
  147.2500    67.3070    65.3450    25.1510   273.4520   193.3430   208.0260     2.1800 
  147.3750    67.3640    63.9180    25.0610   279.4120   183.2120   199.0490     2.1710 
  147.5000    67.4110    64.0140    25.0040   218.8210   164.5350   180.6920     2.1670 
  147.6250    67.4600    66.6190    24.9650   146.6650   147.8840   162.5600     2.1780 
  147.7500    67.5090    69.1630    24.9750   116.4060   139.1100   152.2540     2.1950 
  147.8750    67.5390    69.8840    25.1100   114.4400   139.5450   152.2880     2.2030 
  148.0000    67.5640    69.7610    25.4330   137.3430   148.5300   161.8950     2.1990 
  148.1250    67.5800    68.9800    25.3410   176.3050   163.5330   177.4060     2.1900 
  148.2500    67.5700    67.4890    25.1300   200.1460   176.3830   190.3510     2.1820 
  148.3750    67.5540    67.1820    24.9520   193.1940   179.5250   194.0850     2.1790 
  148.5000    67.5390    69.4120    24.8200   172.1660   170.9800   186.6000     2.1820 
  148.6250    67.5210    70.4340    24.7480   156.1960   156.5780   172.1060     2.1870 
  148.7500    67.4970    69.7650    24.8810   140.2710   144.8810   159.2370     2.1890 
  148.8750    67.4770    70.5940    25.2390   122.7130   139.1140   152.3550     2.1850 
  149.0000    67.4420    72.9330    25.3260   120.0530   139.9160   152.9020     2.1760 
  149.1250    67.3750    73.5060    25.1770   145.1800   146.9250   160.4980     2.1650 
  149.2500    67.3320    71.9430    25.0420   179.6110   156.1070   170.3140     2.1590 
  149.3750    67.2850    69.9800    25.0110   198.2320   163.0730   177.7100     2.1610 
  149.5000    67.2460    66.9740    25.0100   195.1590   163.3850   178.4720     2.1660 
  149.6250    67.1880    64.5260    25.0020   181.1130   154.4610   169.9090     2.1730 
  149.7500    67.1120    66.3040    24.9660   162.6720   141.3760   156.4850     2.1820 
  149.8750    67.0360    70.2260    24.8870   142.4270   128.6760   142.7280     2.1950 
