~V
VERS. 2.00: Ver 2.00
~W
STRT.M 60.0000:
STOP.M 232.0000:
STEP.M 0.1250:
NULL. -999.2500:
UWI. DF323:
~C
DEPT.M :
GR.API :
RML.OHMM :
RI. :
RXO.OHMM :
CALI.CM :
SP.MV :
DEN.GM/CC :
AC.US/MT :
~A
# ...
  150.0000    95.7480     9.6780     8.9840    10.1860    32.2540   -17.9860     2.2520   352.1410 
  150.1250    95.9580     9.5530     8.8330    10.0050    32.2640   -18.0170     2.2500   354.0690 
  150.2500    92.3810     9.2940     8.6170     9.8960    32.2650   -17.9900     2.2520   358.7200 
  150.3750    84.9180     8.9440     8.3710     9.3870    32.2560   -17.9480     2.2590   365.4190 
  150.5000    79.9590     8.5620     8.1330     8.8750    32.2540   -17.8920     2.2660   372.7210 
  150.6250    82.7900     8.2580     7.9540     8.9490    32.2660   -17.8020     2.2700   377.9860 
  150.7500    87.0710     8.1520     7.8810     9.4350    32.2730   -17.7310     2.2680   378.9360 
  150.8750    88.5440     8.3170     7.9680     9.8780    32.2670   -17.6960     2.2610   373.6780 
  151.0000    87.5680     8.7170     8.2380     9.9530    32.2580   -17.6840     2.2550   361.4560 
  151.1250    87.3040     9.1950     8.6580     9.5850    32.2610   -17.7210     2.2560   343.6560 
  151.2500    87.2600     9.4960     9.0500     9.5020    32.2570   -17.8190     2.2630   327.3280 
  151.3750    87.9620     9.4490     9.2330    11.8370    32.2120   -17.9160     2.2710   320.1510 
  151.5000    89.4010     9.0410     9.0750    16.9490    32.1130   -17.9600     2.2780   327.1130 
  151.6250    88.3910     8.4230     8.5620    17.5680    31.9470   -17.9650     2.2840   346.4030 
  151.7500    85.2690     7.8710     7.9530    12.4270    31.7620   -17.9430     2.2910   366.5270 
  151.8750    83.2180     7.5500     7.4620     8.4910    31.6150   -17.8710     2.2980   380.5530 
  152.0000    83.8120     7.5370     7.2270     7.6240    31.5440   -17.7580     2.2980   386.2200 
  152.1250    86.8500     7.8420     7.3390     8.2770    31.5480   -17.6620     2.2870   382.6390 
  152.2500    88.6680     8.2710     7.6750     8.9530    31.5590   -17.5940     2.2720   373.6300 
  152.3750    90.0410     8.6470     8.0980     9.5610    31.5680   -17.5450     2.2590   363.8200 
  152.5000    92.0540     8.8320     8.4520     9.6110    31.5710   -17.5370     2.2540   356.4800 
  152.6250    93.1150     8.7730     8.6010     9.3450    31.5630   -17.5850     2.2580   353.6260 
  152.7500    91.0230     8.6140     8.5810     9.5490    31.5360   -17.6740     2.2660   354.6140 
  152.8750    86.6930     8.4630     8.4630    10.0660    31.4980   -17.8030     2.2760   357.2240 
  153.0000    83.9220     8.3650     8.3260    10.4840    31.4660   -17.9530     2.2850   356.4380 
  153.1250    84.3150     8.3060     8.2280    10.3330    31.4500   -18.0470     2.2910   348.8450 
  153.2500    84.5880     8.2490     8.1710     9.8150    31.4400   -18.0570     2.2930   341.5040 
  153.3750    83.8320     8.1840     8.1460     9.1850    31.4290   -18.0270     2.2910   340.8960 
  153.5000    84.4510     8.1540     8.1620     9.0070    31.4250   -18.0000     2.2880   347.6320 
  153.6250    87.2820     8.2530     8.2720     9.6140    31.4350   -18.0100     2.2910   356.8710 
  153.7500    89.7400     8.5370     8.5170    10.1940    31.4470   -18.0300     2.2990   362.7360 
  153.8750    91.4020     9.0600     8.9400    10.6210    31.4610   -18.0550     2.3120   363.2540 
  154.0000    92.4370     9.8440     9.5560    11.3030    31.4770   -18.0600     2.3240   358.6760 
  154.1250    92.6480    10.8150    10.3240    11.8520    31.4740   -18.0800     2.3310   350.2160 
  154.2500    93.1700    11.6850    11.0560    12.2430    31.4530   -18.1140     2.3310   340.1130 
  154.3750    96.1050    12.1690    11.5600    12.9700    31.4180   -18.1580     2.3250   329.7100 
  154.5000    98.4720    12.1130    11.6850    13.7110    31.3560   -18.2150     2.3160   320.5770 
  154.6250    94.2540    11.5390    11.3580    13.4250    31.2440   -18.2420     2.3060   315.7110 
  154.7500    88.7080    10.8000    10.7970    12.6120    31.1160   -18.2250     2.2960   316.5610 
  154.8750    86.9360    10.1050    10.1880    11.7040    31.0130   -18.1730     2.2910   323.0770 
  155.0000    87.0680     9.5520     9.6610    10.5190    30.9390   -18.1270     2.2900   332.9340 
  155.1250    85.5120     9.2160     9.3120     9.5160    30.8900   -18.1040     2.2940   342.0110 
  155.2500    84.1310     9.0920     9.1290     9.3890    30.8670   -18.1410     2.3010   348.0610 
  155.3750    84.2300     9.1710     9.0820     9.7100    30.8620   -18.2080     2.3090   351.2920 
  155.5000    83.5840     9.3920     9.1190     9.8660    30.8640   -18.2820     2.3170   352.8280 
  155.6250    82.2740     9.6130     9.1760    10.0510    30.8690   -18.3670     2.3210   353.6280 
  155.7500    83.7240     9.6990     9.2040    10.5360    30.8750   -18.4560     2.3210   354.8840 
  155.8750    86.1680     9.6320     9.1880    10.7590    30.8740   -18.5100     2.3150   357.5820 
  156.0000    86.5700     9.4980     9.1510    10.3920    30.8720   -18.4970     2.3030   361.7890 
  156.1250    83.7750     9.4630     9.1590    10.1670    30.8690   -18.4230     2.2890   365.2420 
  156.2500    81.4110     9.6280     9.2700    10.7240    30.8640   -18.3120     2.2800   364.2100 
  156.3750    81.5910    10.0040     9.5030    11.6020    30.8590   -18.1810     2.2790   356.3750 
  156.5000    84.7130    10.4820     9.8210    11.5280    30.8590   -18.0540     2.2860   343.1820 
  156.6250    88.2990    10.8100    10.1040    10.5100    30.8660   -17.9460     2.2960   330.8710 
  156.7500    87.2600    10.8100    10.2230     9.9440    30.8620   -17.8490     2.3020   324.6280 
  156.8750    82.6060    10.4650    10.1180     9.9540    30.8260   -17.7870     2.3030   325.5380 
  157.0000    79.3010     9.9240     9.8230    10.0810    30.7560   -17.8120     2.3030   332.3600 
  157.1250    80.4360     9.4480     9.4470    10.4830    30.6860   -17.9140     2.3020   343.3710 
  157.2500    83.5030     9.1860     9.1210    11.1920    30.6450   -18.0300     2.3000   354.1670 
  157.3750    85.8040     9.1260     8.9070    11.3130    30.6320   -18.1810     2.2940   360.7630 
  157.5000    87.3030     9.1770     8.8140    10.6170    30.6280   -18.3490     2.2840   361.3720 
  157.6250    87.5860     9.2380     8.8210    10.5640    30.6080   -18.5240     2.2710   357.0340 
  157.7500    87.2490     9.2670     8.8600    11.0030    30.5630   -18.7380     2.2590   351.6200 
  157.8750    85.4620     9.2820     8.8900    10.8490    30.5260   -18.9580     2.2520   346.7000 
  158.0000    82.7710     9.2980     8.8860    10.3790    30.5060   -19.1140     2.2540   342.7360 
  158.1250    82.8950     9.2760     8.8330    10.4660    30.4330   -19.2200     2.2650   340.2460 
  158.2500    84.2110     9.1870     8.7400    10.8160    30.2390   -19.2960     2.2810   339.3580 
  158.3750    84.5610     9.0400     8.6200    10.7500    29.9700   -19.3010     2.2980   340.6180 
  158.5000    83.1700     8.8720     8.4970    10.4380    29.7510   -19.2350     2.3160   344.0350 
  158.6250    81.5070     8.7720     8.4200    10.3180    29.6810   -19.1430     2.3340   348.2330 
  158.7500    81.8720     8.8190     8.4390    11.1560    29.6950   -19.0510     2.3490   350.3060 
  158.8750    85.3170     9.0720     8.6050    13.5280    29.7140   -18.9880     2.3570   347.2940 
  159.0000    89.9600     9.5440     8.9590    16.5010    29.7010   -18.9930     2.3520   336.4920 
  159.1250    90.9520    10.2140     9.5380    18.8970    29.6510   -18.9970     2.3370   315.2240 
  159.2500    88.7890    10.9540    10.2330    18.9470    29.5850   -18.9770     2.3230   289.1970 
  159.3750    85.9450    11.6030    10.8870    15.8550    29.5190   -18.9620     2.3150   267.8190 
  159.5000    84.6430    11.9770    11.3020    13.1100    29.4590   -18.9600     2.3160   260.8830 
  159.6250    87.2840    11.9050    11.2590    14.9090    29.4010   -18.9460     2.3210   273.8640 
  159.7500    90.1360    11.4790    10.8480    19.8580    29.3470   -18.9100     2.3220   295.7930 
  159.8750    88.0690    10.8340    10.2370    20.7910    29.3150   -18.8630     2.3190   316.5620 
