~V
VERS. 2.00: Ver 2.00
~W
STRT.M 60.0000:
STOP.M 229.0000:
STEP.M 0.1250:
NULL. -999.2500:
UWI. DF32026:
~C
DEPT.M :
SP.MV :
GR.API :
CALI.CM :
RXO.OHMM :
RI. :
RML.OHMM :
DEN.GM/CC :
~A
# ...
  206.2500    90.7830    75.0620    24.2550     7.8280     8.0260    11.0240     2.4620 
  206.3750    90.7240    72.5270    24.1950     8.3010     8.2800    11.3960     2.4400 
  206.5000    90.6580    72.8430    24.0510     9.0470     8.5480    11.7530     2.4020 
  206.6250    90.6050    74.5150    24.0100     9.6370     8.7680    12.0120     2.3680 
  206.7500    90.5390    76.3780    24.0600     9.8630     8.9300    12.1930     2.3550 
  206.8750    90.4920    76.9770    24.1520    10.0380     9.0610    12.3570     2.3720 
  207.0000    90.4450    74.6360    24.2290    10.2080     9.2030    12.5700     2.4160 
  207.1250    90.3970    70.2920    24.3210    10.3510     9.3970    12.8790     2.4670 
  207.2500    90.3470    67.6050    24.3330    10.5740     9.6460    13.2580     2.5050 
  207.3750    90.3010    68.0840    24.2620    11.2240     9.9440    13.6770     2.5280 
  207.5000    90.2680    70.7670    24.1460    12.1830    10.2640    14.0990     2.5410 
  207.6250    90.2330    73.1310    23.9860    12.8160    10.5620    14.4840     2.5430 
  207.7500    90.2280    72.9200    23.8570    12.6220    10.8210    14.8280     2.5390 
  207.8750    90.2240    70.1680    23.8470    12.0350    11.0470    15.1310     2.5380 
  208.0000    90.2190    68.1050    24.0440    11.8540    11.2530    15.3860     2.5490 
  208.1250    90.2240    69.8000    24.3130    12.4720    11.4480    15.5670     2.5670 
  208.2500    90.2500    73.3380    24.4640    13.0800    11.6200    15.6760     2.5730 
  208.3750    90.2940    75.1280    24.5180    13.4440    11.7520    15.7200     2.5560 
  208.5000    90.3230    75.2300    24.5050    13.5570    11.8400    15.7320     2.5280 
  208.6250    90.3790    76.5160    24.4980    13.4340    11.9000    15.7810     2.5170 
  208.7500    90.4230    77.7650    24.5010    13.0760    11.9570    15.8880     2.5250 
  208.8750    90.4860    76.6630    24.5050    12.5400    12.0120    16.0200     2.5420 
  209.0000    90.5550    74.9220    24.5060    12.0420    12.0620    16.1210     2.5600 
  209.1250    90.6430    75.4930    24.5160    12.2890    12.1030    16.1310     2.5710 
  209.2500    90.7160    76.5610    24.5330    13.7970    12.1370    16.0540     2.5730 
  209.3750    90.7760    77.0480    24.5410    16.5940    12.1720    15.9320     2.5700 
  209.5000    90.8530    78.4380    24.5100    19.1260    12.2270    15.8320     2.5680 
  209.6250    90.9300    80.2420    24.4900    20.0230    12.3530    15.8600     2.5720 
  209.7500    91.0030    81.4160    24.4820    19.3050    12.5750    16.0730     2.5760 
  209.8750    91.0620    82.5070    24.4810    17.6700    12.8910    16.4940     2.5750 
  210.0000    91.1220    84.0520    24.4590    15.8990    13.2620    17.0590     2.5710 
  210.1250    91.1860    84.4680    24.4090    15.8360    13.6020    17.5850     2.5660 
  210.2500    91.2740    81.8880    24.3610    18.7410    13.8380    17.8980     2.5620 
  210.3750    91.3120    78.1240    24.3580    25.3080    13.9390    17.9440     2.5620 
  210.5000    91.3600    76.0330    24.3670    33.8260    13.9240    17.7810     2.5670 
  210.6250    91.4370    76.7280    24.3660    32.9250    13.8300    17.5470     2.5680 
  210.7500    91.5090    78.9120    24.3700    24.6130    13.7180    17.3620     2.5560 
  210.8750    91.5350    81.2890    24.4010    17.4800    13.6180    17.2470     2.5400 
  211.0000    91.5490    82.8660    24.4790    15.4380    13.5480    17.1860     2.5340 
  211.1250    91.5820    82.3250    24.5560    14.9430    13.5240    17.1710     2.5440 
  211.2500    91.5980    79.6310    24.5900    14.3530    13.5390    17.1810     2.5550 
  211.3750    91.6040    77.2360    24.5990    13.9580    13.5790    17.2040     2.5590 
  211.5000    91.5790    77.1720    24.6110    13.8180    13.6210    17.2160     2.5590 
  211.6250    91.5430    78.3400    24.6420    13.7760    13.6380    17.1870     2.5600 
  211.7500    91.5150    77.4170    24.6740    13.9360    13.6200    17.1070     2.5580 
  211.8750    91.4880    73.3750    24.6880    14.4920    13.5750    16.9760     2.5510 
  212.0000    91.4330    70.3090    24.6890    15.4880    13.5080    16.7980     2.5430 
  212.1250    91.3290    70.5570    24.6880    16.3030    13.4210    16.5880     2.5400 
  212.2500    91.2260    71.3100    24.6660    16.1490    13.3280    16.3900     2.5390 
  212.3750    91.1900    72.0260    24.5930    15.1350    13.2430    16.2330     2.5360 
  212.5000    91.1950    73.8400    24.4450    14.1160    13.1780    16.1140     2.5320 
  212.6250    91.1800    78.2740    24.2410    13.7950    13.1340    16.0200     2.5310 
  212.7500    91.1770    81.9740    23.9390    13.5590    13.1070    15.9420     2.5290 
  212.8750    91.2010    82.0540    23.7240    12.7400    13.1050    15.8980     2.5230 
  213.0000    91.2260    79.0400    23.7680    11.2900    13.1500    15.9290     2.5160 
  213.1250    91.2260    76.3930    24.0100    10.2130    13.2870    16.1020     2.5140 
  213.2500    91.2380    76.3060    24.2580    10.0870    13.5100    16.3980     2.5100 
  213.3750    91.2820    77.4890    24.4390    11.1480    13.7950    16.7660     2.5040 
  213.5000    91.3410    78.1000    24.5340    12.8770    14.0930    17.1070     2.5060 
  213.6250    91.3630    79.3370    24.5460    14.2450    14.3210    17.2730     2.5270 
  213.7500    91.3350    80.6150    24.5300    14.9830    14.4340    17.2370     2.5470 
  213.8750    91.3080    80.0550    24.5040    15.4300    14.4480    17.0780     2.5570 
  214.0000    91.3540    79.2700    24.4900    15.8560    14.4340    16.9630     2.5630 
  214.1250    91.4310    80.0170    24.4900    16.2300    14.5050    17.0760     2.5690 
  214.2500    91.4730    80.8010    24.4720    16.6850    14.7000    17.4030     2.5690 
  214.3750    91.4910    79.8680    24.4230    18.3790    14.9910    17.8330     2.5590 
  214.5000    91.5000    78.7870    24.3330    21.5250    15.2920    18.2070     2.5520 
  214.6250    91.5180    79.9840    24.2930    23.5820    15.4930    18.3680     2.5550 
  214.7500    91.5430    82.0310    24.2970    23.2090    15.5800    18.3420     2.5610 
  214.8750    91.5630    84.1650    24.3330    22.9300    15.6000    18.2380     2.5650 
  215.0000    91.5980    85.2500    24.3710    23.8380    15.6440    18.2080     2.5650 
  215.1250    91.6040    84.1690    24.4200    24.0620    15.8260    18.4160     2.5580 
  215.2500    91.6340    83.0240    24.4600    23.0830    16.1670    18.8600     2.5530 
  215.3750    91.6420    83.0690    24.4280    21.9130    16.6260    19.4500     2.5620 
  215.5000    91.6160    82.2820    24.4120    21.9710    17.0910    20.0070     2.5780 
  215.6250    91.6070    80.6260    24.4760    22.8980    17.3680    20.2430     2.5760 
  215.7500    91.6310    80.2960    24.5370    22.4320    17.3740    20.0970     2.5540 
  215.8750    91.6830    80.2690    24.4130    20.6200    17.1320    19.6480     2.5340 
  216.0000    91.7140    78.8810    24.2200    18.9340    16.7550    19.0640     2.5340 
  216.1250    91.7520    77.8090    24.2610    17.4520    16.4010    18.5560     2.5470 
  216.2500    91.7530    77.8090    24.3360    18.1030    16.1770    18.2630     2.5600 
  216.3750    91.7680    77.8090    24.3640    22.5000    16.1150    18.2250     2.5740 
  216.5000    91.8170    77.8090    24.3410    28.5530    16.1890    18.3870     2.5900 
  216.6250    91.8450    77.8090    24.2650    33.6460    16.3320    18.6110     2.5920 
  216.7500    91.8750    77.8090    24.2940    43.7540    16.4370    18.7350     2.5710 
  216.8750    91.9060    77.8090    24.3600    56.4200    16.4240    18.6610     2.5420 
  217.0000    91.9030    77.8090    24.3660    58.0080    16.2490    18.3650     2.5300 
  217.1250    91.9070    77.8090    24.3300    44.4280    15.9010    17.8900     2.5450 
  217.2500    91.9390    77.8090    24.3210    32.7850    15.4690    17.3600     2.5640 
  217.3750    91.9620    77.8090    24.3260    25.5810    15.0160    16.8580     2.5770 
