~V
VERS. 2.00: Ver 2.00
~W
STRT.M 62.0000:
STOP.M 256.0000:
STEP.M 0.1250:
NULL. -999.2500:
UWI. DF32087:
~C
DEPT.M :
SP.MV :
GR.API :
RML.OHMM :
RI. :
RXO.OHMM :
CALI.CM :
DEN.GM/CC :
~A
# ...
  129.5000   -21.2780    72.3880     7.5160     6.3290     7.8410    24.7460     2.2230 
  129.6250   -21.2070    74.2210     7.2140     6.1430     7.0380    24.9880     2.2240 
  129.7500   -21.0890    79.4580     6.9040     5.9070     6.3420    25.1400     2.2310 
  129.8750   -20.9580    84.9390     6.6450     5.6750     6.1330    25.1850     2.2370 
  130.0000   -20.8090    87.1570     6.4500     5.4750     6.0500    25.1790     2.2420 
  130.1250   -20.6620    86.5000     6.3130     5.3140     6.0540    25.1620     2.2470 
  130.2500   -20.5830    87.1250     6.2020     5.1770     5.8700    25.1630     2.2530 
  130.3750   -20.4440    89.1430     6.1070     5.0560     5.6760    25.2020     2.2600 
  130.5000   -20.4240    88.5190     6.0300     4.9480     5.7310    25.2420     2.2690 
  130.6250   -20.3400    84.0220     5.9780     4.8630     5.9170    25.2560     2.2810 
  130.7500   -20.3200    80.9540     5.9380     4.7960     5.9270    25.2510     2.2960 
  130.8750   -20.3000    80.8910     5.9000     4.7450     5.7130    25.2330     2.3130 
  131.0000   -20.3260    83.0350     5.8660     4.7140     5.7160    25.1970     2.3280 
  131.1250   -20.3390    87.2830     5.8880     4.7400     6.0980    25.1910     2.3310 
  131.2500   -20.3540    91.4540     6.0340     4.8700     6.3130    25.2140     2.3230 
  131.3750   -20.4100    91.6300     6.3710     5.1590     6.2150    25.2370     2.3110 
  131.5000   -20.4240    85.5580     6.9130     5.6240     6.5830    25.2300     2.3080 
  131.6250   -20.4320    76.3370     7.5770     6.2160     7.6610    25.1930     2.3280 
  131.7500   -20.4210    71.6670     8.1420     6.7580     9.5760    25.1760     2.3660 
  131.8750   -20.4240    72.7040     8.4070     7.0780    12.3550    25.1700     2.4070 
  132.0000   -20.4180    76.3220     8.2490     7.0510    13.9120    25.1790     2.4360 
  132.1250   -20.4450    78.7390     7.6630     6.6200    10.3210    25.2020     2.4380 
  132.2500   -20.4640    79.9620     6.9320     5.9880     7.4620    25.2260     2.4250 
  132.3750   -20.4910    80.1860     6.2580     5.3260     6.3410    25.2260     2.4090 
  132.5000   -20.5030    81.9920     5.7380     4.7490     5.9320    25.2390     2.3950 
  132.6250   -20.5950    87.8010     5.3880     4.3240     5.3890    25.2670     2.3760 
  132.7500   -20.6900    92.6810     5.1350     4.0170     4.9540    25.3200     2.3460 
  132.8750   -20.8120    94.0800     4.9650     3.8160     4.7150    25.3710     2.3050 
  133.0000   -20.8700    94.8800     4.9250     3.7420     4.7980    25.3830     2.2600 
  133.1250   -21.0080    95.0320     5.1750     3.9010     4.9300    25.3360     2.2270 
  133.2500   -21.1260    92.5820     5.7800     4.3410     5.2010    25.2800     2.2230 
  133.3750   -21.2890    88.2190     6.7540     5.0900     6.4490    25.2310     2.2530 
  133.5000   -21.4860    82.9320     8.0000     6.0960     9.7700    25.1820     2.3100 
  133.6250   -21.5880    76.1340     9.2710     7.2030    15.5870    25.2840     2.3610 
  133.7500   -21.7420    71.0870    10.2610     8.1660    16.9780    25.7100     2.3700 
  133.8750   -21.8550    69.3700    10.8110     8.8290    13.7420    26.2740     2.3260 
  134.0000   -22.0410    68.9610    10.9690     9.1730    11.9120    26.5250     2.2470 
  134.1250   -22.0960    68.2130    10.9670     9.3100    12.1340    26.4520     2.1680 
  134.2500   -22.1730    67.8370    11.0580     9.4440    12.5820    26.3540     2.1150 
  134.3750   -22.1760    67.8270    11.2850     9.6400    13.2440    26.2050     2.0910 
  134.5000   -22.1630    66.8730    11.5600     9.8630    13.8400    26.1020     2.0920 
  134.6250   -22.1770    65.1440    11.7020     9.9860    14.4500    26.1420     2.1090 
  134.7500   -22.1330    62.0490    11.6350     9.9400    14.3790    26.3410     2.1270 
  134.8750   -22.0890    59.0940    11.3910     9.7320    13.6800    26.4690     2.1440 
  135.0000   -22.0170    60.1320    11.0780     9.4330    13.0420    26.3500     2.1610 
  135.1250   -21.9540    66.2740    10.8100     9.1340    12.0630    25.9720     2.1800 
  135.2500   -21.8670    70.4240    10.6010     8.8750    10.7490    25.5870     2.1940 
  135.3750   -21.7440    68.4110    10.3860     8.6290    10.1000    25.6160     2.1920 
  135.5000   -21.6140    64.6310    10.0740     8.3370    10.8270    26.1330     2.1760 
  135.6250   -21.4390    66.8780     9.5770     7.9310    10.8840    26.4540     2.1590 
  135.7500   -21.2540    72.6230     8.9480     7.4270     9.5360    25.6440     2.1610 
  135.8750   -21.0920    79.1260     8.2840     6.8840     8.1940    24.5080     2.1860 
  136.0000   -20.9120    84.4970     7.6970     6.3820     7.5070    23.8490     2.2260 
  136.1250   -20.8410    88.1760     7.3070     6.0150     7.2890    23.8130     2.2640 
  136.2500   -20.7630    88.6940     7.1150     5.8040     6.9340    24.0790     2.2880 
  136.3750   -20.8310    86.2750     7.1090     5.7530     6.6570    24.5070     2.2980 
  136.5000   -20.9060    83.0610     7.2700     5.8560     6.5070    24.8530     2.3000 
  136.6250   -21.1140    82.2030     7.6040     6.1240     6.5300    24.9350     2.2920 
  136.7500   -21.3180    83.3150     8.0580     6.5150     6.7320    24.7890     2.2740 
  136.8750   -21.5360    82.8270     8.5770     6.9860     7.2210    24.4240     2.2480 
  137.0000   -21.7300    79.1680     9.0590     7.4570     7.9060    24.0090     2.2210 
  137.1250   -21.7910    73.6610     9.3420     7.7940     7.9080    23.7610     2.2030 
  137.2500   -21.8130    70.3900     9.3740     7.9300     7.8130    23.6240     2.2000 
  137.3750   -21.6830    71.8570     9.1870     7.8650     7.7200    23.5580     2.2100 
  137.5000   -21.5350    76.3690     8.8910     7.6630     7.3370    23.5490     2.2300 
  137.6250   -21.2190    77.9890     8.6060     7.4090     6.9540    23.6080     2.2530 
  137.7500   -20.9240    75.8630     8.3650     7.1600     7.1250    23.7050     2.2690 
  137.8750   -20.5890    74.7130     8.1290     6.9100     8.0320    23.8520     2.2760 
  138.0000   -20.3080    76.1600     7.8540     6.6420     8.9200    24.0110     2.2760 
  138.1250   -20.0470    77.6450     7.5510     6.3730     7.3110    24.1360     2.2750 
  138.2500   -19.8750    78.1320     7.3370     6.1850     6.0910    24.1990     2.2810 
  138.3750   -19.7430    78.0750     7.3490     6.1830     5.7650    24.3380     2.2970 
  138.5000   -19.5940    78.0510     7.6910     6.4610     6.0800    24.5660     2.3200 
  138.6250   -19.4500    76.5950     8.4690     7.1370     7.0600    24.6360     2.3430 
  138.7500   -19.2920    73.4610     9.5780     8.1530     9.4140    24.4770     2.3560 
  138.8750   -19.0960    68.8000    10.8990     9.4320    12.3930    24.2400     2.3530 
  139.0000   -18.8980    63.5600    12.2310    10.8120    12.8000    24.0080     2.3310 
  139.1250   -18.6830    62.5070    13.2150    11.9790    11.4250    23.8600     2.2930 
  139.2500   -18.4920    64.1220    13.5860    12.6430    12.1490    23.9510     2.2560 
  139.3750   -18.3110    65.4700    13.1750    12.5960    14.0340    24.3000     2.2320 
  139.5000   -18.1170    65.7380    12.0270    11.8090    14.4090    24.7560     2.2260 
  139.6250   -18.0440    67.9340    10.4700    10.4750    12.0780    24.9880     2.2390 
  139.7500   -17.9250    71.9800     9.0840     9.1230     8.3400    25.0420     2.2570 
  139.8750   -17.8970    74.5080     8.1770     8.0860     6.5990    25.0120     2.2750 
  140.0000   -17.8120    74.5260     7.8130     7.5060     6.1730    24.9710     2.2920 
  140.1250   -17.8040    72.6970     7.8870     7.3850     6.9130    24.8970     2.3130 
  140.2500   -17.7540    70.4340     8.0900     7.4760     9.1200    24.8080     2.3370 
  140.3750   -17.7170    69.1020     8.2710     7.6360    11.4220    24.7600     2.3600 
  140.5000   -17.7570    69.6860     8.4150     7.8170     9.9370    24.8000     2.3760 
  140.6250   -17.7540    72.3620     8.6810     8.1110     7.4160    24.9170     2.3840 
