~V
VERS. 2.00: Ver 2.00
~W
STRT.M 55.0000:
STOP.M 256.0000:
STEP.M 0.1250:
NULL. -999.2500:
UWI. DF327:
~C
DEPT.M :
SP.MV :
DEN.GM/CC :
AC.US/MT :
GR.API :
RML.OHMM :
RI. :
RXO.OHMM :
CALI.CM :
~A
# ...
  235.0000    -7.7090     2.4560   300.7300    70.1840     7.2920     6.8810    10.1390    23.8440 
  235.1250    -7.6920     2.4570   292.8110    69.8090     7.7730     7.4140    12.1040    23.9140 
  235.2500    -7.6630     2.4490   290.6820    72.9590     8.2010     7.9700    13.8090    23.9180 
  235.3750    -7.6110     2.4390   291.2630    74.4800     8.5200     8.4470    14.7960    23.8780 
  235.5000    -7.5620     2.4330   290.5980    72.4620     8.7510     8.8050    14.5980    23.8460 
  235.6250    -7.5760     2.4380   286.2540    70.3510     8.9800     9.0730    13.6300    23.8230 
  235.7500    -7.6170     2.4490   281.2860    69.5980     9.2890     9.3410    13.3010    23.7970 
  235.8750    -7.6680     2.4630   279.3670    68.5150     9.7050     9.6620    13.5980    23.7710 
  236.0000    -7.7090     2.4710   282.1830    66.4610    10.2110    10.0470    14.1240    23.7680 
  236.1250    -7.7150     2.4690   289.2960    66.5810    10.7360    10.4580    14.4560    23.8020 
  236.2500    -7.7180     2.4590   297.0950    68.6630    11.1600    10.8110    14.5000    23.8590 
  236.3750    -7.7440     2.4460   302.5850    70.1870    11.3790    11.0380    14.2590    23.8840 
  236.5000    -7.7940     2.4330   303.4620    70.1390    11.3470    11.1020    14.1130    23.8350 
  236.6250    -7.8400     2.4250   298.5220    68.8980    11.1040    11.0070    13.8720    23.7780 
  236.7500    -7.8830     2.4250   291.5060    70.4140    10.8260    10.8560    13.5430    23.7790 
  236.8750    -7.9160     2.4300   286.4120    73.5660    10.6500    10.7210    12.8940    23.8400 
  237.0000    -7.9350     2.4360   286.0210    73.3440    10.6100    10.6430    12.0770    23.9140 
  237.1250    -7.9240     2.4390   290.5260    68.6400    10.7160    10.6380    12.0280    23.9260 
  237.2500    -7.9040     2.4380   295.6870    66.3060    10.8300    10.6810    11.9440    23.9550 
  237.3750    -7.8980     2.4350   298.8100    68.4700    10.9100    10.7600    11.7680    23.9500 
  237.5000    -7.8920     2.4340   299.4050    71.6170    10.9490    10.8670    11.9770    23.9070 
  237.6250    -7.8400     2.4370   298.7980    73.4450    10.8600    10.9900    12.7220    23.9390 
  237.7500    -7.7670     2.4400   298.5050    74.3420    10.8360    11.1100    13.3330    23.9390 
  237.8750    -7.7120     2.4430   298.2190    74.4080    10.9600    11.2150    13.4550    23.9000 
  238.0000    -7.7090     2.4440   296.8230    73.1180    11.0980    11.3010    13.2610    23.8160 
  238.1250    -7.7870     2.4460   293.3190    71.3550    11.2070    11.3700    12.6050    23.7620 
  238.2500    -7.8950     2.4510   288.8620    71.3070    11.3040    11.4330    11.8330    23.6940 
  238.3750    -7.9710     2.4590   285.9800    72.2200    11.4320    11.4880    11.0320    23.6260 
  238.5000    -8.0320     2.4660   287.1950    72.8630    11.5370    11.5290    10.6320    23.6120 
  238.6250    -8.1310     2.4690   293.7230    72.5580    11.6110    11.5440    11.0530    23.6510 
  238.7500    -8.2670     2.4670   302.7780    71.4720    11.6260    11.5130    11.7960    23.7220 
  238.8750    -8.4080     2.4600   312.1830    69.0730    11.5180    11.3920    12.7490    23.7790 
  239.0000    -8.5330     2.4490   320.0940    67.2650    11.2510    11.1360    13.4450    23.8280 
  239.1250    -8.6520     2.4350   323.4380    68.4050    10.7300    10.7200    13.5240    23.8750 
  239.2500    -8.7550     2.4200   320.5250    69.1110    10.1640    10.2450    12.7980    23.8620 
  239.3750    -8.8450     2.4080   311.8240    68.0760     9.6440     9.8300    11.6360    23.8760 
  239.5000    -8.9050     2.4020   300.9720    67.1950     9.3830     9.5790    10.9340    23.9370 
  239.6250    -8.9390     2.4060   293.2650    67.7270     9.4860     9.5670    11.5170    23.9900 
  239.7500    -8.9320     2.4160   289.8870    68.4860     9.7770     9.7180    12.7500    23.9980 
  239.8750    -8.8710     2.4300   288.7860    70.2620    10.0910     9.9590    13.6210    23.9710 
  240.0000    -8.7770     2.4420   286.9840    72.2570    10.3350    10.2190    13.6700    23.9270 
  240.1250    -8.6670     2.4520   282.0870    71.6840    10.4440    10.4480    13.2030    23.9270 
  240.2500    -8.5910     2.4610   275.7630    69.7620    10.5330    10.6410    13.0170    23.9770 
  240.3750    -8.5650     2.4710   271.0420    68.5440    10.6680    10.8130    13.2000    24.0130 
  240.5000    -8.5750     2.4810   269.6900    67.9510    10.8340    10.9840    13.7370    24.0100 
  240.6250    -8.5750     2.4880   270.8540    67.9730    11.0630    11.1760    14.9850    23.9770 
  240.7500    -8.5970     2.4870   271.8460    68.6380    11.3590    11.3860    16.4330    23.9570 
  240.8750    -8.6680     2.4770   272.0770    69.6070    11.6770    11.5920    17.5160    23.9810 
  241.0000    -8.7710     2.4620   272.1830    70.2290    11.8430    11.7620    18.0300    23.9990 
  241.1250    -8.8910     2.4490   272.6470    70.5190    11.9560    11.8420    18.1330    23.9910 
  241.2500    -9.0060     2.4420   272.9840    70.4540    11.9860    11.8290    18.4200    23.9510 
  241.3750    -9.1250     2.4420   273.1780    71.1970    11.9410    11.7400    18.2590    23.9070 
  241.5000    -9.2530     2.4440   273.9480    73.1570    11.8150    11.6120    17.8220    23.8750 
  241.6250    -9.3750     2.4440   275.8800    74.1940    11.6360    11.4820    17.0270    23.9030 
  241.7500    -9.5000     2.4440   278.6500    73.4060    11.5060    11.3750    16.2390    23.9000 
  241.8750    -9.6390     2.4470   281.7140    72.0490    11.3670    11.2990    15.8550    23.8850 
  242.0000    -9.7780     2.4550   284.4780    71.5540    11.2670    11.2530    15.5150    23.8250 
  242.1250    -9.8710     2.4660   286.5460    71.8010    11.2630    11.2220    13.9410    23.7480 
  242.2500    -9.9360     2.4750   287.9560    72.0750    11.2980    11.1720    12.1070    23.6840 
  242.3750    -9.9700     2.4800   288.1410    73.4660    11.2730    11.0710    11.2840    23.7160 
  242.5000    -9.9790     2.4790   286.3160    75.8720    11.1460    10.9050    11.4300    23.8690 
  242.6250   -10.0300     2.4730   282.4510    76.6680    10.9510    10.6860    12.1080    23.9730 
  242.7500   -10.0650     2.4670   278.6130    75.2640    10.7490    10.4760    12.4340    23.9920 
  242.8750   -10.1000     2.4610   276.1540    73.2100    10.6240    10.3260    12.0550    23.9490 
  243.0000   -10.1130     2.4570   276.0320    72.3010    10.5690    10.2660    11.1840    23.8700 
  243.1250   -10.1550     2.4560   280.0530    72.7880    10.5680    10.3090    10.4430    23.8830 
  243.2500   -10.1900     2.4570   288.0440    73.8980    10.6150    10.4100    10.1750    23.9080 
  243.3750   -10.2160     2.4590   297.6560    74.7090    10.6410    10.5330    10.2350    23.8970 
  243.5000   -10.2420     2.4610   304.4680    74.0640    10.6650    10.6460    10.3800    23.8630 
  243.6250   -10.2420     2.4620   304.6830    72.7050    10.7200    10.7290    10.5810    23.8050 
  243.7500   -10.2600     2.4600   301.3240    72.1120    10.8200    10.7960    10.9680    23.7730 
  243.8750   -10.2420     2.4560   297.9430    71.8100    10.9510    10.8700    11.6110    23.7740 
  244.0000   -10.2170     2.4510   296.1770    71.5600    11.0750    10.9670    12.4240    23.8200 
  244.1250   -10.1730     2.4530   295.0400    71.8470    11.1460    11.0860    13.3720    23.8280 
  244.2500   -10.1470     2.4610   293.3660    72.5950    11.2060    11.1930    14.3750    23.8150 
  244.3750   -10.1350     2.4740   292.0900    73.0130    11.3020    11.2520    15.4150    23.8660 
  244.5000   -10.1500     2.4850   292.8800    73.3740    11.3450    11.2350    16.1670    23.9230 
  244.6250   -10.1870     2.4870   296.2870    74.3330    11.2490    11.1150    15.5190    23.9460 
  244.7500   -10.2200     2.4800   299.9690    75.1850    11.0470    10.9150    13.5900    23.9340 
  244.8750   -10.2580     2.4680   301.9140    75.4760    10.8080    10.6560    11.4800    23.9130 
