~V
VERS. 2.00: Ver 2.00
~W
STRT.M 53.0000:
STOP.M 258.0000:
STEP.M 0.1250:
NULL. -999.2500:
UWI. DF32102:
~C
DEPT.M :
SP.MV :
GR.API :
RML.OHMM :
RI. :
RXO.OHMM :
CALI.CM :
DEN.GM/CC :
~A
# ...
  188.0000   -14.3000    72.6650     9.4830     7.3180     7.1140    24.6970     2.3360 
  188.1250   -13.6470    66.7790     9.0510     6.9020     6.0340    24.7610     2.3550 
  188.2500   -13.1160    58.9930     8.8350     6.6580     5.8780    24.7520     2.3760 
  188.3750   -12.6680    52.6760     8.7840     6.5590     6.2520    24.5870     2.3910 
  188.5000   -12.3590    51.1300     8.8130     6.5560     6.5970    24.3920     2.3980 
  188.6250   -12.2440    53.2250     8.8330     6.5860     6.3790    24.3190     2.3970 
  188.7500   -12.2220    53.4120     8.8030     6.6020     5.8030    24.3030     2.3910 
  188.8750   -12.2230    50.1960     8.7380     6.5940     5.5850    24.3030     2.3820 
  189.0000   -12.2790    46.9140     8.6800     6.5780     5.7640    24.3030     2.3750 
  189.1250   -12.3800    46.3230     8.6650     6.5800     5.9060    24.2840     2.3730 
  189.2500   -12.4160    47.5590     8.6860     6.6070     5.8840    24.2170     2.3780 
  189.3750   -12.5080    49.0740     8.7230     6.6510     5.7450    24.1100     2.3890 
  189.5000   -12.6330    49.7980     8.7590     6.7020     5.6730    24.0350     2.4030 
  189.6250   -12.7000    51.9260     8.7900     6.7520     5.6380    24.0040     2.4150 
  189.7500   -12.8440    56.4190     8.8240     6.8010     5.5770    23.9900     2.4220 
  189.8750   -13.0100    62.5060     8.8620     6.8480     5.5840    23.9600     2.4240 
  190.0000   -13.1580    67.9140     8.8970     6.8900     5.6660    23.8610     2.4210 
  190.1250   -13.3060    71.1880     8.9190     6.9190     5.7640    23.7220     2.4140 
  190.2500   -13.4790    74.4780     8.9200     6.9300     5.7570    23.5720     2.4070 
  190.3750   -13.6970    76.4720     8.8950     6.9190     5.9090    23.4940     2.4020 
  190.5000   -13.9880    75.5680     8.8400     6.8810     6.3560    23.4980     2.4010 
  190.6250   -14.3620    74.6220     8.7410     6.8090     6.7140    23.5490     2.4030 
  190.7500   -14.6600    78.1260     8.5990     6.7030     6.9530    23.5710     2.4070 
  190.8750   -15.0260    83.6500     8.4140     6.5620     6.9910    23.5790     2.4100 
  191.0000   -15.4530    83.5410     8.1940     6.3920     6.9820    23.5730     2.4140 
  191.1250   -15.9170    77.9590     7.9680     6.2100     6.6390    23.5480     2.4170 
  191.2500   -16.4910    75.5670     7.7850     6.0550     6.4770    23.4960     2.4200 
  191.3750   -17.0100    76.6240     7.6980     5.9680     6.6780    23.4490     2.4220 
  191.5000   -17.4860    78.0370     7.7630     5.9940     6.8280    23.4870     2.4220 
  191.6250   -18.0160    78.8410     8.0610     6.2040     6.7460    23.7070     2.4200 
  191.7500   -18.6000    80.6300     8.5780     6.5980     6.8730    24.0510     2.4120 
  191.8750   -19.0930    82.8700     9.2840     7.1720     7.6990    24.4190     2.3990 
  192.0000   -19.5430    83.9130    10.1150     7.8940     9.3610    24.7790     2.3830 
  192.1250   -19.9660    82.8570    10.9920     8.7260    11.7540    24.9370     2.3660 
  192.2500   -20.2570    79.0500    11.8520     9.6050    13.5990    24.9450     2.3530 
  192.3750   -20.5990    75.7860    12.6910    10.5110    14.5530    24.9020     2.3490 
  192.5000   -20.9590    75.4800    13.5480    11.4460    13.5490    24.8640     2.3590 
  192.6250   -21.1680    75.5440    14.5450    12.4790    14.9240    24.8040     2.3850 
  192.7500   -21.4080    72.8710    15.7980    13.6950    18.9130    24.7120     2.4160 
  192.8750   -21.6890    69.0270    17.4150    15.1990    21.7390    24.6310     2.4430 
  193.0000   -21.9730    68.4120    19.4810    17.0930    20.0780    24.6050     2.4530 
  193.1250   -22.2300    71.6490    22.0990    19.5170    23.2140    24.6280     2.4380 
  193.2500   -22.4820    73.3680    25.0930    22.3500    28.6370    24.6440     2.4120 
  193.3750   -22.7160    70.9580    28.2660    25.4320    32.0780    24.6100     2.3880 
  193.5000   -22.9370    65.4370    31.2950    28.5650    33.4330    24.5550     2.3780 
  193.6250   -23.2380    61.9650    34.1520    31.6550    36.5740    24.5490     2.3890 
  193.7500   -23.4890    60.9100    37.2380    34.9850    42.6790    24.5480     2.4050 
  193.8750   -23.7140    58.7500    41.6270    39.2170    47.7370    24.5140     2.4080 
  194.0000   -23.9380    56.1190    48.2630    45.2480    49.2370    24.4610     2.3820 
  194.1250   -24.1930    57.2140    59.1820    54.2730    63.8140    24.5880     2.3290 
  194.2500   -24.5460    60.9290    73.3430    65.7820    93.3030    24.6540     2.2700 
  194.3750   -24.8290    62.1160    88.2350    78.7310   123.7740    24.6750     2.2230 
  194.5000   -25.0800    59.9500   101.9130    91.4580   118.8600    24.6740     2.1980 
  194.6250   -25.3440    58.1620   112.7690   101.9010   106.8400    24.6740     2.1940 
  194.7500   -25.5620    57.9930   121.2960   109.7920   109.8430    24.6740     2.1990 
  194.8750   -25.8080    58.0710   128.9840   115.7310   119.9190    24.6740     2.2050 
  195.0000   -26.0440    58.4760   138.4020   120.5260   120.0810    24.6740     2.2090 
  195.1250   -26.2230    60.8990   147.3530   123.9650   120.8470    24.6620     2.2110 
  195.2500   -26.3370    62.7220   151.5240   125.0980   129.4330    24.6300     2.2120 
  195.3750   -26.4750    61.6550   146.3700   122.8170   135.1000    24.6010     2.2100 
  195.5000   -26.5940    58.6700   136.7520   116.8790   138.5530    24.6070     2.2070 
  195.6250   -26.6040    57.5410   124.3200   108.0300   120.8780    24.6940     2.2050 
  195.7500   -26.7100    59.1260   112.1020    98.6060    94.8950    24.7300     2.2060 
  195.8750   -26.7830    60.9690   101.7310    90.1170    79.3800    24.7140     2.2110 
  196.0000   -26.8010    61.2600    93.9920    83.5250    78.7690    24.6880     2.2160 
  196.1250   -26.8360    60.7510    89.5270    79.6740    83.1180    24.6230     2.2190 
  196.2500   -26.8320    61.1860    87.7440    78.2590    79.6160    24.4950     2.2150 
  196.3750   -26.8730    62.5270    88.4570    79.2130    70.7620    24.3770     2.2070 
  196.5000   -26.9420    61.6590    91.3950    82.3340    65.8490    24.3590     2.1930 
  196.6250   -27.0790    59.3970    96.2230    87.3460    73.5270    24.4360     2.1770 
  196.7500   -27.1430    57.8700   101.6160    93.0170    90.4250    24.4760     2.1600 
  196.8750   -27.2260    57.1160   106.3770    98.2430   101.7040    24.4830     2.1450 
  197.0000   -27.3690    54.7790   109.4570   102.0200   105.3120    24.4580     2.1380 
  197.1250   -27.5110    51.9240   110.1620   103.5360   100.6550    24.3990     2.1420 
  197.2500   -27.7570    52.8220   109.5410   103.5240    91.9300    24.3570     2.1580 
  197.3750   -27.9290    56.7220   108.7030   102.8730    86.2730    24.3810     2.1810 
  197.5000   -28.0770    60.1350   108.5350   102.4410    85.1000    24.4860     2.2060 
  197.6250   -28.2940    61.1810   109.6130   102.9000    89.7550    24.4900     2.2240 
  197.7500   -28.5170    61.7340   111.8590   104.3570    95.1850    24.4330     2.2320 
  197.8750   -28.7310    62.8540   115.5550   107.1090    97.2320    24.4270     2.2340 
  198.0000   -28.9750    63.4890   121.3740   111.7520    97.4500    24.4960     2.2340 
  198.1250   -29.2110    63.5320   131.0440   119.7860    98.6340    24.5990     2.2360 
  198.2500   -29.3530    63.1760   145.2900   131.8330   116.6570    24.6840     2.2370 
  198.3750   -29.5820    61.8390   164.9640   148.6240   155.9420    24.7030     2.2340 
  198.5000   -29.8110    59.2350   190.3990   170.4120   200.9800    24.6680     2.2260 
  198.6250   -29.8690    55.6620   221.6500   197.2920   206.4440    24.6040     2.2140 
  198.7500   -29.9550    53.4210   255.2540   226.6000   195.1410    24.5430     2.2010 
  198.8750   -29.9900    53.9390   286.1710   255.1110   200.2900    24.4860     2.1850 
  199.0000   -29.9390    55.7280   308.3830   278.1720   218.1530    24.3550     2.1670 
  199.1250   -29.9300    56.2910   312.6060   287.8310   210.3720    24.0270     2.1510 
