~V
VERS. 2.00: Ver 2.00
~W
STRT.M 60.0000:
STOP.M 258.0000:
STEP.M 0.1250:
NULL. -999.2500:
UWI. DF32100:
~C
DEPT.M :
SP.MV :
GR.API :
CALI.CM :
RXO.OHMM :
RI. :
RML.OHMM :
DEN.GM/CC :
~A
# ...
  150.0000   -16.5370    64.4750    22.2550    14.8450    17.8970    19.0500     2.5630 
  150.1250   -16.4290    62.8300    22.3550    15.8280    19.1730    20.4570     2.5680 
  150.2500   -16.3450    61.9010    22.3980    16.4750    19.5590    20.7740     2.5700 
  150.3750   -16.2560    62.4280    22.4090    16.2950    19.0290    20.0350     2.5700 
  150.5000   -16.1890    63.6080    22.4080    15.4350    17.8670    18.6410     2.5650 
  150.6250   -16.1600    64.0690    22.4030    14.1790    16.5280    17.1790     2.5560 
  150.7500   -16.1890    64.8230    22.3930    12.9680    15.4570    16.1200     2.5510 
  150.8750   -16.2230    66.5520    22.3680    12.3370    14.8470    15.6340     2.5500 
  151.0000   -16.2810    68.2070    22.3140    12.6370    14.7380    15.7230     2.5490 
  151.1250   -16.3200    67.1710    22.2340    13.8730    15.1290    16.3470     2.5530 
  151.2500   -16.3540    64.9780    22.1990    14.9350    15.7780    17.2250     2.5610 
  151.3750   -16.3920    65.5880    22.1910    15.1640    16.4740    18.1210     2.5690 
  151.5000   -16.4150    66.6900    22.1910    14.8080    17.0090    18.8170     2.5690 
  151.6250   -16.4030    65.3710    22.1910    14.9880    17.2110    19.1320     2.5630 
  151.7500   -16.3720    63.3420    22.1910    15.5480    17.1320    19.1020     2.5550 
  151.8750   -16.3560    62.1940    22.1790    15.4350    16.8320    18.7640     2.5470 
  152.0000   -16.3360    61.1010    22.1440    14.4570    16.4080    18.2190     2.5410 
  152.1250   -16.3070    59.8680    22.0650    13.5750    15.9790    17.6420     2.5350 
  152.2500   -16.2560    60.2960    21.9880    13.1560    15.6300    17.2150     2.5280 
  152.3750   -16.1920    61.8840    21.8750    12.8610    15.4340    17.0510     2.5210 
  152.5000   -16.1160    62.5150    21.7690    12.7810    15.4570    17.2050     2.5210 
  152.6250   -16.0950    62.1910    21.7250    13.2010    15.7710    17.6980     2.5300 
  152.7500   -16.1070    61.7580    21.7140    13.7810    16.2830    18.3650     2.5430 
  152.8750   -16.1510    62.2520    21.7100    14.2010    16.8250    19.0140     2.5550 
  153.0000   -16.1890    64.0640    21.7080    14.3020    17.1100    19.3440     2.5630 
  153.1250   -16.2490    65.6990    21.6930    14.2270    16.7170    18.8930     2.5590 
  153.2500   -16.3170    65.9250    21.6070    13.6000    15.7000    17.7200     2.5390 
  153.3750   -16.4090    64.6180    21.4060    12.1640    14.3310    16.1330     2.5110 
  153.5000   -16.5310    63.4820    21.1780    10.2640    12.9650    14.5540     2.4920 
  153.6250   -16.6300    64.6940    20.9440     8.9780    11.9260    13.3840     2.4960 
  153.7500   -16.7200    66.0320    20.5700     8.3980    11.2650    12.6890     2.5140 
  153.8750   -16.7830    64.3420    20.0810     8.2520    10.9470    12.4240     2.5330 
  154.0000   -16.8420    60.5040    19.6300     8.2330    10.8840    12.4680     2.5350 
  154.1250   -16.8540    59.2480    19.3790     8.3450    11.0100    12.7030     2.5130 
  154.2500   -16.8660    59.8660    19.4380     8.5880    11.2410    13.0090     2.4870 
  154.3750   -16.8650    58.2580    19.7110     9.0110    11.5460    13.3590     2.4740 
  154.5000   -16.8790    54.5700    20.0550     9.6200    11.9040    13.7500     2.4790 
  154.6250   -16.8940    53.5710    20.4880    10.2050    12.2790    14.1540     2.4860 
  154.7500   -16.8970    55.1960    20.8000    10.4070    12.5800    14.4710     2.4860 
  154.8750   -16.9000    56.3180    20.9840    10.2000    12.7220    14.5970     2.4830 
  155.0000   -16.8970    56.8450    21.1720     9.8610    12.6650    14.4860     2.4840 
  155.1250   -16.9110    58.7370    21.3330     9.6490    12.4110    14.1620     2.4940 
  155.2500   -16.9490    59.6880    21.3980     9.5410    12.0680    13.7630     2.5060 
  155.3750   -16.9870    58.1050    21.4030     9.3990    11.7250    13.3850     2.5100 
  155.5000   -17.0130    57.1910    21.3820     9.2510    11.4580    13.0950     2.5010 
  155.6250   -17.0130    61.4730    21.3390     9.1670    11.3240    12.9520     2.4870 
  155.7500   -17.0130    65.1460    21.3140     9.1610    11.2990    12.9490     2.4820 
  155.8750   -17.0220    65.0720    21.3050     9.2310    11.3880    13.0930     2.4850 
  156.0000   -17.0560    63.5600    21.3030     9.3690    11.5850    13.3710     2.4880 
  156.1250   -17.1380    64.0480    21.2980     9.5400    11.8570    13.7340     2.4880 
  156.2500   -17.2260    64.9610    21.2790     9.7090    12.1190    14.0820     2.4940 
  156.3750   -17.3380    63.4990    21.2270     9.9490    12.3320    14.3530     2.5090 
  156.5000   -17.4640    62.4900    21.1790    10.2630    12.4890    14.5270     2.5250 
  156.6250   -17.6400    64.5300    21.1630    10.5060    12.6210    14.6170     2.5290 
  156.7500   -17.8480    65.9110    21.1450    10.5530    12.7610    14.6780     2.5250 
  156.8750   -18.1120    63.7940    21.0800    10.5270    12.9150    14.7400     2.5230 
  157.0000   -18.4160    60.8200    20.9690    10.5670    13.0690    14.8080     2.5270 
  157.1250   -18.7540    63.4110    20.9170    10.5010    13.2100    14.8660     2.5350 
  157.2500   -19.1290    68.1330    20.9030    10.4770    13.3580    14.9170     2.5410 
  157.3750   -19.5370    69.5090    20.9030    10.5770    13.5430    14.9870     2.5470 
  157.5000   -19.9410    67.6800    20.9020    10.7140    13.7840    15.1050     2.5550 
  157.6250   -20.3280    66.5200    20.8640    10.5820    14.0830    15.3060     2.5620 
  157.7500   -20.7430    66.5860    20.7070    10.2930    14.4190    15.5720     2.5580 
  157.8750   -21.1620    65.7730    20.4010    10.0940    14.7630    15.8700     2.5460 
  158.0000   -21.6120    64.2500    20.1090    10.0210    15.0790    16.1480     2.5360 
  158.1250   -22.0330    63.9190    19.8690     9.7920    15.2950    16.3280     2.5400 
  158.2500   -22.4080    66.0760    19.6130     9.5270    15.3510    16.3650     2.5470 
  158.3750   -22.7280    70.1140    19.4630     9.4560    15.1750    16.2070     2.5430 
  158.5000   -23.0210    72.4560    19.5350     9.5540    14.7450    15.8190     2.5230 
  158.6250   -23.3060    69.3720    19.7640     9.6290    14.1370    15.2240     2.4940 
  158.7500   -23.5920    65.3480    20.0200     9.4500    13.6160    14.6560     2.4650 
  158.8750   -23.8720    64.9090    20.2770     9.1310    13.4480    14.4230     2.4390 
  159.0000   -24.1680    68.3850    20.5040     8.8420    13.9270    14.8960     2.4160 
  159.1250   -24.4790    73.6190    20.5920     8.8650    15.5940    16.7370     2.3980 
  159.2500   -24.8700    76.7430    20.6420     9.3850    18.7740    20.2820     2.3770 
  159.3750   -25.3380    75.8370    20.7940    10.9120    24.0460    26.0890     2.3440 
  159.5000   -25.8820    71.8250    21.2120    13.7250    31.9470    34.6650     2.2990 
  159.6250   -26.4530    68.9760    21.7860    16.6540    42.7440    46.2710     2.2570 
  159.7500   -26.9770    67.6090    22.2760    19.5290    54.5360    58.7350     2.2330 
  159.8750   -27.4560    67.3930    22.7190    25.3170    65.5040    69.7640     2.2260 
  160.0000   -27.8280    68.8820    23.2190    38.0660    74.8210    78.3690     2.2280 
  160.1250   -28.1650    72.0630    23.6030    55.1640    83.1500    85.7040     2.2300 
  160.2500   -28.4320    73.6580    23.7570    68.0930    92.1840    94.1360     2.2270 
  160.3750   -28.6670    72.9390    23.7880    77.6000   102.6760   104.6980     2.2190 
  160.5000   -28.8470    71.2070    23.7890    87.8420   113.8870   116.6210     2.2060 
  160.6250   -29.0130    69.6590    23.7890    91.4540   122.8100   126.3100     2.1910 
  160.7500   -29.1730    68.1640    23.7890    90.6170   127.2210   130.7190     2.1890 
  160.8750   -29.3060    66.8500    23.7890    91.1630   127.0100   129.8030     2.2040 
  161.0000   -29.4200    66.1100    23.7890    90.6810   124.6200   126.7040     2.2260 
  161.1250   -29.4710    67.0420    23.7890    85.3410   125.4130   126.9670     2.2380 
