~V
VERS. 2.00: Ver 2.00
~W
STRT.M 61.0000:
STOP.M 257.0000:
STEP.M 0.1250:
NULL. -999.2500:
UWI. DF32086:
~C
DEPT.M :
SP.MV :
GR.API :
CALI.CM :
RXO.OHMM :
RI. :
RML.OHMM :
DEN.GM/CC :
~A
# ...
   94.7500   -33.3400   103.0790    23.0630     4.9820     4.1760     5.7710     2.3510 
   94.8750   -33.4840    99.5500    23.3890     6.7290     4.7360     6.9450     2.3730 
   95.0000   -33.7700    91.5970    23.6450     9.8250     5.5340     8.4340     2.3870 
   95.1250   -34.2120    82.0890    23.7380    11.4870     6.2850     9.5780     2.3750 
   95.2500   -34.7180    75.5940    23.7770    10.6640     6.6900     9.8690     2.3400 
   95.3750   -35.2200    73.1590    23.7530     8.6150     6.6860     9.3770     2.2940 
   95.5000   -35.7090    72.8770    23.5850     7.2640     6.4200     8.6110     2.2520 
   95.6250   -36.1470    75.0620    23.2320     7.1480     6.1210     8.1180     2.2290 
   95.7500   -36.5210    77.4480    22.8150     7.5210     5.9310     8.0230     2.2230 
   95.8750   -36.8350    80.2670    22.4360     7.8770     5.8740     8.2330     2.2250 
   96.0000   -37.0570    83.3230    22.2060     8.0490     5.9180     8.5630     2.2250 
   96.1250   -37.2470    83.0270    22.2110     8.1360     6.0140     8.8140     2.2240 
   96.2500   -37.4510    79.0860    22.4680     8.1520     6.1050     8.9280     2.2290 
   96.3750   -37.7150    74.8730    22.9550     8.1240     6.1570     8.9440     2.2340 
   96.5000   -37.9910    74.1880    23.4510     8.0930     6.1520     8.9340     2.2290 
   96.6250   -38.2650    75.8860    23.7250     8.1970     6.1060     8.9580     2.2060 
   96.7500   -38.5310    76.3380    23.7910     8.5190     6.0680     9.0200     2.1800 
   96.8750   -38.7690    76.1520    23.7550     9.0470     6.0740     9.1000     2.1620 
   97.0000   -38.9850    76.6400    23.7180     9.3940     6.1440     9.1790     2.1540 
   97.1250   -39.1010    78.8080    23.6720     9.2160     6.2730     9.2590     2.1500 
   97.2500   -39.1380    81.2630    23.5560     9.0920     6.4230     9.3660     2.1500 
   97.3750   -39.0780    81.5640    23.3230     9.2320     6.5610     9.5200     2.1580 
   97.5000   -38.9300    78.6610    23.1250     9.4980     6.6610     9.7140     2.1650 
   97.6250   -38.6680    74.4580    23.1870     9.5430     6.6920     9.8880     2.1630 
   97.7500   -38.2740    72.7010    23.3640     9.6440     6.6610     9.9560     2.1580 
   97.8750   -37.8030    73.7060    23.3590     9.5800     6.5810     9.8600     2.1630 
   98.0000   -37.3020    76.0260    23.1200     9.1350     6.4740     9.6040     2.1790 
   98.1250   -36.7650    79.2480    22.7730     8.3780     6.3580     9.2450     2.1940 
   98.2500   -36.2160    83.0610    22.3810     7.7180     6.2360     8.8820     2.2010 
   98.3750   -35.6940    85.6110    21.9500     7.3760     6.0950     8.5700     2.2030 
   98.5000   -35.1910    85.4530    21.5810     7.3430     5.9440     8.3640     2.2060 
   98.6250   -34.7140    83.9720    21.6380     7.4160     5.8500     8.3720     2.2130 
   98.7500   -34.2850    82.3240    21.8430     7.4470     5.8740     8.6180     2.2170 
   98.8750   -33.8700    81.0360    22.3250     7.5800     6.0400     9.0610     2.2130 
   99.0000   -33.4160    80.7250    23.1060     8.4470     6.2920     9.5300     2.2060 
   99.1250   -32.9020    82.0210    23.7130    10.7410     6.4420     9.6470     2.2010 
   99.2500   -32.2720    82.8190    23.9760    12.8330     6.3190     9.1970     2.1980 
   99.3750   -31.5000    82.2100    24.0540    12.1030     5.8790     8.2210     2.1950 
   99.5000   -30.6100    84.2180    24.1040     8.7010     5.2240     7.0130     2.2000 
   99.6250   -29.6990    92.4420    24.1340     5.9930     4.5490     5.9980     2.2230 
   99.7500   -28.8190   100.4500    24.1130     4.9350     4.0380     5.4030     2.2430 
   99.8750   -27.9990   104.0580    24.0450     4.7850     3.8050     5.3090     2.2370 
  100.0000   -27.2790   105.1440    23.9820     4.9000     3.9090     5.6970     2.2050 
  100.1250   -26.7150   106.2230    23.9560     5.1860     4.3760     6.4860     2.1880 
  100.2500   -26.3250   103.7320    23.9330     5.7240     4.9960     7.3440     2.2210 
  100.3750   -26.0810    98.4060    23.8700     6.2730     5.5160     7.9350     2.2980 
  100.5000   -25.9430    96.1490    23.7450     6.3670     5.6840     7.9800     2.3850 
  100.6250   -25.8440   100.3900    23.7370     5.8000     5.3800     7.4380     2.4440 
  100.7500   -25.7390   105.7780    23.9460     5.2290     4.8920     6.7790     2.4610 
  100.8750   -25.6290   107.8930    24.2330     5.0250     4.4710     6.3370     2.4370 
  101.0000   -25.4920   107.1660    24.3520     5.1210     4.2670     6.2530     2.3920 
  101.1250   -25.3560   107.3190    24.2670     5.6470     4.3320     6.5020     2.3620 
  101.2500   -25.2360   107.9570    24.1840     6.5480     4.5000     6.7710     2.3670 
  101.3750   -25.1520   108.0360    24.1480     7.0390     4.6100     6.8000     2.3930 
  101.5000   -25.1500   107.8890    24.1410     6.5800     4.5810     6.5500     2.4110 
  101.6250   -25.2460   109.9870    24.1420     5.5880     4.4900     6.3140     2.3990 
  101.7500   -25.4220   113.1950    24.1460     5.3360     4.5180     6.4230     2.3760 
  101.8750   -25.6520   114.0510    24.1340     6.2420     4.7890     7.0300     2.3720 
  102.0000   -25.9430   110.2710    24.0860     8.7700     5.3530     8.1140     2.4050 
  102.1250   -26.3280   103.6630    23.9620    11.1640     6.1190     9.3700     2.4630 
  102.2500   -26.7730   100.5500    23.8270    11.4970     6.7510    10.1850     2.5020 
  102.3750   -27.2690   102.2740    23.7010     9.9250     6.9880    10.2130     2.4960 
  102.5000   -27.7790   105.3120    23.5760     7.9620     6.7990     9.6010     2.4440 
  102.6250   -28.2840   104.7100    23.4650     7.0620     6.3860     8.8550     2.3700 
  102.7500   -28.7400   102.0880    23.4020     6.7750     6.0440     8.3710     2.3040 
  102.8750   -29.1230   100.1480    23.4070     6.9020     5.8810     8.2000     2.2530 
  103.0000   -29.4080    99.3190    23.4630     6.9290     5.8660     8.2000     2.2160 
  103.1250   -29.5090    98.8770    23.4700     6.7160     5.8590     8.1460     2.1930 
  103.2500   -29.4420    96.8450    23.4510     6.4340     5.7340     7.9440     2.1880 
  103.3750   -29.2420    94.3160    23.4770     6.0880     5.4790     7.6320     2.2060 
  103.5000   -28.9570    93.4760    23.5760     5.7520     5.1660     7.3030     2.2390 
  103.6250   -28.6290    94.1960    23.6950     5.5670     4.9240     7.0520     2.2730 
  103.7500   -28.3070    96.2510    23.6730     5.5380     4.8180     6.9030     2.2920 
  103.8750   -28.0130    98.6430    23.5790     5.5230     4.8510     6.8630     2.2950 
  104.0000   -27.7920   100.2130    23.5820     5.5010     4.9730     6.9320     2.2840 
  104.1250   -27.6560   100.9570    23.7690     5.4650     5.0950     7.0870     2.2670 
  104.2500   -27.6420   102.6120    23.9290     5.5560     5.1490     7.2430     2.2510 
  104.3750   -27.6740   104.3670    23.9170     5.8100     5.1280     7.3300     2.2410 
  104.5000   -27.7000   102.7810    23.9100     6.0770     5.0640     7.3130     2.2400 
  104.6250   -27.6800    98.7610    23.9950     6.0850     5.0070     7.2010     2.2460 
  104.7500   -27.6360    96.7800    23.9570     5.7900     4.9850     7.0690     2.2550 
  104.8750   -27.6060    97.3750    23.8940     5.5490     4.9920     6.9690     2.2640 
  105.0000   -27.5840    99.0150    23.8520     5.6430     4.9920     6.9070     2.2710 
  105.1250   -27.5310   101.3790    23.8170     5.9110     4.9220     6.8360     2.2680 
  105.2500   -27.4010   101.5480    23.8540     6.0350     4.8140     6.7580     2.2540 
  105.3750   -27.2440    99.5500    23.9330     5.9490     4.7720     6.7750     2.2410 
  105.5000   -27.0960   100.4310    23.9820     5.7990     4.9210     7.0350     2.2430 
  105.6250   -26.9500   103.4940    23.9330     5.9900     5.3810     7.6970     2.2780 
  105.7500   -26.8090   102.8000    23.9110     7.1390     6.0380     8.6490     2.3400 
  105.8750   -26.6650    99.0260    23.9370     9.5110     6.6760     9.6090     2.4120 
