~V
VERS. 2.00: Ver 2.00
~W
STRT.M 60.0000:
STOP.M 232.0000:
STEP.M 0.1250:
NULL. -999.2500:
UWI. DF323:
~C
DEPT.M :
GR.API :
RML.OHMM :
RI. :
RXO.OHMM :
CALI.CM :
SP.MV :
DEN.GM/CC :
AC.US/MT :
~A
# ...
  120.0000   101.7650     6.6470     6.9620     7.9310    25.9500    -3.5050     2.2670   407.2940 
  120.1250    97.5850     7.4790     7.4420     8.3380    25.9360    -3.2030     2.2560   407.2290 
  120.2500    92.8620     8.0880     7.9000     8.2570    25.9330    -3.0480     2.2480   412.6540 
  120.3750    89.5640     8.1840     8.0570     8.2090    25.9360    -3.0090     2.2430   419.0120 
  120.5000    91.6100     7.8190     7.8790     7.9820    25.9350    -3.0410     2.2390   422.6340 
  120.6250    99.2400     7.4300     7.6310     7.5870    25.9280    -3.0920     2.2450   420.1180 
  120.7500   103.4380     7.4940     7.6780     7.5410    25.9240    -3.1350     2.2730   409.5970 
  120.8750    99.9420     8.3000     8.2640     7.8930    25.9260    -3.1440     2.3280   387.6900 
  121.0000    92.0810    10.0790     9.5920     9.7260    25.9270    -3.1020     2.4020   353.6300 
  121.1250    85.8510    13.2040    12.0120    16.3510    25.9090    -3.0350     2.4730   313.4600 
  121.2500    80.6840    17.3620    15.3800    29.3110    25.8620    -2.9780     2.5230   280.1680 
  121.3750    75.6850    21.9940    19.3370    41.8080    25.8060    -2.9660     2.5500   260.8400 
  121.5000    73.7040    26.2500    23.1670    42.7980    25.8450    -3.0210     2.5590   254.4010 
  121.6250    75.4210    29.2270    25.9920    40.0070    26.0520    -3.1490     2.5570   254.9670 
  121.7500    77.6250    31.1330    27.8610    40.1130    26.2740    -3.2800     2.5470   256.9860 
  121.8750    78.9210    32.4640    29.1590    40.4770    26.3960    -3.4060     2.5250   260.8090 
  122.0000    78.7600    33.6440    30.2550    38.1700    26.4500    -3.5110     2.4950   267.5440 
  122.1250    77.9240    34.7110    31.2230    35.4400    26.5810    -3.6170     2.4670   275.8870 
  122.2500    77.6810    35.6780    32.0340    34.5420    26.7690    -3.7400     2.4510   281.8090 
  122.3750    77.3950    36.7720    32.7980    35.2490    26.9260    -3.8270     2.4510   282.3530 
  122.5000    75.6990    38.2080    33.7000    37.3220    27.0030    -3.8600     2.4620   277.6990 
  122.6250    73.8600    39.8950    34.7970    38.9950    26.9980    -3.8910     2.4780   271.7860 
  122.7500    73.7980    41.3750    35.8450    38.5370    26.9760    -3.9480     2.4910   269.1260 
  122.8750    75.3340    42.2820    36.5980    37.5030    26.9700    -4.0350     2.4980   270.4520 
  123.0000    77.4480    42.4540    36.9110    38.3120    26.9780    -4.1690     2.5000   274.1450 
  123.1250    81.0250    42.0660    36.8090    39.7340    26.9840    -4.3270     2.4960   278.4700 
  123.2500    83.6030    41.7500    36.6920    38.6500    26.9900    -4.4780     2.4900   281.8980 
  123.3750    84.3230    41.8930    36.8670    36.0190    27.0190    -4.6390     2.4850   282.8710 
  123.5000    83.7400    42.5850    37.4630    34.6190    27.0570    -4.7940     2.4840   280.1410 
  123.6250    81.3820    43.5590    38.3650    36.3920    27.0610    -4.8740     2.4870   274.0640 
  123.7500    78.0960    44.1320    39.0750    39.9400    26.9990    -4.8980     2.4920   268.0660 
  123.8750    75.6070    43.6620    39.1040    41.8160    26.8730    -4.8960     2.4960   264.6190 
  124.0000    74.2680    41.8650    38.1650    39.3290    26.7300    -4.8810     2.4950   264.6860 
  124.1250    73.1370    39.0070    36.3150    34.9180    26.6460    -4.8680     2.4890   267.5800 
  124.2500    72.1720    36.0190    34.2150    31.4640    26.6270    -4.8740     2.4820   270.7020 
  124.3750    71.4700    33.4680    32.3310    29.1220    26.6290    -4.8910     2.4780   272.5990 
  124.5000    68.9180    31.6700    30.9600    28.1000    26.6230    -4.8940     2.4800   272.8710 
  124.6250    64.6950    30.8260    30.2810    28.2540    26.6190    -4.8960     2.4900   271.8350 
  124.7500    62.8770    30.6650    30.0830    29.0650    26.6200    -4.9040     2.5030   270.3000 
  124.8750    65.3770    30.9420    30.1620    30.0430    26.6190    -4.9180     2.5170   268.8540 
  125.0000    69.7260    31.3270    30.2900    30.5230    26.6380    -4.9550     2.5260   268.4690 
  125.1250    70.4410    31.4580    30.2660    30.7120    26.7350    -5.0320     2.5290   270.5300 
  125.2500    68.6190    31.2600    30.0790    31.1630    26.8640    -5.1090     2.5240   274.3430 
  125.3750    67.5500    30.9420    29.8500    30.6870    26.9490    -5.1810     2.5150   277.9920 
  125.5000    68.0420    30.8580    29.7630    29.5940    26.9730    -5.3040     2.5020   279.6270 
  125.6250    70.4060    31.2720    30.0020    29.9700    26.9780    -5.4990     2.4880   279.2040 
  125.7500    74.8030    31.9530    30.4590    31.7290    26.9800    -5.7440     2.4750   278.7830 
  125.8750    78.7090    32.6260    30.9690    33.3920    26.9690    -5.9940     2.4660   279.2480 
  126.0000    78.3780    33.0910    31.3760    33.5720    26.9590    -6.2040     2.4660   279.9700 
  126.1250    75.2620    33.1940    31.5380    32.5510    26.9700    -6.3700     2.4750   279.6350 
  126.2500    75.0940    32.9980    31.4990    31.7210    27.0160    -6.5260     2.4870   278.1900 
  126.3750    78.4740    32.5650    31.3110    32.9220    27.0960    -6.6770     2.4960   276.2730 
  126.5000    81.8430    31.8570    30.9390    34.8760    27.1690    -6.8280     2.4970   275.0810 
  126.6250    83.2160    30.7560    30.2050    31.8230    27.1870    -6.9620     2.4860   276.2230 
  126.7500    83.8420    29.4670    29.1840    26.5820    27.1650    -7.0530     2.4710   279.6400 
  126.8750    82.8220    28.2790    28.1350    24.0410    27.1040    -7.1230     2.4580   284.2270 
  127.0000    78.8120    27.4870    27.4010    24.3250    26.9880    -7.1640     2.4550   287.9820 
  127.1250    74.1840    27.4600    27.3780    24.7810    26.8380    -7.1250     2.4670   288.2960 
  127.2500    73.7150    28.1040    27.9910    25.4250    26.7230    -7.0230     2.4880   284.8040 
  127.3750    75.7880    29.0330    28.8830    28.4650    26.6690    -6.9000     2.5050   279.0570 
  127.5000    75.6500    29.5330    29.3950    33.3210    26.6550    -6.7740     2.5120   274.7020 
  127.6250    75.4330    28.6390    28.6380    33.3910    26.6430    -6.6690     2.5040   276.0560 
  127.7500    78.8480    26.4580    26.7390    28.8520    26.6230    -6.6370     2.4900   282.3580 
  127.8750    83.8880    23.6530    24.3110    24.2440    26.6120    -6.6700     2.4750   291.1240 
  128.0000    87.9380    21.1410    22.1170    20.9690    26.6150    -6.7810     2.4620   299.6930 
  128.1250    88.3230    19.8720    20.8980    18.8500    26.6240    -6.9870     2.4490   305.5620 
  128.2500    87.3360    20.0480    20.8020    18.2420    26.6320    -7.2710     2.4380   307.3300 
  128.3750    86.0250    21.7590    21.9140    20.2170    26.6370    -7.5900     2.4340   303.8680 
  128.5000    83.4830    24.9220    24.2380    23.7800    26.6390    -7.8820     2.4410   295.3140 
  128.6250    79.5730    29.2120    27.7120    26.7570    26.6430    -8.1290     2.4610   282.9580 
  128.7500    75.9870    33.3190    31.4290    29.9620    26.6520    -8.2880     2.4860   270.3060 
  128.8750    73.9190    35.6350    34.0580    35.9110    26.6580    -8.3620     2.5090   260.3120 
  129.0000    72.4630    34.7630    34.1000    43.2880    26.6490    -8.3720     2.5230   256.0870 
  129.1250    71.6290    30.3890    30.7710    43.6260    26.6180    -8.3620     2.5200   261.4140 
  129.2500    74.0630    24.9250    26.0910    38.3250    26.6050    -8.3320     2.5070   274.2430 
  129.3750    77.1910    20.0860    21.6950    31.1040    26.6240    -8.2710     2.4920   290.4550 
  129.5000    77.8100    16.7780    18.4930    23.1220    26.6610    -8.1980     2.4830   303.7890 
  129.6250    74.0690    15.5340    16.9920    17.7060    26.7150    -8.0940     2.4870   307.0660 
  129.7500    69.6750    15.9180    16.8890    16.4180    26.7890    -7.9730     2.5010   301.2750 
  129.8750    67.1270    17.6230    18.0220    18.4900    26.8560    -7.8570     2.5180   290.7620 
