~V
VERS. 2.00: Ver 2.00
~W
STRT.M 63.0000:
STOP.M 291.0000:
STEP.M 0.1250:
NULL. -999.2500:
UWI. DF325:
~C
DEPT.M :
DEN.GM/CC :
SP.MV :
AC.US/MT :
GR.API :
RML.OHMM :
RI. :
RXO.OHMM :
CALI.CM :
~A
# ...
  133.0000     2.5190   -11.8010   262.3100    55.9890    25.6870    23.3970    27.1100    25.4730 
  133.1250     2.4970   -11.8400   257.8460    57.2870    26.5090    24.1520    28.2510    25.5040 
  133.2500     2.4710   -11.9010   252.3090    56.4170    27.1550    24.7590    29.5720    25.5000 
  133.3750     2.4520   -12.0030   246.8820    53.2320    27.5670    25.1680    29.9220    25.4740 
  133.5000     2.4460   -12.1240   243.6410    53.2740    27.6710    25.3260    27.5250    25.4200 
  133.6250     2.4520   -12.2380   243.7140    57.6530    27.2840    24.9770    23.7300    25.3100 
  133.7500     2.4610   -12.3620   246.6990    58.4950    26.4010    24.1060    21.2810    25.2760 
  133.8750     2.4680   -12.5220   253.0010    54.8330    25.0910    22.8620    20.2770    25.3020 
  134.0000     2.4760   -12.6920   262.1090    52.1700    23.5710    21.4550    19.9520    25.2730 
  134.1250     2.4900   -12.8300   271.2670    54.0610    22.1750    20.1620    19.0090    25.0760 
  134.2500     2.5080   -12.9750   278.0880    56.8830    21.1080    19.1750    18.3800    24.9300 
  134.3750     2.5210   -13.1160   283.2100    58.4670    20.4250    18.5440    18.3740    24.8570 
  134.5000     2.5220   -13.2470   288.2350    60.4310    20.0810    18.2210    18.8000    24.8200 
  134.6250     2.5080   -13.3720   293.2770    63.2540    19.9820    18.1170    19.5920    24.7690 
  134.7500     2.4880   -13.4580   296.9620    64.1580    19.9310    18.0660    19.8240    24.7490 
  134.8750     2.4680   -13.4880   298.4280    62.0440    19.7890    17.9710    19.2590    24.7600 
  135.0000     2.4560   -13.4910   297.8720    59.6210    19.5070    17.7770    18.3750    24.8030 
  135.1250     2.4560   -13.4770   296.7850    59.0360    19.0530    17.4870    17.4310    24.8230 
  135.2500     2.4620   -13.4210   296.8740    56.6650    18.6230    17.2000    17.2760    24.7990 
  135.3750     2.4680   -13.3190   298.2820    52.9240    18.4510    17.0330    17.5920    24.7770 
  135.5000     2.4690   -13.1980   299.3470    52.3150    18.6940    17.1080    18.1640    24.8190 
  135.6250     2.4660   -13.0470   296.7620    55.8640    19.3940    17.5870    19.4000    24.9140 
  135.7500     2.4630   -12.8690   289.9960    57.4750    20.3380    18.4610    21.2290    25.0940 
  135.8750     2.4640   -12.6810   280.3220    57.8830    21.6950    19.7170    23.7490    25.3610 
  136.0000     2.4690   -12.4900   270.4340    60.7040    23.3720    21.2700    26.6390    25.5360 
  136.1250     2.4730   -12.3160   263.6020    65.2330    25.1420    22.9090    29.3830    25.5840 
  136.2500     2.4760   -12.1580   260.2700    66.8090    26.6370    24.2940    30.9340    25.5910 
  136.3750     2.4790   -12.0260   259.5400    65.1190    27.5610    25.1530    31.1650    25.6050 
  136.5000     2.4870   -11.9040   260.3340    63.6140    27.7860    25.3520    31.1400    25.6070 
  136.6250     2.5040   -11.7940   262.7540    64.8740    27.3100    24.8970    29.2710    25.5830 
  136.7500     2.5230   -11.7060   266.1710    66.0380    26.4920    24.1300    25.6910    25.5380 
  136.8750     2.5350   -11.6270   269.0660    62.0940    25.4840    23.2470    22.5070    25.4670 
  137.0000     2.5360   -11.5620   270.3640    55.8780    24.4120    22.3610    21.6570    25.4330 
  137.1250     2.5220   -11.5090   271.1660    55.8790    23.3530    21.5920    21.8990    25.5010 
  137.2500     2.5050   -11.4470   273.2180    58.9870    22.5420    21.0530    21.2450    25.5950 
  137.3750     2.4940   -11.3570   275.5480    58.4740    22.2780    20.8510    20.2900    25.6440 
  137.5000     2.4950   -11.2700   275.5700    54.5480    22.6760    21.0000    20.3670    25.6390 
  137.6250     2.5070   -11.2370   271.3390    52.9830    23.4150    21.4600    21.6550    25.6110 
  137.7500     2.5220   -11.2390   265.6360    54.5100    24.1860    22.0180    23.1870    25.5930 
  137.8750     2.5350   -11.2590   261.6340    56.7590    24.7030    22.5560    24.2570    25.5880 
  138.0000     2.5440   -11.2880   260.9790    57.4180    25.0300    22.9760    24.3070    25.5860 
  138.1250     2.5490   -11.3490   262.8510    56.6710    25.0710    23.1250    23.5790    25.5860 
  138.2500     2.5530   -11.4530   264.7700    56.7900    24.8850    22.9890    23.5050    25.5800 
  138.3750     2.5570   -11.5880   266.0290    56.2150    24.5440    22.6220    23.2670    25.5740 
  138.5000     2.5610   -11.7520   266.7660    53.6910    24.1460    22.1950    22.6900    25.5740 
  138.6250     2.5670   -11.9290   266.7540    51.6870    23.7650    21.7560    22.0420    25.5670 
  138.7500     2.5740   -12.1150   265.8980    51.3910    23.4250    21.5810    21.9840    25.5510 
  138.8750     2.5810   -12.3280   264.6400    50.1020    23.1320    21.4630    22.4730    25.5350 
  139.0000     2.5850   -12.5820   263.7630    47.8880    22.9470    21.3850    22.8870    25.5250 
  139.1250     2.5860   -12.8440   263.3880    48.9850    22.9610    21.3890    23.0810    25.5110 
  139.2500     2.5850   -13.1370   262.8610    51.5540    23.1160    21.5180    22.6730    25.4860 
  139.3750     2.5830   -13.4810   261.9210    51.7090    23.4520    21.7890    22.6050    25.4550 
  139.5000     2.5780   -13.8330   260.9660    50.3770    24.0160    22.1690    23.6500    25.4260 
  139.6250     2.5680   -14.1550   261.3330    50.8650    24.6800    22.6130    24.9660    25.4000 
  139.7500     2.5530   -14.4950   263.7050    54.0240    25.3740    23.1280    26.3390    25.3930 
  139.8750     2.5360   -14.8540   267.7500    58.9290    26.1070    23.8060    27.4200    25.3500 
  140.0000     2.5210   -15.2060   272.1090    62.1900    27.1710    24.7700    27.4300    25.1950 
  140.1250     2.5110   -15.5440   273.6480    61.5920    28.6790    26.1650    27.6360    25.0440 
  140.2500     2.5060   -15.8380   270.5390    60.8680    30.3590    27.7260    28.5580    25.0700 
  140.3750     2.5030   -16.0730   262.9450    62.5030    31.8310    29.1530    30.1410    25.2020 
  140.5000     2.4980   -16.2810   254.2750    64.9060    32.6980    30.0130    31.6240    25.2800 
  140.6250     2.4900   -16.5340   251.7900    66.0890    32.5940    30.0570    31.2830    25.2910 
  140.7500     2.4810   -16.7840   258.3760    66.2490    31.7570    29.3350    30.1880    25.3030 
  140.8750     2.4770   -17.0020   271.7470    67.0040    30.4630    27.9080    28.2480    25.2600 
  141.0000     2.4790   -17.1900   286.1590    68.9350    28.9990    26.4810    26.5900    25.2100 
  141.1250     2.4830   -17.3680   296.5390    70.6860    27.6200    25.2040    26.1780    25.1850 
  141.2500     2.4830   -17.5100   303.4030    68.8800    26.4720    24.1410    26.1390    25.1760 
  141.3750     2.4760   -17.6060   308.1330    65.6060    25.6460    23.3760    25.1730    25.1320 
  141.5000     2.4660   -17.6540   310.9110    66.6510    25.1870    22.9500    23.8570    25.0880 
  141.6250     2.4570   -17.5740   310.4070    71.6310    25.1450    22.9120    23.1710    25.0480 
  141.7500     2.4490   -17.3970   306.8000    74.1370    25.4050    23.1550    23.1840    24.9800 
  141.8750     2.4390   -17.1560   300.6360    72.4250    25.9000    23.6140    23.8280    24.8510 
  142.0000     2.4240   -16.8540   293.1000    69.2570    26.5380    24.2120    24.6260    24.7120 
  142.1250     2.4070   -16.4670   285.4710    68.7740    27.1810    24.8040    25.6920    24.7770 
  142.2500     2.3940   -16.0520   277.7170    71.9190    27.7050    25.2410    26.1160    25.0010 
  142.3750     2.3890   -15.6270   269.4470    75.2410    28.0900    25.5130    25.7570    25.0200 
  142.5000     2.3960   -15.2120   261.7790    74.5950    28.4660    25.6570    25.1380    24.6620 
  142.6250     2.4150   -14.8640   258.3600    72.0670    29.2740    26.3520    25.3770    24.4670 
  142.7500     2.4400   -14.5750   259.5170    70.9100    30.8960    27.7650    27.9490    24.5670 
  142.8750     2.4650   -14.3260   261.9540    69.4920    33.4680    30.2210    32.3880    24.7160 
