~V
VERS. 2.00: Ver 2.00
~W
STRT.M 55.0000:
STOP.M 256.0000:
STEP.M 0.1250:
NULL. -999.2500:
UWI. DF327:
~C
DEPT.M :
SP.MV :
DEN.GM/CC :
AC.US/MT :
GR.API :
RML.OHMM :
RI. :
RXO.OHMM :
CALI.CM :
~A
# ...
  205.0000    -6.7140     2.2920   402.0840    89.2710    13.9760     9.2540    15.4600    24.1130 
  205.1250    -6.9460     2.2910   401.9830    89.1630    14.3120     9.7480    16.0440    24.1120 
  205.2500    -7.1410     2.2910   401.6280    87.5100    14.0860    10.2790    16.4880    24.1130 
  205.3750    -7.2770     2.2910   401.3550    85.2140    13.6530    10.8610    17.1550    24.1130 
  205.5000    -7.3550     2.2910   401.2000    85.2430    13.3990    11.4900    18.0790    24.1130 
  205.6250    -7.3590     2.2910   401.0230    86.0910    13.6210    12.1350    18.9800    24.1120 
  205.7500    -7.3090     2.2910   400.8470    84.6990    14.2040    12.7350    19.4150    24.1110 
  205.8750    -7.2270     2.2910   400.7250    81.2120    14.9350    13.2320    19.6370    24.1100 
  206.0000    -7.1170     2.2900   400.7030    78.5110    15.5710    13.5710    19.8080    24.1100 
  206.1250    -6.9890     2.2900   401.0040    77.1440    15.9050    13.6910    19.5540    24.1100 
  206.2500    -6.8790     2.2900   401.6630    77.2760    15.9740    13.6250    18.9420    24.1080 
  206.3750    -6.8050     2.2890   402.4590    79.7890    15.8570    13.4020    18.0920    24.1020 
  206.5000    -6.7630     2.2870   402.9740    83.8430    15.6240    13.0540    17.2230    24.0920 
  206.6250    -6.7720     2.2850   402.1200    88.1770    15.2830    12.6070    16.4110    24.0910 
  206.7500    -6.8270     2.2840   398.7440    93.8230    14.8320    12.1330    15.9170    24.0840 
  206.8750    -6.9180     2.2870   391.5150    96.9250    14.3030    11.7140    15.7860    24.0630 
  207.0000    -7.0620     2.2940   379.9820    93.0200    13.8420    11.4780    15.9050    24.0350 
  207.1250    -7.2400     2.3040   367.4700    86.9040    13.7290    11.6470    16.4020    24.0190 
  207.2500    -7.4400     2.3100   360.8850    86.7950    14.0680    12.2670    17.5970    23.9980 
  207.3750    -7.6680     2.3070   364.3230    88.4910    14.8590    13.3340    19.7400    23.9970 
  207.5000    -7.9280     2.2940   375.6570    84.3380    15.9770    14.7410    23.0420    23.9710 
  207.6250    -8.2440     2.2740   386.8770    77.1440    17.2370    16.2900    26.5980    23.8880 
  207.7500    -8.5690     2.2560   392.6800    75.7380    18.4750    17.7270    28.9390    23.8050 
  207.8750    -8.8760     2.2420   393.7200    78.2290    19.6390    18.9070    29.0340    23.8070 
  208.0000    -9.1490     2.2350   392.8280    77.6500    20.6910    19.7760    28.7890    23.8900 
  208.1250    -9.3760     2.2330   392.0230    73.6870    21.5190    20.3180    28.8010    23.9920 
  208.2500    -9.5490     2.2350   391.7980    72.8330    22.0700    20.6480    28.7630    24.0420 
  208.3750    -9.6760     2.2380   392.4110    76.0250    22.3400    20.8280    28.2000    24.0510 
  208.5000    -9.7590     2.2430   393.6920    78.4850    22.3800    20.8950    27.3840    24.0350 
  208.6250    -9.7690     2.2470   395.1740    77.4880    22.2200    20.8190    26.7430    24.0300 
  208.7500    -9.7560     2.2500   396.3140    75.3700    21.8780    20.5790    26.4870    24.0110 
  208.8750    -9.7530     2.2500   396.7130    73.2740    21.2980    20.1400    25.9520    23.9940 
  209.0000    -9.7590     2.2460   396.1090    72.2470    20.4590    19.4980    25.1810    23.9980 
  209.1250    -9.8250     2.2410   394.6060    75.6930    19.4050    18.6710    24.1740    24.0360 
  209.2500    -9.9490     2.2360   393.1930    81.3830    18.3200    17.7760    22.7190    24.0610 
  209.3750   -10.0810     2.2330   392.5930    84.4240    17.3670    16.9110    21.0900    24.0560 
  209.5000   -10.2230     2.2310   393.0890    82.7890    16.6790    16.1760    19.8320    24.0230 
  209.6250   -10.4130     2.2300   394.5240    80.9210    16.4030    15.7150    19.0030    23.9910 
  209.7500   -10.6320     2.2280   396.0690    81.2440    16.4830    15.5790    18.7320    23.9590 
  209.8750   -10.8750     2.2260   397.1610    82.1650    16.8770    15.8200    19.5240    23.9240 
  210.0000   -11.1510     2.2250   397.4290    82.5340    17.5340    16.4560    21.5260    23.8590 
  210.1250   -11.4430     2.2240   396.7020    84.2260    18.4200    17.4770    23.9870    23.8260 
  210.2500   -11.7490     2.2250   395.4360    84.5760    19.3730    18.6670    26.4180    23.8120 
  210.3750   -12.0880     2.2270   393.9130    81.0370    20.2860    19.8240    28.6230    23.8090 
  210.5000   -12.4450     2.2320   392.2300    74.6770    21.1180    20.7630    30.5740    23.8080 
  210.6250   -12.8050     2.2400   389.8510    71.0840    21.7730    21.3860    31.6250    23.8060 
  210.7500   -13.1680     2.2520   386.1930    71.9040    22.3740    21.9140    32.1620    23.7990 
  210.8750   -13.5130     2.2630   381.7090    75.0220    23.1870    22.6590    32.5760    23.7870 
  211.0000   -13.8370     2.2710   378.1800    77.6250    24.6290    23.9540    33.8350    23.8100 
  211.1250   -14.1460     2.2720   378.0340    77.9650    26.6110    26.2020    37.4870    23.8440 
  211.2500   -14.4350     2.2670   380.3190    75.3190    29.4460    29.3390    43.7560    23.8900 
  211.3750   -14.6870     2.2590   382.7290    70.3940    33.4040    33.1950    51.6360    23.9500 
  211.5000   -14.9050     2.2520   383.5210    65.0050    37.4330    37.3550    59.2110    24.0230 
  211.6250   -15.1110     2.2500   382.8310    64.3050    41.1480    40.9910    64.4530    24.0520 
  211.7500   -15.3260     2.2510   382.1950    66.2680    43.1630    43.3300    66.9820    24.0410 
  211.8750   -15.5590     2.2530   382.1080    66.0670    44.1560    43.8660    67.8850    23.9960 
  212.0000   -15.7840     2.2550   382.4580    63.2830    43.6840    42.6040    66.0760    23.9300 
  212.1250   -16.0060     2.2550   383.0860    63.6850    41.5450    40.1500    61.1750    23.8910 
  212.2500   -16.2380     2.2560   383.5120    68.0250    39.2460    37.8850    54.3970    23.8950 
  212.3750   -16.4930     2.2580   383.4700    71.7440    37.7540    36.7690    49.1050    23.8710 
  212.5000   -16.7850     2.2600   384.0440    73.6480    37.4160    37.3870    48.5250    23.8580 
  212.6250   -17.0820     2.2590   387.7830    76.3960    38.5270    40.1830    55.6330    23.9090 
  212.7500   -17.3740     2.2530   394.2490    79.2240    41.4740    44.5410    66.6010    23.9380 
  212.8750   -17.6470     2.2440   401.0280    80.5850    47.2030    49.9400    78.2880    23.9850 
  213.0000   -17.9260     2.2340   405.4760    80.3420    56.4260    55.8040    86.6120    24.0130 
  213.1250   -18.1780     2.2270   406.5920    78.1640    68.7750    61.5470    87.5760    24.0400 
  213.2500   -18.3900     2.2220   406.3850    76.1280    81.0110    66.6930    85.8260    24.0500 
  213.3750   -18.5700     2.2200   405.7580    75.8110    89.4660    70.6310    84.5850    24.0510 
  213.5000   -18.6950     2.2200   404.3930    77.0010    92.5680    72.4360    83.9350    24.0350 
  213.6250   -18.7560     2.2230   400.5360    77.0130    87.2570    70.5210    82.1630    24.0010 
  213.7500   -18.7770     2.2310   393.3410    77.1040    77.3220    65.2300    77.2610    23.9240 
  213.8750   -18.7760     2.2440   382.6300    77.3230    65.8950    57.6530    64.9700    23.8000 
  214.0000   -18.7070     2.2650   369.7580    76.1100    53.5720    49.6290    47.2140    23.7120 
  214.1250   -18.5780     2.2890   358.5000    74.7630    45.3380    43.1660    35.7010    23.7510 
  214.2500   -18.4540     2.3120   352.1620    77.1910    40.8220    38.7620    33.6300    23.7790 
  214.3750   -18.3670     2.3300   351.5140    82.5300    38.8410    36.2880    35.6760    23.7550 
  214.5000   -18.3530     2.3380   354.8670    85.6940    38.3520    35.3600    40.0210    23.7130 
  214.6250   -18.4110     2.3360   359.9340    83.6090    38.7930    35.7020    43.5430    23.7240 
  214.7500   -18.4940     2.3260   365.5330    80.5120    39.6710    36.7010    45.8000    23.7920 
  214.8750   -18.6030     2.3090   371.9190    78.6970    40.7480    37.9790    47.1120    23.8780 
