~V
VERS. 2.00: Ver 2.00
~W
STRT.M 55.0000:
STOP.M 256.0000:
STEP.M 0.1250:
NULL. -999.2500:
UWI. DF327:
~C
DEPT.M :
SP.MV :
DEN.GM/CC :
AC.US/MT :
GR.API :
RML.OHMM :
RI. :
RXO.OHMM :
CALI.CM :
~A
# ...
  105.0000   -21.2340     2.1670   451.7510    70.1110     8.6390     8.1870    11.5590    23.7240 
  105.1250   -21.3330     2.1520   448.8570    73.0370     8.6260     8.1720    11.4500    23.7000 
  105.2500   -21.3870     2.1430   447.3470    73.0240     8.7390     8.2900    11.5140    23.6710 
  105.3750   -21.3810     2.1440   447.3230    70.9910     8.8990     8.4570    11.9660    23.6410 
  105.5000   -21.3130     2.1560   447.6910    69.0150     9.0420     8.6060    12.4100    23.6280 
  105.6250   -21.1850     2.1770   447.6720    67.3140     9.1270     8.6950    12.6400    23.6030 
  105.7500   -20.9780     2.1990   447.9830    67.9190     9.1660     8.7360    12.5570    23.6410 
  105.8750   -20.7200     2.2150   449.1790    68.8340     9.1780     8.7480    12.3160    23.6350 
  106.0000   -20.4470     2.2190   450.6880    67.4780     9.1790     8.7490    12.1880    23.5490 
  106.1250   -20.1890     2.2110   451.0290    66.2600     9.1670     8.7370    12.4530    23.4790 
  106.2500   -19.9220     2.1990   450.2280    68.9450     9.1360     8.7040    12.8940    23.4250 
  106.3750   -19.5950     2.1890   449.2700    73.1630     9.0880     8.6550    13.0660    23.3840 
  106.5000   -19.2140     2.1850   448.7420    73.8880     9.0460     8.6100    13.0970    23.3640 
  106.6250   -18.8260     2.1880   448.2090    72.8720     9.0550     8.6230    12.8790    23.4390 
  106.7500   -18.4300     2.1970   447.0500    73.1160     9.1520     8.7200    12.6720    23.5410 
  106.8750   -17.9640     2.2100   444.7630    73.6710     9.3380     8.9010    12.5990    23.6860 
  107.0000   -17.3770     2.2260   440.8460    74.3130     9.5490     9.1120    12.6710    23.7940 
  107.1250   -16.5730     2.2470   435.5300    75.0850     9.6560     9.2350    12.4510    23.7260 
  107.2500   -15.5730     2.2680   431.4800    76.8210     9.5080     9.1600    11.7540    23.5930 
  107.3750   -14.4040     2.2860   431.2000    80.2850     9.0390     8.8220    10.9160    23.5130 
  107.5000   -13.0980     2.2950   434.9890    86.7230     8.2840     8.2390    10.0070    23.5030 
  107.6250   -11.6990     2.2930   440.5340    95.8060     7.3830     7.5140     8.8410    23.5770 
  107.7500   -10.3180     2.2840   444.4810   103.4230     6.7050     6.8270     7.9550    23.7390 
  107.8750    -9.0560     2.2750   445.5860   108.8340     6.1540     6.2710     7.1710    23.9190 
  108.0000    -7.9710     2.2720   444.0000   111.6440     5.7420     5.8760     6.9600    24.0380 
  108.1250    -7.1610     2.2760   439.5360   111.3150     5.4750     5.6450     7.2960    24.0420 
  108.2500    -6.5700     2.2860   432.0140   110.7200     5.3540     5.5210     7.6000    24.0220 
  108.3750    -6.2090     2.3000   420.0320   111.8940     5.3860     5.4970     7.4590    24.0530 
  108.5000    -6.0490     2.3180   402.5600   112.6040     5.6370     5.5840     7.2690    24.0870 
  108.6250    -6.0130     2.3410   383.6330   110.2320     6.0110     5.8120     7.2680    24.0740 
  108.7500    -6.0270     2.3610   372.7070   109.3850     6.4880     6.1280     7.6910    24.0280 
  108.8750    -6.0410     2.3730   376.5330   111.3040     6.9210     6.4600     8.2890    23.9420 
  109.0000    -6.0300     2.3740   394.0480   111.2360     7.0850     6.7090     8.9210    23.8720 
  109.1250    -5.9910     2.3650   416.0970   108.1380     7.2200     6.7550     9.0300    23.8150 
  109.2500    -5.9450     2.3550   433.4120   108.9770     7.2170     6.6120     8.3600    23.7580 
  109.3750    -5.8810     2.3460   443.9920   113.9400     7.0970     6.3290     7.2020    23.7190 
  109.5000    -5.7740     2.3410   449.3140   118.3550     6.8800     5.9790     6.3400    23.7080 
  109.6250    -5.6400     2.3390   450.5450   119.3050     6.5400     5.6330     5.9360    23.7530 
  109.7500    -5.4720     2.3430   449.0370   117.5250     6.1230     5.3300     5.7710    23.8550 
  109.8750    -5.2720     2.3520   446.0370   116.8300     5.7990     5.0850     5.6510    24.0430 
  110.0000    -5.0720     2.3640   442.6430   120.8100     5.6030     4.8980     5.5110    24.2450 
  110.1250    -4.8870     2.3730   439.6800   125.5970     5.4680     4.7700     5.2930    24.3080 
  110.2500    -4.7390     2.3790   436.5700   125.1710     5.3830     4.6890     5.2080    24.2530 
  110.3750    -4.6330     2.3840   431.9250   121.3870     5.3530     4.6600     5.2240    24.1150 
  110.5000    -4.5960     2.3900   425.5080   121.1620     5.3860     4.6910     5.3370    24.0030 
  110.6250    -4.6540     2.3940   419.9250   126.1510     5.4810     4.7820     5.4850    23.9770 
  110.7500    -4.7850     2.3960   418.3200   129.5170     5.5970     4.8930     5.6720    23.9290 
  110.8750    -4.9850     2.3940   421.0390   128.6940     5.6950     4.9850     5.8850    23.8150 
  111.0000    -5.2250     2.3900   425.1860   126.6920     5.7470     5.0350     6.0410    23.7090 
  111.1250    -5.4570     2.3870   426.5110   127.4530     5.7560     5.0440     6.0360    23.6270 
  111.2500    -5.6610     2.3890   424.6570   127.3560     5.7680     5.0550     5.8540    23.5610 
  111.3750    -5.8430     2.3960   421.8240   124.6890     5.8150     5.1000     5.7380    23.5250 
  111.5000    -6.0000     2.4020   420.8280   122.8070     5.9010     5.1820     5.6820    23.5080 
  111.6250    -6.1140     2.4030   423.8530   123.6580     5.9910     5.2670     5.7380    23.4690 
  111.7500    -6.1800     2.3970   429.7970   124.4130     6.0350     5.3100     5.8210    23.4350 
  111.8750    -6.1860     2.3840   436.4280   124.2840     6.0090     5.2840     5.8360    23.4020 
  112.0000    -6.1400     2.3730   441.0040   124.5730     5.9130     5.1930     5.7680    23.3560 
  112.1250    -6.0590     2.3710   441.4530   123.6920     5.7730     5.0600     5.6880    23.3710 
  112.2500    -5.9570     2.3800   439.4790   123.2180     5.6300     4.9240     5.6110    23.4170 
  112.3750    -5.8500     2.3940   437.1630   125.3300     5.5060     4.8060     5.5740    23.4830 
  112.5000    -5.7620     2.4080   435.6340   126.8670     5.4060     4.7100     5.5930    23.5200 
  112.6250    -5.7100     2.4150   434.7070   124.7300     5.3230     4.6310     5.5970    23.5330 
  112.7500    -5.6730     2.4150   433.3850   123.7420     5.2330     4.5450     5.5090    23.5800 
  112.8750    -5.6690     2.4100   430.6160   127.5620     5.1120     4.4300     5.4180    23.6750 
  113.0000    -5.6880     2.4020   424.6890   131.3610     4.9440     4.2700     5.3590    23.8050 
  113.1250    -5.7400     2.3980   411.1410   129.7560     4.7390     4.0750     5.3670    23.8830 
  113.2500    -5.8260     2.4030   387.5140   126.8220     4.5750     3.9190     5.4140    23.9050 
  113.3750    -5.9430     2.4190   354.5190   126.6730     4.5480     3.8930     5.5970    23.8400 
  113.5000    -6.0850     2.4440   319.0270   128.2490     4.7530     4.0880     6.1740    23.7300 
  113.6250    -6.2230     2.4640   294.5490   126.1420     5.2940     4.6040     7.9200    23.6660 
  113.7500    -6.3600     2.4700   285.2750   117.7300     6.1170     5.3880    10.7810    23.6390 
  113.8750    -6.5060     2.4630   284.7700   105.6670     7.1840     6.4040    14.2980    23.6360 
  114.0000    -6.6890     2.4550   281.1940    94.8380     8.4820     7.6400    17.6400    23.6190 
  114.1250    -6.9240     2.4640   265.0910    89.4380    10.2190     9.2940    18.8540    23.5830 
  114.2500    -7.1930     2.4960   243.5970    86.5210    12.6990    11.6560    19.1020    23.5460 
  114.3750    -7.4710     2.5430   227.5320    82.6420    16.2900    15.0760    22.3240    23.5470 
  114.5000    -7.7210     2.5860   224.8000    76.4260    21.0800    19.6380    29.3760    23.6280 
  114.6250    -7.9710     2.6000   240.2160    68.0600    26.4700    24.7720    39.2350    23.7650 
  114.7500    -8.2550     2.5770   270.3900    61.9040    30.8540    28.9470    46.1640    23.8150 
  114.8750    -8.5530     2.5230   313.5270    60.5490    32.6730    30.6790    47.0940    23.7810 
