~V
VERS. 2.00: Ver 2.00
~W
STRT.M 60.0000:
STOP.M 229.0000:
STEP.M 0.1250:
NULL. -999.2500:
UWI. DF32026:
~C
DEPT.M :
SP.MV :
GR.API :
CALI.CM :
RXO.OHMM :
RI. :
RML.OHMM :
DEN.GM/CC :
~A
# ...
  161.2500    70.8700    73.0190    25.7030   141.0360   145.8140   151.2320     2.2140 
  161.3750    71.1700    73.9520    25.2880   150.3130   149.6170   155.3800     2.2050 
  161.5000    71.4860    70.2160    24.9400   164.5430   155.0260   161.4810     2.1950 
  161.6250    71.8080    69.0550    24.8040   177.6730   158.9950   166.6640     2.1890 
  161.7500    72.1360    70.9120    24.7840   182.9750   158.9440   168.3300     2.1870 
  161.8750    72.4590    71.1570    24.7670   176.4040   154.0120   165.2920     2.1910 
  162.0000    72.7790    69.8340    24.7540   163.0040   145.4530   158.1620     2.2020 
  162.1250    73.0990    70.8270    24.7410   149.5770   135.7430   148.8490     2.2180 
  162.2500    73.4200    73.8620    24.7360   138.0030   127.1270   139.8940     2.2340 
  162.3750    73.7310    74.3870    24.7340   127.4780   120.2400   132.3430     2.2390 
  162.5000    74.0170    71.1740    24.7230   120.5290   113.8370   125.3600     2.2300 
  162.6250    74.2740    70.3890    24.6900   117.4940   103.4120   114.5590     2.2150 
  162.7500    74.5180    73.2590    24.6510   111.9410    87.3280    97.7310     2.2040 
  162.8750    74.7520    76.0710    24.6330   105.0480    68.7290    77.5050     2.2070 
  163.0000    74.9450    76.6170    24.6210    94.0350    52.5200    59.1700     2.2290 
  163.1250    75.1050    75.9270    24.5920    73.8310    42.4290    47.4070     2.2680 
  163.2500    75.2250    75.5180    24.5860    54.6780    37.9100    42.0220     2.3120 
  163.3750    75.3140    75.3300    24.7160    46.2910    38.6900    42.8320     2.3320 
  163.5000    75.3960    73.8250    25.1150    52.5700    44.6610    49.6330     2.3200 
  163.6250    75.4750    70.7090    25.2330    75.2110    55.9160    61.8300     2.2840 
  163.7500    75.5360    67.9770    25.0280   103.6560    67.5420    73.5010     2.2460 
  163.8750    75.5930    67.1110    24.7560   116.5540    71.6770    77.1780     2.2310 
  164.0000    75.6710    65.8400    24.6980    98.7280    64.5290    69.9990     2.2450 
  164.1250    75.7700    63.0370    24.7950    63.1400    52.6080    57.9290     2.2790 
  164.2500    75.8990    61.4790    24.7620    38.7060    43.8070    48.7410     2.3160 
  164.3750    76.0330    61.1450    24.7490    32.5530    39.3930    44.1210     2.3340 
  164.5000    76.1710    61.2350    24.9170    40.0340    38.6210    43.4040     2.3290 
  164.6250    76.3280    60.5150    25.0080    49.4350    40.4740    45.4080     2.3040 
  164.7500    76.5090    59.5260    25.0950    52.9690    42.6970    47.6800     2.2770 
  164.8750    76.7140    59.2190    25.0030    52.3910    43.2850    48.0590     2.2710 
  165.0000    76.9330    60.6230    24.8920    49.5740    40.9360    45.1410     2.2880 
  165.1250    77.1510    64.9640    24.8410    41.1870    35.9310    39.2750     2.3150 
  165.2500    77.3630    69.4260    24.8080    32.8870    30.4420    32.8870     2.3430 
  165.3750    77.5940    71.1500    24.7120    27.2920    25.5860    27.2180     2.3740 
  165.5000    77.8300    69.6360    24.6210    23.0690    21.8610    22.8110     2.4070 
  165.6250    78.0570    67.1930    24.6900    19.6020    19.6990    20.1030     2.4350 
  165.7500    78.2660    65.6990    24.8580    17.5090    19.0010    18.9360     2.4450 
  165.8750    78.4480    65.9670    24.8080    16.4580    19.9920    19.4970     2.4260 
  166.0000    78.5980    67.9040    24.6700    17.1540    23.1290    22.2710     2.3860 
  166.1250    78.7370    68.9990    24.7030    26.5180    29.9500    29.1440     2.3350 
  166.2500    78.8850    67.7180    24.9160    54.1880    41.6080    41.6810     2.2870 
  166.3750    79.0470    64.4380    25.0680   105.6940    60.0210    61.6960     2.2490 
  166.5000    79.2080    60.3120    25.0760   163.0390    86.1980    88.7290     2.2190 
  166.6250    79.3720    56.1590    25.0170   194.3540   115.9580   116.3560     2.1980 
  166.7500    79.5500    53.5750    25.0000   202.2380   137.1310   134.9750     2.1860 
  166.8750    79.7470    53.5390    25.0080   198.7340   143.9120   141.3780     2.1910 
  167.0000    79.9770    56.5420    25.0340   186.4600   141.3390   139.4730     2.2060 
  167.1250    80.2490    61.1310    25.0450   167.3900   138.4520   136.4280     2.2260 
  167.2500    80.5470    63.3460    25.0080   149.0160   139.2340   136.5030     2.2590 
  167.3750    80.8600    62.7220    24.9490   139.7390   141.5950   138.3410     2.3330 
  167.5000    81.1670    61.2140    24.8490   155.9490   139.3030   136.8840     2.4470 
  167.6250    81.5050    58.9050    24.7170   198.4930   124.1460   124.6730     2.5690 
  167.7500    81.8280    55.3470    24.7990   202.9140   100.8400   103.6730     2.6590 
  167.8750    82.1430    52.7830    25.1640   147.0390    77.1810    80.0260     2.6990 
  168.0000    82.4350    53.3580    25.3980    76.1050    57.7270    59.2350     2.7120 
  168.1250    82.6850    55.5130    25.2660    43.4590    43.4750    43.8300     2.7110 
  168.2500    82.8810    55.6940    24.9230    32.8540    32.3990    32.1200     2.6990 
  168.3750    83.0350    54.4750    24.7420    30.4450    23.1460    23.5930     2.6910 
  168.5000    83.1800    53.7980    24.6360    26.8190    16.2270    16.7680     2.6930 
  168.6250    83.2790    54.5640    24.6400    18.9290    11.5160    11.8430     2.6910 
  168.7500    83.3660    56.2520    24.6840    11.3550     8.2450     8.4540     2.6690 
  168.8750    83.4210    57.3920    24.8270     7.3610     6.1050     6.3110     2.6310 
  169.0000    83.4420    57.3050    24.9990     5.9010     4.8060     5.1030     2.5950 
  169.1250    83.4240    56.8080    25.0510     5.2960     4.1880     4.6210     2.5640 
  169.2500    83.3930    57.6770    25.0340     4.8520     3.9660     4.5230     2.5280 
  169.3750    83.3440    59.3020    25.0160     4.6440     4.0180     4.6630     2.4840 
  169.5000    83.2650    59.9560    25.0110     4.7400     4.2430     4.9410     2.4380 
  169.6250    83.1660    61.4300    25.0170     4.9340     4.5550     5.2730     2.3960 
  169.7500    83.0520    63.3160    25.0310     5.1130     4.8470     5.5620     2.3670 
  169.8750    82.9100    63.3610    25.0490     5.2740     5.0530     5.7450     2.3650 
  170.0000    82.7710    61.1520    25.0680     5.4260     5.1550     5.8060     2.3810 
  170.1250    82.6290    58.9150    24.9910     5.5480     5.1730     5.7950     2.4010 
  170.2500    82.4870    57.6180    24.7570     5.6250     5.1710     5.8050     2.4150 
  170.3750    82.3320    55.7390    24.5040     5.7150     5.1720     5.8790     2.4230 
  170.5000    82.1610    52.4450    24.5750     5.8600     5.1820     6.0220     2.4280 
  170.6250    81.9610    50.3200    24.8680     5.9760     5.2030     6.2140     2.4340 
  170.7500    81.7280    50.5980    24.9910     6.0250     5.2270     6.4150     2.4480 
  170.8750    81.4850    51.9410    24.9980     6.0590     5.2480     6.5970     2.4640 
  171.0000    81.2090    53.4370    25.0120     6.1410     5.2650     6.7510     2.4780 
  171.1250    80.8950    55.5240    25.0350     6.2630     5.2800     6.8770     2.4790 
  171.2500    80.5350    57.0260    25.0520     6.3440     5.2980     6.9770     2.4630 
  171.3750    80.1430    56.7760    25.0550     6.4270     5.3270     7.0560     2.4430 
  171.5000    79.7450    57.2230    25.0500     6.5770     5.3900     7.1570     2.4280 
  171.6250    79.3090    62.5180    25.0240     6.8270     5.5430     7.3940     2.4250 
  171.7500    78.8670    72.1720    24.9840     7.0730     5.8060     7.8330     2.4360 
  171.8750    78.4200    85.3120    24.9580     7.4210     6.1780     8.4800     2.4480 
  172.0000    77.9640    98.6060    24.9890     8.1750     6.6070     9.2510     2.4510 
  172.1250    77.5400   103.8890    25.1410     9.3260     6.9870     9.9380     2.4430 
  172.2500    77.1380   101.0820    25.3320     9.9920     7.2380    10.3770     2.4350 
  172.3750    76.7900    97.5910    25.4600     9.7600     7.3430    10.5370     2.4360 
