~V
VERS. 2.00: Ver 2.00
~W
STRT.M 50.0000:
STOP.M 264.0000:
STEP.M 0.1250:
NULL. -999.2500:
UWI. DF32158:
~C
DEPT.M :
GR.API :
RML.OHMM :
RI. :
RXO.OHMM :
CALI.CM :
DEN.GM/CC :
SP.MV :
~A
# ...
  252.5000    77.1480    51.5490    55.8450    83.7620    24.5440     2.5290    -6.9100 
  252.6250    72.1580    33.0620    37.1350    28.4470    24.5340     2.5040    -6.3760 
  252.7500    62.7430    19.4000    26.8110    10.1140    24.3610     2.4690    -5.8820 
  252.8750    53.6170    11.7590    15.8690     5.5300    23.9330     2.4210    -5.4130 
  253.0000    49.2990     7.7350    10.1310     4.6290    23.5120     2.3690    -4.9890 
  253.1250    49.3530     5.9310     7.3970     4.5090    23.4540     2.3330    -4.6400 
  253.2500    50.1430     5.1150     5.9840     4.3700    23.5420     2.3210    -4.3470 
  253.3750    50.8130     4.8590     5.3660     4.3470    23.5900     2.3300    -4.1460 
  253.5000    49.8080     4.9230     5.2520     4.4190    23.5890     2.3510    -4.0570 
  253.6250    47.6070     5.1980     5.5180     4.6030    23.5880     2.3740    -4.0030 
  253.7500    46.9900     5.5950     6.0090     5.1370    23.6560     2.3900    -3.9960 
  253.8750    47.6120     6.1210     6.6950     6.3500    23.8590     2.3950    -4.1020 
  254.0000    47.7400     6.8110     7.5820     8.3100    24.1560     2.3860    -4.2430 
  254.1250    47.7400     7.7010     8.6960     9.6600    24.1370     2.3640    -4.4620 
  254.2500    47.7400     8.6960     9.9340    11.1400    23.9300     2.3420    -4.7850 
  254.3750    47.7400     9.6850    11.1590    13.5710    23.8770     2.3320    -5.1120 
  254.5000    47.7400    10.5480    12.2070    14.1320    24.0690     2.3410    -5.4670 
  254.6250    47.7400    11.1960    12.9100    14.6120    24.0790     2.3740    -5.9080 
  254.7500    47.7400    11.7140    13.3590    15.1510    23.9490     2.4180    -6.3230 
  254.8750    47.7400    12.2160    13.6840    15.3970    23.8560     2.4570    -6.7010 
  255.0000    47.7400    12.8070    14.0240    17.2540    23.9640     2.4790    -7.0450 
  255.1250    47.7400    13.5250    14.4790    20.3320    24.1840     2.4690    -7.2890 
  255.2500    47.7400    14.1930    14.9390    21.4940    24.3820     2.4350    -7.4320 
  255.3750    47.7400    14.5240    15.1570    19.0080    24.3480     2.3880    -7.4620 
  255.5000    47.7400    14.2540    14.8570    16.7600    24.1850     2.3460    -7.3820 
  255.6250    47.7400    13.2260    13.8440    19.3630    24.0160     2.3260    -7.1630 
  255.7500    47.7400    11.8490    12.4710    19.3920    23.9170     2.3330    -6.8990 
  255.8750    47.7400    10.5550    11.1460    13.5830    23.8180     2.3630    -6.5590 
  256.0000    47.7400     9.7250    10.2340     9.8750    23.7490     2.4040    -6.1690 
  256.1250    47.7400     9.7110    10.0720     8.4770    23.7260     2.4380    -5.8250 
  256.2500    47.7400    10.4320    10.6200     9.2440    23.7690     2.4550    -5.4920 
  256.3750    47.7400    11.7080    11.7690    11.9670    23.8610     2.4530    -5.2310 
  256.5000    47.7400    13.0530    13.1170    15.5070    23.9250     2.4410    -5.0510 
  256.6250    47.7400    13.4870    13.6860    15.6140    23.9010     2.4360    -4.9320 
  256.7500    47.7400    12.6320    12.9410    14.3180    23.7940     2.4430    -4.8460 
  256.8750    47.7400    10.8360    11.1580    11.8200    23.6460     2.4560    -4.7730 
  257.0000    47.7400     8.8850     9.1290     8.1580    23.5000     2.4630    -4.6810 
  257.1250    47.7400     7.5480     7.6260     6.4830    23.3830     2.4550    -4.5490 
  257.2500    47.7400     6.9540     6.8080     6.6600    23.4530     2.4350    -4.4000 
  257.3750    47.7400     7.0160     6.6280     8.3150    23.5980     2.4150    -4.2720 
  257.5000    47.7400     7.5210     6.9320    10.4850    23.6700     2.4010    -4.1530 
  257.6250    47.7400     8.1500     7.4900     9.7250    23.5550     2.3980    -4.0620 
  257.7500    47.7400     8.5450     7.9500     8.0240    23.2950     2.3980    -3.9980 
  257.8750    47.7400     8.5620     8.1090     6.9580    23.0410     2.3940    -3.9440 
  258.0000    47.7400     8.2520     7.9270     6.7650    22.8720     2.3800    -3.9170 
  258.1250    47.7400     7.7990     7.5030     7.1270    22.7840     2.3570    -3.8990 
  258.2500    47.7400     7.3980     7.0650     7.0850    22.7940     2.3350    -3.8920 
  258.3750    47.7400     7.1130     6.7300     6.2010    22.9460     2.3200    -3.8680 
  258.5000    47.7400     6.9460     6.5450     5.8330    23.1430     2.3160    -3.7930 
  258.6250    47.7400     6.8880     6.5010     6.7610    23.3530     2.3210    -3.6310 
  258.7500    47.7400     6.8940     6.5180     8.0550    23.5030     2.3320    -3.4310 
  258.8750    47.7400     6.9240     6.5510     8.0920    23.5700     2.3470    -3.2450 
  259.0000    47.7400     6.9460     6.5750     7.8400    23.6090     2.3650    -3.0860 
  259.1250    47.7400     6.9560     6.5860     8.3010    23.6480     2.3810    -2.9470 
  259.2500    47.7400     6.9660     6.5890    10.7700    23.7220     2.3870    -2.8420 
  259.3750    47.7400     6.9820     6.5810    13.5440    23.8390     2.3800    -2.7240 
  259.5000    47.7400     7.0050     6.5660    15.9600    23.8700     2.3620    -2.6310 
  259.6250    47.7400     7.0280     6.5510    14.2000    23.8460     2.3420    -2.5880 
  259.7500    47.7400     7.0440     6.5420    12.5620    23.7270     2.3280    -2.5410 
  259.8750    47.7400     7.0490     6.5400     9.9040    23.4910     2.3230    -2.4910 
  260.0000    47.7400     7.0490     6.5400     7.2160    23.1220     2.3250    -2.4180 
  260.1250    47.7400     7.0490     6.5400     5.9220    22.8000     2.3330    -2.3520 
  260.2500    47.7400     7.0490     6.5400     5.3590    22.5050     2.3460    -2.2690 
  260.3750    47.7400     7.0490     6.5400     5.2330    22.4030     2.3620    -2.1950 
  260.5000    47.7400     7.0490     6.5400     5.2340    22.5460     2.3750    -2.0860 
  260.6250    47.7400     7.0490     6.5400     5.3180    22.8120     2.3730    -1.8870 
  260.7500    47.7400     7.0490     6.5400     5.4010    22.9320     2.3570    -1.6880 
  260.8750    47.7400     7.0490     6.5400     5.6200    22.9570     2.3330    -1.5180 
  261.0000    47.7400     7.0490     6.5400     6.1180    22.9570     2.3100    -1.3510 
  261.1250    47.7400     7.0490     6.5400     6.6720    22.9570     2.3000    -1.1950 
  261.2500    47.7400     7.0490     6.5400     7.1670    22.9570     2.3020    -1.0360 
  261.3750    47.7400     7.0490     6.5400     6.5460    22.9570     2.3110    -0.8900 
  261.5000    47.7400     7.0490     6.5400     6.4060    22.9570     2.3280    -0.8620 
  261.6250    47.7400     7.0490     6.5400     6.3330    22.9610     2.3530    -0.8620 
  261.7500    47.7400     7.0490     6.5400     6.3090    22.9900     2.3800  -999.2500 
  261.8750    47.7400     7.0490     6.5400     6.7410    23.0660     2.4000  -999.2500 
  262.0000    47.7400     7.0490     6.5400     7.7600    23.1680     2.4010  -999.2500 
  262.1250    47.7400     7.0490     6.5400     9.6220    23.2710     2.3750  -999.2500 
  262.2500    47.7400     7.0490     6.5400    10.3510    23.3350     2.3350  -999.2500 
  262.3750    47.7400     7.0490     6.5400     9.5000    23.1350     2.2940  -999.2500 
  262.5000    47.7400     7.0490     6.5400     8.5600    22.9690     2.2650  -999.2500 
  262.6250    47.7400     7.0490     6.5400     8.7380    23.2380     2.2530  -999.2500 
  262.7500    47.7400     7.0490     6.5400     9.3820    23.5350     2.2500  -999.2500 
  262.8750    47.7400     7.0490     6.5400     9.8980    23.6130     2.2400  -999.2500 
  263.0000    47.7400     7.0490     6.5400    11.5020    23.5150     2.2120  -999.2500 
  263.1250    47.7400     7.0490     6.5400    13.3590    23.2320     2.1580  -999.2500 
  263.2500    47.7400     7.0490     6.5400    12.8940    22.1730     2.0910  -999.2500 
  263.3750    47.7400     7.0490     6.5400     9.3680    19.0400     2.0270  -999.2500 
  263.5000    47.7400     7.0490     6.5400     6.5240    13.7850     1.9800  -999.2500 
  263.6250    47.7400     7.0490     6.5400     5.6280     8.4830     1.9600  -999.2500 
