~V
VERS. 2.00: Ver 2.00
~W
STRT.M 55.0000:
STOP.M 256.0000:
STEP.M 0.1250:
NULL. -999.2500:
UWI. DF327:
~C
DEPT.M :
SP.MV :
DEN.GM/CC :
AC.US/MT :
GR.API :
RML.OHMM :
RI. :
RXO.OHMM :
CALI.CM :
~A
# ...
   95.0000   -20.9170     2.1830   452.4700    74.6470     7.9890     7.5390    12.9560    22.4280 
   95.1250   -20.5380     2.2070   448.4690    78.3640     7.9890     7.5090    12.8770    22.4570 
   95.2500   -19.9770     2.2280   444.5560    79.1690     8.0610     7.5840    12.9030    22.5440 
   95.3750   -19.2000     2.2410   442.6670    80.6940     8.1840     7.7130    13.0850    22.8030 
   95.5000   -18.2490     2.2460   443.3480    86.2630     8.2670     7.7990    13.5970    23.2550 
   95.6250   -17.1540     2.2430   445.6110    92.7120     8.2060     7.7350    13.6310    23.7830 
   95.7500   -16.0060     2.2370   447.5040    96.3040     8.0320     7.5540    12.6220    24.1280 
   95.8750   -14.8680     2.2300   448.5910    98.8450     7.8370     7.3510    11.3470    24.2950 
   96.0000   -13.7880     2.2250   449.4450   104.0840     7.7190     7.2280    10.3520    24.3120 
   96.1250   -12.8680     2.2270   450.3690   109.4840     7.7340     7.2440     9.6120    24.0850 
   96.2500   -12.1490     2.2380   450.8690   109.5280     7.8270     7.3410    10.0320    23.7750 
   96.3750   -11.6000     2.2580   450.7740   104.0620     7.9260     7.4440    11.1850    23.5890 
   96.5000   -11.1510     2.2840   450.8570    98.3050     7.9630     7.4820    12.0770    23.6080 
   96.6250   -10.7890     2.3070   452.5580    98.7450     7.8820     7.3980    11.3610    23.7150 
   96.7500   -10.4920     2.3190   455.5530   103.9730     7.7100     7.2180    10.0580    23.7160 
   96.8750   -10.2360     2.3200   458.3070   109.4200     7.4870     6.9870     9.1030    23.6930 
   97.0000   -10.0220     2.3110   459.2120   112.3030     7.2720     6.7620     8.3550    23.7140 
   97.1250    -9.8570     2.2960   457.4660   112.0230     7.1370     6.6220     7.8090    23.7540 
   97.2500    -9.7230     2.2810   454.2880   110.5850     7.1120     6.5960     7.7010    23.7950 
   97.3750    -9.6620     2.2690   450.4880   109.5600     7.2050     6.6920     7.9280    23.8340 
   97.5000    -9.6980     2.2590   446.4680   110.4810     7.4000     6.8960     8.2490    23.8660 
   97.6250    -9.8430     2.2530   443.0100   113.6070     7.6700     7.1770     8.6460    23.8530 
   97.7500   -10.0370     2.2510   440.7370   115.0930     7.9480     7.4660     9.0420    23.7400 
   97.8750   -10.2810     2.2500   439.3440   111.9210     8.1780     7.7060     9.4200    23.5780 
   98.0000   -10.5470     2.2520   437.8570   104.2580     8.3130     7.8470     9.6810    23.4560 
   98.1250   -10.7910     2.2560   435.2360    97.6880     8.3050     7.8390     9.6370    23.4470 
   98.2500   -10.9990     2.2590   431.5000    96.7550     8.1840     7.7120     9.6270    23.5380 
   98.3750   -11.2010     2.2610   426.8790   100.6580     7.9930     7.5130     9.7480    23.7600 
   98.5000   -11.4200     2.2630   421.2410   104.5950     7.8010     7.3130     9.8680    24.0290 
   98.6250   -11.6620     2.2640   415.6720   103.5850     7.7000     7.2080     9.8580    24.1450 
   98.7500   -11.9410     2.2630   414.0730   100.1330     7.7220     7.2310    10.0710    24.0840 
   98.8750   -12.2710     2.2560   420.1660    97.2220     7.8640     7.3790    10.5770    23.9150 
   99.0000   -12.6650     2.2430   433.7130    97.5740     8.0890     7.6140    11.3350    23.6830 
   99.1250   -13.1060     2.2270   447.7630    99.6460     8.3460     7.8810    12.2700    23.4990 
   99.2500   -13.5650     2.2130   455.6160    98.5390     8.5800     8.1250    13.1040    23.4150 
   99.3750   -13.9920     2.2060   457.1830    95.3260     8.7670     8.3200    13.4600    23.3800 
   99.5000   -14.3740     2.2040   455.8390    92.6300     8.8990     8.4570    13.5030    23.3430 
   99.6250   -14.7030     2.2050   454.3940    92.2890     8.9640     8.5250    13.6780    23.2940 
   99.7500   -14.9960     2.2070   452.8000    92.0590     8.9820     8.5430    13.9670    23.2690 
   99.8750   -15.2530     2.2090   450.8660    90.0770     8.9750     8.5360    14.1670    23.2720 
  100.0000   -15.4780     2.2120   449.1550    86.6400     8.9760     8.5380    14.1280    23.3060 
  100.1250   -15.7120     2.2140   448.4740    83.6730     9.0180     8.5820    13.8480    23.3540 
  100.2500   -15.9820     2.2150   448.4540    84.8120     9.0920     8.6590    13.5340    23.4150 
  100.3750   -16.3250     2.2150   448.2870    88.5190     9.1710     8.7410    13.5900    23.4590 
  100.5000   -16.7480     2.2140   447.5350    89.2480     9.2250     8.7970    14.0460    23.4930 
  100.6250   -17.2320     2.2130   446.7660    84.2270     9.2320     8.8050    14.4680    23.5380 
  100.7500   -17.7180     2.2130   446.5890    77.8890     9.2140     8.7850    14.3240    23.5950 
  100.8750   -18.1640     2.2140   446.6620    73.0330     9.1960     8.7660    14.0690    23.6440 
  101.0000   -18.5550     2.2150   445.8480    70.7060     9.1950     8.7660    14.0410    23.6990 
  101.1250   -18.8580     2.2160   442.7470    71.5420     9.2200     8.7920    14.2820    23.7220 
  101.2500   -19.0760     2.2150   438.1260    72.8720     9.2570     8.8310    14.5230    23.7090 
  101.3750   -19.2400     2.2120   433.5080    73.0490     9.2950     8.8690    14.7470    23.6460 
  101.5000   -19.3480     2.2080   430.9920    72.1450     9.3260     8.9020    14.8460    23.5660 
  101.6250   -19.4200     2.2060   433.1250    73.0600     9.3580     8.9360    14.7240    23.5380 
  101.7500   -19.4700     2.2040   438.7410    74.1000     9.4070     8.9870    14.4700    23.5970 
  101.8750   -19.5110     2.2040   444.8410    73.1370     9.4850     9.0680    14.2590    23.6400 
  102.0000   -19.5620     2.2040   446.8030    70.8420     9.5880     9.1750    14.0410    23.6320 
  102.1250   -19.6790     2.2010   442.1250    69.5110     9.6880     9.2790    13.7160    23.5880 
  102.2500   -19.8460     2.1970   437.9140    70.6840     9.7520     9.3450    13.4300    23.6100 
  102.3750   -20.0210     2.1940   439.1530    72.4760     9.7600     9.3540    13.3490    23.6780 
  102.5000   -20.1900     2.1930   445.0540    72.0770     9.7150     9.3070    13.2330    23.6860 
  102.6250   -20.3140     2.1930   451.0250    69.4050     9.6280     9.2170    13.0330    23.5530 
  102.7500   -20.4070     2.1920   454.7920    68.6980     9.5250     9.1100    12.9090    23.4110 
  102.8750   -20.4910     2.1880   456.6050    70.6900     9.4080     8.9880    12.8940    23.3100 
  103.0000   -20.5630     2.1790   455.1550    72.2640     9.2670     8.8400    12.9530    23.0790 
  103.1250   -20.5810     2.1640   449.3890    72.1260     9.0710     8.6360    12.8750    22.8820 
  103.2500   -20.5720     2.1460   440.2870    72.6240     8.8130     8.3680    12.6150    22.8070 
  103.3750   -20.5350     2.1330   426.2290    73.8570     8.5230     8.0650    12.2390    22.8380 
  103.5000   -20.4890     2.1390   401.9960    74.2660     8.2870     7.8200    11.9790    23.0090 
  103.6250   -20.4470     2.1880   359.5510    73.8190     8.3030     7.8370    11.8970    23.3480 
  103.7500   -20.4220     2.2750   310.9650    73.5030     8.6690     8.2170    12.1380    23.4680 
  103.8750   -20.4020     2.3790   279.3850    72.4310     9.3830     8.9620    12.5170    23.3220 
  104.0000   -20.3800     2.4580   285.8010    71.5790    10.3060     9.9220    12.8320    23.1560 
  104.1250   -20.3730     2.4630   333.1540    72.1910    11.1150    10.7660    13.0570    23.1540 
  104.2500   -20.3890     2.4070   388.0130    73.4440    11.5160    11.1830    12.8050    23.1970 
  104.3750   -20.4640     2.3290   427.5740    76.1800    11.3870    11.0490    12.4650    23.2730 
  104.5000   -20.5810     2.2630   446.3190    79.7880    10.8210    10.4590    12.2780    23.4000 
  104.6250   -20.7170     2.2240   451.7080    80.2010    10.0600     9.6660    12.1210    23.5300 
  104.7500   -20.8860     2.2010   453.8410    74.9950     9.3770     8.9560    11.9090    23.6420 
  104.8750   -21.0690     2.1840   453.9660    69.7490     8.8910     8.4490    11.7270    23.7210 
