~V
VERS. 2.00: Ver 2.00
~W
STRT.M 60.0000:
STOP.M 264.0000:
STEP.M 0.1250:
NULL. -999.2500:
UWI. DF32130:
~C
DEPT.M :
SP.MV :
GR.API :
CALI.CM :
RXO.OHMM :
RI. :
RML.OHMM :
DEN.GM/CC :
~A
# ...
  251.2500    -2.8730    89.6220    21.5050     6.9750     7.0800     8.1410     2.3390 
  251.3750    -2.5730    90.2540    21.5050     6.6310     6.8840     7.9440     2.3400 
  251.5000    -2.3120    89.9770    21.5050     6.2700     6.7210     7.8550     2.3390 
  251.6250    -2.1610    90.0810    21.5050     5.9650     6.6670     7.9080     2.3360 
  251.7500    -2.0250    91.3620    21.5050     5.8110     6.7230     8.0450     2.3330 
  251.8750    -1.9310    93.5160    21.5050     5.8360     6.8500     8.2180     2.3290 
  252.0000    -1.8610    94.5950    21.5050     6.0120     6.9680     8.3730     2.3270 
  252.1250    -1.8090    92.2220    21.5050     6.3600     6.9620     8.4020     2.3300 
  252.2500    -1.7510    88.8080    21.5050     6.7570     6.8090     8.2550     2.3380 
  252.3750    -1.6560    88.3830    21.5050     6.8460     6.5470     7.9610     2.3440 
  252.5000    -1.5250    90.8670    21.5050     6.4620     6.2660     7.6230     2.3450 
  252.6250    -1.3020    91.3480    21.4850     6.0310     6.0910     7.4040     2.3430 
  252.7500    -1.0830    87.2750    21.4310     6.0390     6.0860     7.3910     2.3410 
  252.8750    -0.8720    82.6610    21.3630     6.3820     6.2880     7.6290     2.3400 
  253.0000    -0.6890    81.8540    21.3250     6.8370     6.7010     8.1200     2.3380 
  253.1250    -0.5050    81.8540    21.2630     7.3060     7.3310     8.8250     2.3370 
  253.2500    -0.3810    81.8540    21.0960     7.8210     8.1100     9.6450     2.3380 
  253.3750    -0.3260    81.8540    20.8260     8.4600     8.9910    10.5710     2.3470 
  253.5000    -0.3230    81.8540    20.5230     9.1680     9.9160    11.5940     2.3630 
  253.6250    -0.4320    81.8540    20.3430     9.6180    10.7720    12.6050     2.3830 
  253.7500    -0.5760    81.8540    20.2000     9.9070    11.4140    13.3660     2.4030 
  253.8750    -0.7400    81.8540    20.1260    10.1740    11.6970    13.6190     2.4200 
  254.0000    -0.8970    81.8540    20.1020    10.1450    11.5060    13.1980     2.4260 
  254.1250    -1.0630    81.8540    20.1020     9.5850    10.7450    12.0800     2.4170 
  254.2500    -1.2110    81.8540    20.1020     8.7520     9.6680    10.7060     2.3990 
  254.3750    -1.3500    81.8540    20.1020     8.0650     8.5310     9.4360     2.3820 
  254.5000    -1.4580    81.8540    20.1020     7.5720     7.5710     8.4960     2.3690 
  254.6250    -1.5110    81.8540    20.1020     7.0070     6.9730     8.0020     2.3550 
  254.7500    -1.5370    81.8540    20.1020     6.3980     6.6800     7.7850     2.3420 
  254.8750    -1.5540    81.8540    20.1020     5.9830     6.5990     7.7100     2.3340 
  255.0000    -1.5680    81.8540    20.1020     5.9730     6.6190     7.6770     2.3290 
  255.1250    -1.5800    81.8540    20.1020     6.4770     6.6600     7.6520     2.3250 
  255.2500    -1.5430    81.8540    20.1020     7.2020     6.6920     7.6400     2.3240 
  255.3750    -1.4750    81.8540    20.1020     7.7390     6.7100     7.6450     2.3300 
  255.5000    -1.3730    81.8540    20.1020     7.8890     6.7120     7.6520     2.3390 
  255.6250    -1.2310    81.8540    20.1020     7.9160     6.7100     7.6530     2.3520 
  255.7500    -1.0490    81.8540    20.1020     8.2800     6.7110     7.6640     2.3730 
  255.8750    -0.7990    81.8540    20.1020     8.7800     6.7070     7.6860     2.4060 
  256.0000    -0.4820    81.8540    20.1020     8.8570     6.6940     7.7020     2.4330 
  256.1250    -0.1020    81.8540    20.1020     8.2640     6.6740     7.6870     2.4360 
  256.2500     0.2990    81.8540    20.1020     7.1930     6.6510     7.6510     2.4150 
  256.3750     0.6820    81.8540    20.1020     6.2070     6.6390     7.6110     2.3880 
  256.5000     1.0370    81.8540    20.1020     5.6700     6.6470     7.5820     2.3750 
  256.6250     1.3270    81.8540    20.1000     5.5480     6.6700     7.5790     2.3730 
  256.7500     1.5980    81.8540    20.0550     5.5420     6.6830     7.5920     2.3740 
  256.8750     1.7920    81.8540    19.8870     5.5380     6.6820     7.6130     2.3700 
  257.0000     1.9150    81.8540    19.5510     5.5200     6.6760     7.6370     2.3690 
  257.1250     1.9140    81.8540    19.3150     5.5370     6.6660     7.6480     2.3730 
  257.2500     1.8030    81.8540    19.2190     5.6000     6.6500     7.6410     2.3780 
  257.3750     1.6450    81.8540    19.1700     5.6900     6.6310     7.6240     2.3790 
  257.5000     1.4270    81.8540    19.0850     5.7810     6.6170     7.6170     2.3760 
  257.6250     1.2180    81.8540    19.0380     5.9270     6.6160     7.6350     2.3690 
  257.7500     1.0400    81.8540    19.0210     6.2130     6.6320     7.6830     2.3590 
  257.8750     0.8980    81.8540    18.9940     6.6590     6.6620     7.7520     2.3540 
  258.0000     0.8050    81.8540    18.8990     7.1250     6.7060     7.8200     2.3640 
  258.1250     0.7810    81.8540    18.6530     7.3750     6.7500     7.8530     2.3910 
  258.2500     0.7930    81.8540    18.2620     7.3370     6.7760     7.8510     2.4250 
  258.3750     0.7920    81.8540    17.6210     7.0690     6.7670     7.8200     2.4470 
  258.5000     0.7930    81.8540    16.8290     6.5800     6.7200     7.7800     2.4510 
  258.6250     0.8140    81.8540    16.2330     6.0970     6.6710     7.7530     2.4360 
  258.7500     0.8300    81.8540    15.7330     5.5690     6.6450     7.7390     2.4070 
  258.8750     0.8310    81.8540    15.4490     5.2880     6.6450     7.7390     2.3610 
  259.0000     0.7630    81.8540    15.3040     5.1850     6.6450     7.7390     2.2910 
  259.1250     0.7140    81.8540    15.1380     5.0890     6.6450     7.7390     2.1760 
  259.2500     0.6830    81.8540    14.3350     4.8830     6.6450     7.7390     2.0170 
  259.3750     0.6990    81.8540    12.8270     4.6970     6.6450     7.7390     1.8850 
  259.5000     0.6960    81.8540    11.3480     4.6090     6.6450     7.7390     1.7750 
  259.6250     0.6450    81.8540    10.6760     4.5920     6.6450     7.7390     1.7300 
  259.7500     0.5980    81.8540    10.6260     4.5970     6.6450     7.7390     1.7240 
  259.8750     0.5920    81.8540    10.6260     4.5980     6.6450     7.7390     1.7270 
  260.0000     0.6410    81.8540    10.6260     4.5970     6.6450     7.7390     1.7260 
  260.1250     0.6440    81.8540    10.6260     4.5960     6.6450     7.7390     1.7250 
  260.2500     0.6470    81.8540    10.6260     4.5950     6.6450     7.7390     1.7250 
  260.3750     0.6310    81.8540    10.6260     4.5960     6.6450     7.7390     1.7280 
  260.5000     0.6710    81.8540    10.6260     4.5980     6.6450     7.7390     1.7350 
  260.6250     0.6880    81.8540    10.6260     4.5980     6.6450     7.7390     1.7410 
  260.7500     0.7200    81.8540    10.6260     4.5980     6.6450     7.7390     1.7440 
  260.8750     0.7290    81.8540    10.6260     4.5960     6.6450     7.7390     1.7430 
  261.0000     0.7440    81.8540    10.6260     4.5950     6.6450     7.7390     1.7380 
  261.1250  -999.2500    81.8540    10.6260     4.5950     6.6450     7.7390     1.7300 
  261.2500  -999.2500    81.8540    10.6260     4.5950     6.6450     7.7390     1.7210 
  261.3750  -999.2500    81.8540    10.6260     4.5950     6.6450     7.7390     1.7150 
  261.5000  -999.2500    81.8540    10.6260     4.5950     6.6450     7.7390     1.7160 
  261.6250  -999.2500    81.8540    10.6260     4.5940     6.6450     7.7390     1.7210 
  261.7500  -999.2500    81.8540    10.6260     4.5950     6.6450     7.7390     1.7230 
  261.8750  -999.2500    81.8540    10.6250     4.5960     6.6450     7.7390     1.7230 
  262.0000  -999.2500    81.8540    10.6220     4.5970     6.6450     7.7390     1.7260 
  262.1250  -999.2500    81.8540    10.6230     4.5970     6.6450     7.7390     1.7320 
  262.2500  -999.2500    81.8540    10.6230     4.5960     6.6450     7.7390     1.7360 
  262.3750  -999.2500    81.8540    10.6230     4.5940     6.6450     7.7390     1.7330 
