~V
VERS. 2.00: Ver 2.00
~W
STRT.M 53.0000:
STOP.M 258.0000:
STEP.M 0.1250:
NULL. -999.2500:
UWI. DF32102:
~C
DEPT.M :
SP.MV :
GR.API :
RML.OHMM :
RI. :
RXO.OHMM :
CALI.CM :
DEN.GM/CC :
~A
# ...
   86.7500   -28.6770    56.2710     9.4050     7.5310     8.8450    24.6320     2.2360 
   86.8750   -27.8100    59.1910     8.7980     7.0440     7.8400    24.7440     2.2400 
   87.0000   -27.0720    66.0910     8.1880     6.5220     7.2600    24.8010     2.2430 
   87.1250   -26.5990    72.4060     7.6940     6.0640     7.2320    24.8980     2.2510 
   87.2500   -26.4340    76.4650     7.3530     5.7240     6.4580    24.9860     2.2640 
   87.3750   -26.5620    77.8390     7.1660     5.5220     6.1260    25.0300     2.2800 
   87.5000   -26.8890    76.3080     7.1070     5.4510     6.2210    25.0330     2.2930 
   87.6250   -27.3970    73.5400     7.1720     5.5100     6.1830    25.0370     2.2960 
   87.7500   -28.0300    73.3250     7.3410     5.6680     6.3190    25.0450     2.2910 
   87.8750   -28.6770    75.5640     7.6190     5.9150     6.4640    25.0180     2.2790 
   88.0000   -29.3180    76.8040     7.9920     6.2370     6.8570    24.9530     2.2630 
   88.1250   -29.8030    73.7530     8.3970     6.5880     7.3790    24.9120     2.2440 
   88.2500   -30.1330    68.4640     8.7170     6.8850     7.7970    24.9700     2.2270 
   88.3750   -30.3530    63.9230     8.8530     7.0470     8.0220    24.9890     2.2170 
   88.5000   -30.3740    62.1480     8.7520     7.0200     8.0970    24.8900     2.2180 
   88.6250   -30.3420    63.7440     8.4140     6.7750     8.1440    24.6910     2.2340 
   88.7500   -30.3130    67.5900     7.9800     6.4130     7.7190    24.5290     2.2630 
   88.8750   -30.3620    71.2210     7.5570     6.0160     7.1050    24.4740     2.2960 
   89.0000   -30.6910    73.2180     7.2320     5.6670     6.6870    24.4940     2.3230 
   89.1250   -31.2440    75.6180     7.0940     5.4500     7.0300    24.5760     2.3310 
   89.2500   -31.9790    79.3750     7.1440     5.3880     6.6870    24.6080     2.3200 
   89.3750   -32.8610    80.5330     7.3970     5.5030     6.6100    24.4850     2.2970 
   89.5000   -33.8410    75.4240     7.8610     5.8110     7.4580    24.2500     2.2750 
   89.6250   -34.7400    66.8590     8.5460     6.3360     9.0770    24.1010     2.2670 
   89.7500   -35.5680    60.1350     9.3500     6.9980     9.8520    24.0480     2.2690 
   89.8750   -36.3050    57.7050    10.1580     7.7120    10.8590    24.0860     2.2740 
   90.0000   -36.7650    59.6160    10.8300     8.3620    12.5910    24.1780     2.2720 
   90.1250   -37.1110    62.2570    11.1840     8.7950    14.3830    24.2180     2.2560 
   90.2500   -37.3260    61.8980    11.2320     8.9820    14.4990    24.1390     2.2350 
   90.3750   -37.3900    59.8880    11.0550     8.9590    12.5950    23.9680     2.2170 
   90.5000   -37.4060    58.7220    10.7830     8.8100    11.2400    23.8050     2.2090 
   90.6250   -37.4500    58.0790    10.5520     8.6400    11.0870    23.7530     2.2110 
   90.7500   -37.4180    57.9190    10.4210     8.5210    11.2960    23.8310     2.2140 
   90.8750   -37.2950    59.9770    10.3870     8.4700    11.5470    23.9560     2.2140 
   91.0000   -37.2530    63.4110    10.4060     8.4650    11.3850    24.0440     2.2100 
   91.1250   -37.1160    63.6140    10.4140     8.4660    10.6280    24.1370     2.2050 
   91.2500   -36.9940    60.4050    10.3750     8.4400    10.4570    24.2140     2.2020 
   91.3750   -36.9090    57.4050    10.2900     8.3840    10.6990    24.2440     2.2030 
   91.5000   -36.8020    57.6130    10.1870     8.3140    10.9340    24.2250     2.2070 
   91.6250   -36.8050    59.9880    10.1070     8.2590    11.0270    24.2310     2.2110 
   91.7500   -36.7770    61.4590    10.0730     8.2380    10.9910    24.2560     2.2140 
   91.8750   -36.7680    60.8460    10.0850     8.2530    11.0380    24.2640     2.2170 
   92.0000   -36.7710    58.6960    10.1320     8.3020    11.3080    24.3000     2.2210 
   92.1250   -36.7350    57.4650    10.2020     8.3790    11.9870    24.4430     2.2250 
   92.2500   -36.7200    59.3580    10.2770     8.4680    12.3880    24.5840     2.2260 
   92.3750   -36.6450    63.0660    10.3390     8.5520    12.8830    24.6460     2.2230 
   92.5000   -36.5150    64.2800    10.3670     8.6090    13.8070    24.6630     2.2200 
   92.6250   -36.3690    62.7260    10.3240     8.6050    13.3530    24.6780     2.2220 
   92.7500   -36.2960    61.6030    10.2010     8.5280    12.6540    24.6920     2.2280 
   92.8750   -36.2500    63.5400    10.0020     8.3780    11.9910    24.6870     2.2340 
   93.0000   -36.2350    67.4820     9.7560     8.1780    11.2340    24.6930     2.2350 
   93.1250   -36.3080    70.0510     9.5220     7.9710    10.4440    24.7940     2.2290 
   93.2500   -36.3170    71.0660     9.3450     7.8000     9.8560    25.0540     2.2220 
   93.3750   -36.3810    71.4080     9.2380     7.6830     9.5820    25.3990     2.2190 
   93.5000   -36.4970    72.9480     9.1790     7.6100     9.6130    25.7120     2.2220 
   93.6250   -36.4880    72.7430     9.1180     7.5510     9.7490    25.7640     2.2280 
   93.7500   -36.4760    68.4230     9.0160     7.4690     9.6950    25.6520     2.2350 
   93.8750   -36.4730    63.6220     8.8720     7.3570     9.3790    25.4590     2.2420 
   94.0000   -36.4610    61.8780     8.7140     7.2260     8.9590    25.2540     2.2410 
   94.1250   -36.4680    62.4100     8.6000     7.1140     8.8360    24.9570     2.2210 
   94.2500   -36.5220    62.0330     8.5600     7.0530     8.7840    24.7390     2.1810 
   94.3750   -36.6070    61.1210     8.6010     7.0570     8.9080    24.6700     2.1310 
   94.5000   -36.7170    59.7510     8.7070     7.1210     9.1310    24.6860     2.0910 
   94.6250   -36.9900    57.8710     8.8550     7.2370     9.4310    24.6820     2.0860 
   94.7500   -37.2480    57.6310     9.0190     7.3780     9.7440    24.5420     2.1130 
   94.8750   -37.6020    59.7130     9.1900     7.5300     9.9700    24.2880     2.1550 
   95.0000   -38.0420    62.3150     9.3640     7.6810    10.1950    24.0970     2.1930 
   95.1250   -38.4230    62.7200     9.5280     7.8150    10.5570    24.1710     2.2090 
   95.2500   -38.8720    61.9670     9.6610     7.9210    11.0200    24.6240     2.2080 
   95.3750   -39.2750    60.0770     9.7410     7.9880    11.3160    25.4350     2.2000 
   95.5000   -39.5920    57.2780     9.7590     8.0130    11.4980    26.2450     2.1860 
   95.6250   -39.8330    55.9450     9.7370     8.0170    11.7820    26.5100     2.1600 
   95.7500   -40.0290    56.1450     9.7540     8.0540    12.0990    26.5740     2.1220 
   95.8750   -40.0270    55.8840     9.9120     8.2010    12.5150    26.7390     2.0860 
   96.0000   -39.8180    54.0360    10.3080     8.5400    12.7510    27.0170     2.0740 
   96.1250   -39.6320    54.3210    11.0170     9.1560    12.6880    26.9290     2.0790 
   96.2500   -39.3210    56.9500    11.8800     9.9480    14.3390    26.0960     2.1060 
   96.3750   -39.0230    56.8760    12.6670    10.7480    20.2140    24.9060     2.1570 
   96.5000   -38.8240    54.4850    13.1050    11.3260    35.3780    24.1860     2.2280 
   96.6250   -38.5370    55.5900    12.8990    11.3910    46.0900    24.0450     2.2970 
   96.7500   -38.3320    59.2390    12.2010    10.9810    35.4680    23.9820     2.3420 
   96.8750   -38.2420    61.1720    11.2910    10.2660    20.5130    23.8670     2.3400 
   97.0000   -38.2320    60.4850    10.4990     9.5020    13.1890    23.7390     2.3170 
   97.1250   -38.1810    60.2910    10.1040     8.9590    11.5760    23.6270     2.2690 
   97.2500   -38.1620    60.8760    10.0490     8.6850    11.5140    23.5920     2.2190 
   97.3750   -38.1280    61.4400    10.1780     8.6160    11.6480    23.7160     2.1930 
   97.5000   -37.9750    60.5640    10.2700     8.6070    11.9500    23.9330     2.1850 
   97.6250   -37.7980    57.9420    10.0660     8.4560    12.4960    24.0660     2.1800 
   97.7500   -37.6000    56.9350     9.5490     8.0890    12.7780    24.1370     2.1780 
   97.8750   -37.4750    59.2230     8.8420     7.5500    11.7970    24.2050     2.1830 
