~V
VERS. 2.00: Ver 2.00
~W
STRT.M 60.0000:
STOP.M 227.0000:
STEP.M 0.1250:
NULL. -999.2500:
UWI. DF32025:
~C
DEPT.M :
DEN.GM/CC :
GR.API :
RML.OHMM :
RI. :
RXO.OHMM :
CALI.CM :
SP.MV :
~A
# ...
  161.2500     2.2040    58.0250   209.8540   195.0910   163.4060    24.2120   -18.0760 
  161.3750     2.2010    53.6990   208.2740   199.0990   202.5810    24.2050   -17.8950 
  161.5000     2.2020    51.1000   194.1970   192.1690   224.2230    24.1830   -17.7670 
  161.6250     2.2090    52.7470   164.7880   169.1410   224.2950    24.1680   -17.5280 
  161.7500     2.2190    56.4970   130.0240   137.3420   211.6360    24.1110   -17.3710 
  161.8750     2.2300    58.8970    98.7910   105.2820   141.7160    23.9610   -17.2130 
  162.0000     2.2390    59.8920    75.9310    79.7340    71.1420    23.7190   -17.0780 
  162.1250     2.2420    63.2370    63.1800    64.5880    47.6560    23.4470   -17.0350 
  162.2500     2.2370    67.5840    57.5810    57.3780    39.5460    23.1310   -16.8700 
  162.3750     2.2250    68.2060    58.0790    56.8000    33.3900    22.8030   -16.8200 
  162.5000     2.2080    64.9040    64.1390    62.0760    26.4980    22.5170   -16.6690 
  162.6250     2.1920    62.0390    76.1830    73.4500    31.9690    22.4110   -16.6790 
  162.7500     2.1770    60.5030    92.4600    88.9240    35.8500    22.3920   -16.6200 
  162.8750     2.1660    59.7130   112.0220   106.7850    40.1300    22.4640   -16.6020 
  163.0000     2.1600    60.0350   132.9310   124.9580    52.8020    22.7040   -16.6260 
  163.1250     2.1590    61.1880   152.6810   141.3160    76.9730    23.1560   -16.5630 
  163.2500     2.1620    61.6930   169.9190   155.6960   100.0250    23.5670   -16.6780 
  163.3750     2.1660    60.1830   185.1040   169.0990   116.2200    23.7750   -16.7240 
  163.5000     2.1700    57.9090   198.2410   182.8860   127.8830    23.8180   -16.8700 
  163.6250     2.1720    55.7150   211.9560   197.4770   139.7710    23.7960   -16.9720 
  163.7500     2.1730    53.8610   226.8160   210.8750   151.2740    23.7640   -17.0840 
  163.8750     2.1730    53.3670   242.5040   219.9100   162.8540    23.7310   -17.2040 
  164.0000     2.1730    54.2110   249.1170   221.4930   175.3020    23.6750   -17.2730 
  164.1250     2.1750    54.7690   243.0540   213.5510   170.6760    23.5860   -17.4100 
  164.2500     2.1790    54.5190   230.2890   200.9860   157.3180    23.4960   -17.4190 
  164.3750     2.1840    55.4240   217.7410   189.2010   135.4640    23.4380   -17.4380 
  164.5000     2.1900    57.7190   210.9540   182.8520   113.4800    23.4680   -17.4190 
  164.6250     2.2000    58.6280   212.3660   184.7920    99.5200    23.4570   -17.3740 
  164.7500     2.2130    56.4570   216.7540   190.9640   118.9730    23.3140   -17.3340 
  164.8750     2.2240    52.2940   217.3730   195.6240   121.9090    23.0740   -17.2670 
  165.0000     2.2290    50.1240   207.3720   192.3290   107.5130    22.8550   -17.1390 
  165.1250     2.2210    51.3100   181.4280   174.8030    95.6810    22.7280   -17.0840 
  165.2500     2.2060    52.8490   146.4770   146.7380    89.6780    22.7810   -16.9650 
  165.3750     2.1960    53.2430   110.6720   114.0550    83.3440    23.0310   -16.8870 
  165.5000     2.2040    53.2320    80.3870    83.3300    70.8050    23.3480   -16.7540 
  165.6250     2.2440    54.5120    59.0350    59.9610    60.3510    23.5100   -16.6000 
  165.7500     2.3100    54.9980    44.2680    43.4530    48.1520    23.5660   -16.4580 
  165.8750     2.3910    53.9110    34.5000    32.5560    32.0840    23.5720   -16.2750 
  166.0000     2.4670    51.5440    28.3960    25.8040    20.7460    23.5540   -16.1680 
  166.1250     2.5160    50.0450    25.3330    22.3340    15.8590    23.5160   -15.9030 
  166.2500     2.5290    50.7610    24.2820    20.8650    15.1890    23.5090   -15.7930 
  166.3750     2.5050    53.3650    25.1250    21.1720    16.6450    23.5000   -15.6330 
  166.5000     2.4500    55.8010    28.0980    23.3990    18.6550    23.4880   -15.5400 
  166.6250     2.3750    55.4280    34.0630    28.2520    19.6520    23.4820   -15.4460 
  166.7500     2.3090    53.5220    42.5640    35.3150    22.1170    23.4940   -15.3200 
  166.8750     2.2720    51.6880    52.5410    43.6980    29.1650    23.5240   -15.2480 
  167.0000     2.2770    51.0250    61.7560    51.5480    46.6670    23.5450   -15.1240 
  167.1250     2.3270    51.4440    66.1830    55.5920    66.1730    23.5210   -15.0760 
  167.2500     2.3970    51.9270    64.2400    54.5340    73.7930    23.4300   -14.9170 
  167.3750     2.4660    51.5570    56.7570    48.8470    65.6060    23.3200   -14.7630 
  167.5000     2.5190    51.7850    46.9150    40.7920    49.3240    23.2080   -14.5390 
  167.6250     2.5540    54.0100    38.2510    33.1880    36.9380    23.1610   -14.3390 
  167.7500     2.5800    54.0650    31.7850    27.2760    26.5810    23.1160   -14.1200 
  167.8750     2.6030    49.9000    27.2500    23.0320    18.6040    23.0960   -13.8930 
  168.0000     2.6240    46.8880    24.0740    20.0460    15.0760    23.2450   -13.6410 
  168.1250     2.6370    50.3450    21.8000    17.9210    16.3360    23.6920   -13.4230 
  168.2500     2.6370    55.1540    19.7410    16.1000    17.4540    24.0940   -13.1740 
  168.3750     2.6150    58.5460    17.5960    14.3210    17.3300    24.2260   -12.9710 
  168.5000     2.5720    61.3280    15.0900    12.4620    17.0810    24.1420   -12.7750 
  168.6250     2.5180    62.0410    12.3590    10.5600    18.5060    23.9780   -12.5730 
  168.7500     2.4720    58.5540     9.5340     8.7770    14.8470    23.9070   -12.4080 
  168.8750     2.4430    52.3510     6.9790     7.2560     8.4320    23.8900   -12.2300 
  169.0000     2.4320    47.7620     5.5160     6.0780     5.5890    23.8960   -12.1460 
  169.1250     2.4310    47.0080     5.0440     5.2980     5.2200    23.9110   -11.9520 
  169.2500     2.4290    47.6360     4.8040     4.7960     4.9880    23.9020   -11.8990 
  169.3750     2.4200    47.3940     4.7010     4.4880     4.5770    23.8180   -11.8000 
  169.5000     2.4050    46.4780     4.6490     4.2860     4.2430    23.6740   -11.7310 
  169.6250     2.3840    47.1600     4.5810     4.1200     4.3340    23.6020   -11.7250 
  169.7500     2.3590    48.8000     4.4850     3.9490     4.5260    23.5730   -11.6850 
  169.8750     2.3330    50.7360     4.4010     3.7920     4.5310    23.5770   -11.7100 
  170.0000     2.3120    51.7460     4.3840     3.6870     4.0750    23.5850   -11.6450 
  170.1250     2.2990    51.5040     4.5140     3.7000     3.3960    23.5880   -11.7280 
  170.2500     2.2920    49.8040     4.7850     3.8350     3.7450    23.5880   -11.7430 
  170.3750     2.2900    48.1090     5.1630     4.0780     4.3530    23.5860   -11.8000 
  170.5000     2.2890    47.3930     5.5570     4.3670     4.6500    23.5780   -11.8650 
  170.6250     2.2920    47.2760     5.9160     4.6670     4.6590    23.5750   -11.9140 
  170.7500     2.3000    46.2600     6.2350     4.9580     4.7040    23.5610   -12.0360 
  170.8750     2.3160    43.9300     6.5500     5.2550     4.8540    23.5570   -12.1860 
  171.0000     2.3370    40.4100     6.7540     5.4580     5.1770    23.5570   -12.3960 
  171.1250     2.3600    39.1690     6.8800     5.5730     5.5170    23.5580   -12.6460 
  171.2500     2.3810    41.5830     6.9800     5.6480     5.6630    23.5580   -12.9210 
  171.3750     2.3980    46.3150     7.0700     5.7060     5.6650    23.5580   -13.2420 
  171.5000     2.4130    50.9380     7.1630     5.7610     5.6480    23.5580   -13.6410 
  171.6250     2.4300    56.2060     7.2880     5.8370     5.7790    23.5580   -14.0590 
  171.7500     2.4480    63.6460     7.4810     5.9590     5.9710    23.5580   -14.5870 
  171.8750     2.4640    72.1800     7.7710     6.1500     6.1840    23.5590   -15.0970 
  172.0000     2.4730    78.7890     8.1670     6.4220     6.4350    23.5680   -15.7350 
  172.1250     2.4720    82.0360     8.6520     6.7750     6.7510    23.6010   -16.3150 
  172.2500     2.4600    83.6940     9.1420     7.1540     7.6060    23.6700   -16.9830 
  172.3750     2.4430    84.2970     9.5620     7.5070     8.6390    23.8030   -17.6510 
