~V
VERS. 2.00: Ver 2.00
~W
STRT.M 62.0000:
STOP.M 243.0000:
STEP.M 0.1250:
NULL. -999.2500:
UWI. DF32072:
~C
DEPT.M :
SP.MV :
GR.API :
CALI.CM :
RXO.OHMM :
RI. :
RML.OHMM :
DEN.GM/CC :
~A
# ...
  118.2500   -29.1430    88.2910    24.6390     4.8950     4.5320     5.3050     2.2990 
  118.3750   -29.3180    90.0970    24.7800     4.9270     4.4680     5.2840     2.2920 
  118.5000   -29.4810    92.2960    24.8490     4.9960     4.4160     5.2800     2.2840 
  118.6250   -29.6440    93.3850    24.8940     4.9860     4.3710     5.2670     2.2840 
  118.7500   -29.8530    95.0400    24.9090     5.0250     4.3470     5.2410     2.2880 
  118.8750   -30.1130    96.3090    24.8550     5.2090     4.3990     5.2630     2.2900 
  119.0000   -30.3170    93.1290    24.6870     5.4960     4.6320     5.4660     2.2910 
  119.1250   -30.5640    84.7610    24.4190     5.9240     5.2530     6.1110     2.3130 
  119.2500   -30.7960    79.4040    24.2580     7.0940     6.3500     7.3230     2.3700 
  119.3750   -30.9910    77.4940    24.2610    10.6980     7.9880     9.2050     2.4470 
  119.5000   -31.2080    75.9200    24.3650    17.9420    10.0720    11.6610     2.4950 
  119.6250   -31.4500    75.3370    24.4110    24.6570    12.0700    13.9790     2.4660 
  119.7500   -31.6470    77.2210    24.3820    25.3020    13.2170    15.0990     2.3810 
  119.8750   -31.7840    81.3120    24.2930    21.4090    13.1980    14.6940     2.2850 
  120.0000   -31.9640    82.6840    24.1230    16.8610    12.3330    13.3790     2.2130 
  120.1250   -32.0710    78.8580    23.8800    13.2210    11.2710    12.0910     2.1870 
  120.2500   -32.1710    75.6660    23.6240    10.5890    10.4790    11.2960     2.1890 
  120.3750   -32.2900    76.4530    23.4010     9.3320    10.0480    11.0080     2.1990 
  120.5000   -32.3180    78.4120    23.2240     8.8980     9.9060    11.0680     2.2010 
  120.6250   -32.3160    76.8410    23.2350     8.6910     9.9280    11.2600     2.1980 
  120.7500   -32.3330    76.1340    23.5260     8.4960     9.9540    11.3670     2.2030 
  120.8750   -32.3220    79.6290    23.8550     8.4180     9.9050    11.2960     2.2130 
  121.0000   -32.3120    83.9880    24.0530     8.5150     9.7910    11.0830     2.2170 
  121.1250   -32.3070    84.7510    24.1490     8.6790     9.7490    10.9330     2.2100 
  121.2500   -32.2420    80.9170    24.2810     8.7880     9.9340    11.0660     2.2190 
  121.3750   -32.2030    74.9400    24.3870     8.8770    10.4400    11.5990     2.2710 
  121.5000   -32.2020    69.8930    24.3360     8.9520    11.2510    12.5160     2.3740 
  121.6250   -32.1240    66.2650    23.8990     9.0620    12.1650    13.5800     2.4810 
  121.7500   -32.1010    63.5960    23.4830     8.9910    12.7900    14.2870     2.5210 
  121.8750   -32.0920    61.4120    23.1300     8.8070    12.8300    14.2600     2.4690 
  122.0000   -32.0490    61.5660    23.0840     8.6840    12.2460    13.4810     2.3630 
  122.1250   -32.0510    64.1630    23.2680     8.6200    11.2590    12.3200     2.2700 
  122.2500   -32.0620    65.7320    23.1660     8.6060    10.2860    11.2880     2.2130 
  122.3750   -32.0630    66.8590    22.8870     8.5800     9.5310    10.5730     2.1800 
  122.5000   -32.0490    67.7650    22.8130     8.5160     9.0530    10.1890     2.1640 
  122.6250   -32.0880    68.0000    23.1090     8.3710     8.8460    10.0770     2.1670 
  122.7500   -32.1070    67.7230    23.5280     8.2060     8.7920    10.0900     2.1830 
  122.8750   -32.1040    67.4340    23.6490     8.0980     8.8270    10.1590     2.1960 
  123.0000   -32.0980    68.7030    23.5830     8.0900     8.9000    10.2390     2.1950 
  123.1250   -32.0830    71.1750    23.7580     8.1650     8.9520    10.2770     2.1810 
  123.2500   -32.0520    73.0230    23.8510     8.2770     8.9310    10.2290     2.1680 
  123.3750   -32.0080    72.7500    23.8800     8.3690     8.8190    10.0780     2.1600 
  123.5000   -32.0130    71.1990    23.8800     8.3220     8.6350     9.8500     2.1560 
  123.6250   -31.9620    70.0100    23.7970     8.0810     8.4450     9.6220     2.1560 
  123.7500   -31.8880    69.8920    23.5810     7.9010     8.3180     9.4720     2.1570 
  123.8750   -31.8770    71.2100    23.4080     7.9250     8.2820     9.4410     2.1570 
  124.0000   -31.8360    71.7990    23.5330     8.0880     8.3280     9.5210     2.1560 
  124.1250   -31.7790    68.5060    23.9820     8.2500     8.4160     9.6610     2.1520 
  124.2500   -31.7690    66.0840    24.1890     8.3450     8.4920     9.7830     2.1500 
  124.3750   -31.7220    69.0870    24.2380     8.3520     8.5360     9.8520     2.1570 
  124.5000   -31.6470    75.3250    24.2060     8.2660     8.5570     9.8770     2.1750 
  124.6250   -31.5600    77.7360    23.9950     8.1620     8.5950     9.9100     2.1940 
  124.7500   -31.4180    77.7820    23.6030     8.1560     8.6800     9.9960     2.2040 
  124.8750   -31.2490    77.3070    23.2430     8.2460     8.8120    10.1350     2.2010 
  125.0000   -31.0610    74.9310    22.9950     8.3640     8.9650    10.2870     2.1910 
  125.1250   -30.9010    71.7170    22.7380     8.4510     9.0800    10.3870     2.1770 
  125.2500   -30.7260    70.2440    22.7330     8.4740     9.1240    10.4130     2.1650 
  125.3750   -30.5320    71.5660    23.0430     8.4740     9.0900    10.3770     2.1610 
  125.5000   -30.3660    75.6990    23.3190     8.4470     9.0040    10.3120     2.1660 
  125.6250   -30.2160    80.5760    23.4340     8.3980     8.8890    10.2400     2.1770 
  125.7500   -30.0850    82.1040    23.4450     8.3080     8.7580    10.1510     2.1880 
  125.8750   -29.9770    79.3610    23.3820     8.1760     8.5970    10.0070     2.1980 
  126.0000   -29.8840    75.3430    23.2170     7.9420     8.3880     9.7710     2.2060 
  126.1250   -29.7500    74.5830    23.1740     7.7220     8.1170     9.4230     2.2060 
  126.2500   -29.6490    75.8070    23.1710     7.7650     7.8270     9.0350     2.2010 
  126.3750   -29.5530    78.5970    23.1810     7.9050     7.5860     8.7130     2.1970 
  126.5000   -29.4020    81.3780    23.1810     7.8450     7.5030     8.6050     2.1970 
  126.6250   -29.2620    82.2500    23.1810     7.6950     7.7340     8.9200     2.2030 
  126.7500   -29.0940    80.6970    23.1890     7.7640     8.2300     9.5840     2.2240 
  126.8750   -28.9030    76.4740    23.2350     8.4830     8.8130    10.3640     2.2690 
  127.0000   -28.7370    71.5100    23.3760    10.0660     9.1690    10.8340     2.3380 
  127.1250   -28.5650    71.6260    23.5840    11.2760     8.8820    10.4150     2.4000 
  127.2500   -28.3920    79.0450    23.7450    10.1770     8.0310     9.2600     2.4250 
  127.3750   -28.2610    90.5540    23.8110     7.6900     6.9130     7.8420     2.4030 
  127.5000   -28.1150   100.2150    23.8330     5.9560     5.8690     6.6290     2.3500 
  127.6250   -28.0430   102.9620    23.8180     5.4860     5.1630     5.9080     2.3000 
  127.7500   -28.0300   100.0510    23.6720     5.3760     4.8130     5.6120     2.2710 
  127.8750   -27.9430    95.5740    23.3320     5.3210     4.8110     5.6860     2.2600 
  128.0000   -27.8590    92.9550    23.1410     5.3590     5.1090     6.0650     2.2550 
  128.1250   -27.7640    92.2840    23.2220     5.5150     5.6380     6.6680     2.2360 
  128.2500   -27.5780    91.0880    23.5970     6.0110     6.2040     7.3040     2.2070 
  128.3750   -27.3690    88.1730    23.8540     7.0610     6.6250     7.7690     2.1850 
  128.5000   -27.1570    84.6280    23.9690     8.5010     6.7250     7.8440     2.1880 
  128.6250   -26.9220    83.6780    24.0570     8.6400     6.3650     7.3560     2.2250 
  128.7500   -26.6780    89.0580    24.1050     7.2930     5.7330     6.5690     2.2650 
  128.8750   -26.5120    98.0890    24.1480     5.5640     5.0250     5.7490     2.2860 
  129.0000   -26.4070   104.6300    24.3540     4.6140     4.4060     5.0950     2.2910 
  129.1250   -26.3200   106.4200    24.8070     4.3370     4.0010     4.7390     2.3010 
  129.2500   -26.3060   107.2840    25.1940     4.2670     3.7940     4.6280     2.3250 
  129.3750   -26.3570   107.5270    25.3580     4.3000     3.7490     4.6960     2.3520 
