~V
VERS. 2.00: Ver 2.00
~W
STRT.M 60.0000:
STOP.M 276.0000:
STEP.M 0.1250:
NULL. -999.2500:
UWI. DF32145:
~C
DEPT.M :
SP.MV :
GR.API :
CALI.CM :
RXO.OHMM :
RI. :
RML.OHMM :
DEN.GM/CC :
~A
# ...
  172.5000   -31.6900    66.1140    22.9810    90.9610   110.0380   114.8090     2.2830 
  172.6250   -31.6620    68.1380    22.6440    84.8710   110.3030   115.8480     2.3020 
  172.7500   -31.7230    69.5710    22.7280    87.1230   115.7790   122.3560     2.3140 
  172.8750   -31.8160    68.0510    23.2680    99.1490   126.3300   134.3510     2.3070 
  173.0000   -31.9820    65.5580    24.0950   119.1810   140.7250   150.9120     2.2850 
  173.1250   -32.1680    65.7460    24.7590   139.7980   156.1890   169.3760     2.2630 
  173.2500   -32.3760    66.5160    25.0630   151.8890   169.1160   185.2050     2.2490 
  173.3750   -32.5690    64.9790    25.2040   153.5210   177.7560   195.8510     2.2420 
  173.5000   -32.7450    62.1710    25.3500   146.4420   182.6520   201.8540     2.2440 
  173.6250   -32.9350    60.5760    25.4200   136.1150   186.2620   206.2990     2.2550 
  173.7500   -33.0890    60.1560    25.4430   132.3380   191.1980   212.2780     2.2600 
  173.8750   -33.2300    60.7220    25.4480   137.8820   198.0200   220.3860     2.2530 
  174.0000   -33.3430    60.4740    25.4540   152.9520   205.5980   229.2960     2.2370 
  174.1250   -33.4170    57.8150    25.4530   170.5190   210.7250   235.1160     2.2230 
  174.2500   -33.4460    56.8480    25.4510   172.9620   210.8760   234.7560     2.2210 
  174.3750   -33.4620    59.6190    25.4510   159.2840   205.2260   227.3920     2.2270 
  174.5000   -33.4650    63.8270    25.4500   140.7830   194.8950   214.6760     2.2320 
  174.6250   -33.4710    64.7900    25.4450   128.1510   181.4460   198.4630     2.2300 
  174.7500   -33.4800    63.4480    25.4140   122.6670   166.0950   179.7000     2.2240 
  174.8750   -33.4890    61.3000    25.2960   123.1220   148.1900   157.4710     2.2260 
  175.0000   -33.4220    59.7600    25.0550   119.0980   127.1620   131.8050     2.2410 
  175.1250   -33.3610    59.5990    24.8000    97.7180   104.3150   105.7240     2.2650 
  175.2500   -33.2910    61.1100    24.8140    73.2460    83.4770    83.4800     2.2890 
  175.3750   -33.2110    64.3370    25.0790    55.1450    67.2520    67.0310     2.3080 
  175.5000   -33.1050    69.6040    25.2830    42.7390    56.4770    56.4560     2.3200 
  175.6250   -32.9600    74.8330    25.3020    36.5780    51.3140    51.5920     2.3180 
  175.7500   -32.7970    77.5400    25.1670    36.4160    49.8080    50.4560     2.3080 
  175.8750   -32.6110    77.7690    24.9100    41.5530    50.8440    51.9320     2.2990 
  176.0000   -32.4520    75.7540    24.6290    48.6140    53.2110    54.7260     2.2990 
  176.1250   -32.2220    73.7930    24.4490    51.8470    55.6140    57.3810     2.3110 
  176.2500   -32.0040    75.6450    24.3700    50.2050    57.3320    59.1960     2.3260 
  176.3750   -31.7540    79.8030    24.3490    45.5000    58.6140    60.5920     2.3320 
  176.5000   -31.5310    81.0130    24.3470    41.2860    60.3440    62.6830     2.3250 
  176.6250   -31.3160    77.2920    24.3470    42.5080    63.8120    67.0250     2.3120 
  176.7500   -31.1770    74.0350    24.3470    50.3250    69.1080    73.7560     2.3060 
  176.8750   -31.0890    72.7710    24.3470    62.4700    75.6760    82.3530     2.3080 
  177.0000   -31.0550    70.9530    24.3470    73.8320    82.4400    91.6260     2.3110 
  177.1250   -31.0800    68.9930    24.3470    78.3040    88.0810    99.9050     2.3100 
  177.2500   -31.1370    71.2510    24.3470    78.5860    92.4030   106.6500     2.3050 
  177.3750   -31.2370    75.9540    24.3470    79.4990    95.9390   112.3970     2.2990 
  177.5000   -31.3230    77.8280    24.3470    83.1870    99.3920   118.0230     2.2970 
  177.6250   -31.4170    74.5300    24.3470    88.9070   103.0800   123.9190     2.2980 
  177.7500   -31.4550    70.4350    24.3470    90.1020   106.7890   129.7790     2.2990 
  177.8750   -31.4930    67.6350    24.3390    87.0580   110.3660   135.4030     2.2950 
  178.0000   -31.5250    66.0630    24.3160    85.2270   113.7760   140.7990     2.2890 
  178.1250   -31.5950    66.6820    24.2690    90.1610   116.9140   145.8490     2.2820 
  178.2500   -31.6650    68.6440    24.2480    97.5530   119.4590   149.9580     2.2750 
  178.3750   -31.7350    70.2170    24.2430   103.9360   120.6870   151.7740     2.2670 
  178.5000   -31.8360    70.9650    24.2430   105.5890   119.7090   149.7210     2.2630 
  178.6250   -31.9410    72.2940    24.2430   101.3290   115.7690   142.7990     2.2710 
  178.7500   -32.0710    73.3450    24.2430    94.6040   110.2890   133.7910     2.2880 
  178.8750   -32.2000    73.9300    24.2430    85.9580   105.0010   125.5080     2.3020 
  179.0000   -32.3240    73.6390    24.2390    76.3850   101.6140   120.1670     2.3060 
  179.1250   -32.4110    72.1230    24.2180    70.1990   101.8980   119.7100     2.2990 
  179.2500   -32.5040    70.0220    24.1830    72.6730   105.5500   123.4580     2.2910 
  179.3750   -32.5920    68.9590    24.1560    82.8780   110.9960   129.3150     2.2830 
  179.5000   -32.6840    68.6760    24.1430    94.5510   114.0820   131.4480     2.2770 
  179.6250   -32.7490    64.3770    24.1270    98.6880   107.1570   119.4350     2.2740 
  179.7500   -32.7810    57.8500    24.0940    92.8180    90.4720    96.3710     2.2800 
  179.8750   -32.7680    56.7620    24.0610    73.0800    70.0600    72.0520     2.3000 
  180.0000   -32.7390    63.6880    23.9820    43.7490    52.7360    53.5650     2.3340 
  180.1250   -32.7020    71.2920    23.7060    23.1240    42.5740    43.3560     2.3670 
  180.2500   -32.6690    75.0380    23.2580    15.8820    38.0410    38.8580     2.3800 
  180.3750   -32.6400    77.8590    23.0030    18.2990    37.9370    38.8610     2.3690 
  180.5000   -32.6230    80.6890    23.0680    25.3140    41.4020    42.5550     2.3460 
  180.6250   -32.5850    79.9250    23.4490    30.6520    48.0160    49.4450     2.3320 
  180.7500   -32.5620    77.5510    23.8020    33.5030    55.6370    57.2620     2.3250 
  180.8750   -32.5570    77.1690    24.1810    38.9410    61.9870    63.6190     2.3220 
  181.0000   -32.5430    78.9000    24.4430    48.4770    65.2470    66.6610     2.3200 
  181.1250   -32.5400    80.8930    24.5290    52.9390    64.7490    65.8630     2.3180 
  181.2500   -32.5070    81.8680    24.5390    49.2210    62.2840    63.2120     2.3170 
  181.3750   -32.4780    80.7880    24.5380    41.7740    59.2290    60.1490     2.3170 
  181.5000   -32.4030    79.7390    24.5390    36.4340    56.9040    58.0410     2.3190 
  181.6250   -32.3930    80.7230    24.5380    36.4270    57.0220    58.7000     2.3190 
  181.7500   -32.3670    81.4840    24.5260    42.6960    60.4290    62.9620     2.3120 
  181.8750   -32.3450    79.0520    24.4620    59.1060    67.9410    71.7000     2.2980 
  182.0000   -32.3240    75.1220    24.2950    85.4910    79.7430    85.3270     2.2780 
  182.1250   -32.2890    71.9060    24.0820   107.0270    94.8020   103.3040     2.2600 
  182.2500   -32.2450    68.0560    23.9370   111.4850   109.1880   121.1520     2.2500 
  182.3750   -32.1770    65.3500    23.8620   103.5690   119.3830   134.0290     2.2510 
  182.5000   -32.1290    66.5410    23.8350    91.8220   123.5430   139.1150     2.2610 
  182.6250   -32.0600    71.1540    23.8290    82.7440   122.2670   137.5080     2.2710 
  182.7500   -32.0370    73.0340    23.8290    78.3050   119.5830   134.6060     2.2720 
  182.8750   -32.0140    71.8190    23.8230    79.1740   117.7070   132.9540     2.2670 
  183.0000   -32.0560    70.8350    23.7950    80.0460   117.5080   133.3230     2.2680 
  183.1250   -32.1490    71.5300    23.7270    77.4840   119.2200   135.8400     2.2810 
  183.2500   -32.3360    72.0140    23.6700    74.5520   122.2970   139.8360     2.2880 
  183.3750   -32.5880    69.4120    23.6480    75.0110   126.6060   145.1070     2.2750 
  183.5000   -32.9160    64.7940    23.6450    78.4720   132.2230   151.6700     2.2480 
  183.6250   -33.3240    63.4390    23.6450    83.7290   139.5900   159.9730     2.2310 
