~V
VERS. 2.00: Ver 2.00
~W
STRT.M 62.0000:
STOP.M 272.0000:
STEP.M 0.1250:
NULL. -999.2500:
UWI. DF32143:
~C
DEPT.M :
SP.MV :
GR.API :
CALI.CM :
RXO.OHMM :
RI. :
RML.OHMM :
DEN.GM/CC :
~A
# ...
  208.2500   -15.0940    65.1560    24.6690    27.7830    25.6760    31.8480     2.2730 
  208.3750   -15.2040    65.8580    24.7640    27.0680    25.2550    31.1060     2.2760 
  208.5000   -15.3090    66.8670    24.7570    26.9700    24.8480    30.5120     2.2660 
  208.6250   -15.4000    67.8790    24.7240    25.7360    24.6320    30.2360     2.2530 
  208.7500   -15.4940    67.8050    24.8530    23.5500    24.6050    30.1880     2.2490 
  208.8750   -15.5920    64.4420    25.2180    21.6630    24.7400    30.2810     2.2560 
  209.0000   -15.7040    60.9830    25.6440    21.3200    25.0430    30.5080     2.2640 
  209.1250   -15.8120    63.4640    25.7360    23.1790    25.6370    31.0500     2.2710 
  209.2500   -15.9190    68.9040    25.4460    25.9790    26.6200    32.0800     2.2820 
  209.3750   -16.0360    71.2800    24.9970    28.8830    28.1290    33.7790     2.2950 
  209.5000   -16.1770    70.0640    24.6400    32.9910    30.2680    36.2380     2.2990 
  209.6250   -16.3500    68.9650    24.5090    42.7150    33.1320    39.4760     2.2860 
  209.7500   -16.5330    69.0350    24.5120    59.0930    36.4630    43.1360     2.2630 
  209.8750   -16.7160    68.0990    24.5390    76.4520    40.0940    47.0310     2.2390 
  210.0000   -16.8900    66.4400    24.5050    84.7200    43.9190    51.0730     2.2200 
  210.1250   -17.0680    65.5860    24.4780    80.2510    47.8360    55.1670     2.2070 
  210.2500   -17.2480    64.7670    24.6590    74.9970    51.5320    58.9330     2.1940 
  210.3750   -17.4220    63.9070    25.0400    76.3040    54.4260    61.5970     2.1780 
  210.5000   -17.5880    63.1810    25.4040    82.1420    55.7230    62.1410     2.1610 
  210.6250   -17.7770    62.2330    25.5390    81.3760    54.5150    59.6470     2.1530 
  210.7500   -18.0150    62.8120    25.5470    70.6800    51.6210    55.5230     2.1610 
  210.8750   -18.3440    65.5830    25.5400    56.5200    48.2650    51.4540     2.1840 
  211.0000   -18.8030    68.3810    25.5390    46.1750    45.8320    48.9740     2.2110 
  211.1250   -19.4040    68.3320    25.5360    43.3640    45.9280    49.6180     2.2310 
  211.2500   -20.1470    66.0680    25.5380    47.9240    48.9810    53.4800     2.2410 
  211.3750   -21.0510    64.5380    25.5560    61.5440    55.2320    60.6340     2.2430 
  211.5000   -22.0970    63.6890    25.5870    85.4730    64.3250    70.6230     2.2340 
  211.6250   -23.1960    62.1890    25.6100   112.5660    74.9710    81.9290     2.2140 
  211.7500   -24.2900    61.2530    25.6170   127.2960    84.6000    91.6460     2.1930 
  211.8750   -25.3260    63.2370    25.6160   127.0550    91.5840    98.0240     2.1780 
  212.0000   -26.2450    66.9940    25.6150   122.2420    95.8030   101.3570     2.1700 
  212.1250   -27.0320    66.5520    25.6160   122.0650    98.8570   103.9260     2.1690 
  212.2500   -27.6940    64.3220    25.6320   128.1440   103.2810   108.3780     2.1700 
  212.3750   -28.1990    62.9520    25.6610   144.6840   110.5310   116.0040     2.1720 
  212.5000   -28.5630    60.6840    25.6870   171.1910   120.9810   127.0150     2.1750 
  212.6250   -28.8400    55.0000    25.6950   193.3330   133.8240   140.4260     2.1830 
  212.7500   -29.0650    50.5680    25.6940   200.7540   146.2030   152.9890     2.2050 
  212.8750   -29.2580    51.2640    25.6920   197.0650   155.4200   161.5390     2.2320 
  213.0000   -29.4310    55.0720    25.7000   188.8130   159.4940   163.9630     2.2470 
  213.1250   -29.5680    57.0270    25.7430   174.6840   157.3120   159.6220     2.2370 
  213.2500   -29.6560    57.5700    25.7940   154.6570   151.2560   151.7280     2.2200 
  213.3750   -29.7030    59.7580    25.7960   135.3910   143.2890   142.6530     2.2060 
  213.5000   -29.7000    63.2330    25.7310   124.6310   135.3730   134.4130     2.1950 
  213.6250   -29.6500    62.5420    25.6410   122.1930   129.4690   128.7650     2.1920 
  213.7500   -29.5530    58.8780    25.5610   120.0350   126.1000   125.8240     2.2110 
  213.8750   -29.4060    55.9200    25.4920   118.3660   125.4820   125.6480     2.2520 
  214.0000   -29.2070    56.2540    25.4240   121.9770   127.6520   128.1990     2.2910 
  214.1250   -28.9580    60.3080    25.2770   128.1860   132.7390   133.6070     2.2910 
  214.2500   -28.6700    64.7700    24.9980   129.5850   139.7420   140.9540     2.2540 
  214.3750   -28.3350    65.7100    24.6550   130.9480   148.0900   149.7170     2.2050 
  214.5000   -27.9670    62.4320    24.3580   142.4610   157.0770   159.2020     2.1730 
  214.6250   -27.5680    58.5890    24.2040   163.1450   165.5910   168.3230     2.1680 
  214.7500   -27.1550    56.5120    24.2690   178.7310   172.8280   176.2800     2.1750 
  214.8750   -26.7300    56.4310    24.5830   184.6030   178.4790   182.7270     2.1800 
  215.0000   -26.2930    58.1370    24.9010   184.0610   182.5400   187.5930     2.1770 
  215.1250   -25.8660    59.7740    24.8860   183.9040   185.2230   191.0550     2.1660 
  215.2500   -25.4470    59.2900    24.8040   190.7480   187.5220   194.0890     2.1550 
  215.3750   -25.0420    56.2740    24.9830   202.9210   189.9310   197.1370     2.1490 
  215.5000   -24.6290    53.8290    25.3630   210.4190   192.4240   200.1210     2.1480 
  215.6250   -24.1900    54.5140    25.5890   208.6720   194.6300   202.5460     2.1480 
  215.7500   -23.7120    57.0000    25.6390   208.7960   195.9870   203.6060     2.1460 
  215.8750   -23.1930    59.5170    25.6370   216.1890   195.0220   201.3380     2.1470 
  216.0000   -22.6380    60.2740    25.6160   226.3150   189.3900   193.0050     2.1590 
  216.1250   -22.0190    58.9950    25.5640   229.8350   175.9810   175.8070     2.1790 
  216.2500   -21.3700    57.0240    25.5260   222.5170   156.6220   153.1920     2.1940 
  216.3750   -20.6880    57.2360    25.5210   198.1760   134.4780   129.3970     2.1990 
  216.5000   -20.0030    60.2130    25.5300   158.0630   113.2930   108.1780     2.2060 
  216.6250   -19.3460    61.0850    25.5120   121.0180    96.5760    92.3460     2.2390 
  216.7500   -18.7340    58.1380    25.4550   100.4940    84.4870    81.1810     2.2970 
  216.8750   -18.1670    54.6680    25.3970    90.6730    76.1980    73.5880     2.3540 
  217.0000   -17.6360    54.2840    25.3760    82.8990    70.1130    67.9270     2.3820 
  217.1250   -17.1780    57.5890    25.3650    76.4950    64.3440    62.3080     2.3650 
  217.2500   -16.7580    60.7040    25.3360    71.4800    57.6890    55.6730     2.3390 
  217.3750   -16.4080    61.0690    25.3000    62.7230    50.2950    48.3150     2.3430 
  217.5000   -16.1330    60.2340    25.2490    48.3620    43.0870    41.2590     2.3870 
  217.6250   -15.9270    60.8130    25.1120    35.0430    37.3970    35.8370     2.4250 
  217.7500   -15.7670    63.0470    24.8870    27.3100    33.5010    32.2510     2.4090 
  217.8750   -15.6660    64.8920    24.6510    24.2850    31.3130    30.4000     2.3420 
  218.0000   -15.6360    66.2560    24.5360    24.2750    30.5730    30.0060     2.2640 
  218.1250   -15.6320    66.5260    24.6820    26.2040    31.0740    30.8210     2.2240 
  218.2500   -15.6400    67.0680    24.9870    28.7410    32.1710    32.1780     2.2180 
  218.3750   -15.6420    69.0320    25.2730    30.9080    33.4610    33.6950     2.2230 
  218.5000   -15.6010    70.8250    25.4260    32.2920    34.6700    35.1360     2.2190 
  218.6250   -15.5180    70.3560    25.4490    33.4740    35.6260    36.3670     2.2060 
  218.7500   -15.4040    69.8740    25.3820    34.4310    36.2870    37.3400     2.1990 
  218.8750   -15.2410    70.4060    25.2210    33.8640    36.5810    37.9660     2.2060 
  219.0000   -15.0400    70.1210    24.9820    31.3730    36.4350    38.1560     2.2210 
  219.1250   -14.8380    69.0530    24.6970    28.7570    35.7300    37.7870     2.2350 
  219.2500   -14.6670    69.7220    24.4330    27.6560    34.6440    37.0620     2.2430 
  219.3750   -14.5330    70.7330    24.2460    27.4970    33.4380    36.2830     2.2440 
