~V
VERS. 2.00: Ver 2.00
~W
STRT.M 60.0000:
STOP.M 232.0000:
STEP.M 0.1250:
NULL. -999.2500:
UWI. DF323:
~C
DEPT.M :
GR.API :
RML.OHMM :
RI. :
RXO.OHMM :
CALI.CM :
SP.MV :
DEN.GM/CC :
AC.US/MT :
~A
# ...
   70.0000    65.1510     9.9660     9.0090    12.8640    22.9910   -17.5900     2.1290   360.8500 
   70.1250    67.4840    10.2200     9.1410    12.9550    22.8790   -18.8140     2.1320   324.9290 
   70.2500    67.3820    10.2530     9.1050    13.0570    22.8640   -19.8960     2.1330   305.2940 
   70.3750    68.6800    10.1040     8.9530    12.9300    22.8640   -20.7580     2.1330   312.9950 
   70.5000    71.5390     9.8360     8.7360    12.5490    22.8510   -21.3970     2.1340   345.3670 
   70.6250    71.0580     9.5460     8.5070    12.4220    22.8450   -21.7700     2.1340   385.1710 
   70.7500    70.2970     9.3400     8.3160    12.7870    22.8570   -21.8770     2.1350   414.3320 
   70.8750    72.9890     9.2750     8.1940    13.3310    22.8680   -21.7980     2.1360   429.6680 
   71.0000    76.6810     9.3480     8.1490    13.5850    22.8680   -21.6250     2.1400   436.0390 
   71.1250    75.2110     9.4860     8.1550    13.4420    22.8590   -21.4520     2.1490   438.9170 
   71.2500    72.1820     9.5670     8.1590    13.2450    22.8570   -21.2330     2.1600   440.6420 
   71.3750    70.8300     9.5320     8.1270    13.1460    22.8610   -20.9420     2.1690   441.2670 
   71.5000    69.8350     9.3810     8.0500    12.9590    22.8860   -20.6120     2.1730   440.8160 
   71.6250    69.8660     9.1710     7.9320    12.2090    22.9600   -20.2610     2.1700   439.6550 
   71.7500    72.0510     9.0100     7.8140    11.4560    23.0910   -19.8390     2.1660   438.8270 
   71.8750    74.2660     8.9760     7.7380    11.3600    23.2920   -19.3020     2.1630   438.9160 
   72.0000    76.3250     9.1040     7.7440    11.5800    23.5330   -18.7520     2.1610   439.6200 
   72.1250    78.5750     9.3850     7.8630    11.4350    23.7190   -18.2820     2.1630   439.1990 
   72.2500    77.8090     9.6970     8.0540    11.5780    23.7990   -17.9160     2.1730   435.8450 
   72.3750    72.3640     9.9450     8.2660    12.8690    23.8050   -17.6460     2.1970   428.3460 
   72.5000    67.1840    10.0850     8.4500    14.4440    23.8020   -17.4360     2.2330   416.9740 
   72.6250    70.5830    10.1270     8.5760    13.8530    23.8320   -17.2680     2.2670   405.5580 
   72.7500    77.0550    10.1520     8.6700    12.1280    23.8720   -17.2010     2.2790   400.0200 
   72.8750    78.8120    10.2040     8.7610    11.3890    23.8650   -17.3550     2.2620   403.5620 
   73.0000    75.1050    10.2870     8.8640    12.3980    23.7290   -17.6510     2.2220   414.3940 
   73.1250    69.1970    10.3490     8.9510    14.3730    23.4490   -18.0020     2.1760   426.4460 
   73.2500    64.8100    10.3150     8.9670    15.2710    23.1600   -18.4330     2.1420   434.7670 
   73.3750    63.7190    10.1430     8.8640    14.8200    22.9590   -18.8390     2.1240   438.6340 
   73.5000    67.7980     9.8470     8.6440    13.8310    22.8660   -19.1210     2.1200   438.9020 
   73.6250    74.0010     9.5360     8.3770    13.1670    22.8430   -19.3530     2.1250   435.9460 
   73.7500    75.9430     9.3590     8.1730    12.7280    22.8450   -19.5510     2.1340   430.9940 
   73.8750    74.1480     9.3770     8.0860    12.4050    22.8520   -19.6980     2.1420   424.8360 
   74.0000    72.1150     9.5540     8.1190    12.2180    22.8580   -19.8460     2.1470   418.1900 
   74.1250    71.1670     9.7870     8.2320    12.3330    22.8520   -19.9650     2.1470   412.3150 
   74.2500    70.5250     9.9520     8.3400    12.6720    22.8280   -20.0070     2.1430   408.4100 
   74.3750    70.5470     9.9890     8.3830    12.9150    22.7920   -20.0640     2.1340   407.3440 
   74.5000    71.9510     9.9100     8.3370    12.9330    22.7560   -20.2020     2.1230   409.3160 
   74.6250    72.8070     9.7760     8.2210    12.9740    22.7190   -20.3820     2.1120   414.3840 
   74.7500    71.6740     9.6560     8.1080    13.0990    22.6420   -20.6220     2.1070   421.1450 
   74.8750    68.6060     9.5820     8.0500    13.2400    22.4850   -20.8520     2.1070   428.0600 
   75.0000    64.8050     9.5820     8.0720    13.4700    22.2770   -20.9810     2.1110   433.4890 
   75.1250    64.2210     9.6720     8.1710    13.9080    22.1170   -20.9960     2.1190   436.0990 
   75.2500    66.9600     9.8030     8.2980    14.2800    22.0460   -20.9540     2.1270   436.8100 
   75.3750    69.9690     9.9350     8.4140    14.4180    22.0280   -20.8620     2.1360   436.6350 
   75.5000    70.3450    10.0220     8.4940    14.4410    22.0330   -20.7260     2.1430   436.2720 
   75.6250    67.4200    10.0100     8.5170    14.4520    22.0930   -20.5660     2.1470   436.3270 
   75.7500    66.2830     9.9210     8.4980    14.3320    22.2010   -20.4000     2.1480   437.0480 
   75.8750    68.8200     9.7980     8.4490    14.0170    22.3090   -20.1940     2.1470   438.3660 
   76.0000    73.4080     9.6670     8.3740    13.5930    22.3690   -19.9400     2.1450   439.8530 
   76.1250    74.5500     9.4880     8.2420    13.2190    22.3770   -19.6060     2.1490   440.9120 
   76.2500    71.7100     9.2000     8.0260    13.0860    22.3710   -19.1080     2.1620   441.5040 
   76.3750    69.4940     8.7630     7.7160    13.0540    22.3850   -18.3770     2.1820   441.8920 
   76.5000    71.2240     8.1910     7.3230    12.2690    22.4980   -17.3960     2.2010   442.4770 
   76.6250    76.7100     7.5960     6.9000    10.4700    22.8790   -16.1470     2.2110   443.8430 
   76.7500    82.5450     7.1390     6.5330     9.0510    23.4850   -14.7440     2.2130   446.1360 
   76.8750    85.3330     6.9000     6.2800     8.5050    24.1060   -13.3050     2.2120   448.9270 
   77.0000    86.0330     6.8670     6.1610     8.2700    24.5040   -11.8970     2.2150   451.0830 
   77.1250    88.7210     6.9600     6.1800     7.7000    24.5910   -10.6350     2.2240   451.1870 
   77.2500    92.7030     7.0580     6.2710     7.5210    24.5580    -9.6210     2.2380   449.7170 
   77.3750    94.3680     7.1140     6.3890     8.0780    24.5160    -8.8840     2.2520   447.5940 
   77.5000    92.7930     7.1270     6.4940     8.5850    24.5240    -8.4060     2.2610   445.5470 
   77.6250    91.7370     7.1310     6.5600     8.1990    24.6060    -8.2130     2.2610   444.5270 
   77.7500    91.3560     7.1350     6.5730     7.6050    24.6920    -8.1810     2.2530   445.5040 
   77.8750    89.4310     7.1010     6.5160     7.4510    24.7370    -8.2040     2.2430   448.8320 
   78.0000    87.9440     7.0010     6.3890     7.6060    24.7640    -8.2180     2.2380   453.1410 
   78.1250    90.7650     6.8970     6.2570     7.6100    24.8190    -8.1520     2.2450   454.1590 
   78.2500    94.8500     6.9440     6.2380     7.4000    24.8710    -8.0730     2.2610   447.9280 
   78.3750    95.3960     7.2880     6.4350     7.1040    24.8870    -8.0950     2.2810   431.7600 
   78.5000    92.3600     8.0340     6.9200     7.1410    24.8350    -8.3390     2.2960   406.2400 
   78.6250    88.2780     9.2080     7.7410     8.1640    24.6380    -8.8760     2.2970   378.7940 
   78.7500    83.7780    10.4740     8.7070    10.2170    24.3390    -9.6680     2.2800   364.2640 
   78.8750    78.7630    11.4390     9.5690    13.3280    24.0100   -10.7070     2.2520   372.8560 
   79.0000    75.5160    11.7990    10.0770    16.5620    23.7030   -11.9510     2.2190   400.6370 
   79.1250    74.2370    11.5110    10.0890    17.2370    23.4750   -13.3540     2.1930   426.6750 
   79.2500    72.4000    11.0300     9.8500    15.9070    23.3560   -14.7840     2.1750   436.5590 
   79.3750    70.2390    10.6680     9.5800    14.8940    23.3310   -16.1430     2.1610   436.3520 
   79.5000    69.4060    10.5410     9.4080    15.0240    23.3310   -17.3350     2.1490   438.8180 
   79.6250    70.2430    10.5750     9.3340    15.3680    23.3220   -18.2050     2.1410   448.0350 
   79.7500    69.9060    10.5810     9.2490    15.4430    23.3130   -18.7480     2.1420   455.5100 
   79.8750    68.8680    10.4900     9.1110    15.5390    23.3050   -18.9700     2.1510   456.6730 
