~V
VERS. 2.00: Ver 2.00
~W
STRT.M 62.0000:
STOP.M 272.0000:
STEP.M 0.1250:
NULL. -999.2500:
UWI. DF32144:
~C
DEPT.M :
SP.MV :
DEN.GM/CC :
GR.API :
RML.OHMM :
RI. :
RXO.OHMM :
CALI.CM :
~A
# ...
  174.5000   -16.0970     2.2220    72.6300    47.1440    31.2780    24.2000    28.5030 
  174.6250   -16.3000     2.2140    71.9640    47.0390    31.4710    21.4370    29.1520 
  174.7500   -16.4760     2.2160    69.6500    47.3080    32.0680    16.5440    30.1820 
  174.8750   -16.6520     2.2260    67.0770    47.4180    32.7260    13.5730    30.5170 
  175.0000   -16.7950     2.2390    64.1630    46.9320    33.0840    12.6870    30.2620 
  175.1250   -16.9160     2.2370    63.5850    45.4770    32.7550    15.9450    30.0940 
  175.2500   -17.0690     2.2120    67.0790    43.2640    31.7700    17.6750    30.5270 
  175.3750   -17.2420     2.1640    70.8420    40.5720    30.2720    16.6610    31.2800 
  175.5000   -17.3570     2.1070    69.8160    37.7940    28.5410    15.1890    32.4850 
  175.6250   -17.4970     2.0670    64.5780    35.4330    26.9590    14.5510    33.9720 
  175.7500   -17.6790     2.0520    60.9510    33.7200    25.7780    14.4340    34.1130 
  175.8750   -17.8140     2.0550    60.1430    32.7040    25.1030    15.0810    32.6900 
  176.0000   -17.9730     2.0580    61.7110    32.2790    24.9180    15.5670    32.0650 
  176.1250   -18.1730     2.0550    65.9960    32.2400    25.1450    16.6560    32.9080 
  176.2500   -18.2990     2.0600    70.1170    32.2370    25.5160    16.4620    34.1200 
  176.3750   -18.3730     2.0900    70.8550    32.1210    25.8670    14.9600    35.3450 
  176.5000   -18.4410     2.1480    67.7070    31.9150    26.1300    11.9920    36.5110 
  176.6250   -18.4090     2.2220    64.1260    31.8260    26.3650     8.9340    37.4810 
  176.7500   -18.3460     2.2910    63.2240    32.0630    26.7200     6.7010    37.1550 
  176.8750   -18.3440     2.3460    64.3580    32.7690    27.3230     5.9020    34.8080 
  177.0000   -18.2710     2.3840    66.2980    33.9920    28.2460     6.5530    30.5180 
  177.1250   -18.1920     2.4040    68.7840    35.7140    29.5180     9.6450    27.6640 
  177.2500   -18.2000     2.4110    70.0180    37.6790    30.9950    14.2950    27.0510 
  177.3750   -18.1730     2.4060    69.7800    39.6960    32.5620    16.8350    27.3870 
  177.5000   -18.1430     2.3940    68.1140    41.6210    34.1160    16.9370    27.5650 
  177.6250   -18.2120     2.3810    64.6030    43.3910    35.5870    14.4150    28.2800 
  177.7500   -18.2950     2.3710    60.9040    45.0040    36.9310    12.3280    29.7420 
  177.8750   -18.3270     2.3680    60.4370    46.2450    37.9670    12.1360    30.8320 
  178.0000   -18.4140     2.3720    63.5560    46.7010    38.3690    13.4370    30.8870 
  178.1250   -18.4850     2.3700    65.1010    45.8290    37.7040    15.9130    30.4230 
  178.2500   -18.4480     2.3470    65.5310    44.0820    36.3020    15.4250    30.7220 
  178.3750   -18.4260     2.2950    67.7510    42.3340    34.8010    14.6410    32.1760 
  178.5000   -18.4810     2.2230    70.9340    41.7220    34.0390    13.2080    34.5590 
  178.6250   -18.4900     2.1590    69.8510    43.7560    35.1850    12.3910    36.6650 
  178.7500   -18.4980     2.1260    64.3960    48.6960    38.6280    11.8650    37.1690 
  178.8750   -18.6030     2.1270    57.0170    56.5120    44.5980    12.4980    36.1980 
  179.0000   -18.7120     2.1500    52.3860    66.4860    52.7680    13.9120    35.0590 
  179.1250   -18.8860     2.1760    54.2470    76.8380    61.9100    15.1750    34.5100 
  179.2500   -19.2100     2.1980    58.1200    85.1740    69.8260    16.0790    34.0770 
  179.3750   -19.5640     2.2170    59.7280    90.1170    75.1080    16.2410    33.3300 
  179.5000   -19.9250     2.2340    58.9190    91.6050    77.4370    15.6650    32.5350 
  179.6250   -20.3240     2.2500    60.5580    90.3100    77.1710    13.9020    32.3330 
  179.7500   -20.7270     2.2620    63.8590    87.9250    75.7100    13.1920    32.7730 
  179.8750   -21.1100     2.2680    64.6650    85.5060    73.9270    14.2240    33.2300 
  180.0000   -21.4560     2.2660    62.0340    84.0040    72.6430    16.2920    33.5370 
  180.1250   -21.7080     2.2540    58.6910    84.4840    72.8200    17.3540    34.3170 
  180.2500   -21.9430     2.2360    59.0250    87.0060    74.6850    16.2440    35.1660 
  180.3750   -22.1990     2.2140    60.8680    91.4190    78.2380    15.9710    35.6490 
  180.5000   -22.3570     2.1950    59.8100    97.1270    83.0790    16.4530    35.7950 
  180.6250   -22.4990     2.1900    57.0950   102.9820    88.3530    17.0780    35.7160 
  180.7500   -22.6650     2.1990    56.3150   107.5230    92.8250    14.3550    35.4560 
  180.8750   -22.8060     2.2160    57.1660   109.6500    95.5590    14.7570    35.0270 
  181.0000   -22.9260     2.2290    57.3570   108.9080    96.0720    15.7670    34.7120 
  181.1250   -23.0870     2.2220    56.7730   105.5080    94.3370    14.9290    35.0480 
  181.2500   -23.2140     2.1970    57.6040   101.0770    91.5650    13.3480    36.0890 
  181.3750   -23.2540     2.1600    59.4050    96.6580    88.5980    12.1230    37.2850 
  181.5000   -23.3120     2.1230    60.9560    92.8320    85.9690    12.2220    37.9120 
  181.6250   -23.4150     2.0900    60.4840    89.4610    83.6200    13.3100    38.0180 
  181.7500   -23.4200     2.0630    58.3090    85.6260    80.7950    13.1320    38.0150 
  181.8750   -23.3900     2.0460    57.7970    80.6090    76.8230    12.8180    37.8860 
  182.0000   -23.4140     2.0520    60.0220    74.2650    71.4950    13.1750    37.3690 
  182.1250   -23.4000     2.1000    62.5140    67.2410    65.2940    14.8650    35.6180 
  182.2500   -23.3800     2.1780    63.8070    60.9100    59.5110    16.6410    32.8090 
  182.3750   -23.3800     2.2570    63.8980    56.3000    55.1470    19.4790    29.5790 
  182.5000   -23.3320     2.3070    63.6990    54.0030    52.8240    25.7790    27.9330 
  182.6250   -23.2850     2.3000    64.9120    54.5330    53.0920    27.6790    28.4120 
  182.7500   -23.3290     2.2540    67.9460    57.1780    55.3620    23.8160    30.5220 
  182.8750   -23.3580     2.1920    69.5230    61.2900    59.0780    20.8000    33.2280 
  183.0000   -23.3930     2.1300    68.0410    65.9290    63.3610    18.7560    35.1460 
  183.1250   -23.4660     2.0760    65.4280    69.9550    67.0680    16.7790    36.3700 
  183.2500   -23.4950     2.0280    63.3050    72.9950    69.7130    15.0900    37.4700 
  183.3750   -23.6410     1.9910    62.0470    75.3940    71.4810    13.8410    37.9490 
  183.5000   -23.9830     1.9680    62.1440    77.9850    73.0510    11.8620    38.0180 
  183.6250   -24.3740     1.9670    62.6130    81.9680    75.4740    10.5710    38.0180 
  183.7500   -24.8090     1.9840    62.4380    87.5400    79.1000    10.3480    38.0180 
  183.8750   -25.3360     2.0160    61.1930    94.1620    83.5790    10.2700    38.0180 
  184.0000   -25.8530     2.0540    59.8730   100.5490    87.9150    10.2170    37.7500 
  184.1250   -26.3060     2.0760    58.3860   104.5960    90.4790    11.1310    36.7620 
  184.2500   -26.7130     2.0640    57.6960   105.8030    90.8660    12.8060    35.5100 
  184.3750   -26.9260     2.0140    58.7180   105.1450    89.7940    14.7870    35.5140 
  184.5000   -26.8550     1.9440    60.2150   104.8340    88.9760    15.3560    36.9500 
  184.6250   -26.5690     1.9070    59.9070   107.9050    90.9120    14.3230    37.6160 
  184.7500   -26.1130     1.9420    58.0740   115.1790    96.3650    14.2170    36.5340 
  184.8750   -25.4290     2.0560    55.9410   126.0400   104.8810    17.0960    32.9250 
  185.0000   -24.6060     2.2180    53.5460   137.6280   114.2450    28.6640    28.1120 
  185.1250   -23.7370     2.3680    50.9980   143.0650   119.4450    51.3770    26.0360 
  185.2500   -22.8580     2.4550    50.8250   138.1940   117.2120    60.4080    25.8450 
  185.3750   -22.0450     2.4590    53.9540   124.0280   107.5290    46.4810    26.6090 
  185.5000   -21.3070     2.3920    57.0980   105.8870    93.6100    30.6580    28.1240 
  185.6250   -20.6220     2.2820    57.3600    89.5800    79.8820    22.1090    30.7590 
