~V
VERS. 2.00: Ver 2.00
~W
STRT.M 50.0000:
STOP.M 264.0000:
STEP.M 0.1250:
NULL. -999.2500:
UWI. DF32158:
~C
DEPT.M :
GR.API :
RML.OHMM :
RI. :
RXO.OHMM :
CALI.CM :
DEN.GM/CC :
SP.MV :
~A
# ...
  140.0000    76.9440     9.8130     9.4700    10.8220    23.7340     2.2150   -30.6900 
  140.1250    79.7390     9.2630     8.8850     9.4040    23.4370     2.2300   -30.3740 
  140.2500    81.9970     8.9470     8.4650     8.7260    23.1140     2.2310   -30.0810 
  140.3750    84.4470     8.9350     8.2940     8.9650    23.0210     2.2200   -29.8340 
  140.5000    85.4850     9.2020     8.3820     9.3620    23.0780     2.2040   -29.6400 
  140.6250    81.3450     9.6590     8.6930     9.5860    23.1100     2.1930   -29.5450 
  140.7500    75.4550    10.1190     9.0750     9.9470    23.1010     2.1900   -29.5670 
  140.8750    71.7750    10.4550     9.4100    10.4010    23.1410     2.1870   -29.6950 
  141.0000    71.9350    10.6210     9.6330    10.6940    23.3250     2.1760   -29.8710 
  141.1250    74.1030    10.6580     9.7480    10.6510    23.5970     2.1590   -30.0970 
  141.2500    75.9690    10.6890     9.8330    10.7280    23.7740     2.1470   -30.2920 
  141.3750    77.1450    10.7760     9.9310    10.7540    23.9570     2.1490   -30.4570 
  141.5000    76.5090    10.9310    10.0610    10.7340    24.1010     2.1640   -30.5780 
  141.6250    73.9550    11.1060    10.1950    11.0380    23.9670     2.1830   -30.6830 
  141.7500    72.3630    11.2090    10.2610    11.7220    23.7640     2.1930   -30.6960 
  141.8750    74.2470    11.1660    10.1960    12.0970    23.6950     2.1930   -30.6330 
  142.0000    78.3170    10.9350     9.9690    11.9280    23.6660     2.1900   -30.4710 
  142.1250    80.8190    10.5040     9.5730    10.9930    23.5380     2.1930   -30.1910 
  142.2500    82.5610     9.9900     9.1090    10.4140    23.3540     2.2040   -29.8480 
  142.3750    84.5030     9.5240     8.6750     9.7340    23.1870     2.2190   -29.4380 
  142.5000    84.8040     9.2310     8.3710     8.8620    23.0710     2.2300   -29.0170 
  142.6250    82.8160     9.2190     8.2920     8.9280    23.0340     2.2300   -28.5440 
  142.7500    81.8470     9.4250     8.4100     8.7720    23.0250     2.2200   -28.0930 
  142.8750    84.5080     9.7570     8.6700     8.9540    23.0240     2.2040   -27.6470 
  143.0000    87.6360    10.0720     8.9630     9.4680    23.0210     2.1850   -27.2310 
  143.1250    86.9990    10.1830     9.1180     9.7810    23.0140     2.1740   -26.8030 
  143.2500    85.0710    10.0520     9.0630     9.6440    23.0080     2.1760   -26.3360 
  143.3750    86.4700     9.7220     8.8200     9.4380    23.0090     2.1910   -25.8260 
  143.5000    91.9510     9.2860     8.4660     9.1910    23.0150     2.2170   -25.2440 
  143.6250    97.3630     8.8580     8.0950     8.5110    22.9850     2.2420   -24.6120 
  143.7500   100.6690     8.5260     7.7880     7.6810    22.8850     2.2590   -23.9720 
  143.8750   102.5620     8.3170     7.5710     7.5290    22.7910     2.2650   -23.3060 
  144.0000   103.0260     8.2160     7.4420     7.4880    22.9700     2.2630   -22.6440 
  144.1250   102.0710     8.1840     7.3790     7.0260    23.4880     2.2570   -22.0340 
  144.2500   101.4150     8.1250     7.3140     6.9100    24.1150     2.2520   -21.5040 
  144.3750   102.5000     7.9700     7.1930     7.1420    24.4080     2.2510   -21.0780 
  144.5000   104.7140     7.7390     7.0150     7.2540    24.2810     2.2580   -20.7060 
  144.6250   105.5690     7.5610     6.8640     7.1030    24.1990     2.2750   -20.4100 
  144.7500   103.4480     7.5400     6.8200     6.6300    24.5280     2.3030   -20.1140 
  144.8750   100.7060     7.5670     6.8280     6.5290    24.7160     2.3360   -19.8730 
  145.0000    99.9010     7.7130     6.9200     6.6300    24.9340     2.3670   -19.6960 
  145.1250   100.6640     7.9050     7.0700     8.3710    24.9960     2.3810   -19.6140 
  145.2500   100.2250     7.9690     7.1540    10.6950    24.9190     2.3720   -19.6030 
  145.3750    98.2220     7.8590     7.1160     9.5770    24.7950     2.3400   -19.6380 
  145.5000    95.8860     7.6660     6.9970     7.3640    24.7080     2.2950   -19.7520 
  145.6250    95.5570     7.5640     6.9110     6.3950    24.6270     2.2580   -19.9060 
  145.7500    97.2690     7.6060     6.9260     6.5920    24.5110     2.2380   -20.1220 
  145.8750   100.7170     7.7370     7.0280     7.2210    24.4470     2.2380   -20.3180 
  146.0000   105.9210     7.8420     7.1400     7.5960    24.6040     2.2510   -20.4710 
  146.1250   109.8180     7.7930     7.1490     7.0660    24.8560     2.2670   -20.5630 
  146.2500   112.6110     7.6240     7.0380     6.3270    24.9970     2.2790   -20.6280 
  146.3750   115.8550     7.4170     6.8510     6.0390    24.9970     2.2900   -20.6500 
  146.5000   118.8760     7.2200     6.6320     5.9470    24.8000     2.3040   -20.6620 
  146.6250   117.0330     7.0220     6.3950     5.9120    24.2410     2.3230   -20.6730 
  146.7500   113.0730     6.8060     6.1550     5.8520    23.5600     2.3440   -20.7040 
  146.8750   111.9750     6.6100     5.9450     5.8170    23.1440     2.3580   -20.8230 
  147.0000   111.4040     6.5160     5.8260     5.9260    23.0150     2.3570   -21.0490 
  147.1250   105.1040     6.6520     5.8930     6.1570    22.9920     2.3380   -21.4180 
  147.2500    98.6190     7.0050     6.1480     6.5450    22.9470     2.3060   -21.8580 
  147.3750    96.7870     7.5130     6.5630     7.1910    22.9040     2.2720   -22.3480 
  147.5000    98.1060     8.0790     7.0700     7.6220    22.9030     2.2430   -22.8350 
  147.6250    97.0360     8.5870     7.5640     7.8900    22.9740     2.2250   -23.3320 
  147.7500    94.4940     8.9720     7.9590     8.0950    23.0660     2.2130   -23.7750 
  147.8750    93.0060     9.2200     8.2190     8.3240    23.1770     2.2030   -24.1770 
  148.0000    93.4300     9.3510     8.3570     8.3920    23.3490     2.1920   -24.4740 
  148.1250    95.5520     9.3820     8.3920     8.2470    23.6750     2.1830   -24.6150 
  148.2500    98.6200     9.3450     8.3600     8.3070    24.0610     2.1810   -24.6540 
  148.3750   100.2570     9.2490     8.2650     8.4360    24.4470     2.1890   -24.5960 
  148.5000   100.1650     9.1080     8.1180     8.3910    24.7240     2.2050   -24.5020 
  148.6250    99.1330     8.9490     7.9400     8.2070    24.8780     2.2240   -24.3610 
  148.7500    99.8620     8.8220     7.7810     7.9950    24.9350     2.2370   -24.2520 
  148.8750   102.4820     8.7770     7.6910     7.9430    24.9490     2.2400   -24.1740 
  149.0000   103.9300     8.8470     7.7110     8.0310    24.9240     2.2300   -24.1880 
  149.1250   101.7300     9.0620     7.8780     8.2580    24.8440     2.2100   -24.3250 
  149.2500    97.6090     9.3910     8.1600     8.5900    24.7770     2.1910   -24.5360 
  149.3750    94.0440     9.8000     8.5250     9.0710    24.8200     2.1780   -24.8060 
  149.5000    93.4400    10.2350     8.9320     9.6140    24.9540     2.1700   -25.0810 
  149.6250    94.1640    10.6350     9.3350    10.0510    25.0060     2.1550   -25.3180 
  149.7500    93.2930    10.9700     9.7020    10.4450    25.0050     2.1260   -25.4930 
  149.8750    89.7220    11.2600    10.0430    10.5990    25.0100     2.0890   -25.5760 
  150.0000    87.9080    11.3170    10.1100    10.6280    25.0150     2.0730   -25.5470 
  150.1250    91.6440    11.6670    10.4960    10.5200    25.0030     2.1180   -25.3430 
  150.2500    96.0560    12.1100    10.9550    10.5760    24.8200     2.2140   -24.9990 
  150.3750    99.1350    12.5460    11.4180    10.5910    24.3130     2.3270   -24.5800 
  150.5000   102.3790    12.8000    11.7340    10.3830    23.6340     2.4130   -24.0810 
  150.6250   104.4200    12.6250    11.6740    10.3190    23.1370     2.4390   -23.5700 
  150.7500   103.9770    12.0370    11.2140    10.0990    23.1440     2.4210   -23.0370 
  150.8750   103.3070    11.1790    10.4510     9.3070    23.6460     2.3830   -22.5370 
  151.0000   104.4020    10.2890     9.5810     8.4320    24.2880     2.3420   -22.0710 
  151.1250   106.4850     9.5640     8.7970     8.6950    24.3500     2.3070   -21.7100 
