~V
VERS. 2.00: Ver 2.00
~W
STRT.M 62.0000:
STOP.M 256.0000:
STEP.M 0.1250:
NULL. -999.2500:
UWI. DF32087:
~C
DEPT.M :
SP.MV :
GR.API :
RML.OHMM :
RI. :
RXO.OHMM :
CALI.CM :
DEN.GM/CC :
~A
# ...
  242.0000   -12.5750    58.4520    15.8480    15.1300    23.7120    24.4400     2.5450 
  242.1250   -12.5750    57.7440    15.4750    14.8280    23.5740    24.3920     2.5260 
  242.2500   -12.4310    57.4460    15.0740    14.5020    21.7010    24.2950     2.5030 
  242.3750   -12.2790    57.6980    14.6990    14.1930    19.1080    24.1760     2.4850 
  242.5000   -12.2640    58.6950    14.4270    13.9650    16.6330    24.0540     2.4800 
  242.6250   -12.1050    61.3570    14.3780    13.9210    16.0200    24.0140     2.4930 
  242.7500   -11.9550    63.2610    14.5610    14.0830    15.8490    24.0320     2.5130 
  242.8750   -11.9110    62.8430    14.9570    14.4510    15.4360    24.0650     2.5320 
  243.0000   -11.7810    60.9760    15.4890    14.9760    15.0480    24.0830     2.5420 
  243.1250   -11.6150    59.9830    16.0440    15.5720    16.2520    24.1150     2.5380 
  243.2500   -11.5950    59.7170    16.5130    16.1260    18.3170    24.1750     2.5280 
  243.3750   -11.6120    58.7870    16.8600    16.5810    19.1260    24.2130     2.5190 
  243.5000   -11.5860    58.2470    17.1070    16.9340    17.3690    24.1990     2.5180 
  243.6250   -11.6000    59.0270    17.3040    17.2090    15.7160    24.1990     2.5270 
  243.7500   -11.5590    58.6540    17.4950    17.4460    14.5730    24.2350     2.5430 
  243.8750   -11.5500    56.7960    17.6530    17.6290    13.9560    24.2960     2.5600 
  244.0000   -11.5800    54.8720    17.7140    17.7090    14.3960    24.3890     2.5730 
  244.1250   -11.6060    54.4910    17.5930    17.6120    14.7300    24.5120     2.5780 
  244.2500   -11.5460    54.5180    17.3320    17.3760    13.7250    24.5950     2.5750 
  244.3750   -11.3820    54.9540    17.0300    17.0870    12.0810    24.6240     2.5610 
  244.5000   -11.2750    56.9300    16.8180    16.8640    11.3570    24.6260     2.5370 
  244.6250   -11.2730    59.5380    16.8330    16.8440    12.0390    24.6260     2.5040 
  244.7500   -11.2290    60.4080    17.0440    17.0200    13.1130    24.6220     2.4700 
  244.8750   -11.0800    59.4810    17.3600    17.3290    13.5180    24.5950     2.4450 
  245.0000   -10.9030    58.5580    17.6510    17.6580    13.8230    24.5320     2.4360 
  245.1250   -10.7360    58.7720    17.7790    17.8700    15.9730    24.4690     2.4480 
  245.2500   -10.5760    59.3910    17.7490    17.9310    20.8450    24.4420     2.4730 
  245.3750   -10.4750    59.7030    17.6380    17.8810    26.3250    24.4420     2.5010 
  245.5000   -10.3230    59.7030    17.5580    17.8120    27.8830    24.4440     2.5220 
  245.6250   -10.1370    59.7030    17.6390    17.8510    23.1870    24.3720     2.5310 
  245.7500   -10.0270    59.7030    17.9000    18.0520    21.8190    24.2310     2.5360 
  245.8750    -9.9990    59.7030    18.3150    18.4180    22.9110    24.1140     2.5410 
  246.0000   -10.0720    59.7030    18.8280    18.9080    24.8830    24.0740     2.5480 
  246.1250   -10.1950    59.7030    19.3690    19.4650    26.6500    24.1230     2.5520 
  246.2500   -10.2920    59.7030    19.8810    20.0180    27.8640    24.2720     2.5480 
  246.3750   -10.3120    59.7030    20.3460    20.5380    28.7090    24.4300     2.5360 
  246.5000   -10.3530    59.7030    20.7640    21.0140    29.9260    24.5120     2.5190 
  246.6250   -10.4480    59.7030    21.1300    21.4350    31.3270    24.5210     2.5080 
  246.7500   -10.4690    59.7030    21.4400    21.7900    33.8570    24.4820     2.5080 
  246.8750   -10.4950    59.7030    21.6620    22.0430    35.3380    24.3920     2.5180 
  247.0000   -10.5060    59.7030    21.7510    22.1420    31.7350    24.2740     2.5340 
  247.1250   -10.4510    59.7030    21.6200    21.9950    29.3520    24.1570     2.5500 
  247.2500   -10.4690    59.7030    21.2580    21.6120    27.0210    24.0550     2.5640 
  247.3750   -10.5240    59.7030    20.6680    21.0090    25.1430    23.9510     2.5730 
  247.5000   -10.5790    59.7030    19.9030    20.2410    23.0430    23.8770     2.5790 
  247.6250   -10.6310    59.7030    19.0520    19.3840    19.1690    23.8250     2.5800 
  247.7500   -10.7070    59.7030    18.2400    18.5480    16.6310    23.8080     2.5750 
  247.8750   -10.7100    59.7030    17.5530    17.8160    17.0950    23.8010     2.5620 
  248.0000   -10.6830    59.7030    17.0550    17.2580    18.8770    23.8000     2.5430 
  248.1250   -10.6570    59.7030    16.8270    16.9710    19.7990    23.8060     2.5270 
  248.2500   -10.5850    59.7030    16.8290    16.9280    17.1990    23.8290     2.5170 
  248.3750   -10.6000    59.7030    17.0110    17.0860    15.1940    23.8910     2.5160 
  248.5000   -10.5910    59.7030    17.2740    17.3580    14.1490    23.9760     2.5220 
  248.6250   -10.5500    59.7030    17.4710    17.6120    13.9910    24.0450     2.5280 
  248.7500   -10.5360    59.7030    17.5030    17.7400    13.2930    24.0790     2.5300 
  248.8750   -10.5640    59.7030    17.3480    17.7000    12.7680    24.1200     2.5250 
  249.0000   -10.5670    59.7030    17.0570    17.5180    12.5890    24.2010     2.5150 
  249.1250   -10.5730    59.7030    16.7390    17.2730    12.8970    24.2470     2.5070 
  249.2500   -10.5580    59.7030    16.4920    17.0610    13.2830    24.2710     2.5050 
  249.3750   -10.5420    59.7030    16.3440    16.9230    13.6840    24.2990     2.5130 
  249.5000   -10.4940    59.7030    16.2780    16.8580    13.9780    24.3380     2.5270 
  249.6250   -10.3410    59.7030    16.2610    16.8440    13.5480    24.3450     2.5400 
  249.7500   -10.1910    59.7030    16.2550    16.8450    12.8010    24.3660     2.5460 
  249.8750   -10.0690    59.7030    16.2500    16.8500    12.2040    24.4270     2.5450 
  250.0000   -10.0540    59.7030    16.2460    16.8540    12.0780    24.5100     2.5400 
  250.1250   -10.0790    59.7030    16.2420    16.8550    12.1630    24.5450     2.5340 
  250.2500   -10.0450    59.7030    16.2390    16.8540    12.3950    24.5570     2.5300 
  250.3750    -9.9110    59.7030    16.2360    16.8520    12.4120    24.5540     2.5260 
  250.5000    -9.7860    59.7030    16.2330    16.8480    12.6480    24.5400     2.5200 
  250.6250    -9.7720    59.7030    16.2320    16.8440    13.4900    24.5320     2.5110 
  250.7500    -9.8530    59.7030    16.2330    16.8420    14.6970    24.5300     2.5020 
  250.8750    -9.9470    59.7030    16.2340    16.8410    15.0900    24.5190     2.4960 
  251.0000    -9.9630    59.7030    16.2360    16.8410    13.8810    24.4790     2.4980 
  251.1250    -9.9060    59.7030    16.2370    16.8430    13.0710    24.3690     2.5110 
  251.2500    -9.9470    59.7030    16.2380    16.8440    12.6520    24.2480     2.5310 
  251.3750   -10.0530    59.7030    16.2380    16.8440    12.1750    24.1220     2.5520 
  251.5000   -10.1520    59.7030    16.2380    16.8440    11.8260    24.0390     2.5670 
  251.6250   -10.2310    59.7030    16.2380    16.8440    11.9850    24.0320     2.5710 
  251.7500   -10.2100    59.7030    16.2380    16.8440    12.6970    24.0550     2.5620 
  251.8750   -10.0740    59.7030    16.2380    16.8440    14.7390    24.0630     2.5430 
  252.0000    -9.9200    59.7030    16.2380    16.8440    18.6620    24.0420     2.5180 
  252.1250    -9.8390    59.7030    16.2380    16.8440    22.3620    23.9840     2.4960 
  252.2500    -9.7920    59.7030    16.2380    16.8440    26.3610    23.9290     2.4820 
  252.3750    -9.7080    59.7030    16.2380    16.8440    28.0460    23.8680     2.4790 
  252.5000    -9.6020    59.7030    16.2380    16.8440    28.4800    23.7930     2.4850 
  252.6250    -9.5800    59.7030    16.2380    16.8440    27.6700    23.7320     2.4960 
  252.7500    -9.5200    59.7030    16.2380    16.8440    26.7440    23.7090     2.5060 
  252.8750    -9.5110    59.7030    16.2380    16.8440    23.6790    23.7020     2.5100 
  253.0000    -9.5720    59.7030    16.2380    16.8440    23.4170    23.7210     2.5100 
  253.1250    -9.5540    59.7030    16.2380    16.8440    23.6380    23.7510     2.5090 
