~V
VERS. 2.00: Ver 2.00
~W
STRT.M 62.0000:
STOP.M 260.0000:
STEP.M 0.1250:
NULL. -999.2500:
UWI. DF32117:
~C
DEPT.M :
GR.API :
CALI.CM :
RXO.OHMM :
RI. :
RML.OHMM :
DEN.GM/CC :
SP.MV :
~A
# ...
  230.7500    63.4600    26.5230   100.8520    82.3660    85.1320     2.2610   -26.0400 
  230.8750    61.2160    26.5360    98.2810    84.7470    86.9580     2.2370   -25.8770 
  231.0000    63.0650    26.5410    96.1570    86.1160    87.7270     2.2190   -25.7110 
  231.1250    64.8370    26.5400    96.2690    86.4840    87.7650     2.2180   -25.5450 
  231.2500    62.1220    26.5400    96.9040    86.5730    87.8160     2.2320   -25.4060 
  231.3750    58.6890    26.5420    97.9130    86.6170    87.9670     2.2500   -25.2860 
  231.5000    59.4950    26.5440    99.3580    86.0890    87.4650     2.2590   -25.1690 
  231.6250    63.8700    26.5360   100.7130    83.3680    84.4230     2.2570   -25.0640 
  231.7500    66.0550    26.5190   101.1250    78.0020    78.4590     2.2510   -24.9750 
  231.8750    67.1610    26.5000    95.9650    70.6770    70.5500     2.2460   -24.8880 
  232.0000    69.4030    26.4880    80.8570    63.0190    62.6330     2.2380   -24.7890 
  232.1250    70.3990    26.4970    61.6130    57.1070    56.9280     2.2340   -24.6780 
  232.2500    69.4600    26.5150    51.8520    53.7530    54.0030     2.2440   -24.5430 
  232.3750    68.7580    26.4980    54.7080    53.0910    53.8070     2.2670   -24.3990 
  232.5000    71.6770    26.4220    63.3160    54.6770    55.7940     2.2940   -24.2640 
  232.6250    75.3360    26.3340    66.1560    57.6610    59.0460     2.3090   -24.1730 
  232.7500    75.5440    26.2870    63.6880    60.3380    61.7980     2.3160   -24.1530 
  232.8750    73.8200    26.2860    61.7280    61.3340    62.6090     2.3220   -24.2290 
  233.0000    73.3510    26.2960    60.0030    59.9800    60.8810     2.3310   -24.3960 
  233.1250    73.5750    26.2270    53.2290    56.6120    57.2270     2.3320   -24.6300 
  233.2500    71.9370    26.1370    43.1550    52.8730    53.4480     2.3170   -24.8790 
  233.3750    70.3200    26.0250    34.4710    49.7670    50.5310     2.2950   -25.1210 
  233.5000    70.9140    25.7830    30.9350    47.8690    48.9760     2.2890   -25.3400 
  233.6250    72.5870    25.4400    35.0730    47.5320    49.0620     2.3170   -25.4780 
  233.7500    75.3410    25.3260    43.0220    48.2080    50.1580     2.3610   -25.5080 
  233.8750    79.0420    25.5440    48.1820    49.3550    51.6560     2.3940   -25.4270 
  234.0000    80.4680    25.8250    45.6010    50.3850    52.9020     2.4020   -25.2540 
  234.1250    78.2160    25.7910    38.0300    50.7740    53.3400     2.3930   -25.0210 
  234.2500    78.1930    25.5860    33.8800    50.6250    53.1800     2.3910   -24.7630 
  234.3750    82.2210    25.4640    35.5230    50.2520    52.8360     2.3990   -24.4900 
  234.5000    85.9990    25.5930    39.8720    49.9880    52.6980     2.4070   -24.2130 
  234.6250    83.1320    25.9100    41.7710    50.0830    53.0300     2.3960   -23.9240 
  234.7500    76.8760    26.1540    41.6420    50.4440    53.6920     2.3730   -23.6450 
  234.8750    74.5680    26.2480    42.8080    50.8570    54.4290     2.3510   -23.3870 
  235.0000    78.4060    26.2340    45.9140    51.0170    54.8810     2.3340   -23.1410 
  235.1250    81.2090    26.1770    48.1080    50.4730    54.4930     2.3170   -22.9030 
  235.2500    78.1400    26.2210    48.1150    49.0910    53.0700     2.3040   -22.6750 
  235.3750    73.4630    26.2330    46.2960    46.9650    50.7310     2.3160   -22.4540 
  235.5000    72.7120    25.8900    42.4800    44.5700    48.0930     2.3580   -22.2440 
  235.6250    72.4550    25.1120    36.9510    42.8640    46.3260     2.4010   -22.0590 
  235.7500    69.2840    24.3980    33.0290    42.7070    46.3920     2.4070   -21.8770 
  235.8750    65.3420    24.0040    33.6980    45.0610    49.2220     2.3770   -21.6720 
  236.0000    63.0390    23.8130    40.6850    51.0900    55.8200     2.3420   -21.4290 
  236.1250    62.5790    23.6840    58.9760    62.6380    68.1090     2.3410   -21.0760 
  236.2500    62.3280    23.7670    96.5660    77.6570    84.4190     2.3750   -20.5960 
  236.3750    63.0110    24.2060   160.0960    89.8220    96.8630     2.4360   -19.9970 
  236.5000    62.6280    24.9580   230.1690    88.2250    90.4250     2.5100   -19.3150 
  236.6250    58.1790    25.6550   220.6520    67.0360    63.3620     2.5720   -18.5650 
  236.7500    53.2110    26.0080   138.1650    42.5030    38.3920     2.5930   -17.7800 
  236.8750    51.5490    26.0880    54.2390    24.4400    22.2520     2.5630   -16.9880 
  237.0000    53.8780    26.0790    16.6760    13.9930    13.2160     2.4940   -16.2320 
  237.1250    56.8750    26.0750     7.4070     9.2010     8.9260     2.4220   -15.5940 
  237.2500    59.6240    26.0730     4.9040     6.8060     6.7880     2.3750   -15.1050 
  237.3750    61.3260    26.0720     4.5520     5.6610     5.8950     2.3580   -14.7690 
  237.5000    60.7420    26.0700     4.5960     5.2090     5.7050     2.3610   -14.5410 
  237.6250    58.6190    26.0570     4.6330     5.1710     5.8690     2.3750   -14.4150 
  237.7500    59.1890    26.0300     4.7320     5.2610     6.0750     2.3910   -14.3600 
  237.8750    62.9000    25.9840     4.8320     5.3540     6.2020     2.4010   -14.3650 
  238.0000    66.1830    25.9240     4.8670     5.3930     6.2210     2.4020   -14.4210 
  238.1250    65.6760    25.8710     4.8460     5.3590     6.1380     2.3960   -14.4880 
  238.2500    63.8390    25.8340     4.8580     5.2760     6.0000     2.3930   -14.5280 
  238.3750    63.0300    25.8020     4.9160     5.1600     5.8440     2.3930   -14.5300 
  238.5000    62.6880    25.7710     4.9630     5.0300     5.7000     2.3870   -14.5030 
  238.6250    63.4370    25.7110     4.9230     4.9000     5.5990     2.3630   -14.4480 
  238.7500    65.6740    25.7730     4.8420     4.7850     5.5450     2.3320   -14.3920 
  238.8750    66.7200    25.9390     4.7930     4.6920     5.5300     2.3120   -14.3320 
  239.0000    65.2150    25.9230     4.8090     4.6260     5.5410     2.3150   -14.2590 
  239.1250    62.0680    25.5820     4.8520     4.5890     5.5690     2.3390   -14.2060 
  239.2500    59.4070    25.3470     4.8650     4.5670     5.6020     2.3620   -14.1780 
  239.3750    58.1030    25.4360     4.8160     4.5520     5.6270     2.3700   -14.1570 
  239.5000    58.8890    25.6260     4.6910     4.5360     5.6310     2.3570   -14.1400 
  239.6250    60.6590    25.6500     4.5330     4.5140     5.6070     2.3310   -14.1350 
  239.7500    60.5810    25.6910     4.4450     4.4890     5.5650     2.3200   -14.1330 
  239.8750    59.2670    25.8360     4.4820     4.4610     5.5210     2.3360   -14.1250 
  240.0000    58.6340    26.0230     4.6450     4.4330     5.4890     2.3670   -14.1100 
  240.1250    58.9710    26.0760     4.8590     4.4080     5.4780     2.3870   -14.0690 
  240.2500    60.1830    25.9980     4.9670     4.3870     5.4810     2.3890   -14.0200 
  240.3750    62.9520    25.9130     4.9110     4.3750     5.5010     2.3800   -13.9870 
  240.5000    66.1920    25.9100     4.7700     4.3770     5.5520     2.3680   -13.9650 
  240.6250    65.9010    25.8690     4.6710     4.4050     5.6690     2.3550   -13.9350 
  240.7500    62.8130    25.8950     4.6080     4.4660     5.8670     2.3470   -13.8920 
  240.8750    60.4740    26.0440     4.5450     4.5720     6.1560     2.3470   -13.8560 
  241.0000    60.5200    26.0800     4.5000     4.7270     6.5280     2.3520   -13.8280 
  241.1250    60.7770    25.8500     4.5020     4.9290     6.9410     2.3540   -13.8150 
  241.2500    60.4840    25.7680     4.5100     5.1370     7.3160     2.3520   -13.8190 
  241.3750    61.2470    25.9830     4.5150     5.3040     7.5740     2.3520   -13.8330 
  241.5000    62.7420    26.0920     4.5760     5.3800     7.6520     2.3560   -13.8580 
  241.6250    63.8610    25.7660     4.8100     5.3140     7.5040     2.3590   -13.9050 
  241.7500    65.0250    25.4400     5.1650     5.1480     7.2220     2.3600   -13.9670 
  241.8750    66.1720    25.3160     5.4940     4.9330     6.9010     2.3610   -14.0190 
