~V
VERS. 2.00: Ver 2.00
~W
STRT.M 60.0000:
STOP.M 227.0000:
STEP.M 0.1250:
NULL. -999.2500:
UWI. DF32025:
~C
DEPT.M :
DEN.GM/CC :
GR.API :
RML.OHMM :
RI. :
RXO.OHMM :
CALI.CM :
SP.MV :
~A
# ...
  172.5000     2.4270    84.5970     9.8540     7.7840     8.9910    24.0460   -18.3040 
  172.6250     2.4130    85.2180     9.9880     7.9460     8.7750    24.2720   -18.9960 
  172.7500     2.4000    83.8520    10.0420     8.0270     8.6690    24.3530   -19.5860 
  172.8750     2.3870    80.8010    10.0860     8.0670     8.9790    24.3260   -20.1950 
  173.0000     2.3730    78.4480    10.1700     8.1060     9.7570    24.2760   -20.5930 
  173.1250     2.3620    78.1060    10.3030     8.1670    10.1090    24.2560   -20.9580 
  173.2500     2.3570    77.3500    10.4330     8.2390    10.1150    24.2570   -21.1360 
  173.3750     2.3590    76.0690    10.5100     8.3000     9.9960    24.2610   -21.2100 
  173.5000     2.3630    77.1180    10.5170     8.3440    10.0550    24.2670   -21.1790 
  173.6250     2.3670    80.7530    10.5010     8.4060    10.2630    24.2810   -21.0050 
  173.7500     2.3710    83.9640    10.5780     8.5570    10.5400    24.2930   -20.7760 
  173.8750     2.3770    85.8880    10.8700     8.8820    10.8240    24.2910   -20.4600 
  174.0000     2.3920    86.5390    11.4530     9.4400    11.1850    24.2690   -20.1420 
  174.1250     2.4230    84.6860    12.2980    10.2240    11.9160    24.2500   -19.7620 
  174.2500     2.4650    79.8990    13.1160    11.0210    13.3150    24.2610   -19.3790 
  174.3750     2.5090    77.8370    13.5870    11.5820    15.1730    24.2690   -18.9770 
  174.5000     2.5390    83.1520    13.4330    11.6650    17.5790    24.2470   -18.5550 
  174.6250     2.5320    92.1470    12.4750    11.0560    16.3520    24.2580   -18.0920 
  174.7500     2.4920    95.4840    11.1000     9.9920    13.1660    24.3300   -17.5540 
  174.8750     2.4310    90.9650     9.6890     8.7500    10.0000    24.4670   -16.8690 
  175.0000     2.3690    81.5640     8.5350     7.5990     8.1750    24.6400   -16.1860 
  175.1250     2.3290    69.8210     7.8190     6.7620     6.9680    24.7030   -15.3750 
  175.2500     2.3160    59.7320     7.4490     6.2340     6.0900    24.3500   -14.6090 
  175.3750     2.3280    53.0220     7.3410     5.9740     5.9670    23.8510   -13.8560 
  175.5000     2.3560    49.4110     7.3970     5.9110     6.0210    23.5840   -13.1160 
  175.6250     2.3860    47.4610     7.5280     5.9720     5.8650    23.5540   -12.5180 
  175.7500     2.4080    45.7060     7.6470     6.0620     5.6140    23.5520   -11.9450 
  175.8750     2.4210    45.0970     7.7110     6.1330     5.5110    23.5650   -11.5590 
  176.0000     2.4270    47.8890     7.7070     6.1590     5.5240    23.6020   -11.2000 
  176.1250     2.4280    51.3690     7.6500     6.1370     5.6390    23.6510   -11.0230 
  176.2500     2.4220    51.8420     7.5940     6.1000     5.6880    23.6770   -10.8890 
  176.3750     2.4100    50.2510     7.5770     6.0740     5.7560    23.6820   -10.7680 
  176.5000     2.3890    50.7390     7.6190     6.0790     5.9110    23.6550   -10.7120 
  176.6250     2.3650    52.7200     7.7190     6.1200     6.1740    23.5950   -10.5740 
  176.7500     2.3460    53.1710     7.8290     6.1720     6.2510    23.6200   -10.4800 
  176.8750     2.3390    53.1970     7.9030     6.2100     5.9970    23.7230   -10.3480 
  177.0000     2.3480    54.9000     7.9070     6.2120     5.6780    23.7370   -10.2540 
  177.1250     2.3720    60.3640     7.8210     6.1620     5.4890    23.4970   -10.1060 
  177.2500     2.4020    67.4450     7.6860     6.0800     5.4520    23.2440    -9.9940 
  177.3750     2.4280    72.6530     7.5430     5.9900     5.5050    23.1740    -9.9110 
  177.5000     2.4410    73.9880     7.4290     5.9180     5.7330    23.3310    -9.8820 
  177.6250     2.4270    73.1020     7.3810     5.8930     5.7870    23.6110    -9.8600 
  177.7500     2.3910    73.5230     7.3990     5.9220     5.7650    23.8750    -9.9330 
  177.8750     2.3430    74.8400     7.4780     6.0040     5.5200    24.1750    -9.9980 
  178.0000     2.3000    75.8230     7.6030     6.1280     5.4310    24.5700   -10.1070 
  178.1250     2.2800    76.5750     7.7370     6.2660     5.4700    24.4600   -10.2720 
  178.2500     2.2850    78.6090     7.8270     6.3770     5.5900    24.2030   -10.4460 
  178.3750     2.3080    81.4810     7.8350     6.4260     5.8130    24.1890   -10.6660 
  178.5000     2.3370    83.3550     7.7440     6.3910     6.0910    24.2350   -10.8400 
  178.6250     2.3590    84.0280     7.5720     6.2690     6.4360    24.1520   -11.1010 
  178.7500     2.3720    84.8940     7.3980     6.1170     6.4990    24.1110   -11.3070 
  178.8750     2.3790    85.3630     7.2830     5.9870     6.1960    24.1000   -11.6230 
  179.0000     2.3850    84.6720     7.2720     5.9270     6.0750    23.9800   -11.9020 
  179.1250     2.3930    84.6620     7.4010     5.9840     6.5470    23.9130   -12.2650 
  179.2500     2.4020    84.1680     7.6440     6.1520     7.3460    23.8910   -12.6250 
  179.3750     2.4060    83.3160     7.9900     6.4320     7.8140    23.9110   -12.9620 
  179.5000     2.4020    85.3770     8.4360     6.8210     8.0940    23.9340   -13.3480 
  179.6250     2.3880    90.2460     8.9900     7.3290     8.6500    23.9340   -13.6730 
  179.7500     2.3710    91.8480     9.6170     7.9240     9.6220    23.9170   -14.0410 
  179.8750     2.3550    88.8850    10.2850     8.5840    11.0030    23.9150   -14.3310 
  180.0000     2.3440    84.5200    10.9650     9.2880    12.5180    23.9440   -14.6730 
  180.1250     2.3370    80.2480    11.6330    10.0130    13.1780    23.9700   -14.9000 
  180.2500     2.3310    77.1000    12.2840    10.7390    12.9320    23.9730   -15.1400 
  180.3750     2.3230    77.9680    12.9200    11.4560    13.3550    23.9810   -15.3470 
  180.5000     2.3130    80.1900    13.5390    12.1580    15.2370    23.9550   -15.5150 
  180.6250     2.3040    77.7420    14.1420    12.8500    18.2680    23.8610   -15.6680 
  180.7500     2.2970    74.4690    14.7660    13.5650    17.4030    23.7850   -15.8020 
  180.8750     2.2890    76.3950    15.4880    14.3640    15.8640    23.7530   -15.9230 
  181.0000     2.2800    82.1340    16.4010    15.3280    15.5220    23.7360   -16.0280 
  181.1250     2.2660    82.4120    17.5860    16.5610    18.2150    23.7050   -16.1670 
  181.2500     2.2480    76.9860    18.9020    17.9900    20.4130    23.6840   -16.1830 
  181.3750     2.2300    71.9920    20.1460    19.4630    20.9550    23.6760   -16.2320 
  181.5000     2.2150    71.0740    21.1140    20.7810    20.9820    23.6760   -16.1990 
  181.6250     2.2090    73.3520    21.7160    21.7870    22.1710    23.6620   -16.1250 
  181.7500     2.2110    75.5000    22.2260    22.6320    23.6870    23.6270   -16.0220 
  181.8750     2.2180    76.3110    22.8830    23.5130    22.9640    23.5880   -15.8170 
  182.0000     2.2270    75.1330    23.6280    24.5170    22.0610    23.5810   -15.5640 
  182.1250     2.2400    73.0880    24.2630    25.4360    25.6280    23.6530   -15.2510 
  182.2500     2.2590    71.6900    24.3910    25.8630    36.6440    23.7990   -14.9600 
  182.3750     2.2850    69.7190    24.0730    25.4750    40.7330    23.9550   -14.6640 
  182.5000     2.3120    66.9860    23.1900    24.2330    33.4690    24.0630   -14.3740 
  182.6250     2.3250    67.9850    22.8720    22.4820    24.5720    24.0870   -14.1810 
  182.7500     2.3190    73.5130    23.0450    20.9400    20.9560    24.0510   -13.9590 
  182.8750     2.2970    79.8080    22.9000    19.9960    22.7220    23.9380   -13.8870 
  183.0000     2.2700    81.5340    22.6340    19.7380    26.2940    23.6950   -13.8060 
  183.1250     2.2530    76.9240    22.9660    20.1430    27.5660    23.3570   -13.7920 
  183.2500     2.2500    70.8300    23.7410    21.0560    32.8370    23.1270   -13.8370 
  183.3750     2.2550    67.0070    25.2290    22.6540    30.4330    23.0190   -13.8580 
  183.5000     2.2600    66.9280    27.8920    25.2940    20.9090    22.9590   -13.9340 
  183.6250     2.2530    69.0760    32.0730    29.3920    24.1910    22.9700   -13.9720 
