~V
VERS. 2.00: Ver 2.00
~W
STRT.M 62.0000:
STOP.M 282.0000:
STEP.M 0.1250:
NULL. -999.2500:
UWI. DF32160:
~C
DEPT.M :
GR.API :
CALI.CM :
RXO.OHMM :
RI. :
RML.OHMM :
DEN.GM/CC :
SP.MV :
~A
# ...
  208.2500    56.7850    23.1730     4.3110     4.6550     4.7660     2.5580   -16.1350 
  208.3750    53.6020    23.0730     4.2800     4.4830     4.8070     2.5320   -15.5790 
  208.5000    53.3180    22.9870     4.3210     4.5880     5.0420     2.5370   -15.1460 
  208.6250    54.3970    22.8910     4.3990     4.7800     5.2550     2.5480   -14.8570 
  208.7500    56.2210    22.7280     4.4000     4.9400     5.3750     2.5300   -14.6870 
  208.8750    57.8600    22.4860     4.3180     5.0380     5.4210     2.4860   -14.6230 
  209.0000    59.2830    22.1960     4.2310     5.0700     5.4180     2.4380   -14.6380 
  209.1250    57.6250    21.8700     4.1900     5.0270     5.3670     2.4070   -14.7140 
  209.2500    53.5960    21.4900     4.1540     4.9290     5.2740     2.3870   -14.8260 
  209.3750    50.0830    21.0370     4.1110     4.7950     5.1520     2.3790   -14.9610 
  209.5000    48.7340    20.5260     4.1090     4.6550     5.0360     2.3810   -15.1040 
  209.6250    47.5950    20.0460     4.2050     4.5480     4.9820     2.3800   -15.2650 
  209.7500    47.5720    19.6510     4.3440     4.4920     5.0180     2.3730   -15.4280 
  209.8750    50.6120    19.3150     4.4860     4.4880     5.1520     2.3680   -15.5880 
  210.0000    56.6010    18.9900     4.6990     4.5290     5.3710     2.3760   -15.7530 
  210.1250    61.0520    18.7360     5.1420     4.6080     5.6590     2.3940   -15.9220 
  210.2500    60.9930    18.7220     5.6900     4.7150     5.9950     2.4110   -16.0860 
  210.3750    58.1880    19.0230     6.0990     4.8550     6.3740     2.4220   -16.2520 
  210.5000    57.1170    19.5520     6.2960     5.0310     6.7910     2.4280   -16.4440 
  210.6250    61.9890    20.1970     6.5520     5.2490     7.2340     2.4320   -16.6780 
  210.7500    69.9440    20.8980     7.0330     5.4960     7.6740     2.4350   -16.9820 
  210.8750    76.6620    21.6070     7.5270     5.7600     8.0940     2.4400   -17.3860 
  211.0000    82.4360    22.2240     7.7370     6.0390     8.5040     2.4500   -17.8920 
  211.1250    89.2020    22.7010     7.8450     6.3530     8.9750     2.4630   -18.5370 
  211.2500    94.0010    23.0730     8.6310     6.7340     9.5900     2.4710   -19.2990 
  211.3750    94.5240    23.3050    10.8200     7.2070    10.3900     2.4660   -20.1640 
  211.5000    92.1700    23.3950    14.8170     7.7630    11.3480     2.4520   -21.0940 
  211.6250    89.7610    23.4340    20.0440     8.3370    12.3180     2.4390   -22.0040 
  211.7500    87.7370    23.5190    23.2240     8.8120    13.0680     2.4290   -22.8150 
  211.8750    87.0520    23.6500    22.0280     9.0860    13.4200     2.4170   -23.4860 
  212.0000    88.1930    23.7950    17.6750     9.1190    13.3440     2.4000   -23.9900 
  212.1250    88.1500    23.9150    13.9880     8.9750    13.0450     2.3880   -24.2620 
  212.2500    86.7440    23.9850    12.3570     8.8860    12.9750     2.3880   -24.3460 
  212.3750    86.3210    24.0090    12.1460     9.0520    13.4730     2.4000   -24.2450 
  212.5000    86.8900    24.0090    12.8030     9.5980    14.6820     2.4200   -23.9640 
  212.6250    85.5250    24.0030    14.9130    10.5130    16.4160     2.4540   -23.5760 
  212.7500    84.4060    23.9980    18.3060    11.3940    17.8220     2.5030   -23.1800 
  212.8750    85.0940    23.9980    20.6180    11.7810    18.0530     2.5530   -22.8130 
  213.0000    86.7130    24.0340    19.0100    11.4160    16.8320     2.5800   -22.4990 
  213.1250    89.6120    24.2030    14.0590    10.4770    14.8420     2.5590   -22.2520 
  213.2500    93.1840    24.4980    10.3140     9.5660    13.2430     2.5080   -22.0510 
  213.3750    94.3020    24.8010     9.4140     8.9880    12.4740     2.4550   -21.8760 
  213.5000    91.3270    24.9840    10.6440     8.8290    12.5080     2.4200   -21.6970 
  213.6250    89.9720    25.0230    12.3040     8.9910    12.9790     2.4070   -21.4520 
  213.7500    92.7920    25.0240    12.9110     9.1160    13.1710     2.4030   -21.1140 
  213.8750    94.8120    25.0230    12.1670     8.9100    12.6270     2.4060   -20.6660 
  214.0000    90.6820    25.0120    10.5180     8.2780    11.3460     2.4130   -20.1170 
  214.1250    81.0350    24.9730     8.6700     7.3710     9.7780     2.4220   -19.4860 
  214.2500    71.5580    24.9180     7.1580     6.5000     8.4360     2.4280   -18.8270 
  214.3750    64.7240    24.8590     6.1060     5.8040     7.4750     2.4320   -18.1780 
  214.5000    60.0080    24.7630     5.4570     5.3250     6.8810     2.4400   -17.5800 
  214.6250    56.3300    24.6170     5.1350     5.0660     6.6000     2.4520   -17.0840 
  214.7500    54.6500    24.5570     4.9740     4.9390     6.4780     2.4530   -16.6840 
  214.8750    55.7310    24.6640     4.8950     4.8960     6.4380     2.4370   -16.3790 
  215.0000    58.3270    24.8480     4.8530     4.9020     6.4380     2.4100   -16.1580 
  215.1250    61.3160    24.9260     4.8660     4.9510     6.4480     2.3890   -16.0040 
  215.2500    66.2100    24.9090     4.9640     5.0290     6.4370     2.3830   -15.8740 
  215.3750    74.3860    24.8940     5.1330     5.1180     6.3990     2.3890   -15.7580 
  215.5000    82.1570    24.9100     5.2750     5.1970     6.3510     2.4020   -15.6500 
  215.6250    83.0230    24.9340     5.2540     5.2410     6.3320     2.4150   -15.5570 
  215.7500    80.3120    24.9450     5.1270     5.2560     6.3590     2.4280   -15.4790 
  215.8750    80.3660    24.9640     5.0180     5.2580     6.4290     2.4400   -15.4110 
  216.0000    83.3030    25.0280     5.0150     5.2620     6.5240     2.4500   -15.3510 
  216.1250    83.8060    25.1330     5.1000     5.2840     6.6330     2.4540   -15.2880 
  216.2500    83.6630    25.2150     5.1590     5.3250     6.7680     2.4490   -15.2340 
  216.3750    84.5460    25.2530     5.1540     5.3860     6.9650     2.4400   -15.1990 
  216.5000    85.0380    25.2740     5.1460     5.4640     7.2260     2.4300   -15.2060 
  216.6250    85.0010    25.3030     5.2460     5.5390     7.4930     2.4210   -15.2580 
  216.7500    86.8490    25.3220     5.4670     5.5850     7.6770     2.4090   -15.3490 
  216.8750    89.0610    25.3280     5.7330     5.5890     7.7300     2.3940   -15.5100 
  217.0000    87.9200    25.3290     5.9090     5.5490     7.6490     2.3830   -15.7570 
  217.1250    85.4290    25.3180     5.9450     5.4830     7.4710     2.3750   -16.1440 
  217.2500    83.2430    25.2860     6.0910     5.4380     7.3080     2.3670   -16.6490 
  217.3750    81.6560    25.2410     6.4560     5.4800     7.2880     2.3570   -17.2860 
  217.5000    79.8310    25.1910     7.0300     5.7070     7.5920     2.3490   -18.0410 
  217.6250    75.7780    25.1290     8.9080     6.3570     8.6380     2.3450   -18.8800 
  217.7500    69.9070    25.0840    14.3250     7.6350    10.7270     2.3380   -19.7430 
  217.8750    65.6620    25.1170    25.2280     9.8900    14.2960     2.3210   -20.5730 
  218.0000    65.9050    25.2460    39.7470    13.5720    19.8470     2.2980   -21.3340 
  218.1250    66.3250    25.3890    52.1820    19.3940    28.0990     2.2890   -21.9700 
  218.2500    64.7210    25.4430    60.1160    26.7210    37.8920     2.3000   -22.4820 
  218.3750    64.9520    25.4160    62.9740    34.1210    46.8850     2.3240   -22.8540 
  218.5000    66.4910    25.3780    60.8210    39.7060    52.3550     2.3430   -23.0760 
  218.6250    65.6420    25.3950    56.4920    42.1380    53.2190     2.3420   -23.1570 
  218.7500    63.5870    25.4550    54.0480    42.6610    52.2460     2.3290   -23.1590 
  218.8750    62.4450    25.5140    54.7220    42.4240    51.2300     2.3150   -23.1160 
  219.0000    61.8880    25.5210    58.8490    42.2230    50.9610     2.3060   -23.0330 
  219.1250    61.3920    25.4720    63.6080    42.4680    51.5750     2.3050   -22.8930 
  219.2500    62.8940    25.4350    64.8910    43.0950    52.6970     2.3050   -22.7130 
  219.3750    65.7850    25.4500    63.2290    44.0560    54.1780     2.3050   -22.4750 
