~V
VERS. 2.00: Ver 2.00
~W
STRT.M 60.0000:
STOP.M 227.0000:
STEP.M 0.1250:
NULL. -999.2500:
UWI. DF32025:
~C
DEPT.M :
DEN.GM/CC :
GR.API :
RML.OHMM :
RI. :
RXO.OHMM :
CALI.CM :
SP.MV :
~A
# ...
  105.0000     2.1670    64.0320     9.4630     7.8180     8.0600    23.6380   -29.1320 
  105.1250     2.1630    63.0970     9.1970     7.6880     8.0480    23.6640   -29.2820 
  105.2500     2.1670    63.7850     8.5970     7.3450     7.8460    23.6960   -29.3330 
  105.3750     2.1730    64.5690     7.9110     6.9300     7.5150    23.7210   -29.2570 
  105.5000     2.1810    66.7130     7.5090     6.6630     7.1130    23.7400   -29.1140 
  105.6250     2.1990    68.8540     7.9700     6.9270     6.9630    23.7330   -28.7510 
  105.7500     2.2410    67.5540     9.4210     7.8700     7.0940    23.7190   -28.4150 
  105.8750     2.3160    63.5620    11.6890     9.4540     7.8260    23.7270   -27.9970 
  106.0000     2.4160    59.4710    14.1410    11.3240    10.6310    23.7830   -27.6490 
  106.1250     2.5060    58.0090    15.4980    12.6530    20.7750    23.8760   -27.2780 
  106.2500     2.5460    57.7260    14.9390    12.7550    36.1190    23.9760   -26.9350 
  106.3750     2.5240    58.8580    12.5230    11.4570    34.8320    24.0570   -26.7010 
  106.5000     2.4530    64.3750     9.3960     9.3040    19.1540    24.2010   -26.5380 
  106.6250     2.3670    73.9640     7.0660     7.2930     8.1890    24.4080   -26.5870 
  106.7500     2.2960    80.0860     5.8470     5.9550     5.1770    24.3830   -26.6750 
  106.8750     2.2500    79.4320     5.5410     5.3180     5.0820    24.0810   -26.8690 
  107.0000     2.2260    75.9440     5.8380     5.2320     6.1330    23.8300   -27.1540 
  107.1250     2.2240    77.2240     6.4420     5.5180     6.7980    23.7470   -27.5210 
  107.2500     2.2290    79.8860     7.0400     5.9070     6.5500    23.7170   -27.8470 
  107.3750     2.2370    79.4630     7.5130     6.2730     6.1890    23.6830   -28.2240 
  107.5000     2.2430    76.5870     7.8670     6.5740     6.5360    23.5840   -28.5770 
  107.6250     2.2420    72.3240     8.1880     6.8290     7.5470    23.2980   -28.8940 
  107.7500     2.2360    69.1750     8.5340     7.0790     7.7190    22.9770   -29.1290 
  107.8750     2.2260    69.2640     8.8850     7.3280     7.5450    22.7980   -29.3870 
  108.0000     2.2140    70.2110     9.2060     7.5570     7.3730    22.8870   -29.6750 
  108.1250     2.2030    67.7850     9.4710     7.7380     7.8670    23.2400   -29.9250 
  108.2500     2.1940    62.4120     9.6970     7.8720     8.5030    23.5340   -30.2520 
  108.3750     2.1870    57.6060     9.8930     7.9660     8.8590    23.6630   -30.4500 
  108.5000     2.1820    55.1330    10.0540     8.0230     8.8860    23.7070   -30.6760 
  108.6250     2.1740    55.3740    10.1570     8.0420     8.5930    23.6760   -30.7950 
  108.7500     2.1640    56.5500    10.2090     8.0360     8.5340    23.6380   -30.9330 
  108.8750     2.1510    56.1970    10.2280     8.0140     8.5940    23.6280   -31.0010 
  109.0000     2.1380    54.0700    10.2350     7.9870     8.7300    23.6180   -31.0000 
  109.1250     2.1310    53.7660    10.2560     7.9660     8.8190    23.5920   -31.0500 
  109.2500     2.1320    55.8320    10.2990     7.9570     8.8430    23.5740   -30.9810 
  109.3750     2.1410    57.9900    10.3580     7.9560     8.7790    23.5770   -30.9860 
  109.5000     2.1530    58.5520    10.4060     7.9500     8.6810    23.5530   -30.9140 
  109.6250     2.1650    57.8000    10.3970     7.9160     8.5700    23.5020   -30.8960 
  109.7500     2.1740    58.5720    10.3120     7.8390     8.5380    23.4680   -30.8350 
  109.8750     2.1790    61.1330    10.1570     7.7210     8.4990    23.4760   -30.7880 
  110.0000     2.1810    62.9650     9.9660     7.5790     8.3990    23.5400   -30.7130 
  110.1250     2.1780    63.0960     9.8020     7.4490     8.2260    23.5870   -30.6040 
  110.2500     2.1720    63.1170     9.7060     7.3620     8.0610    23.5970   -30.5480 
  110.3750     2.1630    63.0980     9.6890     7.3330     7.8400    23.5440   -30.4960 
  110.5000     2.1520    62.8930     9.7270     7.3590     7.8900    23.4510   -30.4380 
  110.6250     2.1410    61.2990     9.7710     7.4180     8.0950    23.3850   -30.3620 
  110.7500     2.1320    59.1570     9.7700     7.4780     8.0070    23.3540   -30.3370 
  110.8750     2.1270    57.9210     9.7060     7.5210     7.7840    23.3340   -30.2990 
  111.0000     2.1270    58.3730     9.5940     7.5410     7.8950    23.3170   -30.3160 
  111.1250     2.1330    58.7740     9.4750     7.5480     7.8780    23.3200   -30.2260 
  111.2500     2.1420    58.0560     9.3930     7.5560     7.7280    23.3280   -30.1700 
  111.3750     2.1500    58.8420     9.3580     7.5690     7.7500    23.3450   -30.0720 
  111.5000     2.1550    61.9020     9.3420     7.5730     7.8180    23.3840   -29.9070 
  111.6250     2.1560    62.7400     9.2560     7.5200     7.4480    23.4660   -29.7350 
  111.7500     2.1610    61.3890     9.0250     7.3670     7.1780    23.5480   -29.4400 
  111.8750     2.1730    61.6020     8.6030     7.0830     7.2060    23.6050   -29.1320 
  112.0000     2.1940    65.4780     8.0040     6.6710     7.2820    23.6410   -28.7170 
  112.1250     2.2210    71.7800     7.3060     6.1670     6.8990    23.7420   -28.2820 
  112.2500     2.2460    77.6940     6.6560     5.6660     6.1530    23.9440   -27.8590 
  112.3750     2.2640    81.4230     6.1580     5.2430     5.7500    24.1590   -27.4090 
  112.5000     2.2720    82.0280     5.8710     4.9500     5.6670    24.2850   -27.1180 
  112.6250     2.2700    80.0780     5.8370     4.8370     5.6060    24.3170   -26.7700 
  112.7500     2.2630    77.8820     5.9820     4.8720     5.5340    24.3250   -26.5780 
  112.8750     2.2530    75.8800     6.2560     5.0250     5.7320    24.3310   -26.4310 
  113.0000     2.2400    73.5420     6.5960     5.2530     5.9350    24.3390   -26.4100 
  113.1250     2.2300    70.3540     6.9150     5.4990     6.1220    24.3270   -26.4850 
  113.2500     2.2250    68.4710     7.1230     5.6970     6.2790    24.3190   -26.5780 
  113.3750     2.2280    68.5280     7.1550     5.7990     6.4000    24.3280   -26.7210 
  113.5000     2.2380    70.0320     6.9890     5.7810     6.4640    24.3580   -26.7820 
  113.6250     2.2540    73.2740     6.6530     5.6380     6.3940    24.3740   -26.8870 
  113.7500     2.2720    79.0750     6.2820     5.4400     6.0530    24.3810   -26.9290 
  113.8750     2.2890    84.3400     5.9770     5.2460     5.7090    24.3850   -26.9610 
  114.0000     2.3070    84.7500     5.8050     5.1050     5.3620    24.3880   -26.8490 
  114.1250     2.3250    82.2250     5.8010     5.0550     5.3080    24.3890   -26.7790 
  114.2500     2.3430    81.4940     5.9100     5.0700     5.3110    24.3880   -26.6540 
  114.3750     2.3520    81.2690     6.0920     5.1160     5.5630    24.3860   -26.5470 
  114.5000     2.3480    82.8700     6.2910     5.1630     5.5870    24.3820   -26.5070 
  114.6250     2.3320    83.9770     6.3820     5.1480     5.7030    24.3800   -26.4540 
  114.7500     2.3160    84.2730     6.3000     5.0400     5.5670    24.3790   -26.5110 
  114.8750     2.3050    84.5440     6.0320     4.8350     5.3450    24.3800   -26.5440 
  115.0000     2.3010    84.7060     5.6190     4.5600     5.1820    24.3830   -26.7390 
  115.1250     2.3060    86.2520     5.1730     4.2790     5.0150    24.3800   -26.9520 
  115.2500     2.3220    88.5980     4.8820     4.0930     4.9720    24.3800   -27.1880 
  115.3750     2.3490    90.2290     4.9610     4.1270     5.0360    24.3800   -27.5020 
  115.5000     2.3900    90.4860     5.6180     4.5210     5.0050    24.3830   -27.7950 
  115.6250     2.4370    89.0120     7.0720     5.4670     5.4960    24.3690   -28.2520 
  115.7500     2.4690    83.7710     9.0400     6.8440     7.8070    24.3230   -28.6740 
  115.8750     2.4670    74.8300    11.0840     8.4230    14.3230    24.2200   -29.2020 
  116.0000     2.4220    66.3390    12.5960     9.8180    23.5900    24.0810   -29.6810 
  116.1250     2.3430    62.3850    12.8590    10.4950    19.6200    23.8530   -30.1280 
