~V
VERS. 2.00: Ver 2.00
~W
STRT.M 50.0000:
STOP.M 264.0000:
STEP.M 0.1250:
NULL. -999.2500:
UWI. DF32158:
~C
DEPT.M :
GR.API :
RML.OHMM :
RI. :
RXO.OHMM :
CALI.CM :
DEN.GM/CC :
SP.MV :
~A
# ...
  230.0000    72.9340    30.5380    29.2730    32.4980    25.0930     2.2300   -14.1540 
  230.1250    73.0030    31.5120    29.7030    33.6800    25.0480     2.2250   -14.1210 
  230.2500    75.0260    32.2480    29.9660    33.3720    25.0260     2.2280   -14.0580 
  230.3750    76.8070    32.5480    29.9280    32.6970    24.9840     2.2370   -14.0500 
  230.5000    76.7340    32.2910    29.4630    31.8260    24.8560     2.2450   -14.0130 
  230.6250    74.4860    31.4940    28.5460    29.6850    24.6700     2.2490   -13.9230 
  230.7500    73.1540    30.5400    27.4850    28.3960    24.6660     2.2470   -13.8640 
  230.8750    73.5540    29.7560    26.6300    27.9840    24.8530     2.2420   -13.7720 
  231.0000    74.0330    29.3860    26.2630    29.1900    24.9970     2.2340   -13.6590 
  231.1250    74.0120    29.6280    26.5530    31.0370    25.0360     2.2270   -13.5580 
  231.2500    75.2200    30.3480    27.2860    32.5020    25.0430     2.2240   -13.4850 
  231.3750    77.1400    31.4450    28.2310    32.7160    25.0410     2.2260   -13.4170 
  231.5000    77.2090    32.8810    29.1940    33.0630    25.0350     2.2340   -13.3560 
  231.6250    74.5560    34.7750    30.2300    35.7930    25.0190     2.2420   -13.3760 
  231.7500    72.7110    37.1310    31.5910    39.0140    24.9800     2.2420   -13.4290 
  231.8750    72.4520    39.9380    33.4810    41.3080    24.9290     2.2320   -13.5200 
  232.0000    72.6590    43.0660    35.8650    43.3000    24.8580     2.2170   -13.6480 
  232.1250    73.3690    46.1760    38.4620    46.0800    24.9390     2.2050   -13.8760 
  232.2500    73.6800    48.8120    40.7460    48.8990    24.9980     2.1980   -14.1230 
  232.3750    72.0530    50.6160    42.2600    52.5500    25.0180     2.1950   -14.3400 
  232.5000    70.4720    51.4280    42.7830    54.0230    25.0140     2.1910   -14.6080 
  232.6250    71.2280    51.3530    42.4300    51.4060    25.0120     2.1960   -14.8580 
  232.7500    71.5110    51.2820    42.0680    48.5570    25.0120     2.2300   -15.0800 
  232.8750    70.8160    52.2890    42.6320    49.1990    25.0120     2.3060   -15.3480 
  233.0000    71.6530    55.5610    45.0770    55.5330    25.0110     2.4190   -15.6020 
  233.1250    72.2660    62.7150    50.7620    67.4740    24.9990     2.5360   -15.7450 
  233.2500    69.1400    73.1680    59.3370    89.6900    24.9500     2.6210   -15.8660 
  233.3750    64.8650    84.1640    68.9270   124.7630    24.8460     2.6550   -15.9410 
  233.5000    62.6470    88.8590    74.3710   157.7040    24.7210     2.6430   -15.9390 
  233.6250    62.7220    77.4840    66.8440   148.9030    24.5940     2.5990   -15.8490 
  233.7500    64.9110    56.4550    50.0210   104.0970    24.4030     2.5470   -15.6280 
  233.8750    70.1660    35.9410    32.5390    48.2010    24.1840     2.4990   -15.2290 
  234.0000    75.5590    21.4060    19.8590    16.5760    23.8790     2.4610   -14.6700 
  234.1250    74.9280     9.7110    11.0880     9.5710    23.7930     2.4340   -14.0150 
  234.2500    70.8390     8.2110     8.9770     8.2860    23.8300     2.4150   -13.3250 
  234.3750    68.7490     7.9740     8.2720     8.6210    23.9030     2.4010   -12.6530 
  234.5000    69.8050     8.4000     8.3940     8.9970    23.9060     2.3920   -11.9860 
  234.6250    70.4620     8.9660     8.8990     8.7100    23.8340     2.3900   -11.4060 
  234.7500    68.7880     9.1890     9.2460     8.1090    23.7600     2.3900   -10.9670 
  234.8750    67.1100     8.9010     9.1660     7.8170    23.6870     2.3870   -10.6710 
  235.0000    66.7550     8.2200     8.6680     7.8140    23.6260     2.3810   -10.5150 
  235.1250    66.4530     7.4370     7.9730     7.3110    23.6050     2.3720   -10.4620 
  235.2500    66.8230     6.8410     7.3850     6.5710    23.6160     2.3660   -10.4640 
  235.3750    72.3750     6.5730     7.0670     6.0270    23.6600     2.3640   -10.5180 
  235.5000    84.6470     6.6960     7.1050     5.9900    23.7410     2.3660   -10.5820 
  235.6250    97.4080     7.2650     7.5890     6.8850    23.9700     2.3710   -10.6190 
  235.7500   105.0950     8.1140     8.4020     8.4360    24.3660     2.3780   -10.6550 
  235.8750   109.4820     9.0780     9.4160     9.5950    24.7410     2.3850   -10.6580 
  236.0000   114.3710     9.9580    10.4280     9.9790    24.9500     2.3890   -10.6550 
  236.1250   120.1350    10.5200    11.1560    10.1660    25.0030     2.3880   -10.6930 
  236.2500   125.0270    10.7450    11.5060    10.4180    25.0120     2.3840   -10.6920 
  236.3750   126.3170    10.6830    11.4940    10.8700    25.0120     2.3810   -10.6690 
  236.5000   123.8670    10.4290    11.2210    11.1310    25.0120     2.3800   -10.6950 
  236.6250   121.0290    10.1020    10.8190    10.6100    25.0120     2.3780   -10.7030 
  236.7500   122.2270     9.8550    10.4500     9.9300    25.0150     2.3730   -10.7060 
  236.8750   126.8960     9.8070    10.2150     9.4200    25.0200     2.3660   -10.7420 
  237.0000   130.7180    10.0090    10.1720     9.4880    25.0260     2.3600   -10.7560 
  237.1250   130.1010    10.4340    10.3300    10.0910    25.0230     2.3580   -10.7520 
  237.2500   127.7840    10.8940    10.5650    10.6430    25.0170     2.3580   -10.7280 
  237.3750   125.5940    11.2350    10.7550    10.8720    25.0160     2.3590   -10.7040 
  237.5000   123.3360    11.3690    10.8130    10.8970    25.0190     2.3630   -10.6610 
  237.6250   122.9880    11.3650    10.7540    11.0210    25.0120     2.3740   -10.6200 
  237.7500   125.3230    11.4900    10.7730    11.3020    25.0050     2.3910   -10.6160 
  237.8750   125.1480    12.0210    11.1030    11.7300    25.0040     2.4110   -10.6330 
  238.0000   118.9780    13.2410    11.9910    12.8970    24.9730     2.4240   -10.6950 
  238.1250   111.4400    15.6520    13.8900    15.3900    24.8790     2.4170   -10.8050 
  238.2500   107.0930    19.5250    17.0760    19.7470    24.7440     2.3900   -11.0290 
  238.3750   102.4810    25.4740    22.1470    25.3450    24.6630     2.3530   -11.2980 
  238.5000    95.2060    34.4560    30.0240    33.1320    24.6000     2.3160   -11.5930 
  238.6250    87.3510    50.1710    38.6100    41.8390    24.5210     2.2910   -11.9750 
  238.7500    82.7050    64.9370    50.7330    53.4170    24.3890     2.2770   -12.3570 
  238.8750    79.7600    80.2470    63.8320    86.4490    24.2660     2.2670   -12.7170 
  239.0000    74.3980    93.1700    75.7100   137.5880    24.3190     2.2590   -13.1090 
  239.1250    66.5220   100.1550    83.4030   145.3380    24.2560     2.2510   -13.4800 
  239.2500    61.5190   102.4260    87.0320   125.1980    24.1900     2.2470   -13.7770 
  239.3750    62.1480   102.8400    88.2530   100.1490    24.1840     2.2490   -14.0410 
  239.5000    64.7760   104.3600    89.4960    81.0050    24.2480     2.2550   -14.2490 
  239.6250    65.9480   108.7760    92.7940    91.8700    24.2910     2.2590   -14.4160 
  239.7500    67.2390   114.7430    97.7070   119.9280    24.3320     2.2520   -14.5690 
  239.8750    67.9950   120.2530   102.9070   131.8350    24.4170     2.2340   -14.7010 
  240.0000    67.5550   123.5620   106.9350   123.0780    24.5220     2.2120   -14.8100 
  240.1250    67.5080   124.1150   108.8970   108.8140    24.6060     2.1990   -14.8860 
  240.2500    69.8610   123.9850   110.0180   107.0350    24.6210     2.1970   -14.9140 
  240.3750    72.1580   124.9950   111.6500   117.9430    24.5610     2.1990   -14.9380 
  240.5000    71.3890   128.2020   114.6650   131.5910    24.4560     2.2000   -14.9730 
  240.6250    69.1960   134.1150   119.5980   133.5630    24.2570     2.2000   -14.9750 
  240.7500    68.9350   141.7870   125.9180   133.8900    24.2420     2.2080   -14.9900 
  240.8750    70.4920   150.2890   132.9910   131.1060    24.3760     2.2280   -14.9970 
  241.0000    70.5330   158.4270   140.0010   142.7170    24.4920     2.2520   -14.9730 
  241.1250    68.3480   164.7070   145.9340   160.5640    24.5290     2.2650   -14.9850 
