~V
VERS. 2.00: Ver 2.00
~W
STRT.M 62.0000:
STOP.M 282.0000:
STEP.M 0.1250:
NULL. -999.2500:
UWI. DF32160:
~C
DEPT.M :
GR.API :
CALI.CM :
RXO.OHMM :
RI. :
RML.OHMM :
DEN.GM/CC :
SP.MV :
~A
# ...
  174.5000    74.7830    25.9560    46.3010    41.5760    50.4360     2.2680   -32.4100 
  174.6250    70.8790    25.8690    49.6250    42.2060    51.6670     2.2670   -32.6780 
  174.7500    66.5520    25.7590    54.0120    44.7700    55.3950     2.2500   -32.9540 
  174.8750    64.3060    25.6890    58.9160    50.1830    62.5330     2.2260   -33.2440 
  175.0000    62.3240    25.7670    68.2080    59.4550    74.0750     2.2030   -33.5460 
  175.1250    59.3430    26.0050    85.7180    74.0470    91.7780     2.1840   -33.8520 
  175.2500    57.7250    26.2150   106.4180    92.5370   114.4050     2.1690   -34.1370 
  175.3750    59.5390    26.3060   126.6080   112.4900   139.1860     2.1570   -34.4030 
  175.5000    62.8360    26.3230   143.8570   130.1110   160.8010     2.1470   -34.6390 
  175.6250    61.6260    26.3300   153.5340   140.7770   172.4370     2.1460   -34.8400 
  175.7500    57.4880    26.3020   157.2170   145.2120   175.7380     2.1610   -35.0230 
  175.8750    55.7290    26.2300   160.4180   145.7970   174.5970     2.1910   -35.1810 
  176.0000    58.4640    26.1540   163.4540   144.8540   171.9770     2.2270   -35.3220 
  176.1250    62.3560    26.0960   160.5110   143.1240   168.3070     2.2430   -35.4560 
  176.2500    63.8410    26.0370   155.9360   140.1630   162.7270     2.2360   -35.5890 
  176.3750    64.8250    25.9780   155.4950   135.1010   154.2740     2.2200   -35.7130 
  176.5000    66.6400    25.9310   155.6990   127.5470   142.9680     2.2160   -35.8130 
  176.6250    68.2570    25.8960   146.2110   118.0800   130.2360     2.2360   -35.8760 
  176.7500    69.9280    25.8690   128.0150   108.4840   118.1280     2.2660   -35.8990 
  176.8750    72.4360    25.8490   107.9940    99.5960   107.3160     2.2870   -35.8730 
  177.0000    74.3600    25.8280    93.8840    91.6330    97.8190     2.2890   -35.8000 
  177.1250    74.2600    25.8030    90.1210    84.7030    89.7050     2.2750   -35.6700 
  177.2500    73.5110    25.7840    88.0680    78.6450    82.7470     2.2650   -35.4990 
  177.3750    71.2920    25.7770    80.7020    73.5810    77.0850     2.2660   -35.3000 
  177.5000    67.0950    25.7750    70.6450    69.8100    73.0250     2.2800   -35.0960 
  177.6250    64.8610    25.7740    66.9420    67.9250    71.1440     2.2910   -34.9120 
  177.7500    67.0550    25.7740    68.2520    67.6520    71.0260     2.2910   -34.7520 
  177.8750    69.5890    25.7750    70.2440    68.6830    72.2710     2.2810   -34.6300 
  178.0000    69.0890    25.7780    72.4810    70.6000    74.3860     2.2760   -34.5490 
  178.1250    68.7060    25.7810    76.5740    73.1180    77.0850     2.2830   -34.5130 
  178.2500    68.9340    25.7820    79.0790    76.1520    80.3690     2.2880   -34.5110 
  178.3750    67.9880    25.7800    78.1030    80.0210    84.6360     2.2830   -34.5310 
  178.5000    66.7740    25.7880    78.0230    85.0150    90.1930     2.2690   -34.5790 
  178.6250    67.6490    25.8120    87.4570    91.0690    96.8970     2.2570   -34.6420 
  178.7500    69.2090    25.8250   104.7580    97.1280   103.4800     2.2550   -34.7030 
  178.8750    68.6900    25.8120   119.2130   101.9710   108.5040     2.2610   -34.7670 
  179.0000    66.5520    25.7870   120.5640   104.4000   110.6460     2.2700   -34.8270 
  179.1250    65.4330    25.7730   111.5380   103.3450   108.9410     2.2750   -34.8720 
  179.2500    64.3150    25.7700   105.2560    99.9120   104.9010     2.2810   -34.8990 
  179.3750    63.8580    25.7580   102.4300    95.3190    99.9380     2.2880   -34.9210 
  179.5000    65.8990    25.7310    98.4370    90.7720    95.2500     2.2930   -34.9250 
  179.6250    70.3470    25.7030    92.3470    87.2900    91.7550     2.2900   -34.9100 
  179.7500    73.0260    25.6930    87.3380    85.0500    89.5490     2.2820   -34.8990 
  179.8750    73.4550    25.6900    84.3080    84.1190    88.7050     2.2730   -34.8890 
  180.0000    72.7660    25.6740    83.2130    84.5480    89.2820     2.2660   -34.8820 
  180.1250    69.5580    25.6590    85.0770    86.5720    91.4780     2.2670   -34.8920 
  180.2500    64.8220    25.6670    88.4930    89.7130    94.7540     2.2700   -34.9310 
  180.3750    61.7010    25.6870    91.8760    93.4460    98.5220     2.2690   -35.0090 
  180.5000    61.5980    25.6990    95.0930    96.9800   101.9190     2.2650   -35.1260 
  180.6250    63.5890    25.6860    97.9300    99.1180   103.6640     2.2590   -35.2870 
  180.7500    65.6590    25.6560    97.5880    99.4740   103.4800     2.2580   -35.4860 
  180.8750    65.6840    25.6070    91.4650    98.2270   101.7200     2.2630   -35.7250 
  181.0000    62.5280    25.5460    80.8640    96.0820    99.2610     2.2740   -36.0050 
  181.1250    58.4030    25.4910    72.1390    94.0800    97.2810     2.2820   -36.3290 
  181.2500    56.9340    25.4160    70.2730    93.0250    96.4890     2.2870   -36.6670 
  181.3750    59.1820    25.2420    74.5590    93.3190    97.2070     2.2900   -37.0090 
  181.5000    64.4650    24.9070    79.7970    95.1520    99.5660     2.2910   -37.3330 
  181.6250    68.1780    24.5340    81.5520    98.9330   103.9570     2.2860   -37.6140 
  181.7500    66.8840    24.4360    83.4490   104.4350   110.1350     2.2770   -37.8440 
  181.8750    63.2070    24.7380    90.7230   111.5090   117.9590     2.2730   -38.0060 
  182.0000    60.3350    25.2330   106.2290   119.7690   127.0140     2.2740   -38.0930 
  182.1250    59.5940    25.5450   123.9610   128.3380   136.3270     2.2670   -38.1070 
  182.2500    61.2430    25.6090   129.6480   135.9160   144.5280     2.2490   -38.0740 
  182.3750    63.9590    25.5510   122.5280   141.8040   150.9810     2.2300   -37.9900 
  182.5000    64.7530    25.4640   116.0970   146.3170   156.1910     2.2250   -37.8930 
  182.6250    61.4830    25.3820   119.9280   150.9110   161.9040     2.2310   -37.8140 
  182.7500    58.5970    25.3330   124.3280   157.1570   169.7240     2.2330   -37.7470 
  182.8750    59.0730    25.3100   123.4930   165.8250   180.3050     2.2240   -37.7040 
  183.0000    60.9460    25.2920   119.7750   176.6000   193.0370     2.2120   -37.6710 
  183.1250    60.1230    25.2490   114.7460   187.6560   205.5170     2.2040   -37.6480 
  183.2500    57.7910    25.1580   104.8090   196.4410   214.8040     2.2000   -37.6150 
  183.3750    57.3870    24.9910    89.7470   201.2590   219.0840     2.1950   -37.5630 
  183.5000    59.7140    24.7400    73.7850   201.5730   218.1060     2.1900   -37.4780 
  183.6250    61.2240    24.4480    63.0900   198.0540   213.1770     2.1880   -37.3420 
  183.7500    61.3910    24.1830    61.3940   193.7800   207.9010     2.1910   -37.1540 
  183.8750    61.9080    23.9600    70.4970   191.0290   204.6300     2.1990   -36.9240 
  184.0000    63.0340    23.7830    86.2940   191.2890   204.6450     2.2070   -36.6630 
  184.1250    64.2610    23.6530    93.7300   195.3030   208.2230     2.2090   -36.3670 
  184.2500    66.2580    23.5510    84.3140   201.0810   212.9410     2.2010   -36.0590 
  184.3750    68.3390    23.4660    64.9460   206.3690   216.3160     2.1840   -35.7410 
  184.5000    68.5760    23.4080    48.3980   208.9880   216.2390     2.1710   -35.4120 
  184.6250    66.6700    23.4040    41.1090   206.9260   211.1440     2.1780   -35.0710 
  184.7500    63.7960    23.4340    38.3190   201.0730   202.6130     2.1960   -34.7410 
  184.8750    60.0930    23.4830    36.2370   192.2410   191.5960     2.2120   -34.4340 
  185.0000    57.3070    23.5430    33.6850   180.0810   177.3540     2.2180   -34.1610 
  185.1250    57.0800    23.5920    32.5020   161.8170   156.7930     2.2170   -33.9390 
  185.2500    58.5520    23.6190    34.0690   137.9780   131.1550     2.2170   -33.7660 
  185.3750    60.5050    23.6370    36.6440   111.7920   104.6090     2.2190   -33.6540 
  185.5000    63.9590    23.6440    36.1350    88.1700    82.1960     2.2340   -33.6140 
  185.6250    69.4800    23.6530    31.3570    72.2800    68.3690     2.2670   -33.6550 
