~V
VERS. 2.00: Ver 2.00
~W
STRT.M 60.0000:
STOP.M 258.0000:
STEP.M 0.1250:
NULL. -999.2500:
UWI. DF32100:
~C
DEPT.M :
SP.MV :
GR.API :
CALI.CM :
RXO.OHMM :
RI. :
RML.OHMM :
DEN.GM/CC :
~A
# ...
  116.2500   -21.0600    74.8820    20.7270    19.6870    14.3160    15.5810     2.4160 
  116.3750   -21.0980    75.7360    22.0010    14.5450    11.9620    12.8990     2.3320 
  116.5000   -21.1790    76.5570    23.0200    10.9590    10.1390    11.0630     2.2550 
  116.6250   -21.1970    76.8640    23.3790     9.7040     9.0370    10.1310     2.1970 
  116.7500   -21.1820    75.7130    23.3840     9.2950     8.4600     9.7740     2.1630 
  116.8750   -21.1350    75.2350    23.2410     9.1600     8.2750     9.8020     2.1570 
  117.0000   -21.0140    75.8570    23.1460     9.0750     8.3090    10.0000     2.1680 
  117.1250   -20.7990    75.4260    23.1220     8.8930     8.3100    10.0530     2.1800 
  117.2500   -20.5330    74.3210    23.1310     8.6120     8.0750     9.7220     2.1810 
  117.3750   -20.2150    75.1210    23.1730     8.2380     7.5600     8.9570     2.1750 
  117.5000   -19.8920    79.3820    23.2840     7.6600     6.8370     7.8930     2.1790 
  117.6250   -19.6270    82.2280    23.4190     6.6890     6.0460     6.7970     2.2050 
  117.7500   -19.4250    82.1950    23.5530     5.7330     5.3600     5.9170     2.2470 
  117.8750   -19.2970    83.3960    23.6280     5.2310     4.8880     5.3750     2.2920 
  118.0000   -19.2580    87.5760    23.6510     5.3710     4.7020     5.2270     2.3160 
  118.1250   -19.3090    89.8500    23.6410     5.8540     4.8950     5.5670     2.2880 
  118.2500   -19.4380    85.8080    23.5890     6.3040     5.4060     6.3220     2.2280 
  118.3750   -19.5980    79.0430    23.4750     6.6780     6.1660     7.4040     2.1730 
  118.5000   -19.7400    75.5660    23.3550     7.0350     7.0050     8.5590     2.1590 
  118.6250   -19.8360    77.0610    23.2430     7.3100     7.5400     9.1560     2.1880 
  118.7500   -19.8650    80.4550    22.9890     7.4780     7.4830     8.8020     2.2240 
  118.8750   -19.8250    82.1340    22.5290     7.2790     6.8150     7.6300     2.2560 
  119.0000   -19.7460    83.4890    22.0880     6.4500     5.8220     6.2130     2.2910 
  119.1250   -19.6530    89.8360    22.1400     5.3270     4.9240     5.1670     2.3380 
  119.2500   -19.5930    99.5540    22.4880     4.6930     4.3620     4.6570     2.3800 
  119.3750   -19.5660   105.7050    23.0350     4.8540     4.2170     4.6890     2.3880 
  119.5000   -19.5560   104.2020    23.6160     5.6320     4.4860     5.2080     2.3490 
  119.6250   -19.5470    97.9400    24.0290     6.4910     5.1170     6.1110     2.2790 
  119.7500   -19.4770    93.0700    24.1980     7.0690     5.8160     7.0080     2.2200 
  119.8750   -19.3340    90.4290    24.2710     7.2510     6.2940     7.4990     2.1880 
  120.0000   -19.0870    88.0610    24.3020     7.0440     6.3400     7.3630     2.1850 
  120.1250   -18.7450    86.4100    24.3130     6.4200     5.9270     6.6960     2.2070 
  120.2500   -18.3430    87.0370    24.3120     5.7160     5.3520     5.9330     2.2360 
  120.3750   -17.9310    88.5460    24.3030     5.1890     4.8050     5.2820     2.2580 
  120.5000   -17.5620    88.9440    24.2800     4.8890     4.3820     4.8160     2.2690 
  120.6250   -17.2660    88.9840    24.2340     4.6620     4.1250     4.5670     2.2810 
  120.7500   -17.0860    89.9120    24.1980     4.5810     3.9870     4.4810     2.2960 
  120.8750   -17.0520    89.7170    24.1560     4.6460     3.9390     4.5210     2.3060 
  121.0000   -17.1590    89.4210    24.1180     4.6980     3.9450     4.6230     2.3140 
  121.1250   -17.4110    89.7480    24.0600     4.7190     3.9690     4.6860     2.3260 
  121.2500   -17.7390    89.3020    23.9680     4.8050     3.9910     4.6670     2.3340 
  121.3750   -18.1080    88.5190    23.8780     4.8810     4.0180     4.5990     2.3300 
  121.5000   -18.5070    90.4530    23.8330     4.7710     4.0810     4.5840     2.3180 
  121.6250   -18.9920    94.2150    23.8120     4.6720     4.2520     4.7820     2.3150 
  121.7500   -19.5290    94.4000    23.7800     5.3340     4.5750     5.2470     2.3190 
  121.8750   -20.0700    89.6060    23.7230     6.7720     5.0560     5.9580     2.3170 
  122.0000   -20.6240    83.3390    23.6360     7.9000     5.6320     6.7840     2.3020 
  122.1250   -21.1230    80.8440    23.4890     7.7880     6.1520     7.4550     2.2730 
  122.2500   -21.5600    81.1560    23.3760     7.1190     6.4910     7.8160     2.2410 
  122.3750   -21.9710    80.6600    23.3340     6.8080     6.6310     7.9030     2.2160 
  122.5000   -22.3380    76.2400    23.3290     6.8730     6.6670     7.9020     2.2000 
  122.6250   -22.6030    73.1680    23.3290     7.1370     6.7640     8.0520     2.1920 
  122.7500   -22.8290    74.3800    23.3290     7.4360     7.0170     8.4240     2.1840 
  122.8750   -23.0270    77.7540    23.3290     7.6850     7.4320     8.9830     2.1770 
  123.0000   -23.1980    80.0480    23.3290     7.8520     7.9620     9.6560     2.1750 
  123.1250   -23.3510    80.7400    23.3290     8.0800     8.5340    10.3660     2.1830 
  123.2500   -23.5340    79.6470    23.3290     8.5070     9.0580    11.0270     2.2030 
  123.3750   -23.6850    76.6260    23.3290     8.9160     9.4730    11.5510     2.2200 
  123.5000   -23.8140    73.6210    23.3290     8.9820     9.7440    11.8530     2.2200 
  123.6250   -23.9330    72.9050    23.3320     8.7630     9.8420    11.8480     2.1990 
  123.7500   -24.0250    73.0030    23.3530     8.6890     9.8160    11.6330     2.1800 
  123.8750   -24.0700    73.0870    23.4030     8.7580     9.7050    11.3140     2.1720 
  124.0000   -24.0890    73.4370    23.4510     8.8700     9.5610    11.0030     2.1690 
  124.1250   -24.1350    73.4560    23.4870     9.0170     9.4450    10.7960     2.1640 
  124.2500   -24.1500    73.1110    23.5120     9.1470     9.3880    10.6960     2.1610 
  124.3750   -24.1830    72.6710    23.5340     9.1380     9.3730    10.6700     2.1640 
  124.5000   -24.2050    72.5200    23.5480     8.9910     9.3490    10.6610     2.1700 
  124.6250   -24.2230    70.8330    23.5570     8.9340     9.2460    10.5790     2.1790 
  124.7500   -24.2530    68.7780    23.5530     9.1250     9.0680    10.3870     2.1890 
  124.8750   -24.2980    69.2930    23.5350     9.3730     8.8550    10.0970     2.1960 
  125.0000   -24.3450    72.4010    23.5080     9.3250     8.6610     9.7840     2.1930 
  125.1250   -24.3770    74.3220    23.4520     8.8050     8.5320     9.5790     2.1790 
  125.2500   -24.4090    74.3890    23.3530     8.3420     8.4640     9.5490     2.1690 
  125.3750   -24.4550    73.9260    23.2350     8.3180     8.4690     9.7010     2.1690 
  125.5000   -24.5340    72.5830    23.1080     8.6320     8.5690     9.9720     2.1730 
  125.6250   -24.5970    70.1390    23.0390     8.9390     8.7610    10.2400     2.1650 
  125.7500   -24.6350    67.7380    23.0140     8.9470     8.9550    10.4080     2.1500 
  125.8750   -24.6820    66.9040    23.0140     8.8690     9.0710    10.4610     2.1420 
  126.0000   -24.7170    69.7170    23.0070     8.8660     9.0970    10.4650     2.1460 
  126.1250   -24.7340    74.3370    22.9860     8.9850     9.0910    10.5260     2.1540 
  126.2500   -24.7510    75.1990    22.9510     9.0190     9.1350    10.6700     2.1590 
  126.3750   -24.7450    71.4670    22.8740     8.9450     9.2400    10.8540     2.1610 
  126.5000   -24.7290    67.9810    22.6760     8.9120     9.3680    11.0010     2.1610 
  126.6250   -24.7220    67.3630    22.4270     8.9410     9.4730    11.0490     2.1560 
  126.7500   -24.7110    66.3650    22.2480     8.8380     9.5570    11.0440     2.1450 
  126.8750   -24.6770    66.2280    22.1260     8.6110     9.6470    11.0540     2.1360 
  127.0000   -24.6130    68.1680    22.0170     8.4690     9.7420    11.1180     2.1390 
  127.1250   -24.5330    68.5340    21.9440     8.6680     9.7760    11.1960     2.1580 
  127.2500   -24.4330    65.7880    21.9190     8.9780     9.6930    11.1960     2.1740 
  127.3750   -24.3210    63.5650    21.9160     9.1100     9.4770    11.0610     2.1770 
