~V
VERS. 2.00: Ver 2.00
~W
STRT.M 60.0000:
STOP.M 276.0000:
STEP.M 0.1250:
NULL. -999.2500:
UWI. DF32145:
~C
DEPT.M :
SP.MV :
GR.API :
CALI.CM :
RXO.OHMM :
RI. :
RML.OHMM :
DEN.GM/CC :
~A
# ...
  105.0000   -31.7630    77.6750    23.5740     8.9660     6.8560     9.6540     2.1860 
  105.1250   -31.5080    76.6160    23.6380     8.7970     6.6660     9.4000     2.1770 
  105.2500   -31.1680    71.7810    23.6700     8.5450     6.3830     8.9910     2.1800 
  105.3750   -30.7590    69.1290    23.6790     8.2230     6.0600     8.5090     2.1920 
  105.5000   -30.3050    74.3910    23.6800     7.7150     5.7370     8.0320     2.2070 
  105.6250   -29.8370    83.7550    23.6800     7.0940     5.4510     7.6390     2.2240 
  105.7500   -29.4080    88.0290    23.6800     6.6720     5.2260     7.3690     2.2430 
  105.8750   -29.0530    86.4890    23.6800     6.4640     5.0940     7.2620     2.2560 
  106.0000   -28.8160    83.5990    23.6800     6.3860     5.0920     7.3540     2.2540 
  106.1250   -28.8210    83.1120    23.6690     6.5680     5.2720     7.7000     2.2350 
  106.2500   -29.0150    81.3000    23.6160     7.1350     5.5890     8.2270     2.2130 
  106.3750   -29.3590    76.8210    23.4910     8.0650     5.9770     8.8220     2.1920 
  106.5000   -29.7740    73.4990    23.3030     8.9800     6.3370     9.3180     2.1720 
  106.6250   -30.1920    75.1820    23.2130     9.3400     6.5430     9.5100     2.1570 
  106.7500   -30.5950    76.2900    23.1860     9.0880     6.5870     9.4340     2.1510 
  106.8750   -30.9790    73.5370    23.1850     8.3950     6.5210     9.2150     2.1540 
  107.0000   -31.3360    69.9050    23.1850     7.6950     6.4330     9.0160     2.1680 
  107.1250   -31.6070    68.8410    23.1850     7.8280     6.4100     8.9810     2.1890 
  107.2500   -31.7930    68.9010    23.1850     8.4850     6.4690     9.0960     2.2040 
  107.3750   -31.8740    69.8750    23.1850     8.9950     6.5770     9.2910     2.1990 
  107.5000   -31.9090    71.9510    23.1850     9.1870     6.6790     9.4710     2.1760 
  107.6250   -31.9380    74.0930    23.1850     9.7050     6.7140     9.5450     2.1610 
  107.7500   -31.9580    75.2430    23.1850    10.8110     6.6730     9.5080     2.1700 
  107.8750   -31.9590    75.2620    23.1850    11.4560     6.5690     9.3790     2.1930 
  108.0000   -31.9400    74.0310    23.1850    10.9010     6.4340     9.1890     2.2060 
  108.1250   -31.8600    71.4130    23.1850     9.4440     6.3020     8.9520     2.1970 
  108.2500   -31.7380    71.6060    23.1850     8.7250     6.1870     8.7040     2.1830 
  108.3750   -31.6030    74.1240    23.1850     8.3050     6.0910     8.4800     2.1770 
  108.5000   -31.4700    75.1850    23.1940     8.0610     6.0220     8.3110     2.1800 
  108.6250   -31.3360    74.3220    23.2220     7.9910     5.9950     8.2190     2.1860 
  108.7500   -31.2170    74.7240    23.2650     7.9820     6.0030     8.1750     2.1870 
  108.8750   -31.0930    76.5220    23.3150     7.9710     6.0460     8.1720     2.1840 
  109.0000   -30.9090    76.8230    23.4050     7.9470     6.1140     8.2180     2.1790 
  109.1250   -30.6660    75.4690    23.4990     7.7860     6.1690     8.3120     2.1770 
  109.2500   -30.3600    74.4070    23.5500     7.5020     6.1370     8.3530     2.1770 
  109.3750   -30.0350    73.8860    23.5640     7.2600     5.9510     8.1860     2.1780 
  109.5000   -29.6950    75.2070    23.5650     7.1930     5.5700     7.6760     2.1800 
  109.6250   -29.3640    78.9070    23.5650     6.9060     5.0190     6.8110     2.1980 
  109.7500   -29.0330    84.4640    23.5650     6.2310     4.4610     5.8970     2.2380 
  109.8750   -28.7520    91.1520    23.5650     5.3590     4.0270     5.2010     2.2910 
  110.0000   -28.5970    96.9400    23.5650     4.7960     3.8150     4.8960     2.3310 
  110.1250   -28.6300    99.9810    23.5500     5.0820     3.9260     5.1360     2.3310 
  110.2500   -28.8990    98.7670    23.4900     6.0620     4.3220     5.8300     2.2990 
  110.3750   -29.3590    92.9410    23.3780     7.4030     4.9430     6.8710     2.2530 
  110.5000   -29.9570    84.3210    23.3000     8.5080     5.6590     8.0220     2.2100 
  110.6250   -30.6800    77.0560    23.2770     8.8830     6.2460     8.8630     2.1850 
  110.7500   -31.4520    73.2750    23.2770     8.8980     6.5840     9.2280     2.1780 
  110.8750   -32.1960    72.4200    23.2770     8.8460     6.6770     9.2080     2.1830 
  111.0000   -32.8550    72.3210    23.2770     8.8390     6.6130     9.0150     2.1880 
  111.1250   -33.3750    69.5650    23.2760     8.8330     6.4870     8.8230     2.1800 
  111.2500   -33.7270    66.8550    23.2740     8.7940     6.3700     8.7050     2.1670 
  111.3750   -33.9240    67.3740    23.2740     8.7730     6.2940     8.6710     2.1660 
  111.5000   -34.0010    70.7810    23.2860     8.7750     6.2850     8.7220     2.1800 
  111.6250   -33.9570    72.6390    23.3410     8.7470     6.3720     8.8740     2.1980 
  111.7500   -33.8890    72.4470    23.4350     8.7920     6.5360     9.0990     2.2040 
  111.8750   -33.8250    72.2410    23.5040     9.0400     6.7470     9.3620     2.2000 
  112.0000   -33.7700    72.8470    23.5280     9.4350     6.9620     9.6110     2.1970 
  112.1250   -33.7040    72.7230    23.5260     9.6940     7.1350     9.7910     2.2010 
  112.2500   -33.6450    70.3420    23.5290     9.7390     7.2560     9.9010     2.2020 
  112.3750   -33.5940    66.3140    23.5300     9.6900     7.3320     9.9570     2.1960 
  112.5000   -33.5620    64.3680    23.5310     9.6730     7.3770     9.9860     2.1860 
  112.6250   -33.5240    66.0250    23.5370     9.6890     7.4100    10.0130     2.1840 
  112.7500   -33.4400    68.3460    23.5450     9.6730     7.4370    10.0390     2.1870 
  112.8750   -33.3150    68.9800    23.5510     9.6140     7.4520    10.0510     2.1890 
  113.0000   -33.1720    69.3270    23.5540     9.5510     7.4480    10.0340     2.1830 
  113.1250   -33.0240    71.4440    23.5580     9.5320     7.4140     9.9780     2.1740 
  113.2500   -32.8640    71.2730    23.5620     9.5530     7.3420     9.8750     2.1640 
  113.3750   -32.6990    68.1250    23.5640     9.5920     7.2360     9.7190     2.1500 
  113.5000   -32.5430    64.8740    23.5650     9.6240     7.1060     9.5140     2.1310 
  113.6250   -32.3940    64.5360    23.5650     9.5890     6.9510     9.2490     2.1100 
  113.7500   -32.2600    66.2850    23.5650     9.4820     6.7860     8.9770     2.0960 
  113.8750   -32.1210    68.5200    23.5650     9.3630     6.6770     8.8220     2.0910 
  114.0000   -31.9640    70.0790    23.5650     9.3250     6.7140     8.9300     2.1010 
  114.1250   -31.7540    68.6880    23.5740     9.4290     7.0020     9.4520     2.1380 
  114.2500   -31.5160    66.8970    23.6270    10.0470     7.4690    10.2550     2.2080 
  114.3750   -31.2590    68.9410    23.7410    11.9320     7.9640    11.0510     2.2930 
  114.5000   -30.9940    74.3000    23.8280    14.3340     8.2220    11.3590     2.3460 
  114.6250   -30.7440    78.7010    23.7870    14.1190     7.9360    10.6870     2.3190 
  114.7500   -30.5060    79.5870    23.6130    11.3870     7.2590     9.4630     2.2430 
  114.8750   -30.3050    80.4680    23.3990     8.6730     6.4630     8.2260     2.1670 
  115.0000   -30.1950    84.2510    23.2800     7.2370     5.8000     7.3460     2.1230 
  115.1250   -30.2850    88.6950    23.2540     7.0000     5.4640     7.0390     2.1190 
  115.2500   -30.5240    89.7800    23.2530     7.5070     5.4160     7.1660     2.1300 
  115.3750   -30.8510    87.4860    23.2490     8.2120     5.5750     7.5620     2.1340 
  115.5000   -31.2140    84.2880    23.2490     8.6610     5.8120     8.0130     2.1270 
  115.6250   -31.5780    82.7920    23.2470     8.6690     6.0080     8.3100     2.1120 
  115.7500   -31.9370    82.9000    23.2490     8.4010     6.1220     8.4390     2.0940 
  115.8750   -32.2990    83.6130    23.2530     8.0790     6.1670     8.4780     2.0770 
  116.0000   -32.6410    83.7240    23.2540     7.9860     6.1780     8.5180     2.0680 
  116.1250   -32.9350    81.4520    23.2550     8.3100     6.2070     8.6210     2.0710 
