~V
VERS. 2.00: Ver 2.00
~W
STRT.M 59.0000:
STOP.M 261.0000:
STEP.M 0.1250:
NULL. -999.2500:
UWI. DF32116:
~C
DEPT.M :
SP.MV :
GR.API :
CALI.CM :
RXO.OHMM :
RI. :
RML.OHMM :
DEN.GM/CC :
~A
# ...
  250.2500   -11.4330    61.3990    23.6540    13.8470    10.7610    11.3580     2.5020 
  250.3750   -11.3810    61.3990    23.6240    14.1740    11.0570    11.6270     2.5150 
  250.5000   -11.3060    61.3990    23.5110    14.1900    11.2950    11.8110     2.5280 
  250.6250   -11.2110    61.3990    23.4110    13.8140    11.4490    11.8980     2.5310 
  250.7500   -11.0960    61.3990    23.3900    13.5790    11.5590    11.9610     2.5270 
  250.8750   -10.9710    61.3990    23.4480    13.6780    11.6930    12.0920     2.5190 
  251.0000   -10.8380    61.3990    23.5370    13.9140    11.9230    12.3750     2.5070 
  251.1250   -10.7050    61.3990    23.5930    14.2610    12.2840    12.8370     2.4870 
  251.2500   -10.5840    61.3990    23.6430    15.0430    12.6640    13.3120     2.4660 
  251.3750   -10.4920    61.3990    23.6970    15.9630    12.9060    13.5790     2.4530 
  251.5000   -10.4280    61.3990    23.6870    15.6540    12.8480    13.4360     2.4520 
  251.6250   -10.3770    61.3990    23.5400    12.9960    12.3880    12.7800     2.4540 
  251.7500   -10.3500    61.3990    23.3580    10.0020    11.7070    11.8900     2.4530 
  251.8750   -10.3480    61.3990    23.2720     8.6500    10.9810    11.0080     2.4510 
  252.0000   -10.3690    61.3990    23.3120     9.3450    10.3570    10.3090     2.4540 
  252.1250   -10.4020    61.3990    23.3630    10.9200     9.9480     9.8990     2.4610 
  252.2500   -10.4520    61.3990    23.3600    12.0030     9.7220     9.7010     2.4680 
  252.3750   -10.5130    61.3990    23.3210    12.6030     9.6280     9.6320     2.4690 
  252.5000   -10.5940    61.3990    23.2870    13.2120     9.6020     9.6180     2.4630 
  252.6250   -10.7030    61.3990    23.2420    13.8050     9.5990     9.6160     2.4510 
  252.7500   -10.8130    61.3990    23.1940    13.9300     9.5990     9.6120     2.4460 
  252.8750   -10.9300    61.3990    23.1840    13.3920     9.6000     9.6070     2.4500 
  253.0000   -11.0620    61.3990    23.2200    12.4550     9.6010     9.6000     2.4550 
  253.1250   -11.1930    61.3990    23.2870    11.7910     9.6020     9.5930     2.4490 
  253.2500   -11.3010    61.3990    23.3540    11.6360     9.6030     9.5840     2.4410 
  253.3750   -11.4030    61.3990    23.3750    11.7720     9.6040     9.5780     2.4440 
  253.5000   -11.4960    61.3990    23.3450    12.1300     9.6050     9.5760     2.4560 
  253.6250   -11.5680    61.3990    23.3090    13.1980     9.6060     9.5820     2.4660 
  253.7500   -11.6330    61.3990    23.3010    15.2020     9.6060     9.5910     2.4680 
  253.8750   -11.6940    61.3990    23.3140    17.9510     9.6050     9.6000     2.4680 
  254.0000   -11.7600    61.3990    23.3230    20.6790     9.6040     9.6060     2.4750 
  254.1250   -11.8340    61.3990    23.3240    21.7750     9.6030     9.6070     2.4880 
  254.2500   -11.9090    61.3990    23.3790    21.0240     9.6020     9.6040     2.4950 
  254.3750   -11.9580    61.3990    23.4540    19.4200     9.6020     9.5940     2.5000 
  254.5000   -11.9890    61.3990    23.4320    18.0550     9.6040     9.5790     2.5090 
  254.6250   -12.0090    61.3990    23.2690    17.0450     9.6070     9.5630     2.5160 
  254.7500   -12.0020    61.3990    23.1240    16.0450     9.6090     9.5520     2.5110 
  254.8750   -11.9760    61.3990    23.0810    15.2840     9.6100     9.5480     2.4990 
  255.0000   -11.9160    61.3990    23.0890    15.1450     9.6090     9.5500     2.4910 
  255.1250   -11.8320    61.3990    23.0880    16.0130     9.6080     9.5510     2.4940 
  255.2500   -11.7600    61.3990    23.0750    17.4530     9.6080     9.5500     2.4950 
  255.3750   -11.7140    61.3990    23.0260    18.3280     9.6080     9.5500     2.4880 
  255.5000   -11.6820    61.3990    22.9610    17.5340     9.6080     9.5500     2.4780 
  255.6250   -11.6670    61.3990    22.9200    15.4440     9.6080     9.5500     2.4690 
  255.7500   -11.6750    61.3990    22.8940    13.7740     9.6080     9.5500     2.4680 
  255.8750   -11.7040    61.3990    22.8610    12.8940     9.6080     9.5500     2.4730 
  256.0000   -11.7550    61.3990    22.8390    12.3160     9.6080     9.5500     2.4810 
  256.1250   -11.8090    61.3990    22.8390    11.4160     9.6080     9.5500     2.4870 
  256.2500   -11.8550    61.3990    22.7820    10.0630     9.6080     9.5500     2.4870 
  256.3750   -11.8940    61.3990    22.5990     8.4800     9.6080     9.5500     2.4750 
  256.5000   -11.9260    61.3990    22.2570     7.0600     9.6080     9.5500     2.4500 
  256.6250   -11.9500    61.3990    21.7600     6.1080     9.6080     9.5500     2.4200 
  256.7500   -11.9720    61.3990    21.1420     5.4810     9.6080     9.5500     2.3900 
  256.8750   -11.9800    61.3990    20.2630     5.0740     9.6080     9.5500     2.3660 
  257.0000   -11.9750    61.3990    19.0510     4.8480     9.6080     9.5500     2.3550 
  257.1250   -11.9770    61.3990    17.8560     4.7810     9.6080     9.5500     2.3690 
  257.2500   -11.9890    61.3990    17.1570     4.7710     9.6080     9.5500     2.3930 
  257.3750   -11.9870    61.3990    16.9710     4.7750     9.6080     9.5500     2.4110 
  257.5000   -11.9600    61.3990    16.9900     4.7760     9.6080     9.5500     2.4170 
  257.6250   -11.9140    61.3990    16.9950     4.7750     9.6080     9.5500     2.4160 
  257.7500   -11.8430    61.3990    16.9930     4.7740     9.6080     9.5500     2.4150 
  257.8750   -11.7470    61.3990    16.9930     4.7740     9.6080     9.5500     2.4160 
  258.0000   -11.6330    61.3990    16.9930     4.7740     9.6080     9.5500     2.4180 
  258.1250   -11.5120    61.3990    16.9930     4.7730     9.6080     9.5500     2.4200 
  258.2500   -11.4060    61.3990    16.9930     4.7710     9.6080     9.5500     2.4170 
  258.3750   -11.3220    61.3990    16.9930     4.7710     9.6080     9.5500     2.4080 
  258.5000   -11.2380    61.3990    16.9930     4.7700     9.6080     9.5500     2.3970 
  258.6250   -11.1560    61.3990    16.9930     4.7690     9.6080     9.5500     2.3960 
  258.7500   -11.1040    61.3990    16.9930     4.7690     9.6080     9.5500     2.4020 
  258.8750   -11.0880    61.3990    16.9930     4.7690     9.6080     9.5500     2.4030 
  259.0000   -11.0910    61.3990    16.9930     4.7710     9.6080     9.5500     2.3950 
  259.1250   -11.0930    61.3990    16.9930     4.7720     9.6080     9.5500     2.3870 
  259.2500   -11.0620    61.3990    16.9930     4.7710     9.6080     9.5500     2.3900 
  259.3750   -11.0430    61.3990    16.9930     4.7700     9.6080     9.5500     2.4010 
  259.5000   -11.0430    61.3990    16.9930     4.7700     9.6080     9.5500     2.4110 
  259.6250  -999.2500    61.3990    16.9930     4.7700     9.6080     9.5500     2.4100 
  259.7500  -999.2500    61.3990    16.9930     4.7690     9.6080     9.5500     2.4030 
  259.8750  -999.2500    61.3990    16.9930     4.7680     9.6080     9.5500     2.3970 
  260.0000  -999.2500    61.3990    16.9930     4.7690     9.6080     9.5500     2.4000 
  260.1250  -999.2500    61.3990    16.9930     4.7690     9.6080     9.5500     2.4160 
  260.2500  -999.2500  -999.2500  -999.2500  -999.2500  -999.2500  -999.2500     2.4370 
  260.3750  -999.2500  -999.2500  -999.2500  -999.2500  -999.2500  -999.2500     2.4530 
  260.5000  -999.2500  -999.2500  -999.2500  -999.2500  -999.2500  -999.2500     2.4510 
  260.6250  -999.2500  -999.2500  -999.2500  -999.2500  -999.2500  -999.2500     2.3870 
  260.7500  -999.2500  -999.2500  -999.2500  -999.2500  -999.2500  -999.2500     2.2800 
  260.8750  -999.2500  -999.2500  -999.2500  -999.2500  -999.2500  -999.2500     2.1970 
  261.0000  -999.2500  -999.2500  -999.2500  -999.2500  -999.2500  -999.2500     2.2000 
