~V
VERS. 2.00: Ver 2.00
~W
STRT.M 50.0000:
STOP.M 264.0000:
STEP.M 0.1250:
NULL. -999.2500:
UWI. DF32158:
~C
DEPT.M :
GR.API :
RML.OHMM :
RI. :
RXO.OHMM :
CALI.CM :
DEN.GM/CC :
SP.MV :
~A
# ...
   61.2500   111.0990     6.3690     7.8070     7.7410    21.9680     2.2450    -9.8750 
   61.3750   115.5610     5.8870     7.1490     6.5270    22.0360     2.2880    -8.7900 
   61.5000   117.7580     5.4950     6.5810     5.8400    22.5330     2.3160    -7.9150 
   61.6250   117.7950     5.2930     6.2050     5.7310    23.4190     2.3240    -7.3280 
   61.7500   113.0540     5.2910     6.0480     5.6310    24.1780     2.3210    -7.0900 
   61.8750   103.8460     5.4920     6.1370     5.5420    24.5560     2.3130    -7.1710 
   62.0000    94.0620     5.8630     6.4610     5.6880    24.5680     2.3050    -7.6290 
   62.1250    89.0700     6.3410     6.9640     6.4650    24.2870     2.2960    -8.4290 
   62.2500    88.6630     6.8060     7.4950     7.7070    23.9830     2.2830    -9.3810 
   62.3750    90.3040     7.1920     7.9550     8.5800    23.9670     2.2610   -10.3620 
   62.5000    91.6070     7.4970     8.3110     8.7910    24.3170     2.2300   -11.2950 
   62.6250    90.4750     7.7960     8.5990     8.4180    24.5960     2.1980   -12.2260 
   62.7500    85.9410     8.1810     8.9090     8.2230    24.7280     2.1780   -13.1090 
   62.8750    79.9510     8.6740     9.2720     8.8180    24.7210     2.1760   -13.9250 
   63.0000    76.6030     9.2010     9.6410     9.3040    24.5790     2.1910   -14.5630 
   63.1250    77.3070     9.5690     9.8650     9.6160    24.2470     2.2090   -15.0380 
   63.2500    78.6840     9.6810     9.8720     9.7450    24.0060     2.2140   -15.4170 
   63.3750    78.8850     9.5720     9.6930     9.8520    23.8940     2.2030   -15.7370 
   63.5000    78.7150     9.3720     9.4340     9.9470    23.8380     2.1780   -16.0400 
   63.6250    78.9990     9.2350     9.2270    10.0160    23.7810     2.1530   -16.2790 
   63.7500    79.8550     9.2210     9.1260    10.0000    23.7390     2.1350   -16.4420 
   63.8750    81.5260     9.3120     9.1170    10.0030    23.6890     2.1250   -16.5620 
   64.0000    83.1660     9.4610     9.1530    10.1210    23.6980     2.1210   -16.6640 
   64.1250    82.4260     9.6330     9.1890    10.1770    23.8380     2.1240   -16.8170 
   64.2500    80.4520     9.8040     9.2050    10.2100    24.0290     2.1320   -17.0200 
   64.3750    79.7050     9.9540     9.1970    10.3490    24.1240     2.1430   -17.2490 
   64.5000    80.0300    10.0650     9.1640    10.4700    24.1680     2.1560   -17.5170 
   64.6250    80.2230    10.1350     9.1110    10.4500    24.2750     2.1670   -17.7910 
   64.7500    80.9840    10.1930     9.0540    10.4140    24.4460     2.1740   -18.0840 
   64.8750    81.5010    10.2630     9.0070    10.3940    24.5640     2.1760   -18.3480 
   65.0000    79.7800    10.3670     8.9800    10.3840    24.6050     2.1760   -18.6400 
   65.1250    77.1250    10.5200     8.9930    10.4620    24.6070     2.1740   -18.9330 
   65.2500    77.7630    10.7070     9.0460    10.3230    24.6080     2.1680   -19.2440 
   65.3750    81.2020    10.8990     9.1290    10.4040    24.6010     2.1600   -19.5880 
   65.5000    83.6170    11.0680     9.2280    11.7230    24.5760     2.1480   -19.9370 
   65.6250    83.7620    11.1690     9.3100    14.5720    24.5160     2.1370   -20.3150 
   65.7500    84.3550    11.1710     9.3360    15.4520    24.4800     2.1300   -20.6980 
   65.8750    83.7910    11.0560     9.2790    13.1570    24.4790     2.1270   -21.1110 
   66.0000    81.3380    10.8460     9.1440    11.3430    24.5080     2.1270   -21.5040 
   66.1250    78.9250    10.6010     8.9690    10.9020    24.5720     2.1280   -21.8550 
   66.2500    78.8110    10.4090     8.8120    10.8130    24.5940     2.1270   -22.1220 
   66.3750    79.6460    10.3200     8.7070    10.6470    24.5350     2.1290   -22.3120 
   66.5000    80.1970    10.3350     8.6570    10.4850    24.3250     2.1350   -22.3850 
   66.6250    82.4630    10.4080     8.6410    10.3610    23.9310     2.1410   -22.3240 
   66.7500    83.7090    10.4530     8.6150    10.0520    23.5640     2.1420   -22.1470 
   66.8750    82.3150    10.4330     8.5580     9.5560    23.1880     2.1320   -21.8900 
   67.0000    80.4180    10.3430     8.4620     8.9650    22.8590     2.1110   -21.5710 
   67.1250    82.4360    10.1990     8.3340     8.5170    22.6440     2.0870   -21.2260 
   67.2500    87.2070    10.0380     8.2090     8.2720    22.5930     2.0700   -20.9140 
   67.3750    89.8370     9.8850     8.1170     8.1930    22.6400     2.0660   -20.6660 
   67.5000    86.3090     9.7740     8.0830     8.3050    22.7730     2.0720   -20.4930 
   67.6250    79.6190     9.7810     8.1470     8.7200    22.9170     2.0830   -20.3820 
   67.7500    77.0450     9.9600     8.3240     9.3420    23.1100     2.0880   -20.3360 
   67.8750    79.5360    10.3570     8.6370     9.8710    23.3640     2.0880   -20.3110 
   68.0000    81.8440    10.9500     9.0890    10.0040    23.5370     2.0840   -20.3580 
   68.1250    80.1400    11.6110     9.6270     9.9490    23.6530     2.0800   -20.4060 
   68.2500    78.0450    12.1130    10.0970    10.3270    23.9090     2.0790   -20.4620 
   68.3750    78.5080    12.2790    10.3440    11.2390    24.0590     2.0820   -20.5180 
   68.5000    80.9730    12.0360    10.2620    12.0320    24.0450     2.0910   -20.5600 
   68.6250    82.8060    11.4660     9.8470    11.6870    23.9430     2.1050   -20.6110 
   68.7500    82.1130    10.8950     9.3410    10.9450    23.8380     2.1230   -20.6560 
   68.8750    80.3040    10.5350     8.9230    10.4630    23.7590     2.1440   -20.7390 
   69.0000    77.6240    10.4630     8.6930    10.4000    23.6310     2.1680   -20.8360 
   69.1250    75.3310    10.6330     8.6750    10.5680    23.3780     2.2000   -20.9960 
   69.2500    76.1800    10.8430     8.7550    10.6590    23.2230     2.2390   -21.1730 
   69.3750    79.7250    10.9500     8.8450    10.6200    23.3380     2.2710   -21.3370 
   69.5000    81.1250    10.8940     8.8890    10.5600    23.6090     2.2820   -21.5040 
   69.6250    76.8900    10.7300     8.8750    10.6100    23.7340     2.2590   -21.6470 
   69.7500    74.5200    10.5880     8.8420    10.7030    23.7900     2.2170   -21.7620 
   69.8750    76.9500    10.5310     8.8160    10.7440    23.8610     2.1740   -21.8270 
   70.0000    80.5150    10.5590     8.8180    10.6780    23.9480     2.1440   -21.8180 
   70.1250    79.4350    10.6390     8.8560    10.6460    23.9870     2.1340   -21.7610 
   70.2500    76.3290    10.7110     8.9000    10.7000    23.9940     2.1340   -21.6330 
   70.3750    74.1860    10.7410     8.9100    10.7110    23.9850     2.1380   -21.4380 
   70.5000    73.3140    10.7150     8.8610    10.6510    23.9500     2.1420   -21.2010 
   70.6250    72.6960    10.6030     8.7470    10.4470    23.8380     2.1420   -20.9130 
   70.7500    72.0090    10.4020     8.6000    10.0130    23.6220     2.1350   -20.5940 
   70.8750    72.4980    10.1360     8.4540     9.4190    23.3020     2.1210   -20.1910 
   71.0000    74.9250     9.8820     8.3500     9.0130    23.0630     2.1020   -19.7520 
   71.1250    77.7500     9.8030     8.3580     8.9840    22.8930     2.0860   -19.2170 
   71.2500    80.0140    10.0170     8.5400     9.1590    22.6500     2.0810   -18.6540 
   71.3750    80.2580    10.5950     8.9580     9.5800    22.3250     2.0910   -18.0530 
   71.5000    78.1100    11.4790     9.6190    11.0720    22.3610     2.1160   -17.3990 
   71.6250    75.2240    12.4110    10.3910    12.5670    22.8820     2.1520   -16.6890 
   71.7500    75.5010    12.9740    10.9440    13.9670    23.2930     2.1870   -15.9250 
   71.8750    81.3270    12.8590    10.9710    16.1920    23.3080     2.2170   -15.1870 
   72.0000    91.5920    12.0180    10.3480    18.3400    22.9440     2.2360   -14.4740 
   72.1250   102.3530    10.7560     9.2580    15.5380    22.4710     2.2420   -13.8920 
   72.2500   107.9110     9.6380     8.1930     9.9130    22.3290     2.2420   -13.4540 
   72.3750   106.4670     8.9360     7.4120     7.4070    22.6930     2.2380   -13.2020 
