~V
VERS. 2.00: Ver 2.00
~W
STRT.M 62.0000:
STOP.M 272.0000:
STEP.M 0.1250:
NULL. -999.2500:
UWI. DF32144:
~C
DEPT.M :
SP.MV :
DEN.GM/CC :
GR.API :
RML.OHMM :
RI. :
RXO.OHMM :
CALI.CM :
~A
# ...
  107.0000   -17.3700     2.2500    81.7510     5.5630     5.2940     5.1680    22.8400 
  107.1250   -17.0760     2.2810    82.0690     5.5060     5.2130     4.8500    22.5880 
  107.2500   -16.9500     2.2900    82.5970     5.8470     5.4030     5.2440    22.3560 
  107.3750   -16.8860     2.2770    80.9410     6.4810     5.8340     6.0480    22.2310 
  107.5000   -16.8620     2.2540    76.3330     7.1660     6.3710     6.8850    22.2400 
  107.6250   -16.8560     2.2360    73.3770     7.5310     6.7380     7.6660    22.2800 
  107.7500   -16.8620     2.2330    75.1920     7.4550     6.7740     7.7700    22.3010 
  107.8750   -16.9150     2.2430    80.0700     7.0590     6.5150     7.0680    22.3070 
  108.0000   -17.0250     2.2590    83.5630     6.6000     6.1390     6.5310    22.2840 
  108.1250   -17.1420     2.2660    81.8940     6.3100     5.8300     5.9200    22.1780 
  108.2500   -17.2550     2.2580    78.3380     6.1840     5.6380     6.0500    22.0450 
  108.3750   -17.3790     2.2370    75.0120     6.1450     5.5450     7.0890    22.0720 
  108.5000   -17.4990     2.2110    73.9960     6.1520     5.5430     8.2500    22.3010 
  108.6250   -17.6110     2.2010    74.5050     6.3760     5.7410     8.2760    22.4500 
  108.7500   -17.7290     2.2220    73.1060     7.1330     6.2920     7.9780    22.5010 
  108.8750   -17.8280     2.2800    69.7860     8.7680     7.4140     9.4370    22.5110 
  109.0000   -17.9060     2.3740    65.8840    11.4490     9.2920    14.1980    22.5170 
  109.1250   -17.9730     2.4790    62.8250    14.9120    11.9760    22.9280    22.4990 
  109.2500   -18.0750     2.5560    58.2710    17.8080    14.5920    29.7690    22.4400 
  109.3750   -18.3290     2.5760    54.1210    18.6730    15.8620    26.4820    22.3480 
  109.5000   -18.8070     2.5290    55.5090    16.9780    15.0530    17.1480    22.2010 
  109.6250   -19.5200     2.4260    62.4120    13.8130    12.8130    12.0600    21.9820 
  109.7500   -20.3780     2.3140    68.4000    11.0260    10.6400    10.5320    21.7190 
  109.8750   -21.3240     2.2230    69.6960     9.2010     9.0410    10.1550    21.4630 
  110.0000   -22.2820     2.1670    67.5030     8.2990     8.0700    10.0660    21.2670 
  110.1250   -23.1240     2.1490    65.2830     8.1020     7.6660    10.0880    21.2080 
  110.2500   -23.7520     2.1490    64.1030     8.1830     7.5660    10.0970    21.2220 
  110.3750   -24.0810     2.1570    65.1360     8.3330     7.6180    10.1310    21.2360 
  110.5000   -24.1450     2.1660    67.7660     8.4430     7.7120    10.1480    21.0560 
  110.6250   -24.0450     2.1720    70.5170     8.4790     7.7900    10.0160    20.5130 
  110.7500   -23.8710     2.1750    70.8820     8.4670     7.8380     9.9410    19.8100 
  110.8750   -23.6510     2.1770    67.8090     8.4250     7.8560    10.2040    19.1840 
  111.0000   -23.3660     2.1780    62.8990     8.3760     7.8530    10.5980    18.8890 
  111.1250   -23.0730     2.1790    61.3100     8.3400     7.8370    11.0610    18.8620 
  111.2500   -22.8680     2.1790    63.1800     8.3240     7.8180    11.2460    18.9140 
  111.3750   -22.7850     2.1790    64.6960     8.3240     7.8010    11.1800    19.0070 
  111.5000   -22.7560     2.1780    64.5870     8.3300     7.7820    11.4030    19.2890 
  111.6250   -22.7430     2.1770    64.3940     8.3310     7.7610    11.5330    19.9220 
  111.7500   -22.7970     2.1780    66.1910     8.3280     7.7420    11.3150    20.5980 
  111.8750   -22.8920     2.1810    68.2170     8.3320     7.7290    10.5580    20.9690 
  112.0000   -22.9800     2.1850    68.3140     8.3570     7.7290     9.7080    21.0560 
  112.1250   -22.9800     2.1870    67.3740     8.4130     7.7470     9.3060    20.9950 
  112.2500   -22.8920     2.1860    68.0870     8.4760     7.7720     9.1910    20.8830 
  112.3750   -22.7630     2.1800    70.7520     8.5150     7.7840     9.1980    20.7730 
  112.5000   -22.6480     2.1700    74.0310     8.5020     7.7650     9.3290    20.7430 
  112.6250   -22.5230     2.1600    75.4490     8.4250     7.6990     9.5330    20.8120 
  112.7500   -22.3030     2.1520    73.9650     8.3270     7.6070     9.5730    20.9310 
  112.8750   -22.0160     2.1480    69.9800     8.2540     7.5190     9.4320    21.0190 
  113.0000   -21.7540     2.1470    66.8670     8.2330     7.4570     9.4260    21.0580 
  113.1250   -21.6000     2.1490    68.0430     8.2480     7.4180     9.5610    21.0640 
  113.2500   -21.5060     2.1520    69.2830     8.2370     7.3670     9.6990    21.0190 
  113.3750   -21.3680     2.1570    68.8520     8.1570     7.2740    10.1890    20.8880 
  113.5000   -21.1510     2.1630    69.0610     8.0000     7.1320    10.4460    20.6930 
  113.6250   -20.9490     2.1670    71.2090     7.8100     6.9680     9.3780    20.5920 
  113.7500   -20.8190     2.1660    74.0480     7.6630     6.8340     8.4830    20.5700 
  113.8750   -20.7750     2.1620    76.8910     7.5950     6.7590     8.3760    20.6100 
  114.0000   -20.7920     2.1590    78.2550     7.6070     6.7480     8.9400    20.6700 
  114.1250   -20.8390     2.1630    76.9630     7.6940     6.8060     9.3290    20.6560 
  114.2500   -20.8700     2.1700    74.7490     7.8170     6.9020     9.3490    20.5600 
  114.3750   -20.9100     2.1760    73.6740     7.9280     6.9950     9.1380    20.4040 
  114.5000   -20.9750     2.1780    75.2720     7.9670     7.0320     9.5010    20.2210 
  114.6250   -20.9880     2.1770    79.6480     7.8820     6.9650    10.6490    19.9620 
  114.7500   -20.9410     2.1770    83.3250     7.7090     6.8220    11.3630    19.8130 
  114.8750   -20.8680     2.1810    83.4050     7.5040     6.6470    10.1940    19.7650 
  115.0000   -20.8190     2.1870    80.6800     7.3470     6.4950     8.2340    19.7620 
  115.1250   -20.8170     2.1900    78.9300     7.3180     6.4310     8.5440    19.7900 
  115.2500   -20.8590     2.1880    79.1350     7.3700     6.4450    10.1150    19.8740 
  115.3750   -20.9580     2.1810    80.5060     7.4280     6.5080    11.1690    20.0070 
  115.5000   -21.0970     2.1680    81.3220     7.4480     6.5940    11.3560    20.1680 
  115.6250   -21.1760     2.1540    83.0460     7.5480     6.7650    10.6720    20.5980 
  115.7500   -21.1030     2.1500    89.3680     7.9920     7.1590    10.0330    21.3410 
  115.8750   -20.8220     2.1750    96.8110     9.0000     7.9280     9.8080    22.1170 
  116.0000   -20.2700     2.2410    95.4080    10.5670     9.1310    10.6410    22.7420 
  116.1250   -19.3980     2.3420    86.7860    12.2210    10.5430    14.1660    23.5830 
  116.2500   -18.3220     2.4360    85.1930    13.0460    11.4440    20.9770    24.5730 
  116.3750   -17.0490     2.4880    90.9800    12.4100    11.1920    21.5970    25.3160 
  116.5000   -15.6360     2.4800    95.2290    10.4600     9.7840    13.7320    25.5870 
  116.6250   -14.2570     2.4220    94.7900     8.1380     7.9380     7.3190    25.5540 
  116.7500   -13.0450     2.3560    94.7110     6.3580     6.4200     5.7150    25.5470 
  116.8750   -11.9950     2.3070    96.0080     5.3460     5.4380     5.3370    25.6340 
  117.0000   -11.0900     2.2850    96.9610     5.0060     4.9710     5.2470    25.8250 
  117.1250   -10.3400     2.2860    96.8220     5.1160     4.9260     5.1150    26.1920 
  117.2500    -9.7050     2.2950    94.8940     5.2800     5.0240     5.2230    26.4270 
  117.3750    -9.1710     2.3040    92.4950     5.2970     5.0920     5.4030    26.6660 
  117.5000    -8.7390     2.3090    93.1330     5.1450     5.0620     5.0710    26.9240 
  117.6250    -8.4110     2.3150    98.3170     4.9730     5.0040     4.6470    26.8970 
  117.7500    -8.2040     2.3290   102.9600     4.9480     5.0310     4.3740    26.6620 
  117.8750    -8.1350     2.3520   102.8270     5.1350     5.1980     4.4330    26.3930 
  118.0000    -8.2380     2.3740    99.0290     5.4980     5.4930     5.2100    25.9860 
  118.1250    -8.5380     2.3760    96.8980     5.8820     5.8110     6.5370    25.4510 
