~V
VERS. 2.00: Ver 2.00
~W
STRT.M 60.0000:
STOP.M 232.0000:
STEP.M 0.1250:
NULL. -999.2500:
UWI. DF323:
~C
DEPT.M :
GR.API :
RML.OHMM :
RI. :
RXO.OHMM :
CALI.CM :
SP.MV :
DEN.GM/CC :
AC.US/MT :
~A
   60.0000    47.9460    -0.0450     0.1680     0.6250    25.7880    90.2740     2.6290   333.4330 
   60.1250    51.1970    -0.1170     0.1600     0.5190    25.8000    86.3540     2.6580   394.0280 
   60.2500    59.1730     0.0320     0.2100     1.1190    25.8240    80.4590     2.5800   437.2650 
   60.3750    69.4940     0.5010     0.3740     2.9160    25.6690    72.3430     2.4390   462.6680 
   60.5000    76.4190     1.4590     0.7530     5.7990    25.1460    62.3850     2.2970   475.4570 
   60.6250    75.3350     3.1880     1.5680     8.9780    24.4210    51.0670     2.2070   477.6480 
   60.7500    71.9180     5.2290     2.8190    11.0980    23.9460    39.1520     2.1660   476.4780 
   60.8750    68.6560     6.5270     4.2760    12.6060    23.8110    27.1360     2.1530   478.2070 
   61.0000    66.0280     6.5060     5.5260    14.4840    23.8170    15.5900     2.1500   482.9970 
   61.1250    64.2420     5.8750     6.2890    15.0170    23.8220     5.4370     2.1460   486.6130 
   61.2500    62.3770     5.4630     6.7470    14.5620    23.8480    -2.8770     2.1370   486.9260 
   61.3750    60.6900     5.3620     7.0200    13.9990    23.8850    -9.1410     2.1260   483.8250 
   61.5000    59.5890     5.4510     7.1620    13.6340    23.9120   -13.6430     2.1120   477.9220 
   61.6250    59.8470     5.6020     7.1990    13.5840    23.9240   -16.6690     2.0980   471.6440 
   61.7500    60.1660     5.7180     7.1960    13.4680    23.9320   -18.7350     2.0850   467.6730 
   61.8750    59.6320     5.7750     7.1850    13.1950    23.9400   -20.0860     2.0730   466.4350 
   62.0000    59.7510     5.8010     7.1860    12.9780    23.9310   -20.9610     2.0650   466.6910 
   62.1250    62.5200     5.8720     7.2290    12.7680    23.8720   -21.4490     2.0630   467.1030 
   62.2500    66.9500     6.0370     7.3210    12.5130    23.7890   -21.6050     2.0680   467.2710 
   62.3750    69.0820     6.2770     7.4410    12.3800    23.7320   -21.4890     2.0800   467.4170 
   62.5000    67.4960     6.5170     7.5460    12.5670    23.7180   -21.1420     2.1000   467.7670 
   62.6250    65.8580     6.6290     7.5640    13.0470    23.7190   -20.5630     2.1250   468.2670 
   62.7500    68.7690     6.5520     7.4640    12.8620    23.7210   -19.8260     2.1490   468.5630 
   62.8750    76.4430     6.2930     7.2360    11.7040    23.7510   -18.8880     2.1700   468.4750 
   63.0000    84.7630     5.9290     6.9040    10.6390    23.8410   -17.7380     2.1890   468.4040 
   63.1250    89.1980     5.5540     6.5070    10.2870    24.0160   -16.4960     2.2050   469.6930 
   63.2500    92.7490     5.2060     6.1000     9.5510    24.2190   -15.2400     2.2190   472.9740 
   63.3750    97.9030     4.8890     5.7180     8.1320    24.3930   -13.9500     2.2320   478.1420 
   63.5000   103.3980     4.6170     5.3910     6.8290    24.5130   -12.7160     2.2410   484.2830 
   63.6250   105.4860     4.4350     5.1600     6.2280    24.5880   -11.6790     2.2480   489.6860 
   63.7500   104.7790     4.3640     5.0210     5.9380    24.6250   -10.8260     2.2570   493.0020 
   63.8750   103.4950     4.4000     4.9710     5.8930    24.5630   -10.2250     2.2680   494.0780 
   64.0000   102.3300     4.5110     4.9980     6.2310    24.3560    -9.8960     2.2770   493.9220 
   64.1250   102.8510     4.6560     5.0920     6.7460    24.0710    -9.7740     2.2770   493.2560 
   64.2500   103.7020     4.8140     5.2380     6.8680    23.8710    -9.8460     2.2670   490.7290 
   64.3750   101.6240     4.9990     5.4400     6.7490    23.8060   -10.1400     2.2530   483.7150 
   64.5000    97.2720     5.2250     5.6980     6.9720    23.8020   -10.5470     2.2440   471.9980 
   64.6250    94.3480     5.4970     5.9940     7.8430    23.8230   -10.9740     2.2480   460.6070 
   64.7500    93.8240     5.7940     6.2840    10.1010    23.9500   -11.4540     2.2620   455.3360 
   64.8750    92.6110     6.0870     6.5400    13.9800    24.1710   -12.0090     2.2750   456.6890 
   65.0000    89.9330     6.3590     6.7540    16.5200    24.3600   -12.5880     2.2830   460.0630 
   65.1250    88.5470     6.5840     6.9290    13.2870    24.4020   -13.0840     2.2820   458.8020 
   65.2500    87.2460     6.7320     7.0670     9.5970    24.3870   -13.4140     2.2770   451.4500 
   65.3750    85.9580     6.7470     7.1310     8.8390    24.3900   -13.5990     2.2730   440.1130 
   65.5000    87.0960     6.5720     7.0540     9.9690    24.4020   -13.6960     2.2720   430.4950 
   65.6250    91.5050     6.1610     6.7640    10.3620    24.4220   -13.6580     2.2710   432.4100 
   65.7500    95.2250     5.6210     6.3310     9.2170    24.4530   -13.4810     2.2660   447.6680 
   65.8750    95.5560     5.0690     5.8460     7.2580    24.4890   -13.1690     2.2590   470.3080 
   66.0000    94.8380     4.6140     5.4040     5.7300    24.5190   -12.8230     2.2490   489.7680 
   66.1250    96.7700     4.3540     5.0970     5.3020    24.5310   -12.5680     2.2400   498.0180 
   66.2500   101.4760     4.2660     4.9250     5.4820    24.5360   -12.3870     2.2360   499.4800 
   66.3750   105.0270     4.3090     4.8710     5.5300    24.5360   -12.2260     2.2380   499.3170 
   66.5000   106.0640     4.4230     4.8960     5.2540    24.5360   -12.0580     2.2470   499.7620 
   66.6250   108.0040     4.5410     4.9550     5.1380    24.5360   -11.9840     2.2600   499.4670 
   66.7500   110.5950     4.6100     4.9950     5.3500    24.5360   -11.9540     2.2730   497.3570 
   66.8750   111.0960     4.6110     4.9870     5.6010    24.5360   -11.9240     2.2840   493.9280 
   67.0000   110.4300     4.5370     4.9120     5.6700    24.5360   -11.8500     2.2910   490.6310 
   67.1250   110.9130     4.3790     4.7510     5.6930    24.5360   -11.6990     2.2900   489.8220 
   67.2500   110.2340     4.1760     4.5440     5.6950    24.5360   -11.5010     2.2840   491.9690 
   67.3750   107.2210     4.0300     4.3770     5.5730    24.5360   -11.3030     2.2810   494.5830 
   67.5000   104.7240     4.1190     4.3900     5.4320    24.5360   -11.1920     2.2960   491.7280 
   67.6250   103.7300     4.7500     4.8040     5.4110    24.5350   -11.2390     2.3420   473.2330 
   67.7500   101.8120     6.0340     5.6850     5.8900    24.5360   -11.5510     2.3980   438.7970 
   67.8750    96.4070     7.9950     7.0710     8.9680    24.5590   -12.2160     2.4330   398.0800 
   68.0000    88.0980    10.3100     8.8000    17.3750    24.5740   -13.2330     2.4190   370.0520 
   68.1250    82.0820    11.9170    10.2080    26.6400    24.5230   -14.5100     2.3470   375.5130 
   68.2500    78.2620    11.9930    10.6020    22.5760    24.4380   -15.8580     2.2600   403.3480 
   68.3750    74.4190    10.6740     9.9110    14.7890    24.3890   -17.1050     2.1950   432.8570 
   68.5000    70.4260     8.8340     8.6610    11.5300    24.3920   -18.0540     2.1720   448.8250 
   68.6250    72.2840     7.3920     7.5110    10.1680    24.3980   -18.4780     2.1850   450.2560 
   68.7500    77.8820     6.5770     6.7400     8.6850    24.3950   -18.3960     2.2080   448.5230 
   68.8750    80.6060     6.2840     6.3350     7.8110    24.3930   -17.8860     2.2280   447.4000 
   69.0000    80.2790     6.3110     6.1840     7.5870    24.3940   -17.0200     2.2390   445.7280 
   69.1250    81.4200     6.5300     6.2140     7.4940    24.4000   -15.9000     2.2360   442.6070 
   69.2500    84.6270     6.8480     6.3740     7.3280    24.4110   -14.8440     2.2220   439.3320 
   69.3750    85.5360     7.2450     6.6670     7.3470    24.3780   -14.1310     2.1990   436.9540 
   69.5000    81.8650     7.7180     7.0870     7.9420    24.2400   -13.9180     2.1700   435.2910 
   69.6250    74.2060     8.2790     7.6170     9.4890    23.9640   -14.3070     2.1460   430.8530 
   69.7500    66.8050     8.8900     8.1700    11.2670    23.6150   -15.1770     2.1310   418.8250 
   69.8750    63.5340     9.4840     8.6610    12.4750    23.2620   -16.3330     2.1270   395.4040 
