~V
VERS. 2.00: Ver 2.00
~W
STRT.M 60.0000:
STOP.M 227.0000:
STEP.M 0.1250:
NULL. -999.2500:
UWI. DF32025:
~C
DEPT.M :
DEN.GM/CC :
GR.API :
RML.OHMM :
RI. :
RXO.OHMM :
CALI.CM :
SP.MV :
~A
# ...
  183.7500     2.2340    69.9640    36.7040    34.1690    39.7250    23.2930   -14.0440 
  183.8750     2.2110    69.3520    40.2850    38.2380    54.4360    23.8220   -14.0610 
  184.0000     2.1950    69.4130    40.9500    39.8640    58.6450    24.1490   -14.1050 
  184.1250     2.1980    71.3310    37.5330    37.2590    54.8060    24.2230   -14.0910 
  184.2500     2.2180    72.0190    31.8190    31.8140    43.6800    24.2230   -14.1330 
  184.3750     2.2480    71.5470    26.5370    25.7380    29.3480    24.2230   -14.1280 
  184.5000     2.2780    72.9090    23.4630    21.0990    19.0320    24.2230   -14.1420 
  184.6250     2.2910    75.4410    22.3190    19.5000    17.2390    24.1790   -14.1620 
  184.7500     2.2860    75.9330    24.8220    21.1080    17.4450    24.0680   -14.1780 
  184.8750     2.2650    74.9000    31.2020    26.2580    24.2960    24.0930   -14.2820 
  185.0000     2.2380    72.5780    40.9070    34.6570    38.5040    24.0760   -14.3070 
  185.1250     2.2160    66.8480    51.6320    44.5900    51.1290    24.0520   -14.4070 
  185.2500     2.2040    60.3250    59.1930    52.3480    56.0080    24.0280   -14.4500 
  185.3750     2.2020    58.5750    60.1290    54.7380    61.2530    24.0000   -14.5110 
  185.5000     2.2120    62.2580    53.7020    50.5640    66.9260    23.9640   -14.6240 
  185.6250     2.2320    66.6540    43.5910    41.9340    63.5610    23.9260   -14.6830 
  185.7500     2.2560    70.1360    35.4020    33.8990    46.2400    23.8880   -14.8040 
  185.8750     2.2770    73.3730    31.0280    28.8350    26.5050    23.8550   -14.8510 
  186.0000     2.2840    74.7130    30.9980    27.6460    17.6340    23.8290   -15.0270 
  186.1250     2.2730    71.5680    36.4440    31.3970    25.5760    23.8160   -15.2070 
  186.2500     2.2510    67.3870    46.6300    39.3550    47.5750    23.8140   -15.3780 
  186.3750     2.2260    64.8340    60.7300    50.8070    66.3200    23.8210   -15.6170 
  186.5000     2.2040    63.8580    76.7710    64.1580    71.1640    23.8380   -15.7960 
  186.6250     2.1870    63.6090    91.2950    76.7390    74.6410    23.8660   -16.0630 
  186.7500     2.1760    65.1820   102.0750    86.6950    77.9310    23.9020   -16.3120 
  186.8750     2.1690    67.2190   109.3650    93.9850    82.5740    23.9450   -16.5790 
  187.0000     2.1670    68.1050   114.9860    99.7370    91.5970    23.9900   -16.8030 
  187.1250     2.1690    67.6920   120.2520   104.8830   100.2970    24.0360   -17.0610 
  187.2500     2.1710    66.6810   125.2140   109.5870   105.8180    24.0790   -17.2640 
  187.3750     2.1710    63.2960   129.4370   113.5360   110.1280    24.1170   -17.4850 
  187.5000     2.1680    57.2440   132.4570   116.4120   118.6080    24.1480   -17.6640 
  187.6250     2.1650    53.3100   133.3050   117.6190   125.2870    24.1710   -17.8560 
  187.7500     2.1620    55.8890   131.4010   116.8820   120.1710    24.1940   -18.0140 
  187.8750     2.1600    61.1950   125.9130   113.5740   108.1420    24.2160   -18.1090 
  188.0000     2.1610    62.5770   116.4950   107.1730   102.0010    24.2230   -18.2680 
  188.1250     2.1660    59.8170   103.7670    97.5190   110.6250    24.2230   -18.2880 
  188.2500     2.1750    59.3460    90.8110    86.7360   119.5640    24.2220   -18.3840 
  188.3750     2.1890    61.2320    80.2490    77.0850   103.5380    24.2160   -18.4480 
  188.5000     2.2040    62.9910    74.0330    70.7180    71.6040    24.1980   -18.5060 
  188.6250     2.2120    64.2890    74.0570    69.9160    52.1880    24.1910   -18.5970 
  188.7500     2.2120    65.4370    79.1670    74.0160    53.2600    24.2370   -18.6310 
  188.8750     2.2010    65.4570    87.9320    81.8290    73.1580    24.3150   -18.7700 
  189.0000     2.1870    66.3740    97.9000    91.1240    99.7920    24.3740   -18.8480 
  189.1250     2.1760    68.6860   105.4060    98.5460   117.4890    24.4070   -18.9410 
  189.2500     2.1740    69.4320   108.6130   102.1900   117.8230    24.4070   -19.0370 
  189.3750     2.1800    67.8970   107.9970   102.1460   115.2670    24.3520   -19.0600 
  189.5000     2.1930    66.7980   106.0000   100.2650   105.2500    24.2110   -19.1710 
  189.6250     2.2040    66.4160   105.7610    99.2750    87.1720    23.9320   -19.1270 
  189.7500     2.2100    64.8810   108.2110   100.4460    74.0710    23.5960   -19.1680 
  189.8750     2.2070    61.5330   112.9480   103.6470    79.2010    23.3880   -19.1360 
  190.0000     2.1990    58.6800   118.9930   108.0810    95.6640    23.5240   -19.1100 
  190.1250     2.1910    59.5120   125.4160   112.9300    97.4800    23.8760   -19.1040 
  190.2500     2.1890    61.3200   131.9180   117.8970    93.3940    24.1560   -19.0860 
  190.3750     2.1930    60.5840   139.0320   123.4360    97.5020    24.3580   -19.1090 
  190.5000     2.2020    57.8210   147.5860   130.2810   109.7290    24.4810   -19.0730 
  190.6250     2.2100    56.9230   158.3480   139.1890   137.4900    24.5090   -19.0800 
  190.7500     2.2130    55.9090   170.2960   149.3600   174.1320    24.4980   -19.0370 
  190.8750     2.2100    52.6430   181.7950   159.4680   195.0020    24.4740   -19.0670 
  191.0000     2.2020    50.2380   190.8540   167.8420   192.5740    24.4400   -19.0120 
  191.1250     2.1940    52.1140   195.0930   172.4340   204.2900    24.4270   -19.0020 
  191.2500     2.1890    56.2950   194.8060   173.2710   209.3080    24.4260   -18.9910 
  191.3750     2.1880    60.2860   190.7530   170.8190   189.2830    24.4270   -18.9390 
  191.5000     2.1900    62.6520   184.1030   165.9670   170.4430    24.4280   -18.9390 
  191.6250     2.1950    63.0230   175.6660   159.3770   158.8900    24.4260   -18.8920 
  191.7500     2.2020    62.7400   166.3120   151.8460   152.2070    24.4240   -18.8750 
  191.8750     2.2090    61.4450   156.5420   143.7710   144.7930    24.4230   -18.8260 
  192.0000     2.2120    58.6940   147.1750   135.8160   138.7470    24.4200   -18.8050 
  192.1250     2.2090    56.3800   139.7920   129.3630   126.8600    24.4190   -18.8370 
  192.2500     2.2000    57.2860   135.2620   125.3930   111.6590    24.4190   -18.8350 
  192.3750     2.1870    58.8270   133.8590   124.3950    94.5000    24.4210   -18.9620 
  192.5000     2.1740    59.2580   134.8260   125.9080    80.9430    24.4110   -19.0670 
  192.6250     2.1670    58.8070   136.1880   128.3040    86.8010    24.3710   -19.3590 
  192.7500     2.1680    59.7470   135.5890   129.1870   105.0380    24.3030   -19.6200 
  192.8750     2.1780    62.6560   131.9660   127.2300   112.5030    24.2480   -19.9130 
  193.0000     2.1950    65.8170   125.9580   122.6250   100.6020    24.2240   -20.2090 
  193.1250     2.2130    65.7130   120.3440   117.6310    78.0970    24.2190   -20.4710 
  193.2500     2.2260    62.5420   118.3350   115.5690    63.1970    24.2200   -20.7580 
  193.3750     2.2280    58.9250   121.8210   118.5890    59.1060    24.2450   -20.9530 
  193.5000     2.2190    57.5980   131.0140   127.1250    68.1530    24.3090   -21.1180 
  193.6250     2.2030    58.4310   144.2110   139.5810    95.4660    24.3960   -21.1750 
  193.7500     2.1920    59.3160   156.3870   151.1760   121.9430    24.4520   -21.2280 
  193.8750     2.1930    58.1740   163.0240   157.8440   126.5470    24.4730   -21.1490 
  194.0000     2.2060    56.2240   161.1170   157.0010   118.3080    24.4660   -21.1180 
  194.1250     2.2200    56.8210   150.3520   148.0910   110.7410    24.4520   -20.9590 
  194.2500     2.2210    59.0910   136.6700   135.8530   110.2740    24.5120   -20.8130 
  194.3750     2.2070    60.8970   124.1230   123.8300    99.5730    24.7030   -20.6250 
  194.5000     2.1820    60.4850   114.6160   114.1720    81.7350    24.9980   -20.4040 
  194.6250     2.1560    58.3790   108.6100   107.8050    69.4910    25.2120   -20.1900 
  194.7500     2.1400    57.1660   104.6660   103.5760    74.7500    25.0520   -19.8940 
  194.8750     2.1360    57.6880   101.9120   100.6440    81.7130    24.6660   -19.6990 
