~V
VERS. 2.00: Ver 2.00
~W
STRT.M 50.0000:
STOP.M 264.0000:
STEP.M 0.1250:
NULL. -999.2500:
UWI. DF32158:
~C
DEPT.M :
GR.API :
RML.OHMM :
RI. :
RXO.OHMM :
CALI.CM :
DEN.GM/CC :
SP.MV :
~A
# ...
  128.7500    83.4190     8.3520     7.6220     8.2380    24.5170     2.2370   -17.7140 
  128.8750    82.4480     9.7460     8.8130     9.7440    24.6550     2.3120   -18.0280 
  129.0000    78.7160    12.1520    10.9030    13.9260    24.7120     2.4260   -18.2690 
  129.1250    78.3330    15.3880    14.0070    20.3020    24.7760     2.5440   -18.4910 
  129.2500    82.0000    18.2920    17.1870    24.9520    24.8390     2.6170   -18.7240 
  129.3750    85.2360    19.5420    19.0370    26.0160    24.8210     2.6190   -19.0120 
  129.5000    82.8230    18.5520    18.6280    24.2990    24.5870     2.5480   -19.4210 
  129.6250    75.7470    16.1220    16.4910    19.6610    24.1610     2.4280   -19.9480 
  129.7500    70.9530    13.8620    14.2840    16.0940    23.7430     2.3090   -20.5630 
  129.8750    71.2770    12.3170    12.6220    14.1390    23.4340     2.2190   -21.1440 
  130.0000    73.0900    11.4990    11.5990    12.7960    23.2030     2.1690   -21.6840 
  130.1250    71.8860    11.2560    11.1450    11.7240    23.1120     2.1550   -22.0270 
  130.2500    70.8340    11.2280    10.9610    10.9850    23.0960     2.1550   -22.1780 
  130.3750    71.6710    11.2110    10.8600    10.6420    23.0410     2.1600   -22.1300 
  130.5000    72.9230    11.0690    10.6960    10.4610    22.9530     2.1720   -21.8910 
  130.6250    74.5550    10.6820    10.3440     9.9890    22.9140     2.2000   -21.4450 
  130.7500    78.3070    10.0890     9.8160     8.9380    22.9570     2.2430   -20.8610 
  130.8750    83.2510     9.3940     9.1940     7.9990    23.1700     2.2890   -20.2600 
  131.0000    87.3490     8.7530     8.6080     7.6220    23.6530     2.3220   -19.6730 
  131.1250    89.5060     8.3400     8.2020     7.5810    24.1910     2.3270   -19.2060 
  131.2500    90.5740     8.1750     7.9920     7.6140    24.5070     2.3120   -18.8900 
  131.3750    90.1090     8.2290     7.9510     7.6080    24.4450     2.2880   -18.7550 
  131.5000    87.9210     8.4250     8.0200     7.6210    24.1090     2.2640   -18.8200 
  131.6250    84.7430     8.6650     8.1340     7.7830    23.7450     2.2470   -19.1020 
  131.7500    84.8340     8.8690     8.2370     8.0000    23.4730     2.2340   -19.5470 
  131.8750    87.3180     9.0000     8.3060     8.0810    23.3590     2.2210   -20.1060 
  132.0000    86.8640     9.0200     8.3070     8.0550    23.5020     2.2060   -20.7060 
  132.1250    79.1420     8.8850     8.2000     8.3280    23.9360     2.1850   -21.3330 
  132.2500    72.3000     8.6930     8.0560     8.9860    24.2130     2.1600   -21.8910 
  132.3750    73.3900     8.6340     8.0290     9.5890    23.9310     2.1380   -22.3410 
  132.5000    78.8830     8.9930     8.3380     9.9660    23.2440     2.1300   -22.6720 
  132.6250    80.8800    10.2850     9.4060    10.7600    22.7080     2.1580   -22.8730 
  132.7500    78.2470    12.7180    11.4830    13.0810    22.7370     2.2260   -22.9920 
  132.8750    74.9690    16.3540    14.7960    18.7630    23.1600     2.3290   -23.0190 
  133.0000    72.3950    20.7190    19.1600    27.4760    23.8250     2.4480   -23.0760 
  133.1250    70.7470    24.0510    23.0920    38.4790    24.5230     2.5490   -23.2000 
  133.2500    71.8390    24.5210    24.3680    48.8230    24.8960     2.6040   -23.4580 
  133.3750    75.1970    21.8970    22.3030    55.7410    24.9320     2.5960   -23.8720 
  133.5000    76.9960    17.7790    18.3760    46.5450    24.6920     2.5270   -24.4240 
  133.6250    76.1060    14.1960    14.6900    29.0120    24.3390     2.4150   -25.1090 
  133.7500    75.9450    11.8010    12.0470    17.0520    23.9660     2.3040   -25.8530 
  133.8750    76.4490    10.4880    10.4220    12.5020    23.7840     2.2200   -26.6090 
  134.0000    74.3320     9.9710     9.6110    11.1100    23.7470     2.1710   -27.3100 
  134.1250    69.7970     9.9970     9.4570    11.0840    23.7480     2.1540   -27.8930 
  134.2500    67.6930    10.2190     9.6320    10.9260    23.7220     2.1490   -28.3460 
  134.3750    69.5550    10.5070     9.9760    11.0820    23.6690     2.1480   -28.6480 
  134.5000    73.1150    10.8220    10.3930    11.5470    23.6310     2.1500   -28.7920 
  134.6250    73.6290    11.1740    10.8420    11.7850    23.6160     2.1560   -28.7810 
  134.7500    72.6440    11.5350    11.2820    11.7280    23.6210     2.1640   -28.6520 
  134.8750    73.1600    11.7920    11.6180    11.6600    23.6470     2.1720   -28.4640 
  135.0000    75.3930    11.7510    11.6690    12.5850    23.7060     2.1800   -28.1580 
  135.1250    76.1530    11.1200    11.1250    14.0120    23.7390     2.1920   -27.7440 
  135.2500    75.6280     9.9930    10.0480    13.8000    23.7980     2.2090   -27.2060 
  135.3750    78.6250     8.6340     8.6890    11.1590    23.9740     2.2300   -26.5800 
  135.5000    88.2530     7.4030     7.4000     8.6060    24.3320     2.2510   -25.8670 
  135.6250    98.7450     6.6720     6.5340     6.5080    24.6550     2.2600   -25.2140 
  135.7500   101.2800     6.4750     6.1490     5.5590    24.7510     2.2540   -24.7270 
  135.8750    95.4260     6.7830     6.2510     5.7220    24.5810     2.2370   -24.4670 
  136.0000    87.8040     7.5000     6.7930     6.9530    24.2720     2.2140   -24.5080 
  136.1250    84.6990     8.4640     7.6820     8.4660    23.9860     2.1960   -24.8070 
  136.2500    84.9700     9.3640     8.6170     9.3160    23.8830     2.1850   -25.3170 
  136.3750    87.0390     9.9700     9.3380     9.6740    23.8870     2.1830   -25.9610 
  136.5000    88.9940    10.1630     9.6750     9.8680    23.9590     2.1870   -26.7320 
  136.6250    88.4470     9.9270     9.5640     9.8210    24.0270     2.1910   -27.4640 
  136.7500    85.7130     9.4950     9.2180     9.5730    24.0830     2.1910   -28.0760 
  136.8750    82.6140     9.0770     8.8290     9.4610    24.1150     2.1810   -28.4910 
  137.0000    79.8710     8.9060     8.5980     9.7490    24.1610     2.1650   -28.6860 
  137.1250    76.6660     9.3250     8.8130    10.0640    24.2020     2.1630   -28.6970 
  137.2500    75.1480    10.4210     9.5920    10.4720    24.2410     2.1990   -28.6320 
  137.3750    76.7200    12.1540    10.9790    13.7920    24.3520     2.2790   -28.5720 
  137.5000    78.5540    14.2090    12.8150    22.7970    24.4920     2.3820   -28.5510 
  137.6250    77.9270    15.7490    14.4740    32.2210    24.4790     2.4550   -28.6160 
  137.7500    78.9110    16.0610    15.1650    29.3390    24.2350     2.4640   -28.8180 
  137.8750    81.6560    15.0850    14.6240    20.7850    23.8150     2.4080   -29.1670 
  138.0000    81.4210    13.4550    13.2990    14.1910    23.4420     2.3170   -29.6630 
  138.1250    75.4330    12.0470    11.9590    12.6520    23.3100     2.2360   -30.2620 
  138.2500    71.3910    11.2130    11.0390    12.0990    23.2790     2.1880   -30.8340 
  138.3750    71.6620    10.9010    10.5800    11.9490    23.2710     2.1700   -31.3630 
  138.5000    73.7580    10.8920    10.4570    11.9410    23.2760     2.1710   -31.7970 
  138.6250    74.3380    10.9230    10.4680    11.8750    23.3410     2.1770   -32.1400 
  138.7500    73.0200    10.8340    10.4270    11.6050    23.4700     2.1790   -32.3380 
  138.8750    71.4220    10.6450    10.3020    11.2330    23.5740     2.1780   -32.3850 
  139.0000    70.9470    10.4560    10.1500    10.9790    23.6130     2.1750   -32.2960 
  139.1250    72.8110    10.4050    10.0780    10.8190    23.5690     2.1710   -32.1120 
  139.2500    74.2420    10.5250    10.1410    10.8070    23.4410     2.1680   -31.9480 
  139.3750    73.2510    10.7550    10.3120    10.9530    23.3020     2.1650   -31.7840 
  139.5000    71.6960    10.9440    10.4770    11.3310    23.3340     2.1630   -31.6510 
  139.6250    71.0320    10.8740    10.4360    11.7160    23.5970     2.1650   -31.4790 
  139.7500    71.5290    10.5080    10.1220    11.7140    23.7770     2.1750   -31.2550 
  139.8750    73.6170    10.3070     9.9430    11.5910    23.8160     2.1930   -30.9840 
