~V
VERS. 2.00: Ver 2.00
~W
STRT.M 61.0000:
STOP.M 262.0000:
STEP.M 0.1250:
NULL. -999.2500:
UWI. DF32115:
~C
DEPT.M :
GR.API :
CALI.CM :
RXO.OHMM :
RI. :
RML.OHMM :
DEN.GM/CC :
SP.MV :
~A
# ...
  184.7500    61.8580    25.3510    23.2340    19.6450    22.0860     2.6030   -18.9250 
  184.8750    56.0480    25.3490    21.9080    17.1990    19.2850     2.5830   -18.4840 
  185.0000    49.9200    25.3470    22.8920    15.9910    18.0160     2.5740   -18.1390 
  185.1250    49.2050    25.3530    26.4120    15.6080    17.7100     2.5860   -17.9410 
  185.2500    51.4640    25.3500    28.1610    15.2840    17.3560     2.6060   -17.8630 
  185.3750    54.0210    25.3240    24.5000    14.4830    16.2860     2.6210   -17.8580 
  185.5000    58.1500    25.3150    16.8950    13.0070    14.3090     2.6150   -17.8950 
  185.6250    62.2910    25.3290    10.7940    11.1280    11.8620     2.5760   -18.0010 
  185.7500    62.4980    25.3140     7.7430     9.4120     9.7220     2.5280   -18.1540 
  185.8750    60.2920    25.2790     6.8110     8.1160     8.2220     2.4970   -18.3570 
  186.0000    59.6610    25.2760     6.8210     7.2690     7.3630     2.4970   -18.6170 
  186.1250    60.8100    25.3020     6.7930     6.7920     6.9760     2.5130   -18.9260 
  186.2500    62.5200    25.2650     6.3980     6.4510     6.7160     2.5220   -19.2440 
  186.3750    64.9100    25.1730     5.7910     6.1220     6.4200     2.5280   -19.5520 
  186.5000    65.8590    25.1000     5.2540     5.7560     6.0460     2.5470   -19.8470 
  186.6250    61.3100    25.0920     5.0670     5.3930     5.6720     2.5740   -20.0790 
  186.7500    54.9900    25.1100     5.1370     5.1110     5.4130     2.5770   -20.2420 
  186.8750    51.5420    25.1230     5.2340     4.9580     5.3250     2.5390   -20.3430 
  187.0000    50.8010    25.1160     5.2450     4.9370     5.3980     2.4750   -20.3840 
  187.1250    52.7130    25.0900     5.3790     5.0110     5.5700     2.4200   -20.3620 
  187.2500    57.0830    25.0570     5.6800     5.0870     5.7210     2.3930   -20.3370 
  187.3750    61.8090    25.0360     5.8180     5.1100     5.7840     2.3890   -20.3460 
  187.5000    68.0470    25.0060     5.5610     5.0820     5.7810     2.3960   -20.3840 
  187.6250    79.4530    24.9160     5.1820     5.0940     5.8780     2.4000   -20.4910 
  187.7500    92.6660    24.8050     5.1520     5.2620     6.2620     2.4070   -20.6910 
  187.8750   101.0730    24.7500     5.6860     5.6670     7.0520     2.4310   -20.9640 
  188.0000   100.0420    24.8060     6.9820     6.3420     8.2760     2.4720   -21.3010 
  188.1250    93.0180    24.9420     9.2630     7.2650     9.8610     2.5130   -21.7280 
  188.2500    87.5850    25.0620    11.4560     8.2320    11.4450     2.5340   -22.2190 
  188.3750    86.3660    25.1300    12.2330     9.0170    12.6590     2.5300   -22.7460 
  188.5000    87.3060    25.1540    11.5140     9.4310    13.2280     2.5020   -23.2970 
  188.6250    88.6160    25.1660    10.7880     9.3750    13.0590     2.4640   -23.8790 
  188.7500    90.3780    25.1730    10.6590     9.0510    12.5180     2.4420   -24.4660 
  188.8750    91.6300    25.1640    10.3570     8.6290    11.8890     2.4370   -25.0420 
  189.0000    91.1450    25.1440     9.5180     8.2690    11.4210     2.4340   -25.6000 
  189.1250    87.3040    25.1340     8.8910     8.1340    11.3790     2.4240   -26.1240 
  189.2500    82.5080    25.1390     9.0630     8.2600    11.7970     2.4150   -26.5980 
  189.3750    78.9970    25.1400    10.0670     8.6490    12.6540     2.4170   -27.0330 
  189.5000    78.9460    25.1200    11.8190     9.2380    13.8020     2.4280   -27.4400 
  189.6250    81.9400    25.0870    13.7050     9.8630    14.8810     2.4430   -27.7670 
  189.7500    84.4000    25.0690    14.3810    10.2810    15.4730     2.4470   -28.0090 
  189.8750    86.5960    25.0740    13.4640    10.3440    15.3860     2.4320   -28.1700 
  190.0000    87.8210    25.0910    11.8360    10.0380    14.6840     2.4060   -28.2410 
  190.1250    90.5000    25.1130    10.6880     9.4110    13.5290     2.3850   -28.1450 
  190.2500    94.0600    25.1330    10.0320     8.6280    12.1850     2.3730   -27.8870 
  190.3750    94.0160    25.1470     9.4150     7.7910    10.8060     2.3660   -27.4710 
  190.5000    87.8450    25.1580     8.4280     7.0070     9.5640     2.3670   -26.9130 
  190.6250    78.0500    25.1720     7.0490     6.4110     8.6940     2.3850   -26.2210 
  190.7500    71.6800    25.1810     5.9160     6.0410     8.2520     2.4140   -25.4610 
  190.8750    70.8960    25.1670     5.5370     5.8980     8.2100     2.4440   -24.6830 
  191.0000    74.0060    25.1430     5.9430     5.9230     8.4230     2.4650   -23.9220 
  191.1250    75.6920    25.1200     6.4820     6.0040     8.6220     2.4650   -23.2260 
  191.2500    73.0940    25.0860     6.4570     6.0100     8.5760     2.4550   -22.6090 
  191.3750    67.1310    25.0320     5.9390     5.8890     8.2410     2.4500   -22.0870 
  191.5000    59.4520    24.9640     5.4270     5.6680     7.7420     2.4580   -21.6670 
  191.6250    53.6390    24.9080     5.2590     5.4320     7.3000     2.4650   -21.3790 
  191.7500    52.1000    24.8770     5.2590     5.2570     7.0280     2.4610   -21.1820 
  191.8750    54.2340    24.8760     5.2840     5.1600     6.9150     2.4520   -21.0570 
  192.0000    56.2170    24.8870     5.3000     5.1190     6.8840     2.4500   -20.9990 
  192.1250    55.2690    24.8900     5.2890     5.0930     6.8460     2.4510   -21.0100 
  192.2500    52.8820    24.8850     5.2290     5.0520     6.7700     2.4460   -21.0890 
  192.3750    51.6860    24.8840     5.1230     4.9970     6.6770     2.4330   -21.2340 
  192.5000    53.5100    24.8970     5.0030     4.9450     6.6020     2.4200   -21.4180 
  192.6250    58.1050    24.9290     4.9120     4.9190     6.5820     2.4170   -21.6260 
  192.7500    64.7190    24.9720     4.8910     4.9280     6.6160     2.4230   -21.8280 
  192.8750    72.3520    25.0100     4.9540     4.9660     6.6910     2.4280   -22.0010 
  193.0000    78.8440    25.0310     5.0600     5.0220     6.7830     2.4250   -22.1210 
  193.1250    81.7610    25.0380     5.1180     5.0760     6.8640     2.4250   -22.1430 
  193.2500    81.3090    25.0530     5.1200     5.1140     6.9120     2.4440   -22.0260 
  193.3750    79.0000    25.0800     5.1550     5.1300     6.9220     2.4730   -21.7370 
  193.5000    76.8180    25.1080     5.2790     5.1230     6.8950     2.4880   -21.2770 
  193.6250    77.2950    25.1340     5.3810     5.0930     6.8350     2.4790   -20.6080 
  193.7500    80.7010    25.1610     5.3350     5.0460     6.7610     2.4620   -19.7860 
  193.8750    85.8530    25.1910     5.1950     4.9920     6.6850     2.4420   -18.8760 
  194.0000    90.5250    25.2210     5.1060     4.9350     6.6100     2.4190   -17.9780 
  194.1250    90.7490    25.2510     5.1320     4.8840     6.5400     2.4010   -17.2070 
  194.2500    87.3660    25.2760     5.1940     4.8490     6.4870     2.3980   -16.6090 
  194.3750    85.1010    25.2880     5.2340     4.8430     6.4680     2.4010   -16.1940 
  194.5000    87.0160    25.2970     5.2510     4.8770     6.5030     2.3960   -15.9670 
  194.6250    88.8220    25.3170     5.3770     4.9700     6.6270     2.3770   -15.9860 
  194.7500    87.5970    25.3330     5.7110     5.1350     6.8660     2.3590   -16.2090 
  194.8750    86.1110    25.3180     6.1680     5.4030     7.2770     2.3540   -16.5860 
  195.0000    86.9660    25.2650     6.5790     5.8120     7.9230     2.3600   -17.0410 
  195.1250    88.1390    25.2150     7.0540     6.4290     8.9140     2.3650   -17.5200 
  195.2500    87.3330    25.1930     8.0310     7.2330    10.1810     2.3620   -18.0240 
  195.3750    86.3520    25.1910     9.5830     8.1570    11.5560     2.3570   -18.5570 
  195.5000    86.2510    25.1920    11.1210     9.0440    12.7390     2.3580   -19.1150 
  195.6250    85.3570    25.1920    11.6410     9.6480    13.3480     2.3680   -19.6790 
  195.7500    83.8610    25.1920    11.1450     9.9270    13.4590     2.3790   -20.2200 
  195.8750    83.6120    25.1920    10.1680     9.9710    13.3290     2.3870   -20.7250 
