~V
VERS. 2.00: Ver 2.00
~W
STRT.M 59.0000:
STOP.M 261.0000:
STEP.M 0.1250:
NULL. -999.2500:
UWI. DF32116:
~C
DEPT.M :
SP.MV :
GR.API :
CALI.CM :
RXO.OHMM :
RI. :
RML.OHMM :
DEN.GM/CC :
~A
# ...
  115.2500   -23.0520    74.8430    25.0180     7.5420     5.3530     6.9460     2.2220 
  115.3750   -23.4960    70.9370    24.7560     9.2190     6.2640     8.4680     2.1980 
  115.5000   -23.9650    67.0850    24.6000    10.1510     7.2230     9.8630     2.1870 
  115.6250   -24.3920    66.4380    24.5100    10.3460     7.9380    10.6740     2.1830 
  115.7500   -24.7680    69.8450    24.4500    10.4290     8.3110    10.9290     2.1820 
  115.8750   -25.0560    73.1140    24.4360    10.6550     8.3980    10.8440     2.1840 
  116.0000   -25.2680    72.7520    24.4760    11.0810     8.3340    10.6680     2.1850 
  116.1250   -25.4140    68.8600    24.5490    11.7650     8.2410    10.5650     2.1840 
  116.2500   -25.5290    65.9580    24.6200    12.6150     8.1890    10.5730     2.1860 
  116.3750   -25.6220    66.3110    24.6680    13.2930     8.2130    10.7160     2.1950 
  116.5000   -25.6970    67.7220    24.6790    13.3020     8.3320    11.0130     2.2130 
  116.6250   -25.7620    66.9650    24.6550    12.2960     8.5560    11.4430     2.2360 
  116.7500   -25.8140    66.2780    24.6370    10.9270     8.8250    11.8860     2.2560 
  116.8750   -25.8670    67.9620    24.6280     9.9300     9.0740    12.2140     2.2670 
  117.0000   -25.9120    71.6440    24.5980     9.6710     9.2260    12.3090     2.2600 
  117.1250   -25.9220    73.4230    24.5260     9.8710     9.2130    12.1000     2.2340 
  117.2500   -25.9100    72.1780    24.4420     9.8830     9.0860    11.7390     2.2050 
  117.3750   -25.8500    70.7040    24.3820     9.6140     8.9080    11.3560     2.1900 
  117.5000   -25.7410    70.2250    24.3620     9.2890     8.7210    11.0300     2.1950 
  117.6250   -25.5610    69.0950    24.3690     9.0120     8.5350    10.7680     2.2110 
  117.7500   -25.2870    66.4380    24.3850     8.6230     8.3150    10.4680     2.2250 
  117.8750   -24.9190    66.2850    24.4100     8.0460     7.9970     9.9920     2.2360 
  118.0000   -24.4630    70.9020    24.4510     7.3650     7.5260     9.2350     2.2470 
  118.1250   -23.9480    74.5530    24.4950     6.7830     6.8950     8.2150     2.2580 
  118.2500   -23.4010    73.7850    24.5280     6.2860     6.2300     7.1830     2.2700 
  118.3750   -22.8880    72.1430    24.5740     5.6810     5.6460     6.3460     2.2820 
  118.5000   -22.4370    72.7810    24.6670     4.9690     5.2380     5.8470     2.2930 
  118.6250   -22.0920    74.6900    24.7800     4.6820     5.0920     5.7890     2.2980 
  118.7500   -21.8640    74.9710    24.8290     5.1820     5.1500     6.0330     2.2960 
  118.8750   -21.7380    76.3350    24.7940     6.2870     5.3480     6.4390     2.2870 
  119.0000   -21.7200    80.8520    24.7310     7.4140     5.5910     6.8390     2.2770 
  119.1250   -21.8210    83.6690    24.7040     7.8840     5.7890     7.0940     2.2770 
  119.2500   -22.0100    81.5630    24.7070     7.7400     5.9310     7.2480     2.2810 
  119.3750   -22.2540    76.9590    24.7070     7.4110     6.0600     7.4100     2.2760 
  119.5000   -22.5250    73.6310    24.6680     7.3740     6.2230     7.6670     2.2540 
  119.6250   -22.8110    71.8040    24.5860     7.8780     6.4420     8.0170     2.2290 
  119.7500   -23.0990    69.9960    24.5270     8.5270     6.6730     8.3420     2.2200 
  119.8750   -23.4120    68.8600    24.5490     8.8680     6.8770     8.5590     2.2240 
  120.0000   -23.7310    68.6630    24.6420     8.7760     7.0510     8.6940     2.2240 
  120.1250   -24.0160    69.7440    24.7110     8.7940     7.2670     8.9240     2.2160 
  120.2500   -24.2450    71.3790    24.7070     9.4000     7.5980     9.3960     2.2160 
  120.3750   -24.3910    71.9900    24.6610    10.4640     8.0750    10.1490     2.2380 
  120.5000   -24.4530    71.6360    24.6310    11.7070     8.6730    11.0990     2.2760 
  120.6250   -24.4040    70.9260    24.6300    12.8730     9.2630    11.9690     2.3110 
  120.7500   -24.2450    71.5620    24.5980    13.3420     9.6230    12.3700     2.3280 
  120.8750   -23.9770    73.3640    24.5130    12.7140     9.5630    12.0360     2.3260 
  121.0000   -23.6090    73.0080    24.4300    11.3980     9.0260    10.9700     2.3120 
  121.1250   -23.1570    69.5680    24.4340     9.9170     8.0850     9.4060     2.3030 
  121.2500   -22.6890    68.3740    24.5180     8.2410     7.0350     7.8150     2.3050 
  121.3750   -22.2530    72.1510    24.6430     6.5630     6.0800     6.4830     2.3110 
  121.5000   -21.8620    77.5680    24.7660     5.3710     5.3490     5.5660     2.3190 
  121.6250   -21.5490    82.6030    24.8640     5.0180     4.8060     5.1400     2.3260 
  121.7500   -21.3270    82.2460    24.8550     5.3320     4.8710     5.4240     2.3290 
  121.8750   -21.1600    79.7260    24.8580     5.7010     5.1030     5.8800     2.3230 
  122.0000   -21.0370    76.6380    24.8930     6.0570     5.3730     6.2760     2.3060 
  122.1250   -20.9480    75.8110    24.9370     6.5000     5.5010     6.3290     2.2780 
  122.2500   -20.8640    78.2850    24.9580     6.7110     5.4280     6.0480     2.2520 
  122.3750   -20.7650    81.9110    24.9680     6.2140     5.2040     5.6000     2.2460 
  122.5000   -20.6660    84.1310    24.9930     5.2130     4.9560     5.2190     2.2700 
  122.6250   -20.5900    83.8070    24.9980     4.7550     4.8290     5.1280     2.3020 
  122.7500   -20.5490    82.3810    24.9170     5.1800     4.8600     5.3080     2.3060 
  122.8750   -20.5700    78.1750    24.7600     6.0440     5.0210     5.6640     2.2800 
  123.0000   -20.6460    72.2690    24.6110     6.8100     5.2450     6.0500     2.2510 
  123.1250   -20.8000    71.1630    24.5520     7.1710     5.4460     6.3100     2.2420 
  123.2500   -21.0300    72.8190    24.5500     7.2290     5.6060     6.4620     2.2420 
  123.3750   -21.3170    73.8180    24.5470     7.2110     5.7760     6.6430     2.2450 
  123.5000   -21.6470    74.9570    24.5270     7.4360     6.0470     7.0360     2.2560 
  123.6250   -21.9920    77.5170    24.4920     8.1700     6.5500     7.8580     2.2770 
  123.7500   -22.3180    77.2250    24.4410     9.2080     7.2980     9.0760     2.2920 
  123.8750   -22.6180    72.0090    24.3670    10.3330     8.2360    10.5330     2.2970 
  124.0000   -22.9060    66.6730    24.2840    11.4130     9.1760    11.8760     2.3060 
  124.1250   -23.1720    67.6150    24.2380    12.1580     9.7330    12.4740     2.3260 
  124.2500   -23.3940    71.0000    24.2320    12.1040     9.7440    12.1980     2.3370 
  124.3750   -23.5940    72.3310    24.2710    11.0090     9.3000    11.3110     2.3210 
  124.5000   -23.7600    72.5560    24.3720     9.3250     8.6700    10.2950     2.2840 
  124.6250   -23.8820    74.7440    24.5230     8.2330     8.1410     9.5890     2.2480 
  124.7500   -24.0060    75.7530    24.6390     8.3880     7.8270     9.2760     2.2200 
  124.8750   -24.1380    71.6280    24.6740     9.5560     7.7380     9.3050     2.1960 
  125.0000   -24.2720    65.2240    24.6500    10.7490     7.8330     9.5560     2.1710 
  125.1250   -24.4250    62.8160    24.6240    11.0630     8.0530     9.8970     2.1560 
  125.2500   -24.6040    64.8600    24.6190    11.0810     8.3140    10.2270     2.1550 
  125.3750   -24.7910    67.2790    24.6270    11.4290     8.5870    10.5400     2.1660 
  125.5000   -24.9900    67.6670    24.6230    12.0060     8.8690    10.8660     2.1800 
  125.6250   -25.1950    68.4220    24.5980    12.3270     9.1690    11.2270     2.1910 
  125.7500   -25.3870    70.1490    24.5600    12.4500     9.4620    11.5720     2.1980 
  125.8750   -25.5730    69.1310    24.5220    12.6120     9.7000    11.8200     2.2020 
  126.0000   -25.7410    64.4680    24.4900    12.8730     9.8380    11.9160     2.2040 
  126.1250   -25.8710    60.7340    24.4790    12.9450     9.8410    11.8430     2.2040 
  126.2500   -25.9710    59.0300    24.4940    12.5550     9.7440    11.6710     2.1980 
  126.3750   -26.0380    56.5520    24.5230    11.7910     9.5730    11.4430     2.1840 
