~V
VERS. 2.00: Ver 2.00
~W
STRT.M 62.0000:
STOP.M 235.0000:
STEP.M 0.1250:
NULL. -999.2500:
UWI. DF32059:
~C
DEPT.M :
SP.MV :
GR.API :
CALI.CM :
RXO.OHMM :
RI. :
RML.OHMM :
DEN.GM/CC :
~A
# ...
  129.5000   -17.3910    97.6090    23.9500     5.5190     4.9040     6.3720     2.2810 
  129.6250   -17.3090    99.8350    24.0440     5.1950     4.6030     5.8600     2.3080 
  129.7500   -17.2200   103.9280    24.2960     4.7630     4.2050     5.2740     2.3370 
  129.8750   -17.1460   108.8130    24.3370     4.3900     3.8030     4.7630     2.3630 
  130.0000   -17.0740   110.1180    24.1940     4.1500     3.4920     4.4200     2.3830 
  130.1250   -17.0210   108.3160    23.7970     4.0570     3.3730     4.3170     2.3900 
  130.2500   -16.9920   109.4620    23.5510     4.0560     3.4360     4.4140     2.3880 
  130.3750   -17.0220   111.3620    23.3500     4.1800     3.6520     4.6930     2.3830 
  130.5000   -17.1040   110.8750    23.2670     4.4840     3.9750     5.1280     2.3760 
  130.6250   -17.2280   107.5790    23.2490     4.9040     4.3500     5.6750     2.3600 
  130.7500   -17.3670   104.7560    23.2240     5.3660     4.7190     6.2260     2.3400 
  130.8750   -17.5010   102.7940    23.2480     5.9150     5.0570     6.7060     2.3200 
  131.0000   -17.6170   100.6700    23.4750     6.3420     5.3450     7.0580     2.3020 
  131.1250   -17.7080    99.1320    23.8420     6.3250     5.5210     7.2070     2.2840 
  131.2500   -17.7810    97.1840    24.0510     6.1420     5.5420     7.1350     2.2640 
  131.3750   -17.8140    95.2010    24.1150     6.3560     5.3950     6.8540     2.2460 
  131.5000   -17.8000    95.4180    24.0430     6.8490     5.1480     6.4640     2.2370 
  131.6250   -17.7600    98.3490    23.9420     6.7760     4.9920     6.2150     2.2470 
  131.7500   -17.7140    99.5530    24.0900     6.2540     5.1040     6.3400     2.2650 
  131.8750   -17.6730    97.0600    24.4690     6.2330     5.5760     6.9850     2.2690 
  132.0000   -17.6720    93.5990    24.6870     7.6570     6.3890     8.1500     2.2500 
  132.1250   -17.6820    93.6370    24.4740    10.0870     7.3380     9.5650     2.2230 
  132.2500   -17.7020    95.4670    24.0040    11.8910     7.9980    10.5300     2.2130 
  132.3750   -17.7130    95.4010    23.7050    11.7820     8.0580    10.4850     2.2270 
  132.5000   -17.7330    94.7350    23.6110     9.7430     7.5190     9.4590     2.2520 
  132.6250   -17.7530    96.7020    23.6690     7.4850     6.7290     8.1300     2.2690 
  132.7500   -17.7690   101.2350    23.7600     6.1620     6.1070     7.1710     2.2740 
  132.8750   -17.7590   104.0660    23.8050     5.8190     5.7920     6.7520     2.2680 
  133.0000   -17.7080   102.3140    24.0470     6.0360     5.7740     6.8110     2.2530 
  133.1250   -17.6350    97.7380    24.2080     6.6040     6.0050     7.2210     2.2360 
  133.2500   -17.5500    93.7200    24.3920     7.1270     6.3810     7.7660     2.2240 
  133.3750   -17.4830    90.0080    24.6060     7.2940     6.8800     8.3700     2.2230 
  133.5000   -17.4090    85.5490    24.5980     7.3160     7.4650     8.9860     2.2340 
  133.6250   -17.3240    81.9910    24.1650     8.0500     7.9980     9.4770     2.2520 
  133.7500   -17.2140    80.3280    23.9090     9.8430     8.3220     9.7010     2.2690 
  133.8750   -17.1140    79.6870    23.8450    12.2580     8.4070     9.6540     2.2830 
  134.0000   -17.0310    80.5840    23.8880    12.8890     8.3960     9.5400     2.3010 
  134.1250   -16.9500    83.4420    23.9060    10.6440     8.5850     9.7560     2.3420 
  134.2500   -16.8820    85.9610    23.8820     9.4580     9.1070    10.4620     2.4070 
  134.3750   -16.8220    85.5060    23.8290    12.1440     9.8690    11.5380     2.4790 
  134.5000   -16.7870    82.3380    23.7800    17.3670    10.5100    12.4830     2.5250 
  134.6250   -16.7840    79.4180    23.7970    19.5500    10.4000    12.3480     2.5140 
  134.7500   -16.8020    77.4640    23.7980    16.3010     9.5370    11.1140     2.4660 
  134.8750   -16.8340    76.4350    23.6230    11.0330     8.3650     9.4840     2.4080 
  135.0000   -16.8480    78.1120    23.3020     7.4490     7.4630     8.2910     2.3660 
  135.1250   -16.8700    82.0530    23.1570     7.1030     7.3880     8.2170     2.3640 
  135.2500   -16.8820    83.7900    23.3650     9.0110     8.2300     9.3090     2.4010 
  135.3750   -16.8710    81.7630    23.6520    13.0860    10.0380    11.6330     2.4600 
  135.5000   -16.8670    76.0570    23.6870    17.9150    12.6600    15.0160     2.5090 
  135.6250   -16.8540    66.6680    23.5500    20.4540    15.4300    18.5150     2.5150 
  135.7500   -16.8480    56.7270    23.3600    20.4810    17.3190    20.6330     2.4940 
  135.8750   -16.8280    52.4520    23.1750    19.5560    17.9560    20.9220     2.4680 
  136.0000   -16.8300    55.6060    23.0090    19.2180    17.7510    20.1890     2.4530 
  136.1250   -16.8360    59.3910    23.2770    19.2170    17.4360    19.6330     2.4490 
  136.2500   -16.8330    61.0350    23.4570    20.0950    17.4710    19.8010     2.4490 
  136.3750   -16.8390    62.2830    23.5510    21.9720    17.9560    20.7210     2.4490 
  136.5000   -16.8060    62.4720    23.5870    23.8810    18.8330    22.1770     2.4490 
  136.6250   -16.7600    60.4460    23.6470    24.1970    19.9110    23.7500     2.4560 
  136.7500   -16.6930    59.1280    23.6980    24.7000    20.8760    24.9780     2.4660 
  136.8750   -16.6440    61.1880    23.6980    25.6570    21.5250    25.6470     2.4680 
  137.0000   -16.5920    64.5640    23.6990    25.6900    21.7800    25.7660     2.4590 
  137.1250   -16.5400    66.9910    23.7440    23.2330    21.6540    25.4520     2.4490 
  137.2500   -16.5040    69.0050    23.7490    21.7410    21.3210    24.9240     2.4500 
  137.3750   -16.4810    70.8930    23.6810    21.5690    20.8690    24.2570     2.4630 
  137.5000   -16.4820    72.1400    23.6810    22.0200    20.3780    23.5350     2.4770 
  137.6250   -16.4780    70.2590    23.9030    21.6800    19.9220    22.8920     2.4780 
  137.7500   -16.4820    67.4170    24.1110    20.3560    19.5150    22.3820     2.4690 
  137.8750   -16.4780    65.6500    24.0320    19.1960    19.1250    21.9820     2.4640 
  138.0000   -16.4640    66.0930    23.9160    19.1540    18.6930    21.5950     2.4700 
  138.1250   -16.4560    69.0510    23.9900    18.8890    18.1370    21.0290     2.4820 
  138.2500   -16.4520    72.8030    24.1570    18.1130    17.4480    20.1940     2.4950 
  138.3750   -16.4380    74.2480    24.2280    16.8190    16.6730    19.1270     2.5140 
  138.5000   -16.4460    71.2210    24.2250    15.7530    15.9090    17.9960     2.5330 
  138.6250   -16.4650    66.5720    24.1880    14.8930    15.3210    17.1090     2.5340 
  138.7500   -16.5040    66.1460    24.1370    14.5270    15.0170    16.6700     2.5200 
  138.8750   -16.5420    68.5990    24.0840    14.8200    15.0740    16.7820     2.5030 
  139.0000   -16.6040    69.6290    24.0360    15.6270    15.5090    17.4240     2.4930 
  139.1250   -16.6880    69.1970    24.0340    16.6820    16.2450    18.4150     2.4770 
  139.2500   -16.7600    69.6720    24.0540    17.6560    16.9060    19.2370     2.4500 
  139.3750   -16.8220    70.5980    23.9860    18.2180    17.0780    19.3840     2.4270 
  139.5000   -16.8480    69.0440    23.8520    17.8330    16.5030    18.5910     2.4250 
  139.6250   -16.8680    67.2450    23.7590    16.3310    15.2690    17.0390     2.4440 
  139.7500   -16.8450    69.0180    23.7090    13.7830    13.9640    15.4580     2.4660 
  139.8750   -16.8180    71.3800    23.6490    11.4200    12.9730    14.2980     2.4850 
  140.0000   -16.7690    70.8550    23.5480    10.5870    12.4900    13.7850     2.5010 
  140.1250   -16.6740    69.0100    23.5240    11.6260    12.5850    14.0230     2.5170 
  140.2500   -16.5740    69.2260    23.5740    13.0930    12.9930    14.6840     2.5320 
  140.3750   -16.4730    70.6660    23.6520    14.1260    13.4820    15.4310     2.5390 
  140.5000   -16.3970    71.6030    23.6600    14.3570    13.8390    15.9230     2.5300 
  140.6250   -16.3100    70.5700    23.6550    13.9130    13.9170    15.9270     2.5070 
