~V
VERS. 2.00: Ver 2.00
~W
STRT.M 62.0000:
STOP.M 243.0000:
STEP.M 0.1250:
NULL. -999.2500:
UWI. DF32072:
~C
DEPT.M :
SP.MV :
GR.API :
CALI.CM :
RXO.OHMM :
RI. :
RML.OHMM :
DEN.GM/CC :
~A
# ...
  219.5000   -23.0400    70.0130    24.6880    98.5100    71.5400    80.3090     2.2870 
  219.6250   -22.7130    70.0870    24.5050    94.5830    67.1360    76.8150     2.3100 
  219.7500   -22.3630    71.1270    24.3090    85.2110    60.9500    71.2610     2.3300 
  219.8750   -21.9340    72.2840    24.2070    76.6270    54.3810    64.8460     2.3570 
  220.0000   -21.5270    71.3150    24.2650    69.5150    48.5220    58.6800     2.3910 
  220.1250   -21.1810    67.5030    24.3960    61.0630    44.1140    53.6370     2.4220 
  220.2500   -20.8500    64.6180    24.4860    53.0400    40.8340    49.6130     2.4340 
  220.3750   -20.5050    64.3050    24.5230    47.3150    38.1880    46.1780     2.4260 
  220.5000   -20.2220    65.1840    24.4890    44.7400    35.5270    42.6800     2.4080 
  220.6250   -19.9880    64.6000    24.4500    45.0720    32.1060    38.3780     2.3930 
  220.7500   -19.7580    63.8660    24.4290    43.5760    27.9030    33.3370     2.3790 
  220.8750   -19.5830    64.0320    24.4250    37.2840    23.4120    28.1050     2.3650 
  221.0000   -19.3920    64.4480    24.3260    27.8380    19.3730    23.4110     2.3460 
  221.1250   -19.2390    65.9650    24.0550    20.7310    16.5620    20.0630     2.3210 
  221.2500   -19.1270    70.9690    23.7570    16.3460    15.0850    18.1940     2.3060 
  221.3750   -19.0460    77.5600    23.6030    14.9690    15.0670    17.9660     2.3210 
  221.5000   -18.9890    79.7970    23.6450    16.7690    16.6280    19.5410     2.3740 
  221.6250   -18.9620    75.6040    23.9230    23.5070    20.1960    23.4320     2.4510 
  221.7500   -18.9590    71.2440    24.2570    40.5200    25.2610    29.0850     2.5200 
  221.8750   -18.9740    67.3560    24.5350    67.4800    30.5850    35.1610     2.5520 
  222.0000   -19.0200    61.7630    24.7210    82.3720    33.8020    39.0560     2.5260 
  222.1250   -19.0520    56.1500    24.8170    64.7120    32.6250    38.0770     2.4430 
  222.2500   -19.0590    54.2230    24.8190    41.8970    29.1050    34.2500     2.3530 
  222.3750   -19.0950    56.4420    24.7800    31.4930    25.4100    29.9430     2.2860 
  222.5000   -19.1600    61.6290    24.7960    28.4060    22.7850    26.6230     2.2450 
  222.6250   -19.1660    69.5470    24.9110    27.0900    21.8060    24.9840     2.2240 
  222.7500   -19.1570    75.2220    25.0090    27.3380    22.0040    24.5920     2.2120 
  222.8750   -19.1520    74.5140    25.0410    28.5880    22.9400    25.0420     2.2040 
  223.0000   -19.1780    68.7300    24.9950    29.2650    24.1360    25.8900     2.2000 
  223.1250   -19.2260    63.4750    24.9230    29.0490    25.1510    26.7470     2.2000 
  223.2500   -19.2850    61.7910    24.8600    29.0390    25.8330    27.4120     2.2010 
  223.3750   -19.2620    62.4280    24.7620    29.3960    26.2330    27.8750     2.2020 
  223.5000   -19.1910    63.0620    24.6440    29.8300    26.4960    28.2240     2.2050 
  223.6250   -19.1270    63.6560    24.5530    30.5230    26.7550    28.5560     2.2160 
  223.7500   -19.0870    65.0810    24.4990    31.3970    27.0510    28.8930     2.2310 
  223.8750   -19.0340    67.6440    24.4850    32.0600    27.3840    29.2230     2.2370 
  224.0000   -18.9410    69.5380    24.4900    32.1870    27.7500    29.5370     2.2320 
  224.1250   -18.8170    69.0060    24.4500    31.7440    28.1280    29.8140     2.2230 
  224.2500   -18.6870    66.9310    24.4060    31.6580    28.4450    29.9950     2.2210 
  224.3750   -18.6400    64.9890    24.3820    32.1350    28.5960    29.9850     2.2280 
  224.5000   -18.5990    66.2960    24.3660    32.6570    28.4670    29.6930     2.2390 
  224.6250   -18.5010    70.4550    24.3270    32.2670    27.9470    29.0320     2.2450 
  224.7500   -18.3580    73.2720    24.2530    30.9490    27.1470    28.1200     2.2430 
  224.8750   -18.2560    73.4040    24.1670    29.2040    26.1900    27.0690     2.2380 
  225.0000   -18.1170    71.7120    24.1090    27.7370    25.2150    26.0010     2.2420 
  225.1250   -17.9950    68.5860    24.0800    26.8190    24.3970    25.0770     2.2580 
  225.2500   -17.8850    64.8340    24.0710    26.4180    23.8510    24.4210     2.2690 
  225.3750   -17.7570    65.1800    24.0620    25.6450    23.6710    24.1410     2.2620 
  225.5000   -17.6350    70.2520    24.0270    24.6730    23.9220    24.3070     2.2400 
  225.6250   -17.5620    73.1200    23.9560    25.7400    24.6740    24.9940     2.2180 
  225.7500   -17.5590    70.1010    23.9020    28.4820    25.7050    25.9910     2.2070 
  225.8750   -17.5050    65.6960    23.8940    30.8590    26.7560    27.0490     2.2110 
  226.0000   -17.4640    64.8640    23.9350    31.5930    27.5900    27.8130     2.2250 
  226.1250   -17.4610    65.9420    23.9740    30.6500    27.8420    28.0320     2.2430 
  226.2500   -17.4490    65.5690    23.9700    29.1620    27.5920    27.7750     2.2550 
  226.3750   -17.4320    65.6380    23.9050    27.8540    26.9730    27.2050     2.2560 
  226.5000   -17.3970    67.7070    23.8640    27.4610    26.1240    26.4660     2.2480 
  226.6250   -17.3640    69.5630    23.8450    27.5320    25.0450    25.5110     2.2430 
  226.7500   -17.2900    69.0440    23.8010    27.1940    23.6950    24.2350     2.2510 
  226.8750   -17.1940    65.7090    23.7650    26.3930    22.0400    22.5630     2.2700 
  227.0000   -17.0920    63.3510    23.7690    24.7050    20.1600    20.5730     2.2890 
  227.1250   -16.9380    66.5080    23.7700    22.0170    18.3390    18.6060     2.2970 
  227.2500   -16.8020    72.7810    23.7590    18.8110    16.9300    17.1170     2.2980 
  227.3750   -16.6440    78.9420    23.7330    16.0460    16.2040    16.4270     2.2960 
  227.5000   -16.5010    82.7100    23.7010    14.4950    16.2950    16.6740     2.2990 
  227.6250   -16.3100    84.5390    23.6530    16.0510    17.1830    17.8270     2.3290 
  227.7500   -16.0700    83.4580    23.6300    20.3040    18.2220    19.1600     2.3930 
  227.8750   -15.8580    80.6200    23.6110    22.6400    18.6260    19.7600     2.4690 
  228.0000   -15.6590    80.2170    23.5750    18.9540    17.7570    18.8520     2.5100 
  228.1250   -15.4990    82.9920    23.5100    12.9380    15.6180    16.4420     2.4850 
  228.2500   -15.3200    86.2500    23.4930     9.7890    13.2660    13.8420     2.4340 
  228.3750   -15.0780    88.6960    23.5580     9.0220    11.3430    11.8250     2.3980 
  228.5000   -14.8350    88.7850    23.6170     8.9410    10.0990    10.6490     2.3920 
  228.6250   -14.6710    84.6980    23.6180     8.7440     9.6090    10.3350     2.4130 
  228.7500   -14.5390    80.9760    23.5750     8.5320     9.5890    10.4980     2.4370 
  228.8750   -14.4630    80.9850    23.5340     8.6840     9.8320    10.8710     2.4540 
  229.0000   -14.4080    81.3530    23.5160     9.2430    10.1400    11.2230     2.4580 
  229.1250   -14.3400    78.5760    23.5150     9.6470    10.3610    11.3970     2.4570 
  229.2500   -14.2710    77.8970    23.5170     9.8300    10.4560    11.4140     2.4560 
  229.3750   -14.2890    80.3320    23.5220     9.8820    10.4210    11.3160     2.4540 
  229.5000   -14.2980    80.9110    23.5240     9.8770    10.2830    11.1520     2.4430 
  229.6250   -14.3380    77.0840    23.5190     9.7120    10.0850    10.9790     2.4240 
  229.7500   -14.3990    74.4790    23.5030     9.4860     9.8920    10.8500     2.4120 
  229.8750   -14.4370    75.0530    23.4770     9.2250     9.7460    10.7930     2.4150 
  230.0000   -14.4690    77.2120    23.4650     8.9320     9.6820    10.8270     2.4320 
  230.1250   -14.5000    78.2080    23.4390     8.6940     9.7290    10.9740     2.4510 
  230.2500   -14.5480    76.4560    23.4660     8.8410     9.8550    11.2000     2.4600 
  230.3750   -14.5790    73.7050    23.6060     9.6030    10.0330    11.4720     2.4580 
  230.5000   -14.6520    72.1980    23.7870    10.8050    10.2340    11.7550     2.4500 
  230.6250   -14.6740    73.1760    23.8720    11.6010    10.4180    12.0000     2.4410 
