~V
VERS. 2.00: Ver 2.00
~W
STRT.M 62.0000:
STOP.M 272.0000:
STEP.M 0.1250:
NULL. -999.2500:
UWI. DF32144:
~C
DEPT.M :
SP.MV :
DEN.GM/CC :
GR.API :
RML.OHMM :
RI. :
RXO.OHMM :
CALI.CM :
~A
# ...
  129.5000   -21.4150     2.1900    60.8660     9.3250     8.7520    13.9320    25.4570 
  129.6250   -21.9100     2.1700    63.8070     8.7160     8.3200    10.3530    25.4920 
  129.7500   -22.3400     2.1620    68.4420     8.3990     8.0140     9.8170    25.5380 
  129.8750   -22.7500     2.1640    70.7400     8.4770     7.9510    10.1930    25.5590 
  130.0000   -23.1490     2.1750    70.0550     8.8680     8.1170    10.5930    25.5740 
  130.1250   -23.4120     2.1900    69.2400     9.2830     8.3380    10.8920    25.5770 
  130.2500   -23.4070     2.2010    68.9930     9.3420     8.3220    10.9500    25.5150 
  130.3750   -23.1070     2.1990    68.5180     8.8450     7.8930    10.3120    25.4330 
  130.5000   -22.5130     2.1780    67.0820     7.8700     7.0940     8.9730    25.7030 
  130.6250   -21.6780     2.1420    65.6640     6.7500     6.1680     7.0600    26.5260 
  130.7500   -20.7990     2.1100    66.9050     5.8620     5.3960     5.3910    27.4680 
  130.8750   -19.9860     2.1020    71.3200     5.3550     4.8920     4.7420    27.7930 
  131.0000   -19.2670     2.1270    76.5850     5.2220     4.6740     4.8980    27.3850 
  131.1250   -18.6630     2.1790    78.6450     5.3750     4.7150     5.2750    26.7070 
  131.2500   -18.1970     2.2330    78.0710     5.6100     4.8770     5.5970    26.3210 
  131.3750   -17.9040     2.2720    77.2450     5.8500     5.0940     5.7080    26.3170 
  131.5000   -17.8510     2.2910    76.4520     6.1240     5.3590     5.6730    26.3990 
  131.6250   -18.1140     2.2980    76.5690     6.5760     5.7460     5.9080    26.4360 
  131.7500   -18.5320     2.3080    77.2850     7.2590     6.2890     6.4090    26.5070 
  131.8750   -18.9860     2.3280    76.4580     8.1110     6.9550     7.9160    26.6680 
  132.0000   -19.4840     2.3530    73.1660     8.9240     7.6100    11.1720    26.8580 
  132.1250   -20.0670     2.3680    69.8980     9.3250     7.9740    12.1120    26.8400 
  132.2500   -20.7610     2.3620    69.5560     9.2080     7.9400    10.0380    26.4560 
  132.3750   -21.6230     2.3320    71.9670     8.7060     7.5870     7.9150    25.9200 
  132.5000   -22.5940     2.2860    73.2200     8.1170     7.1210     7.3960    25.6140 
  132.6250   -23.4730     2.2400    70.1000     7.7740     6.7840     7.7060    25.5580 
  132.7500   -24.2670     2.2070    65.6830     7.7670     6.6730     8.2310    25.5960 
  132.8750   -25.0210     2.1870    64.1180     8.0540     6.7890     8.7130    25.6950 
  133.0000   -25.6900     2.1780    64.7970     8.5230     7.0780     8.9660    25.8390 
  133.1250   -26.2200     2.1810    64.9390     9.0590     7.4730     9.4370    25.8990 
  133.2500   -26.6420     2.1910    64.0190     9.5650     7.8930    10.3990    25.8880 
  133.3750   -26.9870     2.2070    61.9040     9.9890     8.2870    11.4780    25.8190 
  133.5000   -27.2550     2.2210    58.4470    10.2770     8.6020    12.0370    25.7380 
  133.6250   -27.4650     2.2260    56.9730    10.3320     8.7590    12.0910    25.6820 
  133.7500   -27.6580     2.2180    59.1350    10.1640     8.7530    12.1100    25.7280 
  133.8750   -27.8260     2.2020    62.5750     9.8240     8.6100    11.6260    25.7790 
  134.0000   -28.0000     2.1820    63.9260     9.4250     8.4020    10.0770    25.7990 
  134.1250   -28.1610     2.1670    62.8000     9.1210     8.2330     9.0240    25.8000 
  134.2500   -28.2540     2.1600    61.9820     8.9530     8.1460     8.7050    25.8160 
  134.3750   -28.2310     2.1610    62.2630     8.8510     8.1020     9.0850    25.8570 
  134.5000   -28.0810     2.1630    62.0240     8.6730     8.0020     9.5790    25.9480 
  134.6250   -27.7090     2.1590    60.8650     8.2470     7.6980     9.4340    26.0470 
  134.7500   -27.0280     2.1470    63.8500     7.5960     7.1870     8.8650    26.6100 
  134.8750   -26.0730     2.1330    71.9640     6.8330     6.5450     7.4940    28.0770 
  135.0000   -24.9450     2.1260    79.6500     6.1200     5.8930     5.5570    30.2930 
  135.1250   -23.7660     2.1340    80.1620     5.6050     5.3590     4.8320    31.3590 
  135.2500   -22.5770     2.1480    77.1970     5.2590     4.9610     4.6500    31.1720 
  135.3750   -21.3930     2.1590    75.3650     5.0200     4.6760     4.5990    31.4960 
  135.5000   -20.2770     2.1640    74.4910     4.8310     4.4660     4.5610    31.5980 
  135.6250   -19.4450     2.1640    73.1800     4.6880     4.3280     4.7480    31.0150 
  135.7500   -18.9860     2.1680    72.1200     4.6600     4.2940     5.0570    30.3130 
  135.8750   -18.9590     2.1780    71.2660     4.8600     4.4410     5.3200    29.2560 
  136.0000   -19.2940     2.1930    70.5890     5.3960     4.8510     5.5110    27.7200 
  136.1250   -19.9330     2.2150    70.5670     6.3790     5.6290     6.1950    26.7710 
  136.2500   -20.7240     2.2380    70.5610     7.6490     6.6760     7.6150    26.3980 
  136.3750   -21.6370     2.2550    69.9440     8.9460     7.8060     8.8110    26.0770 
  136.5000   -22.6480     2.2600    69.2860     9.8630     8.6850     9.0910    25.4080 
  136.6250   -23.6200     2.2470    69.7380     9.9030     8.8600     8.7520    24.9780 
  136.7500   -24.4500     2.2290    70.9480     9.2430     8.4260     8.3600    24.7420 
  136.8750   -25.0510     2.2180    72.3620     8.2750     7.6740     7.8980    24.5230 
  137.0000   -25.3780     2.2210    74.4110     7.4110     6.9290     7.3600    24.3460 
  137.1250   -25.4290     2.2310    78.9960     6.9710     6.4480     6.6250    24.2610 
  137.2500   -25.4970     2.2370    84.1830     6.9630     6.2760     6.4800    24.2030 
  137.3750   -25.5440     2.2340    86.4770     7.3750     6.4330     7.3060    24.1520 
  137.5000   -25.5610     2.2270    83.3340     8.1690     6.9180     8.3440    24.1300 
  137.6250   -25.6090     2.2210    76.5810     9.3060     7.7380     9.0330    24.1370 
  137.7500   -25.7070     2.2190    71.1110    10.5610     8.7380     9.8270    24.1840 
  137.8750   -25.9020     2.2180    68.7410    11.7200     9.7520    11.8670    24.3250 
  138.0000   -26.1980     2.2150    67.9840    12.5620    10.5720    15.7900    24.5330 
  138.1250   -26.5500     2.2050    66.0700    12.8530    10.9580    19.6820    24.7880 
  138.2500   -26.8420     2.1910    63.1410    12.6950    10.9420    16.0820    24.8930 
  138.3750   -27.1330     2.1770    60.9340    12.2460    10.6390    12.4250    24.8330 
  138.5000   -27.4310     2.1650    61.4790    11.7150    10.2180    10.8190    24.6600 
  138.6250   -27.7050     2.1590    66.1740    11.3120     9.8560    10.6760    24.6840 
  138.7500   -27.9390     2.1580    71.0460    11.1030     9.6350    10.9510    24.8940 
  138.8750   -28.1220     2.1610    71.9830    11.0710     9.5660    11.3760    25.1270 
  139.0000   -28.2710     2.1650    70.2160    11.1670     9.6300    11.7790    25.3340 
  139.1250   -28.4050     2.1650    72.5920    11.3730     9.8230    11.9440    25.4140 
  139.2500   -28.5020     2.1580    75.6710    11.6800    10.1260    12.0850    25.4350 
  139.3750   -28.5270     2.1460    72.8180    12.1150    10.5490    12.3450    25.3940 
  139.5000   -28.5420     2.1320    65.3610    12.6840    11.0900    12.8550    25.2790 
  139.6250   -28.5490     2.1220    61.6240    13.3240    11.7090    13.1640    25.0720 
  139.7500   -28.5520     2.1210    63.2860    13.8420    12.2590    13.5980    24.9820 
  139.8750   -28.5560     2.1270    65.7490    14.0340    12.5560    14.2270    24.9600 
  140.0000   -28.5560     2.1400    67.3280    13.7600    12.4510    14.6550    24.9610 
  140.1250   -28.5070     2.1550    70.2740    12.9900    11.8710    14.4270    24.9890 
  140.2500   -28.3800     2.1660    74.3860    12.0030    11.0490    13.1040    25.0930 
  140.3750   -28.2070     2.1710    75.8350    10.9890    10.1530    11.5350    25.2820 
  140.5000   -27.9800     2.1720    72.3720    10.0490     9.2850    10.3760    25.4420 
  140.6250   -27.7040     2.1750    69.8240     9.2110     8.4910    10.2350    25.5250 
