~V
VERS. 2.00: Ver 2.00
~W
STRT.M 63.0000:
STOP.M 291.0000:
STEP.M 0.1250:
NULL. -999.2500:
UWI. DF325:
~C
DEPT.M :
DEN.GM/CC :
SP.MV :
AC.US/MT :
GR.API :
RML.OHMM :
RI. :
RXO.OHMM :
CALI.CM :
~A
# ...
  163.0000     2.3600    -8.5470   414.0390   103.9140     6.1010     5.4810     5.3370    25.5140 
  163.1250     2.3600    -8.6010   415.8920   104.8040     5.9940     5.4070     5.2980    25.5070 
  163.2500     2.3650    -8.6940   417.6660   107.9110     5.8570     5.3110     5.2450    25.5040 
  163.3750     2.3750    -8.7920   418.6660   110.9210     5.7000     5.1850     5.1920    25.4980 
  163.5000     2.3870    -8.8590   418.7890   111.1230     5.5330     5.0290     5.1590    25.4830 
  163.6250     2.3990    -8.9140   418.5200   107.8250     5.3800     4.8570     5.1230    25.4540 
  163.7500     2.4060    -8.9690   418.2890   104.0280     5.2520     4.7050     5.0670    25.4260 
  163.8750     2.4060    -8.9960   417.6390   101.6070     5.1840     4.6070     4.9960    25.4220 
  164.0000     2.3980    -9.0110   415.6630   102.2150     5.1790     4.5960     4.9800    25.4430 
  164.1250     2.3840    -9.0460   411.7160   103.0850     5.3000     4.7170     5.1180    25.4690 
  164.2500     2.3650    -9.0600   406.9830   101.1690     5.5520     4.9550     5.4020    25.4810 
  164.3750     2.3480    -9.0600   402.8430    98.0590     5.9070     5.2890     5.7750    25.4910 
  164.5000     2.3360    -9.0720   400.2380    97.0500     6.3150     5.6740     6.1680    25.5060 
  164.6250     2.3320    -9.1180   399.3480    98.3820     6.6920     6.0310     6.4540    25.5160 
  164.7500     2.3340    -9.1580   399.2950    99.5520     6.9620     6.2850     6.5270    25.5230 
  164.8750     2.3390    -9.1840   399.6700    99.2390     7.0770     6.3940     6.3910    25.5190 
  165.0000     2.3440    -9.2070   400.4580    98.2160     7.0280     6.3480     6.1550    25.5020 
  165.1250     2.3470    -9.2280   402.0940    96.1060     6.8320     6.1630     5.8330    25.4650 
  165.2500     2.3490    -9.2490   404.6960    93.7880     6.5740     5.9180     5.4820    25.4280 
  165.3750     2.3530    -9.2940   407.9710    95.2150     6.3050     5.6620     5.1810    25.4050 
  165.5000     2.3580    -9.3530   411.0950    98.4130     6.0600     5.4300     5.0380    25.3860 
  165.6250     2.3670    -9.3850   412.9380    98.0170     5.8570     5.2470     5.0130    25.3860 
  165.7500     2.3740    -9.4450   413.3890    94.8810     5.6890     5.1070     5.0020    25.3750 
  165.8750     2.3770    -9.5500   412.9050    93.1460     5.5450     4.9980     4.9960    25.3540 
  166.0000     2.3740    -9.6520   412.2050    94.7790     5.3830     4.8970     5.0050    25.3260 
  166.1250     2.3660    -9.7410   411.9530    95.8970     5.2140     4.7690     5.0350    25.2750 
  166.2500     2.3560    -9.8500   412.0320    97.4160     5.0360     4.6070     5.1030    25.2570 
  166.3750     2.3490    -9.9690   411.9570   101.6260     4.8800     4.4510     5.2250    25.2750 
  166.5000     2.3430   -10.1100   411.0710   105.9320     4.9550     4.4100     5.4300    25.2790 
  166.6250     2.3340   -10.2900   408.7730   105.7490     5.3580     4.7130     5.9690    25.2230 
  166.7500     2.3180   -10.4880   405.8950   101.2620     6.2700     5.4260     7.2510    25.1430 
  166.8750     2.2950   -10.6910   403.7870    95.1670     7.5020     6.4850     9.7150    25.0150 
  167.0000     2.2720   -10.9220   403.2580    87.6250     8.5470     7.6360    13.1300    24.8610 
  167.1250     2.2590   -11.1980   403.1880    78.8630     9.3510     8.3810    16.5030    24.8700 
  167.2500     2.2600   -11.4710   401.4460    73.8760     9.4110     8.4360    18.1550    25.0070 
  167.3750     2.2750   -11.7120   397.7990    76.1690     8.8170     7.8860    15.5860    25.1270 
  167.5000     2.2940   -11.9350   393.7720    82.7340     8.1130     7.2350    10.7970    25.1740 
  167.6250     2.3030   -12.1730   391.4220    87.9300     8.2160     7.3290     9.0170    25.1930 
  167.7500     2.3000   -12.4170   390.7810    88.7380     9.5880     8.6000    10.7930    25.1930 
  167.8750     2.2850   -12.6660   390.9950    86.2340    12.3400    11.1480    14.8800    25.1990 
  168.0000     2.2670   -12.9240   391.4650    81.0700    16.0460    14.5790    20.1470    25.2640 
  168.1250     2.2520   -13.1630   392.5270    74.8690    19.4280    17.7110    24.1040    25.3680 
  168.2500     2.2500   -13.3840   395.0000    71.9240    20.9800    19.1480    23.9030    25.4160 
  168.3750     2.2620   -13.6150   399.6260    75.1010    19.9590    18.2030    19.9650    25.3270 
  168.5000     2.2890   -13.8450   406.2110    82.8610    16.9190    15.3880    13.8130    25.1180 
  168.6250     2.3230   -14.0470   412.9700    91.9330    13.4290    12.1560     8.7130    24.8680 
  168.7500     2.3550   -14.2240   417.3170    97.9700    10.6850     9.6150     6.3430    24.6800 
  168.8750     2.3820   -14.3960   417.5700    99.0360     8.8980     7.9610     5.8380    24.5970 
  169.0000     2.4050   -14.5840   413.5550    96.0630     7.9580     7.0910     5.9680    24.5640 
  169.1250     2.4270   -14.8430   406.0550    93.5020     7.7740     6.9210     6.2720    24.5460 
  169.2500     2.4440   -15.1880   397.0010    92.6460     8.0400     7.1670     6.7680    24.5290 
  169.3750     2.4520   -15.6060   387.7140    91.8610     8.5770     7.6640     7.4800    24.5450 
  169.5000     2.4460   -16.1030   380.5700    90.6930     9.2200     8.2600     8.3830    24.6000 
  169.6250     2.4290   -16.7050   379.5450    89.8200     9.8750     8.8660     9.3600    24.6340 
  169.7500     2.4080   -17.3820   385.2170    89.7990    10.5770     9.5160    10.4220    24.5610 
  169.8750     2.3880   -18.0920   395.4360    90.0410    11.4560    10.3300    11.8120    24.3870 
  170.0000     2.3690   -18.7950   405.5300    89.5850    12.6580    11.4420    13.8860    24.1810 
  170.1250     2.3530   -19.4530   409.4840    87.4080    14.3660    13.0240    16.8860    24.0860 
  170.2500     2.3410   -20.0310   407.0060    84.6550    16.5300    15.0280    20.5520    24.1000 
  170.3750     2.3340   -20.5270   401.9470    82.3230    19.0920    17.4000    24.3180    24.2220 
  170.5000     2.3310   -20.9250   398.3640    79.4860    21.9190    20.0180    26.9000    24.3380 
  170.6250     2.3330   -21.1940   396.8050    77.5940    24.7250    22.6160    27.7340    24.4070 
  170.7500     2.3380   -21.3400   394.6960    77.8080    27.0560    24.7740    28.1030    24.4450 
  170.8750     2.3490   -21.4090   390.8000    79.2460    28.4000    26.0180    28.3470    24.5250 
  171.0000     2.3680   -21.4320   386.4710    81.2120    28.3220    25.9460    27.7050    24.6580 
  171.1250     2.3920   -21.3910   383.8160    83.9530    26.5160    24.2740    25.6220    24.8220 
  171.2500     2.4110   -21.3460   384.5660    88.5000    23.7290    21.6930    22.1300    24.9950 
  171.3750     2.4180   -21.3340   389.6920    93.4910    20.6420    18.8360    17.5140    25.1420 
  171.5000     2.4090   -21.3400   398.5360    96.7400    17.7880    16.1930    13.3570    25.2480 
  171.6250     2.3890   -21.3570   408.5510    99.0700    15.4610    14.0380    11.5410    25.3500 
  171.7500     2.3660   -21.4320   416.9410   100.6110    13.5580    12.2730    10.7710    25.4220 
  171.8750     2.3500   -21.5620   423.0900   100.2100    12.0330    10.8520    10.2900    25.4790 
  172.0000     2.3420   -21.7370   427.2740    98.7720    10.8790     9.8160     9.7890    25.4970 
  172.1250     2.3420   -21.9830   428.7680    98.4220    10.3940     9.4030     9.6750    25.4440 
  172.2500     2.3450   -22.2710   426.8660    97.8250    10.7510     9.7380    10.5280    25.3220 
  172.3750     2.3460   -22.5690   421.3080    93.7810    12.3220    11.0340    13.0940    25.1910 
  172.5000     2.3450   -22.8910   413.3290    88.2550    15.2420    13.4930    18.0180    25.1090 
  172.6250     2.3430   -23.2950   405.5010    85.2300    20.0130    17.4010    25.7750    25.0930 
  172.7500     2.3400   -23.7270   399.9900    83.5340    25.8210    22.3190    34.6090    25.0950 
  172.8750     2.3370   -24.1310   397.4390    81.2850    31.5960    27.6920    41.7400    25.1010 
