~V
VERS. 2.00: Ver 2.00
~W
STRT.M 55.0000:
STOP.M 256.0000:
STEP.M 0.1250:
NULL. -999.2500:
UWI. DF327:
~C
DEPT.M :
SP.MV :
DEN.GM/CC :
AC.US/MT :
GR.API :
RML.OHMM :
RI. :
RXO.OHMM :
CALI.CM :
~A
# ...
  115.0000    -8.8320     2.4500   363.8150    64.3900    31.0490    29.1320    40.7580    23.6850 
  115.1250    -9.0770     2.3770   406.0060    71.1310    26.2990    24.6090    29.2920    23.5660 
  115.2500    -9.2900     2.3170   427.4000    75.9350    20.8560    19.4250    19.2850    23.3870 
  115.3750    -9.4830     2.2770   424.3670    78.1350    16.1710    14.9630    13.4480    23.1410 
  115.5000    -9.6620     2.2630   401.0980    78.3050    12.8650    11.8140    11.6260    22.9110 
  115.6250    -9.7790     2.2870   363.0170    79.1360    11.3150    10.3380    11.3380    22.7690 
  115.7500    -9.8210     2.3430   320.2560    81.8580    11.3410    10.3620    11.9970    22.7110 
  115.8750    -9.7790     2.4210   283.2960    83.6080    12.9950    11.9380    14.4630    22.7370 
  116.0000    -9.6680     2.4960   264.7930    82.8100    16.0750    14.8720    19.5340    22.8650 
  116.1250    -9.4860     2.5300   276.9360    79.2500    19.8070    18.4260    26.6460    23.0630 
  116.2500    -9.2710     2.5210   309.0690    74.2740    22.6300    21.1150    33.3530    23.2300 
  116.3750    -9.0240     2.4820   345.8490    68.6510    23.2410    21.6970    36.3830    23.3160 
  116.5000    -8.7520     2.4410   370.8860    63.4790    21.1620    19.7160    31.6090    23.3700 
  116.6250    -8.4870     2.4210   368.7190    63.5990    17.3330    16.0690    21.0020    23.4050 
  116.7500    -8.2310     2.4290   342.8340    70.4680    13.9200    12.8190    13.7610    23.4010 
  116.8750    -7.9880     2.4610   302.4990    81.1920    11.9410    10.9350    11.1760    23.3550 
  117.0000    -7.7640     2.5060   261.8980    88.7580    11.7960    10.7960    12.9740    23.1750 
  117.1250    -7.5770     2.5490   237.0460    85.6560    14.1140    13.0040    21.0810    22.8170 
  117.2500    -7.4100     2.5790   229.5350    76.5960    18.7030    17.3740    33.9800    22.6490 
  117.3750    -7.2560     2.5920   234.1980    67.1530    25.2560    23.6150    50.1160    22.7940 
  117.5000    -7.1350     2.5910   243.9330    59.8490    32.7820    30.7830    64.7200    23.0950 
  117.6250    -7.0300     2.5790   253.9540    55.5450    39.2930    36.9830    67.7690    23.3410 
  117.7500    -6.9400     2.5610   262.5820    52.3210    43.2390    40.7420    61.7140    23.4820 
  117.8750    -6.8730     2.5400   268.4780    50.3160    44.1830    41.6410    55.8500    23.6250 
  118.0000    -6.8120     2.5230   269.9830    50.7700    42.8430    40.3640    51.0740    23.8070 
  118.1250    -6.7610     2.5180   265.1240    52.5710    40.5770    38.2070    46.2330    23.8930 
  118.2500    -6.7200     2.5280   255.8340    52.5160    38.7140    36.4320    43.1390    23.9430 
  118.3750    -6.6560     2.5510   245.5720    50.5840    37.7150    35.4810    42.5650    23.9260 
  118.5000    -6.5550     2.5780   238.3350    49.8060    37.6900    35.4570    44.4570    23.9400 
  118.6250    -6.4330     2.5990   235.8000    50.4370    38.7760    36.4920    48.4690    23.9490 
  118.7500    -6.3170     2.6140   234.7140    50.1430    40.7360    38.3580    51.4470    23.9280 
  118.8750    -6.2330     2.6220   233.4040    48.9340    43.3090    40.8090    49.9010    23.8800 
  119.0000    -6.1950     2.6250   233.2390    49.1240    45.9230    43.2980    46.5080    23.8660 
  119.1250    -6.1540     2.6220   237.5440    49.9350    47.4020    44.7070    46.7220    23.8700 
  119.2500    -6.1130     2.6130   245.5610    49.9650    46.9810    44.3060    47.6700    23.8640 
  119.3750    -6.1080     2.5980   254.4420    49.0350    44.4840    41.9280    46.6330    23.8560 
  119.5000    -6.1460     2.5820   261.1830    47.8260    40.5300    38.1620    42.1510    23.8510 
  119.6250    -6.2300     2.5670   263.8170    47.2100    36.3320    34.1640    36.1360    23.8460 
  119.7500    -6.3110     2.5550   263.7710    48.6720    32.9400    30.9330    31.5690    23.8510 
  119.8750    -6.3780     2.5490   263.1250    51.7110    30.6660    28.7680    29.3970    23.8500 
  120.0000    -6.4390     2.5510   263.8010    54.2170    29.4030    27.5650    29.4230    23.8360 
  120.1250    -6.5170     2.5630   266.7460    55.1520    28.8990    27.0850    30.2660    23.8010 
  120.2500    -6.6100     2.5760   271.0350    56.6560    28.6740    26.8700    30.6950    23.7490 
  120.3750    -6.7440     2.5820   276.5750    57.8600    28.4680    26.6750    30.3220    23.6880 
  120.5000    -6.9340     2.5750   283.6820    55.6960    28.1080    26.3310    28.6020    23.6400 
  120.6250    -7.1760     2.5540   290.6160    51.4570    27.4810    25.7340    26.8060    23.5610 
  120.7500    -7.4430     2.5290   294.1090    49.7910    26.6650    24.9570    26.2460    23.4530 
  120.8750    -7.7060     2.5060   293.2580    51.5940    25.7550    24.0910    25.2800    23.3110 
  121.0000    -7.9530     2.4880   290.0570    55.4370    24.8540    23.2320    23.4200    23.1530 
  121.1250    -8.1790     2.4800   287.3700    59.0180    24.0630    22.4790    22.0030    22.9730 
  121.2500    -8.3800     2.4790   285.0860    60.2150    23.4290    21.8750    21.5910    22.8210 
  121.3750    -8.5400     2.4880   281.6640    58.7730    23.0300    21.4960    21.2680    22.8020 
  121.5000    -8.6360     2.5060   276.5110    57.6550    22.9670    21.4350    20.7570    22.9080 
  121.6250    -8.6410     2.5270   270.6370    58.8360    23.3370    21.7880    20.7970    22.9830 
  121.7500    -8.5850     2.5420   266.1590    60.5770    23.9570    22.3780    21.6500    22.8780 
  121.8750    -8.4910     2.5480   264.0780    61.7810    24.5940    22.9840    23.0940    22.7430 
  122.0000    -8.3980     2.5470   263.8010    61.3120    25.0000    23.3710    24.9730    22.6830 
  122.1250    -8.3140     2.5450   263.2730    58.1460    24.9650    23.3380    26.2390    22.7200 
  122.2500    -8.2210     2.5470   261.4920    55.6980    24.6070    22.9980    25.7940    22.7230 
  122.3750    -8.1010     2.5530   259.2950    57.1400    24.0910    22.5060    24.3690    22.6390 
  122.5000    -7.9710     2.5610   257.9260    59.7050    23.5580    21.9980    23.2310    22.5480 
  122.6250    -7.8640     2.5670   257.8310    59.0610    23.0870    21.5490    22.5690    22.6860 
  122.7500    -7.8030     2.5710   257.9680    58.1770    22.6800    21.1620    22.3140    22.8630 
  122.8750    -7.7510     2.5740   257.8350    60.7170    22.3500    20.8470    21.5220    22.8610 
  123.0000    -7.6420     2.5770   257.7210    65.3010    22.1180    20.6270    20.5330    22.7770 
  123.1250    -7.4690     2.5780   258.8420    66.5540    21.9960    20.5100    19.7820    22.7450 
  123.2500    -7.2690     2.5750   261.7650    64.8760    21.8890    20.4090    19.6430    22.7850 
  123.3750    -7.0460     2.5680   266.3650    63.0710    21.6800    20.2100    19.6510    22.8850 
  123.5000    -6.8180     2.5580   271.6110    62.9460    21.2630    19.8120    19.5340    23.0250 
  123.6250    -6.5640     2.5480   275.5910    63.8980    20.5640    19.1470    18.7640    23.1410 
  123.7500    -6.2590     2.5430   277.5680    63.9310    19.7010    18.3250    17.7560    23.1970 
  123.8750    -5.9400     2.5440   277.9540    62.5020    18.8000    17.4660    16.8370    23.2700 
  124.0000    -5.6700     2.5510   277.5010    60.7310    17.9830    16.6880    16.4090    23.3930 
  124.1250    -5.4760     2.5580   276.4200    60.7470    17.3790    16.1130    16.5000    23.5210 
  124.2500    -5.3560     2.5600   275.1070    60.7860    17.0010    15.7540    16.7690    23.6250 
  124.3750    -5.2860     2.5540   274.2580    59.1620    16.8440    15.6040    17.2470    23.6540 
  124.5000    -5.2250     2.5440   274.3820    55.9300    16.8800    15.6380    17.8860    23.6930 
  124.6250    -5.1880     2.5310   274.9890    53.1360    17.0900    15.8380    18.6110    23.7650 
  124.7500    -5.2120     2.5180   275.0250    51.8480    17.3940    16.1280    19.2110    23.8570 
  124.8750    -5.2960     2.5090   274.6620    51.6780    17.7250    16.4430    19.3740    23.9000 
