~V
VERS. 2.00: Ver 2.00
~W
STRT.M 60.0000:
STOP.M 258.0000:
STEP.M 0.1250:
NULL. -999.2500:
UWI. DF32100:
~C
DEPT.M :
SP.MV :
GR.API :
CALI.CM :
RXO.OHMM :
RI. :
RML.OHMM :
DEN.GM/CC :
~A
# ...
  195.0000   -21.9840    75.0300    23.3410    42.1150    55.0730    60.1530     2.2080 
  195.1250   -22.2150    76.6830    23.3410    41.8310    55.0260    58.9730     2.1990 
  195.2500   -22.4170    78.1200    23.3410    41.6730    54.4290    57.2280     2.1930 
  195.3750   -22.6020    78.7330    23.3410    40.9440    53.3340    54.9890     2.1930 
  195.5000   -22.7650    77.9900    23.3400    39.4900    51.8610    52.4320     2.2000 
  195.6250   -22.9450    77.4440    23.3280    37.4250    49.5260    50.4370     2.2120 
  195.7500   -23.1590    79.4880    23.3030    35.8850    47.1400    48.6060     2.2210 
  195.8750   -23.3580    83.0780    23.2790    34.5670    45.1020    46.8860     2.2280 
  196.0000   -23.6190    84.8300    23.2550    33.3640    43.6160    45.5470     2.2370 
  196.1250   -23.9000    82.2980    23.2130    32.4660    42.9280    44.8910     2.2500 
  196.2500   -24.2320    79.1860    23.1670    31.6510    42.6940    44.6100     2.2580 
  196.3750   -24.5920    78.3990    23.1480    31.6920    42.5150    44.2960     2.2610 
  196.5000   -24.9730    80.5510    23.1450    33.9260    42.1880    43.7620     2.2630 
  196.6250   -25.3650    83.9590    23.1450    36.4840    42.0120    43.4060     2.2650 
  196.7500   -25.7660    83.8320    23.1450    36.7600    42.7170    44.0830     2.2600 
  196.8750   -26.1950    82.4210    23.1450    36.8240    45.2810    47.0110     2.2440 
  197.0000   -26.5840    82.5150    23.1450    42.2930    50.9190    53.8200     2.2240 
  197.1250   -26.9010    82.9970    23.1450    56.7630    62.1260    67.5210     2.2100 
  197.2500   -27.1420    79.7240    23.1450    73.6760    80.1440    88.5820     2.2030 
  197.3750   -27.3190    74.2920    23.1450    90.0290   106.3120   116.5620     2.2000 
  197.5000   -27.4740    70.6730    23.1450   102.7210   139.0290   148.0230     2.1980 
  197.6250   -27.5830    70.4370    23.1450   107.5610   169.6080   175.4560     2.1970 
  197.7500   -27.6390    71.2350    23.1410   109.0150   190.2010   194.5990     2.2030 
  197.8750   -27.6040    70.9880    23.1210   112.4630   200.6660   205.1700     2.2160 
  198.0000   -27.5050    70.4420    22.9810   118.4970   201.9440   207.2330     2.2240 
  198.1250   -27.4130    72.4080    22.6200   121.9010   190.0120   197.5600     2.2130 
  198.2500   -27.3710    74.4340    22.1300   116.7370   167.6310   178.0860     2.1920 
  198.3750   -27.3460    73.3640    22.0030   101.9100   140.7510   152.6760     2.1750 
  198.5000   -27.3040    71.3750    22.3740    80.9040   116.0080   126.9490     2.1680 
  198.6250   -27.2550    72.7570    23.1010    64.3560    98.4430   106.9320     2.1690 
  198.7500   -27.1810    74.0880    23.4520    55.9690    87.6140    94.0210     2.1790 
  198.8750   -27.1360    73.5120    23.5590    54.2320    82.8050    88.0930     2.1940 
  199.0000   -27.1210    73.1990    23.6060    55.2140    83.3550    88.4990     2.2090 
  199.1250   -27.1250    73.2460    23.6940    59.1630    89.8680    95.8450     2.2170 
  199.2500   -27.1050    70.1200    23.7330    67.9090   101.5980   109.1010     2.2200 
  199.3750   -27.0900    65.9840    23.7430    79.6800   118.5600   127.9500     2.2210 
  199.5000   -27.0780    67.3460    23.7430    89.3330   140.2420   151.3030     2.2150 
  199.6250   -27.0470    73.1480    23.7430    99.5010   165.0870   176.8480     2.2010 
  199.7500   -27.0080    74.7780    23.7430   112.2330   188.0470   199.8060     2.1860 
  199.8750   -26.9360    71.4990    23.7420   122.2970   202.8560   215.0540     2.1770 
  200.0000   -26.8640    67.1610    23.7210   121.0260   204.0970   218.2000     2.1760 
  200.1250   -26.7360    65.8690    23.6600   107.1240   189.7450   206.3330     2.1810 
  200.2500   -26.5780    66.7240    23.5760    94.4550   168.4250   185.9000     2.1900 
  200.3750   -26.3550    68.2270    23.5160    85.6530   146.6470   162.8550     2.1980 
  200.5000   -26.0900    67.7030    23.4630    77.2320   128.6170   142.3360     2.2000 
  200.6250   -25.7800    66.1970    23.4400    69.4790   117.0490   128.4450     2.2010 
  200.7500   -25.4670    67.0900    23.4330    67.2060   111.1640   121.0710     2.2040 
  200.8750   -25.1640    70.4990    23.4330    67.9650   110.5640   119.9070     2.2100 
  201.0000   -24.8880    73.1670    23.4330    69.5660   114.7210   124.2920     2.2150 
  201.1250   -24.6010    71.5450    23.4330    73.9390   123.4440   133.8350     2.2210 
  201.2500   -24.3270    68.5510    23.4330    80.0070   134.5800   145.9420     2.2260 
  201.3750   -24.0480    67.0240    23.4330    82.4210   145.8460   158.1120     2.2260 
  201.5000   -23.8020    66.1860    23.4330    78.0400   153.7720   166.9610     2.2210 
  201.6250   -23.5520    65.8510    23.4300    71.7410   152.3440   167.0050     2.2180 
  201.7500   -23.3230    67.9760    23.4090    67.5340   141.3810   157.6790     2.2170 
  201.8750   -23.1080    71.2030    23.3530    62.8580   124.9240   141.6830     2.2130 
  202.0000   -22.8690    71.1450    23.2440    55.7740   109.0930   124.6210     2.2050 
  202.1250   -22.6780    67.6820    23.1490    46.0940    99.4700   113.3500     2.2040 
  202.2500   -22.5210    66.1070    23.0540    41.0630    96.9250   110.4100     2.2340 
  202.3750   -22.4650    65.8680    22.9970    48.3760   101.3770   115.9730     2.3060 
  202.5000   -22.4600    64.2000    22.9660    73.2360   111.1680   127.3840     2.4150 
  202.6250   -22.5760    60.3680    22.8880   103.9220   120.8060   137.9410     2.5260 
  202.7500   -22.7380    57.3030    22.7380   114.6670   122.7400   140.5380     2.5830 
  202.8750   -22.9630    57.1570    22.5990    99.2370   115.0650   133.3200     2.5570 
  203.0000   -23.2100    59.8250    22.5510    73.7620   102.9120   120.5020     2.4650 
  203.1250   -23.4880    63.2730    22.5750    59.2180    93.7550   109.7850     2.3580 
  203.2500   -23.7650    66.1880    22.5970    55.7970    90.1900   105.3490     2.2740 
  203.3750   -24.0610    67.5940    22.6100    57.5090    92.0830   107.4550     2.2190 
  203.5000   -24.3390    68.0990    22.6220    58.8650    98.0110   114.1200     2.1900 
  203.6250   -24.5980    68.5140    22.6730    58.3710   105.0810   121.5860     2.1790 
  203.7500   -24.8450    67.6750    22.7840    58.3500   109.0840   125.4550     2.1700 
  203.8750   -25.0600    66.3280    22.9190    60.1030   107.3710   123.2880     2.1620 
  204.0000   -25.2840    66.6500    23.0350    64.5530    99.9350   115.1210     2.1650 
  204.1250   -25.5450    66.7720    23.1060    68.9470    89.1960   103.1690     2.1880 
  204.2500   -25.8270    64.5570    23.1110    67.8760    78.8770    91.3480     2.2120 
  204.3750   -26.0680    63.5130    23.0560    59.2050    70.6460    81.6010     2.2190 
  204.5000   -26.3210    67.3440    23.0020    48.0230    65.1600    74.8450     2.2120 
  204.6250   -26.5680    71.5870    22.8300    41.9020    63.0050    71.9760     2.2070 
  204.7500   -26.8340    71.1520    22.4330    38.3780    63.6280    72.5360     2.2160 
  204.8750   -27.1080    68.5760    21.9420    35.1680    67.0780    76.6270     2.2310 
  205.0000   -27.3770    67.8800    21.6880    33.0990    73.6550    84.5150     2.2380 
  205.1250   -27.5550    69.6490    21.7870    34.9680    84.2960    96.8810     2.2330 
  205.2500   -27.6300    70.4530    22.1150    39.5470    97.9960   111.8880     2.2270 
  205.3750   -27.6450    67.8640    22.5100    43.4840   112.9650   127.0400     2.2280 
  205.5000   -27.5900    65.4470    22.8490    45.7290   125.8850   138.9390     2.2330 
  205.6250   -27.4510    68.0020    22.9840    47.7870   131.2180   142.9120     2.2310 
  205.7500   -27.2330    72.5110    23.0270    49.7860   128.7130   139.3760     2.2170 
  205.8750   -26.9470    73.9820    23.0300    51.3250   121.7860   131.1890     2.2000 
  206.0000   -26.5780    72.2390    23.0300    52.7230   114.9630   122.5000     2.1890 
  206.1250   -26.1410    70.2430    23.0300    53.1980   111.7250   117.2210     2.1890 
