~V
VERS. 2.00: Ver 2.00
~W
STRT.M 62.0000:
STOP.M 272.0000:
STEP.M 0.1250:
NULL. -999.2500:
UWI. DF32144:
~C
DEPT.M :
SP.MV :
DEN.GM/CC :
GR.API :
RML.OHMM :
RI. :
RXO.OHMM :
CALI.CM :
~A
   62.0000    22.2420     2.3960    78.5840     0.8200     1.5840     6.6720    22.5590 
   62.1250    19.4990     2.3080    78.5830     1.9580     2.8410     6.0800    22.4240 
   62.2500    16.3210     2.2540    77.1730     2.9390     4.1360     6.5420    22.3350 
   62.3750    12.8490     2.2280    77.6380     3.4180     5.0770     7.5630    22.2000 
   62.5000     9.3360     2.2190    79.6440     3.5410     5.5840     8.1210    22.0410 
   62.6250     6.2600     2.2190    80.1060     3.5690     5.7800     7.6150    22.0010 
   62.7500     3.9200     2.2230    81.9350     3.5920     5.8260     6.7270    22.0290 
   62.8750     2.2700     2.2270    87.1800     3.5850     5.7590     6.1080    22.0230 
   63.0000     1.0710     2.2280    91.3030     3.5620     5.6410     6.2240    21.9200 
   63.1250     0.2490     2.2200    87.7640     3.5910     5.5780     6.5600    21.7540 
   63.2500    -0.3650     2.2070    80.9150     3.7390     5.6580     7.0860    21.6180 
   63.3750    -0.9350     2.1920    77.3360     4.1050     5.9820     7.6110    21.5590 
   63.5000    -1.5370     2.1890    78.0730     4.8380     6.6990     7.9780    21.5420 
   63.6250    -2.1710     2.2210    78.8290     6.2390     8.1290     8.7100    21.6070 
   63.7500    -2.8040     2.2920    76.8680     8.3270    10.3340    10.5080    21.8890 
   63.8750    -3.4780     2.3920    73.3410    10.9270    13.1650    14.8700    22.4140 
   64.0000    -4.2270     2.4870    68.7140    13.3690    15.8600    24.1930    23.0590 
   64.1250    -5.2200     2.5290    63.8020    14.0920    16.6610    31.4830    23.3530 
   64.2500    -6.3920     2.5050    62.8530    12.7470    15.2620    25.9490    23.0400 
   64.3750    -7.6600     2.4280    66.6730    10.3310    12.6900    16.4670    22.3230 
   64.5000    -8.9830     2.3270    70.0270     8.1060    10.1920    10.6770    21.6150 
   64.6250   -10.3790     2.2380    68.1320     6.7430     8.5080     9.1970    21.1630 
   64.7500   -11.8420     2.1760    65.6470     6.0550     7.5500     8.8810    20.8850 
   64.8750   -13.2600     2.1370    67.5430     5.8580     7.1660     8.9770    20.8260 
   65.0000   -14.5450     2.1170    72.7490     5.9740     7.1720     9.1960    20.9640 
   65.1250   -15.5850     2.1100    75.0360     6.2340     7.3930     9.5570    21.0640 
   65.2500   -16.4290     2.1130    73.7950     6.4790     7.6450     9.7950    21.1070 
   65.3750   -17.1200     2.1200    71.4230     6.6700     7.8660     9.8710    21.1510 
   65.5000   -17.6890     2.1290    68.8180     6.8100     8.0360    10.1410    21.2320 
   65.6250   -18.1240     2.1340    65.5410     6.9040     8.1460    10.3170    21.3490 
   65.7500   -18.4920     2.1360    64.8610     6.9620     8.2030    10.4920    21.4810 
   65.8750   -18.8240     2.1370    67.9390     6.9750     8.2010    10.6320    21.6500 
   66.0000   -19.1320     2.1400    71.1720     6.9380     8.1290    10.6000    21.8500 
   66.1250   -19.3910     2.1430    69.0690     6.8450     7.9810    10.4060    22.0220 
   66.2500   -19.5890     2.1440    65.6440     6.7280     7.7950    10.1100    22.2130 
   66.3750   -19.7570     2.1450    66.3480     6.6190     7.6050     9.8140    22.4560 
   66.5000   -19.9110     2.1440    71.6220     6.5500     7.4480     9.5840    22.7100 
   66.6250   -20.0990     2.1450    75.3680     6.5630     7.3660     9.4610    22.9500 
   66.7500   -20.2730     2.1470    74.5430     6.6540     7.3580     9.4310    22.9960 
   66.8750   -20.4120     2.1490    73.1460     6.8000     7.4100     9.4480    22.8620 
   67.0000   -20.5210     2.1520    74.0320     6.9550     7.4830     9.5510    22.6310 
   67.1250   -20.5820     2.1570    74.4500     7.0590     7.5190     9.8330    22.4980 
   67.2500   -20.6390     2.1600    73.0650     7.0950     7.4950    10.0430    22.4080 
   67.3750   -20.6770     2.1600    72.1910     7.0840     7.4180     9.8750    22.3450 
   67.5000   -20.7240     2.1560    73.1530     7.0660     7.3210     9.3290    22.3090 
   67.6250   -20.7170     2.1550    71.9920     7.0900     7.2510     8.9190    22.2920 
   67.7500   -20.6830     2.1580    69.1230     7.1610     7.2250     9.0730    22.2510 
   67.8750   -20.6390     2.1660    67.2890     7.2560     7.2320     9.8060    22.1590 
   68.0000   -20.6160     2.1730    67.2920     7.3350     7.2490    10.6020    22.0570 
   68.1250   -20.6650     2.1750    68.5980     7.3700     7.2510    10.1330    21.9360 
   68.2500   -20.7540     2.1730    71.6510     7.3960     7.2490     9.6610    21.8090 
   68.3750   -20.8490     2.1690    74.3570     7.4750     7.2780     9.3210    21.7580 
   68.5000   -20.9000     2.1640    73.0890     7.6550     7.3730     9.2490    21.7550 
   68.6250   -20.9310     2.1600    70.4720     7.9320     7.5380     9.6220    21.8620 
   68.7500   -20.8930     2.1570    71.5870     8.1940     7.6970    10.3100    21.9730 
   68.8750   -20.8050     2.1530    73.3340     8.3280     7.7630    10.9010    22.0370 
   69.0000   -20.6490     2.1500    71.5490     8.2610     7.6740    10.9030    22.0400 
   69.1250   -20.4460     2.1460    69.6110     7.9880     7.4120    10.1620    21.9710 
   69.2500   -20.2230     2.1420    69.9580     7.6590     7.0820     9.2130    21.8330 
   69.3750   -19.9530     2.1370    71.3560     7.4010     6.7780     8.6760    21.6800 
   69.5000   -19.6940     2.1340    73.1430     7.3060     6.5810     8.5830    21.5950 
   69.6250   -19.4840     2.1360    73.3480     7.4440     6.5660     8.7360    21.5710 
   69.7500   -19.3930     2.1380    70.4200     7.7580     6.7140     8.8620    21.5560 
   69.8750   -19.3980     2.1380    66.1230     8.1800     6.9950     9.0030    21.4920 
   70.0000   -19.4640     2.1320    64.8500     8.6180     7.3440     9.3050    21.3390 
   70.1250   -19.5590     2.1210    65.1180     8.9360     7.6600    10.0000    21.0900 
   70.2500   -19.6330     2.1140    63.4220     9.0530     7.8530    10.6060    20.9220 
   70.3750   -19.7230     2.1150    62.1350     8.9260     7.8720    10.5330    20.8810 
   70.5000   -19.7690     2.1260    64.0730     8.5910     7.7190     9.9530    20.9410 
   70.6250   -19.7380     2.1450    67.0700     8.1720     7.4620     9.6080    21.1030 
   70.7500   -19.6030     2.1640    69.9700     7.8370     7.2250     9.7640    21.2460 
   70.8750   -19.3200     2.1800    72.8120     7.6570     7.0670     9.6340    21.3350 
   71.0000   -18.8810     2.1910    74.8880     7.6250     6.9950     9.0630    21.3930 
   71.1250   -18.2650     2.1980    74.7960     7.6550     6.9620     9.0930    21.4320 
   71.2500   -17.5530     2.2050    74.3890     7.6060     6.8770     9.4740    21.4490 
   71.3750   -16.7500     2.2150    75.3330     7.3950     6.6780     8.7600    21.4560 
   71.5000   -15.8870     2.2270    76.6390     7.0210     6.3660     7.6420    21.4620 
   71.6250   -14.9840     2.2390    78.9890     6.5890     6.0100     6.9040    21.4830 
   71.7500   -14.1180     2.2490    82.5430     6.2630     5.7240     6.6070    21.5160 
   71.8750   -13.3650     2.2510    84.8050     6.1620     5.5930     6.4140    21.5270 
   72.0000   -12.8580     2.2450    85.3630     6.3510     5.6690     6.3420    21.4820 
   72.1250   -12.6790     2.2270    83.1860     6.8640     5.9930     6.6360    21.3600 
   72.2500   -12.7430     2.2060    79.4760     7.5560     6.4780     7.2920    21.1080 
   72.3750   -13.0010     2.1880    76.5310     8.2870     7.0410     8.0390    20.7530 
   72.5000   -13.3730     2.1790    75.1110     8.8920     7.5740     8.6980    20.4160 
   72.6250   -13.8370     2.1780    72.2780     9.1810     7.9320     9.0100    20.0950 
   72.7500   -14.3520     2.1800    67.6740     9.1790     8.0830     9.1290    19.7740 
   72.8750   -14.8920     2.1790    67.0190     8.9880     8.0600     9.1000    19.5790 
   73.0000   -15.3040     2.1760    70.3450     8.7490     7.9450     8.8390    19.6420 
   73.1250   -15.5040     2.1720    70.9930     8.5970     7.8260     8.4180    19.9000 
