~V
VERS. 2.00: Ver 2.00
~W
STRT.M 61.0000:
STOP.M 262.0000:
STEP.M 0.1250:
NULL. -999.2500:
UWI. DF32115:
~C
DEPT.M :
GR.API :
CALI.CM :
RXO.OHMM :
RI. :
RML.OHMM :
DEN.GM/CC :
SP.MV :
~A
# ...
  151.0000    62.4580    25.3220    17.3250    18.3940    21.7210     2.5280   -21.9360 
  151.1250    59.9150    25.2620    17.2060    18.6880    22.1150     2.5470   -21.9470 
  151.2500    59.1250    25.2260    17.9290    19.1120    22.6490     2.5570   -21.9530 
  151.3750    60.9630    25.2190    19.0270    19.5920    23.2260     2.5570   -21.9550 
  151.5000    63.4660    25.2220    19.8020    20.0370    23.7400     2.5510   -21.9400 
  151.6250    64.8030    25.2220    19.5390    20.3330    24.0610     2.5490   -21.8990 
  151.7500    65.7350    25.2210    18.9100    20.4410    24.1670     2.5550   -21.8380 
  151.8750    66.5320    25.2190    18.6570    20.3290    24.0120     2.5670   -21.7770 
  152.0000    64.1260    25.2170    18.6590    19.9320    23.4940     2.5770   -21.7110 
  152.1250    61.4750    25.2170    18.1880    19.1070    22.4050     2.5740   -21.6150 
  152.2500    65.0620    25.2190    17.2420    17.9270    20.8520     2.5620   -21.5040 
  152.3750    70.9500    25.2130    15.8760    16.5280    19.0370     2.5490   -21.4040 
  152.5000    73.1430    25.1900    13.9730    15.1280    17.2770     2.5400   -21.3010 
  152.6250    71.2180    25.1740    12.1110    14.0380    16.0140     2.5360   -21.2170 
  152.7500    69.5380    25.1860    11.2200    13.3990    15.4080     2.5340   -21.1690 
  152.8750    67.5290    25.2060    11.4720    13.2610    15.4920     2.5320   -21.1470 
  153.0000    64.3040    25.1910    12.6000    13.5900    16.1780     2.5360   -21.1600 
  153.1250    64.2190    25.1330    14.5030    14.3150    17.2900     2.5480   -21.2320 
  153.2500    65.7240    25.0840    16.4630    15.1320    18.3840     2.5630   -21.3550 
  153.3750    64.9650    25.0640    17.6370    15.7820    19.1270     2.5710   -21.4960 
  153.5000    61.5130    25.0640    17.7430    16.1160    19.3960     2.5700   -21.6620 
  153.6250    60.4210    25.0660    17.1640    16.1600    19.3340     2.5560   -21.8440 
  153.7500    61.7030    25.0670    16.6610    16.1480    19.3100     2.5360   -22.0160 
  153.8750    61.1240    25.0550    16.8590    16.2320    19.5220     2.5190   -22.1730 
  154.0000    59.4440    25.0130    18.0500    16.4620    19.9930     2.5200   -22.3210 
  154.1250    62.3550    24.9530    19.3700    16.7390    20.5080     2.5370   -22.4330 
  154.2500    68.3740    24.9110    19.5000    16.8590    20.7510     2.5500   -22.4940 
  154.3750    72.1890    24.9000    18.4530    16.7130    20.5780     2.5490   -22.5260 
  154.5000    71.0140    24.9030    17.1610    16.3150    20.0450     2.5420   -22.5310 
  154.6250    66.6280    24.9080    16.4140    15.7820    19.3530     2.5430   -22.4870 
  154.7500    63.0820    24.9110    16.1640    15.2910    18.7570     2.5470   -22.4090 
  154.8750    61.2460    24.9050    16.1820    14.9350    18.3700     2.5420   -22.3200 
  155.0000    59.7080    24.8820    16.0510    14.7300    18.1860     2.5260   -22.2190 
  155.1250    58.8570    24.8500    15.5140    14.6420    18.1380     2.4980   -22.0950 
  155.2500    60.1670    24.8290    15.0350    14.5930    18.1300     2.4990   -21.9720 
  155.3750    64.0030    24.8240    15.0680    14.5080    18.0700     2.5070   -21.8640 
  155.5000    66.1120    24.8240    15.0180    14.4040    17.9340     2.5150   -21.7700 
  155.6250    66.8320    24.8370    14.7380    14.2530    17.6960     2.5170   -21.6860 
  155.7500    65.7800    24.8650    14.5950    14.0600    17.3870     2.5130   -21.6160 
  155.8750    63.9510    24.8910    14.4440    13.8450    17.0600     2.5030   -21.5680 
  156.0000    64.3380    24.8900    13.9870    13.6460    16.7780     2.4950   -21.5260 
  156.1250    67.7060    24.8690    13.3660    13.5080    16.6090     2.5010   -21.5070 
  156.2500    69.6550    24.8610    12.9730    13.4300    16.5380     2.5080   -21.5180 
  156.3750    67.0240    24.8600    12.8350    13.3910    16.5320     2.5060   -21.5330 
  156.5000    60.8760    24.8440    12.7830    13.3540    16.5310     2.4950   -21.5400 
  156.6250    55.5250    24.8440    12.8120    13.2450    16.4260     2.4940   -21.5530 
  156.7500    52.4360    24.9170    12.9830    13.0210    16.1520     2.5040   -21.5480 
  156.8750    51.6390    25.0510    13.1360    12.6740    15.6980     2.5160   -21.4950 
  157.0000    54.4370    25.1730    12.9140    12.2450    15.1360     2.5230   -21.4090 
  157.1250    58.9600    25.2200    12.1890    11.8380    14.6260     2.5280   -21.2930 
  157.2500    60.4420    25.2250    11.5010    11.5530    14.3230     2.5320   -21.1380 
  157.3750    58.4400    25.2140    11.2150    11.4530    14.3120     2.5330   -20.9500 
  157.5000    56.6190    25.1920    11.3140    11.5590    14.6060     2.5340   -20.7500 
  157.6250    58.1580    25.1790    11.6680    11.8690    15.1600     2.5510   -20.5660 
  157.7500    61.1640    25.1900    12.1090    12.2760    15.7800     2.5740   -20.4150 
  157.8750    64.4870    25.2130    12.4310    12.6780    16.3070     2.5800   -20.3060 
  158.0000    66.2800    25.2240    12.4980    12.9850    16.6250     2.5560   -20.2420 
  158.1250    64.1880    25.2080    12.4510    13.1380    16.6920     2.5240   -20.2370 
  158.2500    62.1390    25.1830    12.4800    13.1860    16.6280     2.5140   -20.2760 
  158.3750    62.4070    25.1460    12.5590    13.1650    16.5070     2.5290   -20.3560 
  158.5000    63.2280    25.0810    12.6980    13.1010    16.3720     2.5490   -20.4620 
  158.6250    61.2900    24.9790    12.9630    13.0160    16.2510     2.5610   -20.5640 
  158.7500    59.2490    24.8870    13.0820    12.9300    16.1520     2.5630   -20.6620 
  158.8750    61.1060    24.8380    12.8890    12.8460    16.0670     2.5570   -20.7670 
  159.0000    65.7480    24.8270    13.0890    12.7590    15.9810     2.5390   -20.8720 
  159.1250    69.7900    24.8400    14.9150    12.6680    15.8790     2.5110   -20.9640 
  159.2500    70.6050    24.8830    16.7230    12.5800    15.7680     2.4860   -21.0600 
  159.3750    67.4020    24.9230    16.1480    12.5130    15.6800     2.4720   -21.1510 
  159.5000    62.1340    24.8830    13.3640    12.5030    15.6830     2.4650   -21.2520 
  159.6250    58.5570    24.7170    11.1490    12.6140    15.8770     2.4550   -21.3780 
  159.7500    59.4400    24.5240    10.3680    12.8570    16.2660     2.4430   -21.5230 
  159.8750    63.8930    24.4220    10.3160    13.2400    16.8400     2.4370   -21.6790 
  160.0000    68.2030    24.4680    10.6570    13.7500    17.5560     2.4470   -21.8430 
  160.1250    70.8190    24.6320    11.6470    14.3490    18.3360     2.4710   -22.0000 
  160.2500    72.6540    24.8150    13.0610    14.9560    19.0790     2.4850   -22.1550 
  160.3750    73.8410    24.9790    14.4980    15.5300    19.7470     2.4760   -22.3100 
  160.5000    73.9390    25.1360    15.5750    16.0610    20.3360     2.4520   -22.4530 
  160.6250    73.7180    25.2880    16.0680    16.5560    20.8590     2.4370   -22.5930 
  160.7500    75.7520    25.4080    16.2960    17.0670    21.4020     2.4370   -22.7290 
  160.8750    78.1700    25.4830    16.6410    17.6820    22.0940     2.4380   -22.8490 
  161.0000    78.7890    25.5080    17.2950    18.4940    23.0530     2.4260   -22.9650 
  161.1250    76.0240    25.5350    18.3570    19.5880    24.3470     2.4000   -23.0970 
  161.2500    74.2520    25.5880    19.9620    20.8760    25.8130     2.3730   -23.2120 
  161.3750    77.2210    25.5790    21.9610    22.2270    27.2420     2.3590   -23.3120 
  161.5000    81.4550    25.4580    23.2990    23.4340    28.3620     2.3620   -23.4000 
  161.6250    81.0820    25.2830    22.6560    24.1680    28.8030     2.3770   -23.4530 
  161.7500    78.3720    25.1550    21.1930    24.3190    28.5420     2.3880   -23.4730 
  161.8750    76.9890    25.1040    20.3180    23.8750    27.6410     2.3970   -23.4740 
  162.0000    76.9120    25.1190    20.1860    22.9550    26.2910     2.4110   -23.4480 
  162.1250    74.0020    25.1770    19.6360    21.7640    24.7690     2.4200   -23.4000 
