~V
VERS. 2.00: Ver 2.00
~W
STRT.M 60.0000:
STOP.M 227.0000:
STEP.M 0.1250:
NULL. -999.2500:
UWI. DF32025:
~C
DEPT.M :
DEN.GM/CC :
GR.API :
RML.OHMM :
RI. :
RXO.OHMM :
CALI.CM :
SP.MV :
~A
# ...
   93.7500     2.2740    88.3720     6.8530     5.4700     5.8820    23.6610   -22.8850 
   93.8750     2.2800    86.3730     6.7080     5.3910     5.6930    23.7490   -22.8710 
   94.0000     2.2740    88.5990     6.6310     5.3480     5.5490    23.8250   -22.8760 
   94.1250     2.2580    94.2500     6.7610     5.4190     5.4300    23.8640   -22.9740 
   94.2500     2.2460    95.8680     7.0930     5.6160     5.4020    23.8600   -23.0900 
   94.3750     2.2470    90.1090     7.5530     5.9120     5.6890    23.7950   -23.1780 
   94.5000     2.2590    80.8150     7.9970     6.2310     6.4050    23.7140   -23.2970 
   94.6250     2.2770    76.0450     8.2180     6.4460     7.6450    23.6680   -23.4450 
   94.7500     2.2900    77.9220     8.1570     6.4900     8.3210    23.6740   -23.5200 
   94.8750     2.2950    84.0670     7.8650     6.3610     7.7050    23.6950   -23.4980 
   95.0000     2.2950    91.4830     7.5010     6.1290     6.2590    23.6910   -23.4680 
   95.1250     2.2910    95.0900     7.2870     5.9130     5.6500    23.6410   -23.5020 
   95.2500     2.2870    93.1860     7.3140     5.8010     5.7750    23.5690   -23.4560 
   95.3750     2.2850    89.4010     7.5650     5.8080     6.2330    23.5340   -23.4600 
   95.5000     2.2880    86.9370     7.9390     5.8990     6.5420    23.5420   -23.4070 
   95.6250     2.2960    88.3210     8.2640     5.9990     6.6340    23.5500   -23.4240 
   95.7500     2.3010    93.2580     8.4070     6.0360     6.6660    23.5570   -23.5410 
   95.8750     2.2940    95.6670     8.3220     5.9840     6.6050    23.5740   -23.7140 
   96.0000     2.2710    91.0450     8.0660     5.8700     6.7710    23.6020   -23.9380 
   96.1250     2.2390    82.6890     7.8480     5.8080     7.3440    23.6140   -24.0950 
   96.2500     2.2220    78.8890     8.0130     5.9930     7.6280    23.6030   -24.3290 
   96.3750     2.2410    79.0770     8.9780     6.7000     7.8430    23.6150   -24.5390 
   96.5000     2.3090    76.4780    11.1400     8.2340     9.5570    23.7150   -24.7740 
   96.6250     2.4220    70.2610    14.8080    10.9210    16.4580    23.9350   -25.0550 
   96.7500     2.5340    65.3000    19.1680    14.2970    30.0750    24.1480   -25.3330 
   96.8750     2.6040    64.8540    23.0160    17.5800    40.9390    24.2630   -25.6880 
   97.0000     2.6040    66.5190    24.8650    19.6870    42.2900    24.2750   -26.1350 
   97.1250     2.5330    65.1980    23.2410    19.3440    36.5900    24.1840   -26.6810 
   97.2500     2.4370    63.4800    19.5030    17.1230    29.5020    23.9890   -27.2060 
   97.3750     2.3500    64.0030    15.4770    14.1600    21.3610    23.7220   -27.8140 
   97.5000     2.2920    65.4250    12.4110    11.5130    13.1950    23.4560   -28.4300 
   97.6250     2.2690    67.0230    10.7480     9.7710    10.3720    23.3540   -29.0390 
   97.7500     2.2600    68.9570    10.0090     8.7570     9.7250    23.3550   -29.5070 
   97.8750     2.2500    70.9260     9.8720     8.2790     9.9490    23.3530   -29.9210 
   98.0000     2.2290    71.8220    10.0360     8.1350     9.9530    23.3190   -30.1880 
   98.1250     2.2010    72.2770    10.2390     8.1480     9.6560    23.3000   -30.3470 
   98.2500     2.1750    73.2700    10.3260     8.1560     9.4480    23.2950   -30.4600 
   98.3750     2.1550    74.4420    10.2810     8.1130     9.2020    23.2950   -30.4720 
   98.5000     2.1430    74.1210    10.1600     8.0250     8.9520    23.2950   -30.5300 
   98.6250     2.1390    72.4590    10.0340     7.9240     8.9530    23.3050   -30.5040 
   98.7500     2.1400    70.1380     9.9420     7.8400     9.2080    23.3320   -30.5720 
   98.8750     2.1440    66.9470     9.8930     7.7790     9.4400    23.3680   -30.6040 
   99.0000     2.1490    64.2190     9.8810     7.7420     9.4630    23.3980   -30.6820 
   99.1250     2.1490    64.3420     9.8960     7.7240     9.3090    23.3890   -30.7950 
   99.2500     2.1450    66.6950     9.9150     7.7130     9.2450    23.3720   -30.8650 
   99.3750     2.1390    67.3150     9.9230     7.7010     9.2000    23.3640   -30.9720 
   99.5000     2.1340    64.2190     9.9120     7.6840     9.1890    23.3630   -31.0060 
   99.6250     2.1340    60.6270     9.8810     7.6590     9.2160    23.3630   -31.0930 
   99.7500     2.1390    59.8760     9.8430     7.6330     9.3190    23.3670   -31.1370 
   99.8750     2.1480    60.8870     9.8050     7.6130     9.3710    23.3780   -31.1950 
  100.0000     2.1580    61.3750     9.7720     7.6030     9.3310    23.3950   -31.2320 
  100.1250     2.1640    62.2110     9.7380     7.6060     9.3590    23.3680   -31.2220 
  100.2500     2.1650    64.3720     9.6960     7.6170     9.4030    23.3310   -31.2350 
  100.3750     2.1620    65.6630     9.6480     7.6320     9.3800    23.3040   -31.2740 
  100.5000     2.1550    63.8970     9.6000     7.6460     9.2110    23.2950   -31.2870 
  100.6250     2.1460    62.1350     9.5690     7.6560     8.8320    23.2950   -31.2540 
  100.7500     2.1390    61.2910     9.5630     7.6600     8.6450    23.2950   -31.2290 
  100.8750     2.1360    59.4130     9.5870     7.6570     8.6320    23.3040   -31.2210 
  101.0000     2.1400    57.4440     9.6320     7.6450     8.6350    23.3250   -31.1280 
  101.1250     2.1510    60.1230     9.6610     7.6120     8.5020    23.3670   -30.9450 
  101.2500     2.1620    65.5500     9.6100     7.5440     8.1770    23.3650   -30.8260 
  101.3750     2.1670    68.6420     9.4130     7.4190     7.9180    23.3620   -30.6380 
  101.5000     2.1610    66.6400     9.0360     7.2260     8.0740    23.4580   -30.4810 
  101.6250     2.1430    63.2950     8.5400     6.9950     8.5590    23.6470   -30.1960 
  101.7500     2.1230    62.3450     8.1850     6.8540     8.6470    23.7440   -29.8520 
  101.8750     2.1180    62.6240     8.2850     6.9850     8.5550    23.8270   -29.4540 
  102.0000     2.1430    62.5110     9.0950     7.5740     8.5320    23.9600   -29.0100 
  102.1250     2.2170    62.5950    10.6970     8.7500     9.1410    24.0530   -28.5630 
  102.2500     2.3190    63.6900    12.5060    10.1800    11.8120    24.1600   -27.9630 
  102.3750     2.4160    64.4620    13.7970    11.3950    20.2840    24.3030   -27.3860 
  102.5000     2.4710    64.2270    13.8430    11.8480    33.8550    24.4160   -26.7460 
  102.6250     2.4630    66.7340    12.1550    11.0310    31.5260    24.4750   -26.1930 
  102.7500     2.4220    72.6350     9.6850     9.4060    16.8060    24.5400   -25.7050 
  102.8750     2.3790    78.5640     7.4010     7.5970     8.1630    24.6110   -25.2900 
  103.0000     2.3510    82.9300     5.8430     6.1140     5.4780    24.6500   -25.0060 
  103.1250     2.3450    86.3390     5.1320     5.2230     5.0730    24.6600   -24.7740 
  103.2500     2.3490    88.2000     4.9010     4.7630     5.0690    24.6610   -24.7370 
  103.3750     2.3530    88.0060     4.9360     4.5950     5.0880    24.6630   -24.7370 
  103.5000     2.3510    86.5210     5.0850     4.5920     5.0370    24.6640   -24.8350 
  103.6250     2.3410    84.6220     5.2750     4.6820     4.7880    24.6860   -24.9820 
  103.7500     2.3270    82.6470     5.4870     4.8200     4.5370    24.7020   -25.2500 
  103.8750     2.3140    81.6530     5.7200     4.9990     4.6520    24.6110   -25.5100 
  104.0000     2.3020    81.0210     5.9650     5.2150     5.2820    24.3050   -25.8480 
  104.1250     2.2890    77.7980     6.2160     5.4610     5.8630    24.0760   -26.2590 
  104.2500     2.2730    75.3550     6.5000     5.7340     6.1160    23.9960   -26.6690 
  104.3750     2.2550    77.8020     6.8690     6.0480     6.1410    23.9850   -27.0980 
  104.5000     2.2350    82.8680     7.3730     6.4220     6.3270    23.9290   -27.5330 
  104.6250     2.2160    82.9970     8.0250     6.8610     6.6230    23.8070   -28.0840 
  104.7500     2.1970    76.7270     8.7030     7.3020     7.3090    23.6890   -28.5160 
  104.8750     2.1800    68.8590     9.2410     7.6540     7.8210    23.6370   -28.9290 
