~V
VERS. 2.00: Ver 2.00
~W
STRT.M 60.0000:
STOP.M 271.0000:
STEP.M 0.1250:
NULL. -999.2500:
UWI. DF324:
~C
DEPT.M :
SP.MV :
AC.US/MT :
DEN.GM/CC :
GR.API :
CALI.CM :
RXO.OHMM :
RI. :
RML.OHMM :
~A
# ...
  140.0000   -16.1650   279.3580     2.5410    77.7700    23.8740    20.1560    16.6080    17.1900 
  140.1250   -16.3910   288.9670     2.5350    81.5630    23.6930    20.4400    16.4340    17.0790 
  140.2500   -16.6050   302.3360     2.5040    82.9010    23.5370    21.0040    16.3240    17.0620 
  140.3750   -16.8020   313.3590     2.4700    83.5970    23.4320    21.1730    16.2870    17.1350 
  140.5000   -16.9740   318.1150     2.4560    84.6030    23.3830    19.9750    16.3050    17.2670 
  140.6250   -17.1200   317.0560     2.4670    85.6090    23.3480    17.7230    16.3400    17.4000 
  140.7500   -17.2430   315.3320     2.4740    86.2100    23.3030    16.5080    16.3670    17.5120 
  140.8750   -17.3450   315.5620     2.4670    86.3380    23.2940    16.7200    16.3830    17.6050 
  141.0000   -17.4270   317.7890     2.4530    86.2000    23.3680    17.3840    16.3900    17.6870 
  141.1250   -17.4940   320.0470     2.4430    86.5690    23.4660    17.3530    16.4110    17.7840 
  141.2500   -17.5530   320.5120     2.4330    87.3990    23.4140    16.9390    16.4660    17.9230 
  141.3750   -17.6020   318.7140     2.4170    87.9540    23.1750    16.8800    16.5570    18.1000 
  141.5000   -17.6440   314.9720     2.4040    88.2070    22.8820    17.9220    16.6880    18.3100 
  141.6250   -17.6790   309.9200     2.4040    89.5620    22.8280    19.7590    16.8940    18.5900 
  141.7500   -17.7160   305.0590     2.4130    91.7110    22.9720    20.8040    17.1930    18.9560 
  141.8750   -17.7530   301.6850     2.4250    92.6420    23.1970    20.6170    17.6040    19.4310 
  142.0000   -17.7890   300.0790     2.4420    91.7600    23.3740    19.9120    18.1650    20.0750 
  142.1250   -17.8260   298.1590     2.4690    90.6340    23.5050    20.3200    18.9560    20.9760 
  142.2500   -17.8660   293.4400     2.4930    90.0630    23.6370    22.8980    19.9290    22.0570 
  142.3750   -17.9140   286.6750     2.5010    89.6790    23.7550    26.7040    20.9440    23.1260 
  142.5000   -17.9690   281.9320     2.4860    89.4460    23.8860    29.1190    21.6900    23.7910 
  142.6250   -18.0240   283.5810     2.4600    88.8300    23.9590    29.6410    21.5590    23.3040 
  142.7500   -18.0740   287.3420     2.4460    87.5830    23.9870    30.0390    20.3300    21.4800 
  142.8750   -18.1260   286.5150     2.4510    86.7830    23.9860    31.7370    18.0380    18.4900 
  143.0000   -18.1860   279.4260     2.4660    88.0900    23.9540    33.6750    15.0460    15.0340 
  143.1250   -18.2450   277.3350     2.4690    91.9550    23.8950    31.4600    11.9480    12.0120 
  143.2500   -18.2920   293.9270     2.4460    96.1100    23.8660    23.4760     9.2590     9.7150 
  143.3750   -18.3220   330.9650     2.3990    99.3540    23.9330    13.5790     7.1670     7.7690 
  143.5000   -18.3440   375.9910     2.3440   101.7150    24.0160     6.6960     5.6870     6.2510 
  143.6250   -18.3600   408.1390     2.3040   103.9760    24.0400     4.5970     4.8100     5.3310 
  143.7500   -18.3670   421.7980     2.2850   105.6580    24.0410     4.2200     4.3210     4.8170 
  143.8750   -18.3550   422.9930     2.2810   105.6820    24.0350     4.1090     4.1010     4.5860 
  144.0000   -18.3200   420.7260     2.2820   104.3750    24.0300     3.9880     4.0410     4.5230 
  144.1250   -18.2790   420.6650     2.2870   104.3810    24.0290     3.9420     4.0430     4.5250 
  144.2500   -18.2420   422.9350     2.2990   106.2300    24.0270     3.8860     4.0300     4.5110 
  144.3750   -18.2100   426.7080     2.3130   107.7280    24.0190     3.6980     3.9880     4.4670 
  144.5000   -18.1710   431.3810     2.3180   106.6720    24.0010     3.5000     3.9330     4.4090 
  144.6250   -18.1140   436.4750     2.3110   103.4770    23.9730     3.5040     3.8870     4.3620 
  144.7500   -18.0440   441.3880     2.3030   100.5010    23.9440     3.6720     3.8640     4.3370 
  144.8750   -17.9620   445.3960     2.3030    98.5450    23.9080     3.9080     3.8650     4.3380 
  145.0000   -17.8700   447.4960     2.3080    97.7850    23.8700     4.1830     3.8890     4.3640 
  145.1250   -17.7560   446.6800     2.3070    98.4190    23.8580     4.4150     3.9280     4.4050 
  145.2500   -17.6220   444.1600     2.3000    99.6870    23.8830     4.4990     3.9680     4.4460 
  145.3750   -17.4700   441.4750     2.2920   101.4520    23.9260     4.3980     4.0000     4.4800 
  145.5000   -17.3120   439.7560     2.2870   104.1850    23.9580     4.2140     4.0210     4.5030 
  145.6250   -17.1640   438.9340     2.2850   108.2320    23.9730     4.1190     4.0300     4.5120 
  145.7500   -17.0300   437.8020     2.2850   112.5780    23.9890     4.0890     4.0300     4.5120 
  145.8750   -16.9110   435.8940     2.2880   116.0100    24.0120     4.0800     4.0230     4.5040 
  146.0000   -16.8090   433.6160     2.2950   116.9010    24.0310     4.0770     4.0100     4.4900 
  146.1250   -16.7390   431.5150     2.3050   114.0560    24.0250     4.1390     3.9960     4.4750 
  146.2500   -16.6970   429.0470     2.3130   110.0350    23.9960     4.2140     3.9880     4.4670 
  146.3750   -16.6820   425.1900     2.3190   107.0070    23.9370     4.2180     3.9900     4.4700 
  146.5000   -16.6900   419.6730     2.3230   105.4880    23.8590     4.1470     4.0030     4.4830 
  146.6250   -16.7130   413.8700     2.3200   104.5350    23.8760     4.1320     4.0260     4.5080 
  146.7500   -16.7420   409.7990     2.3070   102.6930    23.9540     4.1840     4.0600     4.5430 
  146.8750   -16.7670   408.0360     2.2870    98.8610    24.0080     4.2020     4.1020     4.5870 
  147.0000   -16.7870   407.7590     2.2700    93.4220    24.0400     4.1600     4.1450     4.6320 
  147.1250   -16.7910   407.6310     2.2660    89.7310    24.0720     4.2050     4.1790     4.6680 
  147.2500   -16.7810   407.1550     2.2690    89.7020    24.0880     4.3390     4.1960     4.6860 
  147.3750   -16.7610   406.6810     2.2680    92.2620    24.0780     4.4250     4.1920     4.6810 
  147.5000   -16.7300   406.6370     2.2620    95.4370    24.0940     4.4390     4.1690     4.6570 
  147.6250   -16.6890   407.3330     2.2650    98.6050    24.1330     4.4800     4.1290     4.6160 
  147.7500   -16.6460   408.8050     2.2820   102.0410    24.1550     4.5020     4.0810     4.5660 
  147.8750   -16.6100   411.2820     2.3010   105.2900    24.1610     4.4010     4.0330     4.5140 
  148.0000   -16.5810   414.7710     2.3090   107.4580    24.1600     4.1420     3.9930     4.4730 
  148.1250   -16.5650   418.3460     2.3070   106.9810    24.1620     3.9160     3.9740     4.4530 
  148.2500   -16.5580   420.3160     2.3110   103.8560    24.1820     3.9340     3.9770     4.4560 
  148.3750   -16.5570   419.7650     2.3210    99.1910    24.2290     4.1900     4.0010     4.4810 
  148.5000   -16.5650   417.2280     2.3240    95.6290    24.2910     4.4740     4.0430     4.5250 
  148.6250   -16.5870   414.5470     2.3160    95.5850    24.3380     4.6340     4.1000     4.5850 
  148.7500   -16.6270   413.0820     2.3080    97.8810    24.3590     4.7430     4.1580     4.6460 
  148.8750   -16.6810   412.7150     2.3080   100.0140    24.3640     4.8730     4.2100     4.7000 
  149.0000   -16.7480   412.7350     2.3140    99.8540    24.3650     5.0320     4.2450     4.7370 
  149.1250   -16.8240   412.7650     2.3230    97.4170    24.3650     5.1680     4.2510     4.7430 
  149.2500   -16.9130   413.1530     2.3350    95.9310    24.3650     5.2190     4.2280     4.7200 
  149.3750   -17.0220   414.4040     2.3490    97.1550    24.3650     5.1380     4.1790     4.6680 
  149.5000   -17.1430   416.7460     2.3530   100.8070    24.3630     4.9250     4.1120     4.5970 
  149.6250   -17.2680   420.0570     2.3350   105.1780    24.3440     4.6570     4.0410     4.5230 
  149.7500   -17.3870   423.5180     2.3070   108.2940    24.2630     4.4870     3.9780     4.4570 
  149.8750   -17.4980   426.3930     2.2870   109.5730    24.0760     4.4130     3.9280     4.4050 
