~V
VERS. 2.00: Ver 2.00
~W
STRT.M 62.0000:
STOP.M 282.0000:
STEP.M 0.1250:
NULL. -999.2500:
UWI. DF32160:
~C
DEPT.M :
GR.API :
CALI.CM :
RXO.OHMM :
RI. :
RML.OHMM :
DEN.GM/CC :
SP.MV :
~A
# ...
  185.7500    73.9000    23.7490    28.3060    64.3180    62.3720     2.2990   -33.7440 
  185.8750    75.0680    24.0400    31.8360    63.9860    63.5960     2.3090   -33.8660 
  186.0000    71.5320    24.5140    44.5360    70.7740    71.4550     2.2880   -33.9940 
  186.1250    64.2100    24.9460    67.5880    84.9650    86.2120     2.2530   -34.1010 
  186.2500    59.9080    25.1270    95.0360   103.1570   104.7390     2.2270   -34.1780 
  186.3750    61.4540    25.0470   119.9490   120.6680   122.3860     2.2130   -34.2290 
  186.5000    65.1600    24.8220   134.2710   131.5920   132.8370     2.2080   -34.2420 
  186.6250    65.3730    24.6160   132.1040   130.9770   131.0860     2.2160   -34.1980 
  186.7500    64.3950    24.4990   123.3740   123.0290   122.4210     2.2380   -34.1120 
  186.8750    64.8500    24.4610   115.0120   112.2730   111.8500     2.2590   -33.9670 
  187.0000    67.0560    24.4490   105.7120   101.9930   102.4360     2.2660   -33.7590 
  187.1250    70.2190    24.3810    94.1240    93.9580    95.5940     2.2630   -33.4830 
  187.2500    72.6380    24.2460    86.6410    87.9940    90.9010     2.2660   -33.1470 
  187.3750    72.8600    24.1070    86.0020    83.8790    88.0300     2.2750   -32.7530 
  187.5000    71.3920    24.0360    87.6320    81.3120    86.5670     2.2850   -32.3200 
  187.6250    70.3700    24.0490    85.3040    80.0210    86.1640     2.2910   -31.8710 
  187.7500    69.8240    24.0700    80.9680    79.5480    86.4810     2.2950   -31.4210 
  187.8750    70.3130    24.0760    78.9310    80.1210    87.9340     2.2980   -30.9980 
  188.0000    71.9170    24.0810    80.2010    82.4170    91.4130     2.2990   -30.6290 
  188.1250    70.8050    24.0970    82.8090    87.8730    98.6280     2.2950   -30.3390 
  188.2500    66.1220    24.1450    86.7040    96.8590   110.0020     2.2840   -30.1360 
  188.3750    62.0950    24.2620    95.3050   109.7060   125.9790     2.2670   -29.9970 
  188.5000    61.6240    24.4170   111.4190   126.1560   146.4340     2.2440   -29.8820 
  188.6250    61.5280    24.4730   134.6420   145.2470   170.5910     2.2170   -29.7920 
  188.7500    58.9310    24.3900   159.1370   164.2760   195.2130     2.1920   -29.7030 
  188.8750    55.5830    24.2410   179.9990   180.9830   217.2370     2.1810   -29.6030 
  189.0000    53.3960    24.1290   193.1340   193.7250   234.0780     2.1880   -29.4890 
  189.1250    53.8570    24.1640   194.8880   200.5670   242.4660     2.2060   -29.3390 
  189.2500    55.9630    24.3290   189.0350   201.3010   241.7090     2.2230   -29.1410 
  189.3750    58.5190    24.5150   180.6410   194.9620   230.6460     2.2330   -28.8890 
  189.5000    61.3680    24.5430   172.4910   181.2240   209.7830     2.2350   -28.5970 
  189.6250    63.3280    24.2090   158.2830   160.4490   181.2840     2.2290   -28.2650 
  189.7500    63.9350    23.6280   132.7610   136.6210   150.9290     2.2230   -27.8900 
  189.8750    64.8270    23.0060   100.3330   112.8270   122.5710     2.2250   -27.4610 
  190.0000    66.7400    22.5240    70.3630    91.6610    98.8090     2.2370   -26.9660 
  190.1250    68.3990    22.1240    49.2230    75.1110    81.1330     2.2600   -26.4140 
  190.2500    69.9500    21.6030    35.3450    62.0360    67.3010     2.2910   -25.8170 
  190.3750    73.0960    21.0160    27.3440    51.0420    55.4530     2.3240   -25.1850 
  190.5000    77.7300    20.5480    23.2220    40.8490    44.2280     2.3490   -24.5320 
  190.6250    83.4940    20.3270    19.9420    31.3870    33.6960     2.3610   -23.8890 
  190.7500    91.2540    20.2710    15.6040    23.4470    24.7970     2.3780   -23.3150 
  190.8750    99.9460    20.3520    11.1480    17.6950    18.3120     2.4160   -22.8620 
  191.0000   104.4250    20.6020     8.2550    14.1950    14.4240     2.4670   -22.5590 
  191.1250    98.8470    21.0130     8.0370    12.9090    13.2500     2.4920   -22.4100 
  191.2500    87.7820    21.5090    10.2920    13.2210    14.0540     2.4730   -22.3950 
  191.3750    78.9630    22.0270    14.9620    15.0140    16.5160     2.4270   -22.5140 
  191.5000    76.4980    22.4760    20.9560    18.0630    20.0950     2.3840   -22.7380 
  191.6250    77.8630    22.7510    25.9020    21.5480    23.6040     2.3640   -23.0310 
  191.7500    79.3640    22.8750    28.9920    23.8950    25.5840     2.3600   -23.3400 
  191.8750    78.9980    22.9160    30.4820    24.1860    25.3820     2.3610   -23.6280 
  192.0000    76.8250    22.9290    30.0020    22.6350    23.4250     2.3690   -23.8610 
  192.1250    75.4520    22.9190    26.5010    20.1850    20.7940     2.3820   -24.0350 
  192.2500    77.6120    22.8740    21.7820    17.8840    18.5340     2.3930   -24.1650 
  192.3750    80.4840    22.8340    18.1750    16.1530    17.0700     2.3990   -24.2520 
  192.5000    81.1410    22.9570    17.1860    15.2070    16.6430     2.4040   -24.3140 
  192.6250    80.2750    23.4140    18.7830    15.3510    17.6450     2.4020   -24.3540 
  192.7500    79.9810    23.9940    21.0070    16.5530    20.0240     2.3890   -24.3780 
  192.8750    79.4020    24.4270    23.7850    18.9090    23.8530     2.3690   -24.4060 
  193.0000    77.0220    24.6030    23.1910    22.4020    28.9980     2.3530   -24.4630 
  193.1250    75.3830    24.6180    27.6680    26.7430    34.8740     2.3430   -24.5680 
  193.2500    77.8480    24.6130    29.5710    30.9800    40.2090     2.3310   -24.6940 
  193.3750    82.5110    24.6120    29.4840    34.3660    44.1080     2.3170   -24.8490 
  193.5000    85.0520    24.6120    29.3010    36.5690    46.3740     2.3080   -25.0190 
  193.6250    82.6680    24.6120    30.1200    37.7580    47.5790     2.3030   -25.1890 
  193.7500    79.2390    24.6130    31.9930    38.7820    48.9470     2.3030   -25.3560 
  193.8750    75.6500    24.6140    35.2540    40.1660    51.1030     2.3150   -25.5060 
  194.0000    73.0470    24.6140    39.3850    42.1380    54.2000     2.3370   -25.6330 
  194.1250    72.4630    24.6090    41.9570    44.7840    58.1990     2.3470   -25.7380 
  194.2500    71.9660    24.6040    42.2190    47.9430    62.7110     2.3320   -25.8260 
  194.3750    71.3740    24.6050    42.2410    51.4640    67.3670     2.3020   -25.9000 
  194.5000    71.7850    24.6110    44.2530    55.0520    71.6700     2.2820   -25.9920 
  194.6250    72.8140    24.6120    47.9440    58.1760    74.9130     2.2800   -26.1150 
  194.7500    71.6360    24.5950    51.1820    60.3670    76.7070     2.2830   -26.2680 
  194.8750    68.7480    24.5640    53.1800    61.1630    76.5910     2.2850   -26.4330 
  195.0000    66.0150    24.5380    53.5640    60.3600    74.4520     2.2880   -26.5980 
  195.1250    64.5820    24.5310    51.9310    58.1110    70.6790     2.2940   -26.7680 
  195.2500    66.2910    24.5150    49.2780    55.3140    66.4760     2.3020   -26.9250 
  195.3750    70.4110    24.4700    47.1560    52.4950    62.5530     2.3080   -27.0560 
  195.5000    73.4170    24.4170    47.3540    50.0120    59.3210     2.3100   -27.1620 
  195.6250    72.5510    24.3890    49.5360    48.1130    56.9510     2.3090   -27.2250 
  195.7500    70.1100    24.3890    49.2330    46.6650    55.1040     2.3070   -27.2500 
  195.8750    68.1430    24.3900    45.5820    45.6300    53.7060     2.3070   -27.2450 
  196.0000    67.8020    24.3700    42.4080    45.1020    52.9090     2.3090   -27.2300 
  196.1250    69.2470    24.3340    42.8360    45.3570    53.1050     2.3130   -27.2100 
  196.2500    69.1940    24.3020    43.6660    46.4170    54.3370     2.3120   -27.2030 
  196.3750    67.7880    24.2790    43.2770    48.3390    56.6630     2.3060   -27.2210 
  196.5000    67.1720    24.2490    42.9170    51.0340    59.9380     2.2940   -27.2560 
  196.6250    67.3740    24.2190    44.2770    54.2080    63.7610     2.2840   -27.3150 
  196.7500    65.5340    24.2620    47.0200    57.2840    67.4220     2.2820   -27.4080 
  196.8750    63.1910    24.4010    50.7100    59.8690    70.4370     2.2870   -27.5330 
