~V
VERS. 2.00: Ver 2.00
~W
STRT.M 62.0000:
STOP.M 282.0000:
STEP.M 0.1250:
NULL. -999.2500:
UWI. DF32160:
~C
DEPT.M :
GR.API :
CALI.CM :
RXO.OHMM :
RI. :
RML.OHMM :
DEN.GM/CC :
SP.MV :
~A
# ...
  118.2500    71.7090    24.0550     8.0470     6.3660     7.9420     2.1510   -24.9780 
  118.3750    69.9150    24.6370     8.1900     6.4260     8.0740     2.1580   -24.8730 
  118.5000    68.7910    25.3220     8.3350     6.4900     8.1970     2.1740   -24.5150 
  118.6250    67.5800    25.4830     8.5000     6.4690     8.1510     2.2000   -23.8510 
  118.7500    67.5500    25.1410     8.5980     6.2940     7.8250     2.2280   -22.9260 
  118.8750    69.5860    24.8650     8.5150     5.9490     7.2150     2.2500   -21.7870 
  119.0000    76.1830    24.9670     8.0940     5.5170     6.5030     2.2730   -20.4970 
  119.1250    88.5690    25.0690     7.0810     5.1910     6.0440     2.3190   -19.1600 
  119.2500    98.5170    24.9610     6.0460     5.1370     6.0800     2.3880   -17.8960 
  119.3750   100.2530    24.8270     6.1560     5.4830     6.7530     2.4580   -16.7760 
  119.5000    93.5630    24.7320     8.3790     6.2870     8.0720     2.5000   -15.8470 
  119.6250    84.5460    24.6850    12.1710     7.4620     9.7640     2.4960   -15.1720 
  119.7500    80.0440    24.6860    15.1010     8.4750    10.9610     2.4570   -14.7340 
  119.8750    83.3000    24.7180    15.6820     8.7570    10.8780     2.4020   -14.4860 
  120.0000    93.2560    24.7720    13.6000     8.1010     9.4780     2.3600   -14.3650 
  120.1250   102.5570    24.9140     9.7580     6.8750     7.6150     2.3430   -14.3250 
  120.2500   106.3120    25.1310     6.5410     5.7240     6.1360     2.3330   -14.2990 
  120.3750   105.5010    25.3650     5.0270     4.8610     5.1870     2.3210   -14.2620 
  120.5000   104.3610    25.5120     4.7920     4.3010     4.6790     2.3240   -14.2150 
  120.6250   104.6910    25.4440     4.7760     4.0360     4.5300     2.3570   -14.1880 
  120.7500   103.7780    25.5070     4.4960     3.9670     4.5890     2.4000   -14.1860 
  120.8750   102.1070    25.8450     4.2400     4.0390     4.7840     2.4350   -14.2150 
  121.0000    99.9950    26.0110     4.4040     4.1970     5.0520     2.4500   -14.2840 
  121.1250    96.2630    25.4360     5.0450     4.3850     5.3120     2.4310   -14.3810 
  121.2500    92.7200    24.6620     5.5440     4.5350     5.4660     2.3820   -14.4780 
  121.3750    91.9860    24.2870     5.5430     4.6120     5.4800     2.3200   -14.5560 
  121.5000    92.9760    24.2900     5.2100     4.6380     5.4350     2.2720   -14.6040 
  121.6250    92.8240    24.3020     4.9540     4.7050     5.5160     2.2570   -14.6140 
  121.7500    93.4010    24.3010     4.8370     4.8790     5.8100     2.2780   -14.5870 
  121.8750    94.4080    24.2960     4.9850     5.1500     6.2760     2.3280   -14.5280 
  122.0000    92.9820    24.2760     5.8300     5.4280     6.7280     2.3830   -14.4460 
  122.1250    90.2300    24.2460     7.3480     5.5190     6.8260     2.4010   -14.3640 
  122.2500    91.6110    24.2280     8.0080     5.3520     6.4930     2.3770   -14.3070 
  122.3750    96.1640    24.2210     7.0390     4.9880     5.8890     2.3370   -14.2960 
  122.5000   100.4340    24.2170     5.3190     4.5740     5.2860     2.3120   -14.3310 
  122.6250   102.9510    24.2040     4.4060     4.2660     4.9290     2.3100   -14.3980 
  122.7500   104.8080    24.1600     4.3300     4.1150     4.8340     2.3120   -14.4820 
  122.8750   105.3550    24.0700     4.6080     4.1120     4.9470     2.3050   -14.5790 
  123.0000   102.2180    23.9880     4.8640     4.2090     5.1570     2.2920   -14.6810 
  123.1250    99.0700    23.9850     4.9080     4.3350     5.3380     2.2890   -14.7830 
  123.2500    99.9270    23.9980     4.8180     4.4360     5.4350     2.2930   -14.8860 
  123.3750   103.3410    23.9550     4.7290     4.5030     5.4670     2.2910   -14.9660 
  123.5000   104.8490    23.8710     4.7090     4.5480     5.4800     2.2770   -15.0050 
  123.6250   101.9720    23.8050     4.7720     4.5880     5.5220     2.2640   -14.9810 
  123.7500    99.6150    23.7460     4.8740     4.6350     5.5950     2.2660   -14.9070 
  123.8750    98.3930    23.6780     4.9520     4.6810     5.6750     2.2810   -14.7920 
  124.0000    96.0600    23.6260     4.9700     4.7110     5.7260     2.2970   -14.6510 
  124.1250    92.6680    23.5940     4.9860     4.7050     5.7210     2.3060   -14.4920 
  124.2500    92.9770    23.5570     4.9880     4.6660     5.6700     2.3160   -14.3610 
  124.3750    95.8870    23.5210     4.8740     4.6020     5.5920     2.3330   -14.3160 
  124.5000    96.7460    23.5100     4.6590     4.5290     5.5130     2.3500   -14.4030 
  124.6250    97.1130    23.5170     4.5530     4.4720     5.4670     2.3490   -14.7140 
  124.7500    96.9500    23.4420     4.6620     4.4470     5.4670     2.3250   -15.2210 
  124.8750    93.8290    23.2230     4.9560     4.4660     5.5250     2.2830   -15.9110 
  125.0000    89.3790    22.9130     5.3640     4.5450     5.6550     2.2440   -16.7390 
  125.1250    87.0050    22.6060     5.7650     4.7070     5.8890     2.2230   -17.6830 
  125.2500    83.9810    22.3390     6.0730     4.9470     6.2300     2.2110   -18.6480 
  125.3750    79.2190    22.1350     6.3410     5.2680     6.6910     2.1990   -19.5200 
  125.5000    76.7040    22.0330     6.6810     5.6610     7.2630     2.1880   -20.2110 
  125.6250    76.1690    22.0740     7.0920     6.0800     7.8630     2.1880   -20.5820 
  125.7500    75.1820    22.1600     7.4340     6.4120     8.2980     2.1940   -20.6160 
  125.8750    75.5170    22.2330     7.6340     6.5220     8.3500     2.2010   -20.3330 
  126.0000    77.5590    22.2570     7.5910     6.3100     7.8830     2.2100   -19.8090 
  126.1250    81.8290    22.2540     7.0030     5.7660     6.9570     2.2450   -19.0800 
  126.2500    89.1090    22.2340     5.9450     5.1200     5.9740     2.3010   -18.2610 
  126.3750    96.3720    22.1090     4.8520     4.5520     5.2070     2.3480   -17.4360 
  126.5000    97.4210    21.7970     4.2250     4.1760     4.7900     2.3600   -16.6540 
  126.6250    95.9090    21.3880     4.2850     4.0580     4.7830     2.3420   -15.9650 
  126.7500    99.2440    21.0960     4.5990     4.1190     5.0240     2.3240   -15.4090 
  126.8750   104.7430    20.9860     4.8020     4.2730     5.3540     2.3160   -14.9710 
  127.0000   107.9900    21.0130     4.7630     4.4080     5.5780     2.3140   -14.6210 
  127.1250   106.9980    21.1990     4.5920     4.4050     5.5020     2.3190   -14.3660 
  127.2500   104.4700    21.5800     4.4180     4.2660     5.1970     2.3370   -14.1450 
  127.3750   102.3830    22.0990     4.2540     4.0560     4.8130     2.3650   -13.9530 
  127.5000   101.7240    22.5770     4.1470     3.8590     4.5060     2.3930   -13.8100 
  127.6250    99.4440    22.9210     4.1760     3.7580     4.3970     2.4050   -13.7590 
  127.7500    91.9490    23.2460     4.2790     3.7570     4.4470     2.3980   -13.7800 
  127.8750    83.6850    23.5670     4.4130     3.8250     4.5750     2.3800   -13.8620 
  128.0000    79.9710    23.7950     4.6020     3.9060     4.6720     2.3600   -13.9930 
  128.1250    80.0030    23.9000     4.8430     3.9460     4.6520     2.3460   -14.1440 
  128.2500    79.7830    23.9830     4.9990     3.9700     4.6020     2.3410   -14.3050 
  128.3750    80.2850    24.0640     4.9590     4.0680     4.7080     2.3530   -14.4860 
  128.5000    82.4110    24.1200     4.8940     4.3680     5.1830     2.3910   -14.6940 
  128.6250    83.3370    24.1580     5.6660     5.0650     6.3120     2.4600   -14.9600 
  128.7500    81.5770    24.1930     8.0600     6.1710     8.0640     2.5380   -15.2890 
  128.8750    75.9740    24.2120    11.9200     7.5930    10.2310     2.5980   -15.7030 
  129.0000    69.0000    24.2200    15.0790     8.9860    12.1700     2.6100   -16.1920 
  129.1250    67.2430    24.2220    14.4910     9.6410    12.6820     2.5450   -16.7650 
  129.2500    70.0180    24.2170    11.5740     9.4070    11.7850     2.4350   -17.3940 
  129.3750    73.4830    24.2180     8.9290     8.6130    10.2740     2.3240   -18.0470 
