~V
VERS. 2.00: Ver 2.00
~W
STRT.M 61.0000:
STOP.M 238.0000:
STEP.M 0.1250:
NULL. -999.2500:
UWI. DF32044:
~C
DEPT.M :
DEN.GM/CC :
SP.MV :
GR.API :
RML.OHMM :
RI. :
RXO.OHMM :
CALI.CM :
~A
# ...
   94.7500     2.1690   -37.4300    63.0770     9.9460     7.5320     9.1130    23.8190 
   94.8750     2.1720   -36.8650    61.9790    10.1370     7.6620     8.8620    23.7960 
   95.0000     2.1730   -36.1020    60.5120    10.5080     7.8770     8.6840    23.9330 
   95.1250     2.1750   -35.1450    59.6500    10.8690     8.0880     8.6940    24.1920 
   95.2500     2.1830   -34.1890    59.6540    10.9160     8.1360     9.1060    24.4210 
   95.3750     2.1980   -33.0990    60.8370    10.4430     7.8990    10.5170    24.5510 
   95.5000     2.2230   -31.8300    64.0120     9.4430     7.3430    12.2370    24.5200 
   95.6250     2.2520   -30.6590    71.7870     8.1770     6.5610    10.7530    24.1190 
   95.7500     2.2770   -29.6780    82.5670     7.0970     5.8010     7.3770    23.5030 
   95.8750     2.2930   -28.7020    90.9210     6.4350     5.2280     5.1130    23.1180 
   96.0000     2.2990   -27.8870    93.3610     6.2220     4.9150     4.5430    23.2270 
   96.1250     2.2970   -27.3570    91.9010     6.3610     4.8750     4.9080    23.8240 
   96.2500     2.2930   -26.8830    89.1070     6.5830     4.9700     5.3990    24.4140 
   96.3750     2.2900   -26.5910    85.7950     6.7220     5.0970     5.8290    24.7800 
   96.5000     2.2880   -26.5010    85.2110     6.6990     5.1780     5.9300    24.9050 
   96.6250     2.2880   -26.4130    89.6180     6.5580     5.1890     5.6160    24.9410 
   96.7500     2.2920   -26.3580    92.2210     6.4690     5.1940     5.2910    24.9550 
   96.8750     2.3000   -26.4080    91.2830     6.5520     5.2600     5.2060    24.9590 
   97.0000     2.3120   -26.4160    89.7560     6.8430     5.4230     5.3360    24.9560 
   97.1250     2.3260   -26.4950    90.2710     7.2720     5.6670     5.4790    24.9600 
   97.2500     2.3360   -26.6630    89.3400     7.6330     5.8900     5.6010    24.9630 
   97.3750     2.3400   -26.7260    86.8840     7.7600     6.0000     5.8050    24.9640 
   97.5000     2.3410   -26.7460    85.6970     7.5730     5.9400     6.0580    24.9640 
   97.6250     2.3370   -26.9520    88.0900     7.1220     5.7050     5.9640    24.9620 
   97.7500     2.3300   -27.1730    91.5600     6.6610     5.4240     5.5400    24.9460 
   97.8750     2.3180   -27.3210    95.1700     6.3860     5.2160     5.1880    24.8900 
   98.0000     2.3020   -27.5570    96.7430     6.4260     5.1850     5.2110    24.7890 
   98.1250     2.2940   -27.8620    94.5180     6.8710     5.4240     5.6220    24.6720 
   98.2500     2.3050   -28.1520    89.3880     7.5790     5.8700     6.1980    24.5560 
   98.3750     2.3340   -28.4650    84.6710     8.3870     6.4280     6.8100    24.4600 
   98.5000     2.3660   -28.9240    82.8450     9.0900     6.9620     7.4670    24.4130 
   98.6250     2.3730   -29.4160    80.8120     9.4440     7.3050     8.0260    24.3540 
   98.7500     2.3470   -29.8490    76.7430     9.4410     7.4170     8.1110    24.2180 
   98.8750     2.3010   -30.2410    73.3550     9.1790     7.3290     7.6870    24.0360 
   99.0000     2.2550   -30.5660    73.7210     8.8260     7.1280     7.1690    23.8960 
   99.1250     2.2310   -30.7510    77.4730     8.5380     6.9080     6.9220    23.8010 
   99.2500     2.2290   -30.8870    80.4890     8.3550     6.7260     6.7340    23.6920 
   99.3750     2.2360   -31.1550    82.0510     8.2480     6.5850     6.4610    23.6230 
   99.5000     2.2420   -31.4700    83.1620     8.1650     6.4630     6.2510    23.6440 
   99.6250     2.2390   -31.6370    82.5380     8.0690     6.3440     6.2890    23.8390 
   99.7500     2.2320   -31.8660    81.2270     7.9790     6.2330     6.4650    24.1690 
   99.8750     2.2240   -32.2230    80.4270     7.9430     6.1630     6.5160    24.4470 
  100.0000     2.2180   -32.6420    80.2830     8.0140     6.1720     6.3880    24.5670 
  100.1250     2.2100   -33.2690    80.6810     8.2630     6.3110     6.4220    24.5830 
  100.2500     2.1990   -34.0510    80.9110     8.6700     6.5660     6.8540    24.5830 
  100.3750     2.1870   -34.7290    80.3390     9.1990     6.9120     7.5990    24.5940 
  100.5000     2.1770   -35.2970    77.2830     9.7790     7.3010     8.3620    24.6930 
  100.6250     2.1700   -35.9800    71.3200    10.3030     7.6670     8.8280    24.9650 
  100.7500     2.1620   -36.5970    66.3510    10.7020     7.9660     9.0090    25.2690 
  100.8750     2.1530   -37.0850    64.6070    10.9560     8.1860     9.0020    25.3650 
  101.0000     2.1420   -37.4630    65.6890    11.0900     8.3370     8.9250    25.2280 
  101.1250     2.1340   -37.6940    67.0640    11.1390     8.4290     8.9350    24.9370 
  101.2500     2.1330   -37.7680    67.0160    11.1380     8.4830     9.0850    24.5810 
  101.3750     2.1410   -37.8020    65.5780    11.0880     8.5000     9.3440    24.2930 
  101.5000     2.1570   -37.8780    64.6480    10.9870     8.4820     9.6240    24.1340 
  101.6250     2.1760   -37.9670    66.4820    10.8440     8.4230     9.7800    24.1370 
  101.7500     2.1880   -37.9940    67.3540    10.7010     8.3370     9.7870    24.1980 
  101.8750     2.1870   -38.0630    65.0270    10.5860     8.2370     9.7280    24.3320 
  102.0000     2.1710   -38.2630    61.5240    10.5070     8.1390     9.6750    24.5500 
  102.1250     2.1470   -38.3910    61.4860    10.4520     8.0620     9.6020    24.8270 
  102.2500     2.1230   -38.4860    63.4180    10.3960     8.0190     9.4810    25.0290 
  102.3750     2.1080   -38.6760    64.0520    10.3310     8.0170     9.3640    25.1190 
  102.5000     2.1050   -38.8120    63.3870    10.2700     8.0570     9.3320    25.0460 
  102.6250     2.1130   -38.7330    62.5450    10.2360     8.1300     9.3940    24.8160 
  102.7500     2.1240   -38.7050    61.6000    10.2290     8.2090     9.4760    24.5910 
  102.8750     2.1340   -38.7600    60.5160    10.2380     8.2710     9.5460    24.4510 
  103.0000     2.1420   -38.6660    60.4970    10.2440     8.2950     9.6220    24.4050 
  103.1250     2.1470   -38.5790    63.1500    10.2220     8.2680     9.6940    24.3980 
  103.2500     2.1490   -38.5740    65.6130    10.1600     8.2050     9.6690    24.4240 
  103.3750     2.1500   -38.4180    65.3010    10.0470     8.1170     9.5380    24.5250 
  103.5000     2.1500   -38.2020    63.5400     9.8670     8.0120     9.4010    24.7560 
  103.6250     2.1500   -38.1210    63.6940     9.5990     7.8920     9.3460    24.9770 
  103.7500     2.1470   -37.9270    65.7450     9.2930     7.7710     9.3670    25.0720 
  103.8750     2.1400   -37.5180    67.7610     9.0680     7.7040     9.4970    25.0850 
  104.0000     2.1300   -37.0970    69.3640     9.1460     7.8100     9.7070    25.0720 
  104.1250     2.1280   -36.5860    69.9750     9.9000     8.3290     9.9160    25.0250 
  104.2500     2.1520   -35.8580    68.1530    11.3090     9.2950    10.1440    24.9160 
  104.3750     2.2140   -34.9970    65.3190    13.0880    10.5820    10.7550    24.7420 
  104.5000     2.3080   -34.0330    65.9780    14.6360    11.8350    12.9160    24.4700 
  104.6250     2.4010   -32.9310    70.7840    14.9530    12.3920    18.7550    23.8360 
  104.7500     2.4490   -31.7750    74.0110    13.7640    11.9420    23.9580    22.9060 
  104.8750     2.4360   -30.6140    75.1760    11.4450    10.5600    19.5210    21.9630 
  105.0000     2.3810   -29.4860    76.7510     8.9170     8.7330    11.0580    21.3650 
  105.1250     2.3230   -28.4550    80.5200     7.1100     7.1240     7.0450    21.2670 
  105.2500     2.2890   -27.5700    85.0230     6.0850     6.0050     5.7260    21.4170 
  105.3750     2.2850   -26.9230    89.8690     5.6360     5.3570     5.4200    21.9310 
  105.5000     2.3020   -26.5140    94.8690     5.4920     5.0420     5.2480    22.8470 
  105.6250     2.3250   -26.1860    96.8550     5.4100     4.9170     5.1290    23.6670 
  105.7500     2.3410   -26.0740    94.6240     5.2830     4.8470     5.1260    24.0400 
  105.8750     2.3430   -26.3060    91.0830     5.1850     4.8340     5.1010    24.1260 
