~V
VERS. 2.00: Ver 2.00
~W
STRT.M 62.0000:
STOP.M 243.0000:
STEP.M 0.1250:
NULL. -999.2500:
UWI. DF32072:
~C
DEPT.M :
SP.MV :
GR.API :
CALI.CM :
RXO.OHMM :
RI. :
RML.OHMM :
DEN.GM/CC :
~A
   62.0000     7.5210    49.2700    24.7070     0.9620    -0.0270     0.8710     2.0490 
   62.1250     6.6960    49.4090    24.8010     0.9900    -0.0540     0.4420     2.1100 
   62.2500     5.3070    48.6890    24.9420     1.0330    -0.0730     0.1900     2.2040 
   62.3750     3.2410    48.3200    24.8780     1.0800    -0.0840     0.0680     2.2890 
   62.5000     0.5060    49.5880    24.3110     1.2270    -0.0830     0.0310     2.3370 
   62.6250    -2.8460    52.6350    23.0820     1.8890    -0.0460     0.0760     2.3480 
   62.7500    -6.6000    56.2450    21.8940     3.3880     0.0690     0.2190     2.3260 
   62.8750   -10.6380    60.6730    21.2410     5.3440     0.3400     0.5400     2.2680 
   63.0000   -14.7800    66.9480    21.1370     6.8250     0.8630     1.1700     2.1940 
   63.1250   -18.7530    73.3760    21.1900     7.3310     1.7250     2.2020     2.1500 
   63.2500   -22.2380    77.4120    21.1270     7.4150     2.7090     3.1760     2.1420 
   63.3750   -25.1140    79.3200    21.0400     7.4590     3.5730     3.7060     2.1470 
   63.5000   -27.4130    79.7550    21.0080     7.5240     4.1960     3.8870     2.1460 
   63.6250   -29.0450    77.7750    21.0530     7.5810     4.5910     3.9990     2.1440 
   63.7500   -30.2560    73.8240    21.1930     7.6120     4.8760     4.1580     2.1460 
   63.8750   -31.1330    70.3880    21.3920     7.6660     5.0920     4.3340     2.1450 
   64.0000   -31.7810    70.1970    21.5590     7.7570     5.2550     4.4810     2.1370 
   64.1250   -32.2480    72.5340    21.6180     7.8470     5.3630     4.5700     2.1260 
   64.2500   -32.5890    74.0390    21.6290     7.8350     5.4300     4.6290     2.1200 
   64.3750   -32.7800    72.7940    21.6290     7.7180     5.4710     4.6940     2.1220 
   64.5000   -32.8240    70.3330    21.6290     7.5520     5.5040     4.7930     2.1260 
   64.6250   -32.7110    68.0130    21.6340     7.4460     5.5380     4.9260     2.1340 
   64.7500   -32.4000    66.8590    21.6840     7.4080     5.5480     5.0360     2.1480 
   64.8750   -31.8470    66.9560    21.8410     7.3720     5.5020     5.0690     2.1690 
   65.0000   -31.0670    67.8770    22.1130     7.3490     5.3860     5.0080     2.1930 
   65.1250   -30.0820    72.4490    22.4420     7.2130     5.2190     4.8810     2.2290 
   65.2500   -29.0790    80.3150    22.6130     6.7430     5.0490     4.7540     2.2820 
   65.3750   -28.1300    88.5200    22.4920     6.1150     4.9060     4.6610     2.3440 
   65.5000   -27.2300    95.8140    22.4480     5.8220     4.8000     4.6140     2.3830 
   65.6250   -26.5210   100.8630    22.2260     5.8960     4.7430     4.6150     2.3720 
   65.7500   -26.0500   103.0810    22.1730     5.7940     4.7350     4.6520     2.3310 
   65.8750   -25.8210   102.3530    22.0770     5.5010     4.7830     4.7230     2.2890 
   66.0000   -25.7790   100.1250    22.1320     5.3760     4.8860     4.8200     2.2570 
   66.1250   -25.9190    94.6340    21.9370     5.6220     5.0540     4.9560     2.2340 
   66.2500   -26.1420    87.4710    21.9930     6.0840     5.2570     5.1190     2.2210 
   66.3750   -26.3640    85.9800    22.0670     6.3560     5.4400     5.2640     2.2190 
   66.5000   -26.4920    91.3260    22.2060     6.5230     5.5250     5.3190     2.2280 
   66.6250   -26.4240    93.8490    22.2020     6.7470     5.4290     5.2090     2.2430 
   66.7500   -26.2480    92.4370    22.3150     6.8470     5.1920     4.9860     2.2670 
   66.8750   -26.0870    94.0870    22.4260     6.2380     4.8920     4.7330     2.3000 
   67.0000   -25.9680   100.8510    22.6380     5.2150     4.6280     4.5400     2.3270 
   67.1250   -25.8910   106.7810    22.6440     4.8480     4.4940     4.4830     2.3230 
   67.2500   -25.8550   108.6370    22.3230     4.9170     4.4950     4.5510     2.2920 
   67.3750   -25.8870   107.8640    22.0850     5.2180     4.6130     4.7200     2.2570 
   67.5000   -26.0410   105.2460    22.1140     5.5050     4.8050     4.9430     2.2370 
   67.6250   -26.3410   100.6200    22.2350     5.5450     5.0000     5.1450     2.2350 
   67.7500   -26.7270    96.9240    22.3490     5.4510     5.1470     5.2770     2.2390 
   67.8750   -27.1540    98.1300    22.3870     5.4390     5.2450     5.3440     2.2420 
   68.0000   -27.6700   103.6430    22.3490     5.5510     5.3220     5.3780     2.2380 
   68.1250   -28.2190   105.6340    21.9500     5.7750     5.4300     5.4410     2.2230 
   68.2500   -28.7710   101.4550    21.4950     6.0280     5.6070     5.5860     2.2060 
   68.3750   -29.2720    96.1190    21.1120     6.2450     5.8630     5.8350     2.1930 
   68.5000   -29.6520    92.3800    21.0390     6.3770     6.1770     6.1680     2.1860 
   68.6250   -29.9430    87.7000    21.1570     6.5600     6.4680     6.5120     2.1770 
   68.7500   -30.0790    81.5030    21.2340     6.7520     6.6310     6.7520     2.1700 
   68.8750   -30.0270    76.3850    21.2130     6.7780     6.5870     6.7970     2.1780 
   69.0000   -29.8170    76.0360    21.0310     6.4100     6.3190     6.6230     2.2060 
   69.1250   -29.4770    83.5590    20.9470     5.7640     5.8720     6.2790     2.2490 
   69.2500   -29.1210    94.6210    20.9720     5.1740     5.3760     5.8810     2.2850 
   69.3750   -28.7940   104.7900    21.1870     4.8430     4.8980     5.4730     2.3050 
   69.5000   -28.5600   113.1900    21.5470     4.7220     4.4970     5.1080     2.3100 
   69.6250   -28.5040   120.4630    21.8750     4.7090     4.2940     4.9400     2.3110 
   69.7500   -28.6490   123.5540    22.1550     4.7450     4.3710     5.0970     2.3230 
   69.8750   -28.9540   119.5910    22.3920     5.0020     4.8080     5.6830     2.3560 
   70.0000   -29.4450   109.7640    22.5210     5.9940     5.6400     6.7740     2.4110 
   70.1250   -30.1200    99.1770    22.5400     8.7520     6.8650     8.4220     2.4530 
   70.2500   -30.8750    89.8140    22.5380    11.4190     8.1740    10.1900     2.4370 
   70.3750   -31.6990    81.5920    22.6420    11.7340     9.1740    11.4350     2.3660 
   70.5000   -32.5430    73.4900    22.9200     9.9980     9.5430    11.6820     2.2850 
   70.6250   -33.3300    65.8930    23.4330     8.7400     9.2210    11.0360     2.2370 
   70.7500   -34.0260    63.1100    23.7340     8.6490     8.6540    10.2470     2.2070 
   70.8750   -34.6620    65.8500    23.7460     8.7550     8.1320     9.6860     2.1800 
   71.0000   -35.1180    69.6840    23.6360     8.6360     7.7970     9.4600     2.1570 
   71.1250   -35.4470    69.1760    23.9380     8.4940     7.6760     9.5110     2.1410 
   71.2500   -35.6420    66.0200    24.3060     8.4180     7.6580     9.6500     2.1250 
   71.3750   -35.7370    64.4900    24.8190     8.2910     7.6930     9.8030     2.1080 
   71.5000   -35.7640    64.9750    25.5040     8.0440     7.7620     9.9510     2.0980 
   71.6250   -35.7600    66.6350    26.1380     7.8540     7.8480    10.0760     2.1000 
   71.7500   -35.7150    67.1740    25.9320     7.9910     7.9230    10.1510     2.1080 
   71.8750   -35.6440    65.8590    24.7590     8.4420     7.9650    10.1520     2.1200 
   72.0000   -35.5810    64.1630    23.7060     8.9320     7.9620    10.0670     2.1350 
   72.1250   -35.5000    62.6180    23.6810     9.1970     7.9070     9.9040     2.1540 
   72.2500   -35.3740    61.9650    23.7250     9.2420     7.8240     9.7200     2.1700 
   72.3750   -35.1920    63.0810    23.4890     9.1510     7.7480     9.5770     2.1770 
   72.5000   -34.9900    64.4470    23.0490     8.9620     7.7360     9.5590     2.1700 
   72.6250   -34.6180    65.3510    22.8430     8.7370     7.8650     9.7700     2.1530 
   72.7500   -34.1540    66.8930    22.7880     8.6340     8.0980    10.1500     2.1430 
   72.8750   -33.6350    69.6970    22.8710     8.9900     8.3190    10.5380     2.1480 
   73.0000   -33.0320    72.4130    23.1320    10.3050     8.3580    10.6760     2.1660 
   73.1250   -32.4250    75.3060    23.6590    12.0760     8.0110    10.2370     2.1880 
