~V
VERS. 2.00: Ver 2.00
~W
STRT.M 61.0000:
STOP.M 325.0000:
STEP.M 0.1250:
NULL. -999.2500:
UWI. DF320:
~C
DEPT.M :
GR.API :
RML.OHMM :
RI. :
RXO.OHMM :
CALI.CM :
SP.MV :
DEN.GM/CC :
AC.US/MT :
~A
# ...
  141.0000   104.4630     6.3370     5.8990     5.8260    24.4310   -11.1390     2.3110   398.4720 
  141.1250   101.9670     6.3600     5.8990     5.9120    24.2680   -11.6290     2.3000   407.5970 
  141.2500    96.6170     6.5220     5.9720     6.1060    24.1340   -12.2130     2.2930   412.3330 
  141.3750    89.2160     6.8320     6.1510     6.4530    24.0490   -12.8250     2.2860   413.1870 
  141.5000    82.7170     7.2290     6.4070     6.9680    23.9660   -13.3730     2.2750   412.8710 
  141.6250    78.8350     7.5420     6.6410     7.6400    23.8170   -13.7790     2.2610   413.2150 
  141.7500    76.8420     7.6450     6.7330     8.2300    23.6380   -14.0110     2.2480   414.1680 
  141.8750    79.2910     7.5110     6.6470     8.3660    23.5140   -14.0910     2.2410   415.3270 
  142.0000    86.4170     7.2420     6.4500     7.8680    23.4770   -14.0690     2.2370   416.5960 
  142.1250    92.1100     7.0700     6.3270     7.0070    23.5070   -13.9390     2.2320   417.6250 
  142.2500    94.4210     7.0740     6.3380     6.3660    23.5560   -13.6720     2.2270   416.4490 
  142.3750    93.3850     7.2740     6.5030     6.3060    23.5850   -13.3130     2.2290   409.3030 
  142.5000    90.2830     7.6150     6.7620     6.5660    23.5450   -12.9150     2.2460   392.6080 
  142.6250    87.9110     7.8550     6.9630     6.7140    23.3970   -12.5290     2.2760   369.4360 
  142.7500    88.4200     7.9190     7.0600     6.5860    23.2410   -12.2010     2.3020   354.0960 
  142.8750    91.1640     7.7940     7.0000     6.2620    23.2120   -11.9050     2.3090   357.4240 
  143.0000    92.2810     7.5160     6.7800     6.0120    23.4070   -11.6090     2.2970   378.6270 
  143.1250    93.7140     7.1350     6.4290     5.8650    23.6650   -11.2820     2.2760   403.4010 
  143.2500    98.0710     6.7270     6.0390     5.7110    23.8590   -10.9830     2.2650   418.7190 
  143.3750   102.4510     6.3300     5.6650     5.5010    23.9650   -10.7440     2.2680   424.7330 
  143.5000   103.8430     5.9790     5.3460     5.2990    24.0500   -10.5710     2.2820   427.3250 
  143.6250   104.0500     5.7550     5.1390     5.2880    24.1370   -10.4830     2.2980   430.6040 
  143.7500   104.1490     5.7460     5.0910     5.4570    24.1710   -10.4680     2.3110   433.4070 
  143.8750    99.6880     6.0380     5.2760     5.8690    24.1180   -10.5440     2.3140   433.9890 
  144.0000    90.1760     6.6340     5.7300     6.6550    24.0280   -10.7180     2.3060   430.3170 
  144.1250    82.6280     7.3910     6.4040     8.3970    23.9800   -10.9850     2.2880   418.4820 
  144.2500    79.4160     7.9940     7.0590    10.6300    23.9680   -11.2270     2.2690   397.8060 
  144.3750    76.9600     8.2150     7.4680    12.6550    23.9350   -11.3880     2.2550   371.0450 
  144.5000    73.0630     7.9780     7.4810    13.8920    23.7890   -11.4870     2.2500   348.3720 
  144.6250    72.4040     7.4070     7.0820    11.7130    23.5170   -11.5950     2.2510   348.5240 
  144.7500    76.7040     6.8360     6.5460     8.1710    23.2720   -11.7520     2.2540   372.0700 
  144.8750    81.6910     6.4370     6.0650     6.0690    23.1230   -11.9280     2.2560   405.4420 
  145.0000    82.9460     6.2580     5.7490     5.5810    23.0470   -12.0850     2.2560   430.8580 
  145.1250    82.3800     6.2940     5.6600     5.6520    23.0010   -12.1960     2.2560   438.6460 
  145.2500    82.4800     6.4410     5.7390     5.6960    22.9770   -12.3500     2.2570   437.9130 
  145.3750    82.5100     6.6090     5.9240     5.7150    22.9730   -12.5730     2.2580   435.8040 
  145.5000    81.7680     6.7170     6.1300     5.7240    22.9830   -12.8170     2.2560   434.5900 
  145.6250    80.4750     6.7120     6.2630     5.6980    23.0030   -12.9590     2.2550   433.4640 
  145.7500    79.4290     6.6460     6.3000     5.6660    23.0260   -12.9490     2.2580   432.0570 
  145.8750    79.6620     6.5690     6.2540     5.5650    23.0650   -12.8330     2.2660   431.4240 
  146.0000    82.0130     6.4970     6.1430     5.3480    23.1300   -12.6950     2.2780   432.6280 
  146.1250    83.5610     6.3780     5.9550     5.1690    23.2300   -12.6170     2.2910   435.3950 
  146.2500    83.3590     6.1630     5.6860     5.1540    23.3680   -12.5640     2.3020   437.6680 
  146.3750    83.4740     5.8540     5.3480     5.1640    23.5520   -12.5060     2.3100   438.7520 
  146.5000    84.9790     5.5190     4.9920     5.0430    23.7600   -12.4760     2.3170   439.6870 
  146.6250    87.7180     5.2730     4.7180     4.8350    23.9520   -12.5960     2.3200   441.7090 
  146.7500    91.5020     5.1680     4.5750     4.7610    24.0410   -12.9060     2.3190   442.4940 
  146.8750    93.6130     5.2180     4.5830     4.9860    23.9870   -13.4120     2.3150   437.4730 
  147.0000    91.7450     5.4300     4.7490     5.4670    23.8080   -14.0380     2.3150   423.0460 
  147.1250    87.5100     5.8520     5.1100     6.1080    23.5790   -14.7140     2.3250   399.8270 
  147.2500    82.3070     6.4490     5.6350     6.8600    23.4210   -15.4300     2.3430   377.5490 
  147.3750    76.1980     7.1640     6.2820     8.0000    23.3990   -16.2280     2.3610   363.5960 
  147.5000    70.7200     7.8930     6.9650     9.5300    23.4820   -17.1080     2.3710   358.8340 
  147.6250    69.1560     8.4700     7.5370    11.2000    23.5880   -18.0070     2.3600   359.5040 
  147.7500    69.4890     8.8280     7.9150    12.2070    23.6470   -18.8660     2.3310   363.4100 
  147.8750    69.5740     8.9670     8.0760    11.5880    23.6390   -19.6010     2.2900   373.9730 
  148.0000    70.7270     8.9590     8.0680    10.1020    23.5870   -20.2150     2.2460   391.7160 
  148.1250    71.3420     8.8640     7.9580     9.5490    23.5350   -20.7430     2.2100   409.2760 
  148.2500    71.0080     8.7580     7.8300     9.5350    23.5080   -21.2160     2.1870   419.7830 
  148.3750    70.6100     8.6820     7.7240     9.6210    23.4860   -21.5610     2.1770   423.6440 
  148.5000    69.8950     8.6360     7.6620     9.6190    23.4520   -21.7470     2.1770   424.6710 
  148.6250    69.7840     8.6060     7.6450     9.5320    23.3950   -21.7910     2.1860   424.8300 
  148.7500    71.6870     8.6230     7.6490     9.5120    23.3360   -21.7560     2.1980   424.0140 
  148.8750    72.9390     8.6540     7.6590     9.5550    23.2890   -21.7120     2.2100   422.8310 
  149.0000    69.7400     8.7050     7.6740     9.6080    23.2810   -21.6980     2.2180   422.0130 
  149.1250    66.6780     8.7500     7.7000     9.6580    23.3300   -21.7280     2.2200   421.8230 
  149.2500    69.0560     8.7870     7.7440     9.7730    23.4010   -21.7560     2.2190   421.7760 
  149.3750    72.8440     8.8580     7.8040    10.0060    23.4840   -21.8020     2.2160   421.5390 
  149.5000    73.1370     8.9830     7.8740    10.3250    23.5560   -21.8930     2.2120   420.9760 
  149.6250    70.5390     9.1340     7.9500    10.6060    23.5710   -22.0210     2.2070   420.2290 
  149.7500    68.7010     9.2060     8.0290    10.8390    23.5450   -22.1740     2.2030   419.6800 
  149.8750    68.6260     9.2970     8.1160    11.0110    23.5200   -22.3080     2.2000   419.4040 
  150.0000    69.0350     9.4130     8.2140    11.1470    23.5110   -22.3750     2.1980   419.2030 
  150.1250    67.9690     9.5570     8.3310    11.2430    23.5150   -22.3110     2.1960   418.7840 
  150.2500    67.9710     9.7120     8.4620    11.3090    23.5240   -22.2050     2.1930   418.2640 
  150.3750    69.9920     9.8480     8.5920    11.3680    23.5420   -22.0790     2.1890   417.9620 
  150.5000    69.5990     9.9200     8.6920    11.4380    23.5690   -21.8810     2.1860   417.9370 
  150.6250    63.1450     9.8540     8.7080    11.4820    23.5930   -21.5360     2.1880   417.8130 
  150.7500    58.7760     9.6500     8.6170    11.4110    23.5790   -21.0540     2.1940   417.6450 
  150.8750    58.6660     9.3380     8.4220    11.1230    23.5340   -20.4760     2.2000   418.4680 
