~V
VERS. 2.00: Ver 2.00
~W
STRT.M 59.0000:
STOP.M 261.0000:
STEP.M 0.1250:
NULL. -999.2500:
UWI. DF32116:
~C
DEPT.M :
SP.MV :
GR.API :
CALI.CM :
RXO.OHMM :
RI. :
RML.OHMM :
DEN.GM/CC :
~A
# ...
  227.7500   -25.0750    54.5770    25.1580   110.5470    90.7550    90.5150     2.2380 
  227.8750   -24.9290    54.9970    25.1280   107.8330    88.4490    88.6980     2.2440 
  228.0000   -24.7600    57.1400    25.1040   106.0010    86.8470    87.6910     2.2570 
  228.1250   -24.5760    60.0220    25.1030   103.3780    86.3480    87.8220     2.2650 
  228.2500   -24.3940    59.7720    25.1230    97.4360    86.7580    88.8290     2.2630 
  228.3750   -24.2350    57.9010    25.1360    91.3890    87.6540    90.2410     2.2600 
  228.5000   -24.1060    59.9870    25.1160    93.6630    88.4790    91.4410     2.2700 
  228.6250   -24.0360    65.8080    25.0620   106.6100    88.8040    91.8890     2.3000 
  228.7500   -24.0140    69.8160    24.9880   113.5030    88.7990    91.8280     2.3330 
  228.8750   -24.0360    72.3040    24.9060   106.1750    88.9030    91.8410     2.3550 
  229.0000   -24.0970    74.6550    24.8650    93.7010    89.5760    92.4910     2.3640 
  229.1250   -24.1910    76.5660    24.9410    91.7340    90.6930    93.5630     2.3740 
  229.2500   -24.2890    76.0190    25.0690    99.0290    90.8340    93.3710     2.3950 
  229.3750   -24.3810    74.6620    25.1150   108.7450    88.3380    90.0350     2.4160 
  229.5000   -24.4630    74.5050    25.0010   113.7710    82.3330    82.8200     2.4210 
  229.6250   -24.5140    74.8000    24.8020   106.2550    73.4260    73.0050     2.4050 
  229.7500   -24.5410    74.9900    24.6740    87.3380    64.4010    63.7500     2.3930 
  229.8750   -24.5310    73.6540    24.6450    64.1510    57.0520    56.6750     2.4000 
  230.0000   -24.4720    70.0560    24.6710    46.3080    52.0970    52.1490     2.4180 
  230.1250   -24.3550    68.8500    24.7420    39.0320    49.5310    49.9180     2.4240 
  230.2500   -24.1990    72.2380    24.8410    37.8950    48.1950    48.7750     2.4170 
  230.3750   -24.0060    76.0370    24.9020    40.1520    47.4570    48.0840     2.4020 
  230.5000   -23.7840    75.1460    24.8810    44.5550    46.9260    47.4930     2.3800 
  230.6250   -23.5380    72.8670    24.8240    49.0700    46.5160    47.0100     2.3490 
  230.7500   -23.2400    74.7610    24.7890    51.7060    46.3610    46.8600     2.3260 
  230.8750   -22.9020    79.4260    24.7670    54.1850    46.6190    47.2240     2.3270 
  231.0000   -22.5550    82.9780    24.7710    59.4320    47.2910    48.0830     2.3520 
  231.1250   -22.1980    81.7950    24.8400    64.8180    48.1520    49.1660     2.3890 
  231.2500   -21.8270    76.9060    24.9390    65.9850    48.7960    50.0280     2.4230 
  231.3750   -21.4380    71.9170    25.0100    64.9700    48.9760    50.4160     2.4460 
  231.5000   -21.0270    69.1840    25.0110    65.2830    48.6510    50.3080     2.4590 
  231.6250   -20.5900    67.4120    24.9450    63.7520    47.9280    49.8540     2.4650 
  231.7500   -20.1320    66.3490    24.8900    58.9950    47.1400    49.3940     2.4660 
  231.8750   -19.6470    66.3720    24.8630    55.9060    46.4910    49.0980     2.4550 
  232.0000   -19.1190    68.1020    24.8160    56.9620    46.0920    49.0470     2.4300 
  232.1250   -18.5470    71.2530    24.7030    56.1890    46.2060    49.5580     2.4110 
  232.2500   -17.9430    72.3830    24.5870    51.5510    47.2450    51.1430     2.4150 
  232.3750   -17.3130    68.1150    24.5210    48.4570    49.8540    54.5060     2.4430 
  232.5000   -16.6740    60.7760    24.4950    52.3140    54.4550    60.0300     2.4850 
  232.6250   -16.0390    56.8940    24.4850    66.5110    60.0050    66.2860     2.5310 
  232.7500   -15.4370    56.3260    24.4610    89.4290    62.5450    68.1930     2.5660 
  232.8750   -14.8830    55.7960    24.4140   109.4250    58.5330    61.6650     2.5780 
  233.0000   -14.3850    53.3000    24.3720   101.6060    48.5560    49.0460     2.5690 
  233.1250   -13.9570    50.5260    24.3640    62.7920    37.4520    37.2120     2.5590 
  233.2500   -13.6000    48.0180    24.3750    29.3940    28.9530    29.0410     2.5610 
  233.3750   -13.3190    45.0380    24.3960    16.0950    23.4190    24.0110     2.5730 
  233.5000   -13.1020    41.4980    24.4190    17.7610    19.9070    20.7980     2.5910 
  233.6250   -12.9200    41.8590    24.4290    26.9330    17.1800    18.0400     2.6070 
  233.7500   -12.7430    47.9830    24.4230    28.7240    14.4000    14.9480     2.6060 
  233.8750   -12.5550    56.4600    24.4080    20.5100    11.6560    11.7210     2.5830 
  234.0000   -12.3410    63.6910    24.3840    11.3220     9.2720     8.8910     2.5470 
  234.1250   -12.0990    68.0420    24.3460     8.3620     7.5670     6.9750     2.5010 
  234.2500   -11.8310    69.5960    24.3200     7.9150     6.4560     5.8640     2.4520 
  234.3750   -11.5260    68.9180    24.3330     7.9230     5.8390     5.3700     2.4150 
  234.5000   -11.1890    67.0620    24.3670     8.1280     5.5740     5.2530     2.4040 
  234.6250   -10.8510    65.8550    24.3850     8.8800     5.5210     5.3070     2.4230 
  234.7500   -10.5380    63.7860    24.3890     9.1260     5.5220     5.3710     2.4470 
  234.8750   -10.2610    60.3220    24.4020     8.0170     5.5190     5.4010     2.4580 
  235.0000   -10.0280    59.4660    24.4340     6.1850     5.4890     5.3830     2.4480 
  235.1250    -9.8390    62.3980    24.4660     5.1030     5.4240     5.3120     2.4240 
  235.2500    -9.6910    65.1280    24.4770     4.9140     5.3390     5.2160     2.4040 
  235.3750    -9.5950    65.6370    24.4630     5.1530     5.2460     5.1180     2.3960 
  235.5000    -9.5440    65.1120    24.4330     5.4070     5.1520     5.0370     2.3990 
  235.6250    -9.5360    62.6620    24.4080     5.5340     5.0650     4.9870     2.4050 
  235.7500    -9.5440    56.4510    24.3950     5.7580     4.9870     4.9650     2.4030 
  235.8750    -9.5640    49.7760    24.3930     6.1520     4.9160     4.9640     2.3950 
  236.0000    -9.6030    48.1660    24.3940     6.4400     4.8530     4.9750     2.3860 
  236.1250    -9.6590    53.8230    24.3950     6.2900     4.8010     4.9930     2.3750 
  236.2500    -9.7200    59.9820    24.3930     5.9910     4.7680     5.0220     2.3590 
  236.3750    -9.7850    62.0530    24.4040     5.7940     4.7660     5.0820     2.3400 
  236.5000    -9.8620    60.0620    24.4320     5.6320     4.8110     5.1970     2.3300 
  236.6250    -9.9480    58.2600    24.4550     5.4140     4.9210     5.4020     2.3420 
  236.7500   -10.0450    58.9460    24.4570     5.3840     5.0840     5.6800     2.3610 
  236.8750   -10.1480    60.4830    24.4510     5.8260     5.2840     6.0040     2.3760 
  237.0000   -10.2470    61.7850    24.4590     6.7970     5.4990     6.3340     2.3840 
  237.1250   -10.3360    63.0420    24.4740     7.8830     5.6920     6.6120     2.3950 
  237.2500   -10.4060    63.4230    24.4810     8.3950     5.8330     6.8060     2.4040 
  237.3750   -10.4390    61.3440    24.4810     8.1910     5.9020     6.8930     2.4090 
  237.5000   -10.4180    58.5390    24.4820     7.7190     5.8890     6.8630     2.4150 
  237.6250   -10.3300    60.2220    24.4670     7.4060     5.7890     6.7110     2.4280 
  237.7500   -10.1860    62.4490    24.4310     7.0740     5.6350     6.4940     2.4390 
  237.8750    -9.9800    61.8120    24.3920     6.5740     5.4530     6.2560     2.4380 
  238.0000    -9.7150    60.4470    24.3750     6.0450     5.2680     6.0340     2.4280 
  238.1250    -9.3850    62.8500    24.3820     5.7280     5.1040     5.8610     2.4220 
  238.2500    -9.0130    65.1520    24.3910     5.5710     4.9720     5.7340     2.4200 
  238.3750    -8.6150    63.7490    24.4040     5.4690     4.8770     5.6500     2.4180 
  238.5000    -8.2120    61.0250    24.4280     5.3710     4.8160     5.6020     2.4100 
  238.6250    -7.8270    59.8280    24.4560     5.2830     4.7900     5.5820     2.3980 
  238.7500    -7.4780    60.4690    24.4720     5.1790     4.7880     5.5770     2.3870 
  238.8750    -7.1840    61.8090    24.4740     5.0480     4.8050     5.5920     2.3760 
