~V
VERS. 2.00: Ver 2.00
~W
STRT.M 62.0000:
STOP.M 272.0000:
STEP.M 0.1250:
NULL. -999.2500:
UWI. DF32144:
~C
DEPT.M :
SP.MV :
DEN.GM/CC :
GR.API :
RML.OHMM :
RI. :
RXO.OHMM :
CALI.CM :
~A
# ...
  140.7500   -27.3870     2.1920    71.8750     8.4540     7.7760    10.5080    25.5360 
  140.8750   -27.0250     2.2200    75.7280     7.8120     7.1750    10.2630    25.5090 
  141.0000   -26.6930     2.2490    78.5290     7.3660     6.7480     8.1870    25.4640 
  141.1250   -26.5050     2.2620    81.3570     7.2760     6.6100     6.6150    25.4410 
  141.2500   -26.4690     2.2500    82.9190     7.5400     6.7560     7.0520    25.4320 
  141.3750   -26.5910     2.2210    79.3650     8.0950     7.1620     9.4010    25.4290 
  141.5000   -26.7810     2.1880    72.7280     8.7910     7.7380    11.4190    25.4370 
  141.6250   -26.9980     2.1640    68.5100     9.3840     8.3120    11.9640    25.5000 
  141.7500   -27.2890     2.1500    66.7710     9.7310     8.7170    11.3940    25.6570 
  141.8750   -27.5900     2.1450    64.5000     9.8450     8.9050    10.8660    25.8440 
  142.0000   -27.8040     2.1440    61.9780     9.8460     8.9330    11.9130    25.9260 
  142.1250   -27.8490     2.1470    61.2460     9.8520     8.8890    14.3900    25.6240 
  142.2500   -27.7600     2.1540    61.4350     9.8800     8.8280    14.8750    25.1830 
  142.3750   -27.5380     2.1640    61.8730     9.8770     8.7400    12.3160    24.8130 
  142.5000   -27.2620     2.1750    63.7010     9.7880     8.6030    10.8020    24.6430 
  142.6250   -26.9910     2.1830    66.0130     9.5810     8.4000    10.4640    24.7260 
  142.7500   -26.6720     2.1830    67.4010     9.3170     8.1750    10.0960    24.9040 
  142.8750   -26.3590     2.1750    67.5320     9.0540     7.9650     9.9410    25.1990 
  143.0000   -26.0760     2.1570    67.5060     8.8680     7.8170     9.9860    25.5470 
  143.1250   -25.7560     2.1330    69.2790     8.9490     7.8560    10.6390    25.8670 
  143.2500   -25.3880     2.1210    70.6230     9.4030     8.1630    11.7630    26.0540 
  143.3750   -24.9040     2.1400    72.3970    10.2140     8.7570    12.4830    26.1590 
  143.5000   -24.2470     2.2030    74.6120    11.1630     9.5170    12.6810    26.2670 
  143.6250   -23.4250     2.3000    73.2840    11.7290    10.0640    15.0060    26.4600 
  143.7500   -22.5290     2.3890    69.2890    11.4930    10.0080    18.9820    26.5940 
  143.8750   -21.6230     2.4360    68.1570    10.3730     9.2200    16.8250    26.5680 
  144.0000   -20.7440     2.4280    73.5000     8.7390     7.9720     9.3950    26.4810 
  144.1250   -19.9770     2.3780    81.6720     7.2800     6.7930     6.4380    26.3860 
  144.2500   -19.2810     2.3330    86.9440     6.4290     6.0300     5.5820    26.2740 
  144.3750   -18.7170     2.3210    89.0590     6.2900     5.7870     5.5300    26.0810 
  144.5000   -18.3120     2.3490    89.2530     6.7560     6.0360     5.8290    25.9810 
  144.6250   -17.9510     2.3960    88.4080     7.5060     6.6280     7.3730    26.1550 
  144.7500   -17.6280     2.4220    86.7460     8.0030     7.1460    10.3250    26.5610 
  144.8750   -17.3550     2.4050    84.6030     7.9420     7.2760    11.0230    27.3710 
  145.0000   -17.0790     2.3500    83.2140     7.3580     6.9570     7.5960    28.7000 
  145.1250   -16.8420     2.2870    83.9160     6.5970     6.4050     5.6470    29.4660 
  145.2500   -16.7540     2.2470    84.7010     6.0400     5.9450     5.1140    28.5650 
  145.3750   -16.7420     2.2380    85.5070     5.8050     5.7070     5.1460    26.9740 
  145.5000   -16.7470     2.2480    88.4070     5.8490     5.6940     5.3130    25.8020 
  145.6250   -16.8540     2.2650    92.5520     6.0230     5.8140     5.4490    25.3220 
  145.7500   -16.9570     2.2780    94.3380     6.1440     5.9070     5.5450    25.1870 
  145.8750   -16.9840     2.2870    93.6110     6.1450     5.8960     5.3740    25.3250 
  146.0000   -16.9500     2.2940    93.7010     6.0250     5.7700     5.1990    25.4840 
  146.1250   -16.8500     2.3000    98.0620     5.7840     5.5340     5.1490    25.5420 
  146.2500   -16.5610     2.2990   101.6820     5.4800     5.2470     5.1330    25.5820 
  146.3750   -16.1750     2.2870   100.3250     5.1990     4.9830     5.0530    25.6840 
  146.5000   -15.7850     2.2710    93.3750     5.0740     4.8420     4.8630    25.8430 
  146.6250   -15.4650     2.2720    86.9520     5.3030     4.9670     4.7580    26.0760 
  146.7500   -15.3010     2.3020    87.0570     5.9120     5.3790     5.0780    26.3240 
  146.8750   -15.3090     2.3500    91.5390     6.8460     6.0600     6.4810    26.1940 
  147.0000   -15.5480     2.3930    93.3280     7.8900     6.8800     9.5080    25.5070 
  147.1250   -16.0290     2.3960    88.0180     8.6050     7.5200    11.3360    24.5090 
  147.2500   -16.7810     2.3600    82.8950     8.7450     7.7300    10.5420    23.4900 
  147.3750   -17.6600     2.3040    81.4310     8.3570     7.5020     8.3080    22.6250 
  147.5000   -18.5760     2.2520    82.8490     7.7540     7.0590     6.8750    21.9280 
  147.6250   -19.4590     2.2210    84.0610     7.3830     6.7340     6.3570    21.3290 
  147.7500   -20.3280     2.2100    84.2570     7.4430     6.7030     6.3440    20.8350 
  147.8750   -21.1760     2.2130    84.2620     7.9270     6.9940     6.6040    20.5000 
  148.0000   -21.8420     2.2220    82.3340     8.6980     7.5390     7.0630    20.3600 
  148.1250   -22.2350     2.2270    79.1030     9.5350     8.2010     7.5870    20.3400 
  148.2500   -22.4110     2.2230    78.1450    10.1970     8.7850     7.8990    20.3750 
  148.3750   -22.4450     2.2130    80.6930    10.5430     9.1600     8.0090    20.6570 
  148.5000   -22.3840     2.2000    84.4110    10.5330     9.2580     8.1280    21.4870 
  148.6250   -22.2970     2.1920    83.1750    10.1700     9.0420     8.1180    22.8180 
  148.7500   -22.1090     2.1880    80.3580     9.6120     8.6290     7.8640    23.8730 
  148.8750   -21.7740     2.1880    81.3500     8.9710     8.1100     7.3930    24.6430 
  149.0000   -21.3740     2.1910    86.1360     8.3620     7.5820     6.8380    25.2280 
  149.1250   -21.0000     2.1960    88.5970     7.9220     7.1670     6.4060    25.5190 
  149.2500   -20.6700     2.1990    85.7200     7.7060     6.9230     6.2590    25.6520 
  149.3750   -20.4060     2.1980    80.9960     7.7220     6.8720     6.2900    25.7390 
  149.5000   -20.1890     2.1920    77.9680     7.9140     6.9840     6.4020    25.8920 
  149.6250   -19.9890     2.1850    77.9390     8.1830     7.1930     6.3880    26.1350 
  149.7500   -19.8030     2.1800    80.3020     8.4130     7.3950     6.4290    26.2970 
  149.8750   -19.5910     2.1780    83.4720     8.5660     7.5420     6.5650    26.3250 
  150.0000   -19.3280     2.1800    83.4990     8.6580     7.6340     6.8440    26.2780 
  150.1250   -18.9610     2.1820    78.9410     8.7310     7.7030     7.1240    26.3600 
  150.2500   -18.5290     2.1820    74.3500     8.7940     7.7710     7.3620    26.5590 
  150.3750   -18.0720     2.1810    73.0470     8.8080     7.8140     7.6000    26.7480 
  150.5000   -17.6820     2.1780    75.8840     8.7160     7.7930     7.7340    26.8280 
  150.6250   -17.3810     2.1770    82.5200     8.4840     7.6660     7.6020    26.7670 
  150.7500   -17.1430     2.1810    86.8540     8.1940     7.4800     7.2780    26.6130 
  150.8750   -16.9370     2.1860    85.2000     7.9540     7.3040     6.8880    26.4810 
  151.0000   -16.7950     2.1890    80.7000     7.8690     7.2180     6.7060    26.5200 
  151.1250   -16.7440     2.1860    81.1700     8.0500     7.3130     6.8880    26.7900 
  151.2500   -16.6490     2.1780    84.2210     8.4450     7.5700     7.3350    27.0310 
  151.3750   -16.5540     2.1710    85.2910     8.9690     7.9420     7.8980    27.1580 
  151.5000   -16.4420     2.1650    85.4670     9.5000     8.3430     8.4340    27.1920 
  151.6250   -16.2390     2.1580    86.5180     9.9150     8.6830     8.8170    27.1920 
  151.7500   -15.9980     2.1530    86.6090    10.2250     8.9600     9.0550    27.1920 
  151.8750   -15.7430     2.1600    85.3020    10.5180     9.2380     9.1070    27.1840 
