~V
VERS. 2.00: Ver 2.00
~W
STRT.M 61.0000:
STOP.M 257.0000:
STEP.M 0.1250:
NULL. -999.2500:
UWI. DF32086:
~C
DEPT.M :
SP.MV :
GR.API :
CALI.CM :
RXO.OHMM :
RI. :
RML.OHMM :
DEN.GM/CC :
~A
# ...
   83.5000   -29.8050    83.1640    24.4320     7.9570     5.7400     9.1260     2.3870 
   83.6250   -29.1150    82.2780    24.6910     9.2050     5.9400     9.4430     2.4380 
   83.7500   -28.5570    82.8070    24.9850     8.4730     5.8080     9.1640     2.4530 
   83.8750   -28.1640    87.8440    24.8090     6.7060     5.3990     8.4490     2.4240 
   84.0000   -27.9620    94.5350    24.3940     5.6530     4.9140     7.6750     2.3680 
   84.1250   -27.9170    97.0150    24.2030     5.4850     4.5930     7.1810     2.3270 
   84.2500   -27.9840    97.0440    24.1570     5.4780     4.4980     6.9850     2.3150 
   84.3750   -28.1010    98.6300    24.1500     5.4340     4.5810     6.9880     2.3150 
   84.5000   -28.2610   100.8470    24.1430     5.4320     4.7380     7.0580     2.3130 
   84.6250   -28.4630    98.7670    24.1410     5.5430     4.8630     7.1300     2.3060 
   84.7500   -28.7160    94.7670    24.1410     5.5990     4.9570     7.2670     2.3010 
   84.8750   -29.0100    92.7920    24.1320     5.5530     5.0710     7.5380     2.2910 
   85.0000   -29.3350    92.9450    24.0980     5.5330     5.2430     7.9400     2.2720 
   85.1250   -29.7150    92.7280    24.0210     5.8000     5.4680     8.3760     2.2560 
   85.2500   -30.0850    90.4820    23.9590     6.1290     5.6600     8.6700     2.2570 
   85.3750   -30.4510    88.8580    23.9500     6.1720     5.7250     8.6740     2.2740 
   85.5000   -30.8290    91.3790    23.9680     5.9010     5.6040     8.3550     2.2970 
   85.6250   -31.2500    97.6190    23.9060     5.6010     5.3090     7.8430     2.3100 
   85.7500   -31.7020   100.9770    23.8120     5.6310     4.9800     7.4070     2.3070 
   85.8750   -32.2170    98.5100    23.7120     5.8900     4.7270     7.2020     2.2910 
   86.0000   -32.7510    92.6150    23.6660     6.1470     4.6380     7.2880     2.2790 
   86.1250   -33.3000    87.6670    23.8440     6.1820     4.7940     7.6690     2.2960 
   86.2500   -33.8700    84.5330    24.0530     6.2740     5.1400     8.2000     2.3340 
   86.3750   -34.4950    82.7180    23.9420     6.7340     5.6080     8.7840     2.3670 
   86.5000   -35.1300    81.8830    23.7210     7.5280     6.1030     9.3530     2.3660 
   86.6250   -35.7220    81.1220    23.7110     8.1060     6.5040     9.8520     2.3230 
   86.7500   -36.2340    79.6090    23.8660     8.3940     6.7560    10.2580     2.2650 
   86.8750   -36.6370    77.1390    23.9970     8.5330     6.8400    10.5210     2.2180 
   87.0000   -36.9540    73.4590    24.1290     8.7700     6.7620    10.5590     2.1970 
   87.1250   -37.1170    70.0800    24.4070     9.0390     6.5320    10.2540     2.2000 
   87.2500   -37.1550    67.8120    24.8940     9.2200     6.2610     9.7350     2.2050 
   87.3750   -37.0470    65.7560    25.3740     9.0850     6.0610     9.2230     2.1990 
   87.5000   -36.8320    64.6490    25.5340     8.4830     6.0370     8.9850     2.1880 
   87.6250   -36.5500    67.5270    25.1660     7.4610     6.2840     9.3100     2.1980 
   87.7500   -36.2860    73.1520    24.4770     7.1690     6.7310    10.1340     2.2370 
   87.8750   -36.0680    75.6540    23.9020     8.1890     7.2640    11.2450     2.2870 
   88.0000   -35.9530    72.5860    23.6460    10.1660     7.7080    12.2270     2.3160 
   88.1250   -35.9820    69.5180    23.5470    11.7680     7.8460    12.4900     2.2870 
   88.2500   -36.1240    70.6110    23.3030    11.9260     7.7000    12.0510     2.2170 
   88.3750   -36.3580    72.8060    22.8440    10.9340     7.4010    11.2630     2.1390 
   88.5000   -36.6670    74.0390    22.3410     9.7530     7.1130    10.5610     2.0900 
   88.6250   -37.0070    75.4600    22.1370     9.3270     6.9700    10.2830     2.0930 
   88.7500   -37.3260    76.8550    22.0970     9.2590     6.9590    10.3590     2.1260 
   88.8750   -37.6170    77.3910    22.0800     9.3190     7.0250    10.6330     2.1700 
   89.0000   -37.8260    77.9630    22.1020     9.4580     7.0940    10.9120     2.2090 
   89.1250   -37.9850    78.3660    22.3180     9.6200     7.0940    11.0040     2.2220 
   89.2500   -38.0980    78.0590    22.6230     9.6900     7.0040    10.8660     2.2090 
   89.3750   -38.1830    77.8520    22.7420     9.4790     6.8340    10.5180     2.1850 
   89.5000   -38.2350    79.5650    22.8350     8.9410     6.6190    10.0340     2.1710 
   89.6250   -38.2910    79.6000    23.0790     8.3140     6.4090     9.5300     2.1740 
   89.7500   -38.3540    76.4000    23.3390     7.8520     6.2390     9.1140     2.1780 
   89.8750   -38.4160    74.6770    23.4700     7.6300     6.1170     8.8380     2.1760 
   90.0000   -38.5030    77.1340    23.5050     7.5800     6.0350     8.7180     2.1730 
   90.1250   -38.5920    79.2960    23.5050     7.6270     5.9780     8.7490     2.1740 
   90.2500   -38.6770    79.1700    23.5060     7.6810     5.9360     8.8540     2.1780 
   90.3750   -38.7940    78.4460    23.5110     7.7340     5.9190     8.9820     2.1850 
   90.5000   -38.9420    78.7480    23.5190     7.7860     5.9510     9.1000     2.1940 
   90.6250   -39.0990    78.4970    23.5190     7.9640     6.0660     9.2020     2.1980 
   90.7500   -39.2690    77.1810    23.5030     8.1870     6.2410     9.3030     2.1960 
   90.8750   -39.4380    76.3700    23.4890     8.3850     6.4370     9.4160     2.1900 
   91.0000   -39.6010    75.4210    23.5460     8.5510     6.6090     9.5450     2.1830 
   91.1250   -39.7480    74.9610    23.8350     8.6500     6.7170     9.6840     2.1770 
   91.2500   -39.8970    72.5880    24.2180     8.7520     6.7690     9.8270     2.1770 
   91.3750   -40.0370    68.6590    24.5560     8.9100     6.7810     9.9710     2.1830 
   91.5000   -40.1500    67.5130    24.6190     9.1340     6.7740    10.1130     2.1840 
   91.6250   -40.2360    72.8710    24.2920     9.2950     6.7710    10.2450     2.1710 
   91.7500   -40.2970    79.4040    23.8270     9.3560     6.7990    10.3650     2.1560 
   91.8750   -40.3210    80.0040    23.5040     9.3770     6.8870    10.4810     2.1520 
   92.0000   -40.3150    74.4600    23.4400     9.4090     7.0460    10.6050     2.1540 
   92.1250   -40.2650    70.4100    23.4810     9.4930     7.2640    10.7560     2.1530 
   92.2500   -40.1750    71.5840    23.5010     9.6560     7.4880    10.9370     2.1540 
   92.3750   -40.0210    74.2170    23.5240     9.8800     7.6750    11.1380     2.1660 
   92.5000   -39.8270    74.1970    23.5830    10.0520     7.7970    11.3310     2.1790 
   92.6250   -39.5870    71.0540    23.6700    10.0830     7.8390    11.4670     2.1800 
   92.7500   -39.2930    68.1700    23.6920    10.0180     7.8330    11.5150     2.1740 
   92.8750   -38.9710    66.8620    23.6350     9.9020     7.8150    11.4720     2.1770 
   93.0000   -38.5760    68.5650    23.4540     9.7840     7.8290    11.3650     2.1900 
   93.1250   -38.1770    72.5450    23.1640     9.6800     7.9220    11.2480     2.2050 
   93.2500   -37.7620    75.9320    22.9220     9.5910     8.0820    11.1740     2.2160 
   93.3750   -37.3470    78.9060    22.7860     9.6460     8.2750    11.1680     2.2260 
   93.5000   -36.9230    82.9170    22.7420    10.0640     8.4400    11.2120     2.2340 
   93.6250   -36.4860    86.7360    22.7230    10.0650     8.4590    11.2240     2.2350 
   93.7500   -36.0600    87.8460    22.6610     9.4890     8.2680    11.0900     2.2320 
   93.8750   -35.6070    86.4320    22.5710     8.6150     7.8270    10.6760     2.2290 
   94.0000   -35.1910    84.3160    22.4970     7.8430     7.1450     9.8670     2.2280 
   94.1250   -34.7330    83.6900    22.5010     7.1150     6.2780     8.6200     2.2340 
   94.2500   -34.2820    85.8040    22.5460     6.3170     5.3940     7.2330     2.2500 
   94.3750   -33.8630    91.5790    22.6020     5.4910     4.6330     6.0170     2.2750 
   94.5000   -33.5380    98.3220    22.6710     4.7800     4.1100     5.2410     2.3030 
   94.6250   -33.3640   102.1330    22.8100     4.4850     3.9620     5.1780     2.3280 
