~V
VERS. 2.00: Ver 2.00
~W
STRT.M 61.0000:
STOP.M 262.0000:
STEP.M 0.1250:
NULL. -999.2500:
UWI. DF32115:
~C
DEPT.M :
GR.API :
CALI.CM :
RXO.OHMM :
RI. :
RML.OHMM :
DEN.GM/CC :
SP.MV :
~A
# ...
  229.7500    71.2180    25.1450    40.2650    51.8090    51.8310     2.2890   -22.1650 
  229.8750    68.0770    25.1220    56.5030    60.7830    61.7640     2.2770   -22.0830 
  230.0000    66.4370    25.1170    79.8770    75.1580    76.7480     2.2510   -22.0330 
  230.1250    65.9000    25.1260    94.6060    92.5760    94.6910     2.2250   -22.0210 
  230.2500    63.9760    25.1180    96.4140   106.8280   109.4320     2.2140   -22.0110 
  230.3750    61.9050    25.0910    91.3970   112.8310   115.3090     2.2170   -21.9980 
  230.5000    62.7850    25.0630    84.0220   109.3920   110.9970     2.2260   -21.9650 
  230.6250    68.0510    25.0390    74.2130    99.5670   100.4370     2.2340   -21.9280 
  230.7500    74.2070    25.0180    63.6270    89.2020    89.9440     2.2470   -21.8890 
  230.8750    78.5010    25.0050    53.5570    80.6890    81.7520     2.2730   -21.8540 
  231.0000    79.8240    24.9920    46.4680    74.9690    76.6160     2.3100   -21.8330 
  231.1250    77.0490    24.9830    46.2030    72.7050    75.0560     2.3310   -21.8450 
  231.2500    73.7230    24.9940    51.2620    72.7990    75.8370     2.3210   -21.9330 
  231.3750    72.8410    25.0100    57.9040    74.1120    77.7270     2.2940   -22.1050 
  231.5000    73.1560    25.0250    62.6110    75.2800    79.2350     2.2740   -22.3650 
  231.6250    74.1340    25.1160    62.6110    74.8710    78.7470     2.2820   -22.6930 
  231.7500    75.8090    25.2610    57.3860    72.8000    76.3260     2.3070   -23.0530 
  231.8750    77.6660    25.3370    48.8820    69.6290    72.7780     2.3370   -23.4310 
  232.0000    78.1420    25.2730    42.3830    66.2270    69.1470     2.3640   -23.7900 
  232.1250    77.2840    25.1270    42.3190    63.3650    66.2130     2.3790   -24.0970 
  232.2500    77.8670    24.9910    45.4100    61.1510    63.9450     2.3840   -24.3050 
  232.3750    78.4740    24.8850    47.6890    59.4510    62.1280     2.3800   -24.4020 
  232.5000    76.0870    24.8250    47.0870    58.0520    60.5330     2.3770   -24.3800 
  232.6250    73.3090    24.8310    44.1510    56.8340    59.0970     2.3790   -24.2330 
  232.7500    72.1340    24.8440    40.8260    55.8070    57.9090     2.3880   -24.0020 
  232.8750    71.2860    24.8260    37.8350    55.0900    57.1160     2.4010   -23.7020 
  233.0000    71.4100    24.7780    35.7410    54.7230    56.7350     2.4170   -23.3700 
  233.1250    77.2890    24.7260    35.6910    54.5470    56.5650     2.4240   -23.0200 
  233.2500    85.3270    24.6610    37.1140    54.1720    56.1760     2.4190   -22.6940 
  233.3750    88.1500    24.5610    38.7860    53.2660    55.2280     2.4100   -22.3940 
  233.5000    86.5500    24.4460    40.0180    51.6460    53.5590     2.4010   -22.1160 
  233.6250    86.2140    24.4200    40.2390    49.3040    51.2250     2.3840   -21.8470 
  233.7500    86.5590    24.4940    38.0360    46.7200    48.7480     2.3590   -21.5670 
  233.8750    84.7100    24.5130    33.5100    44.3330    46.5910     2.3410   -21.2660 
  234.0000    80.7520    24.3580    29.6420    42.5360    45.1430     2.3440   -20.9350 
  234.1250    77.7520    24.1850    29.8000    41.7540    44.8120     2.3670   -20.5780 
  234.2500    76.8710    24.2510    32.5020    41.9550    45.5140     2.3960   -20.1640 
  234.3750    76.7430    24.4850    35.4760    43.2080    47.3040     2.4310   -19.7100 
  234.5000    74.8240    24.6160    37.5410    45.7120    50.3890     2.4700   -19.2370 
  234.6250    70.9960    24.5490    39.8650    50.2420    55.6060     2.5050   -18.7680 
  234.7500    68.7200    24.4990    44.4960    57.2540    63.4710     2.5420   -18.3100 
  234.8750    68.5990    24.5550    52.9310    67.2500    74.5830     2.5900   -17.8690 
  235.0000    67.6880    24.6490    66.1510    79.4060    88.1160     2.6480   -17.4610 
  235.1250    64.9750    24.6910    82.1490    88.4650    96.9260     2.6880   -17.0850 
  235.2500    63.8730    24.6850    93.9320    86.8640    90.8620     2.6890   -16.7600 
  235.3750    65.2450    24.6600    91.3050    72.0040    70.0410     2.6480   -16.4800 
  235.5000    66.5720    24.6460    68.8640    50.5380    46.3390     2.5750   -16.2460 
  235.6250    65.6220    24.6110    38.3530    32.7480    29.7750     2.4930   -16.0700 
  235.7500    63.5470    24.5280    19.0860    21.2730    19.5810     2.4270   -15.9410 
  235.8750    60.8730    24.4250    11.5250    14.7690    13.7380     2.3810   -15.8550 
  236.0000    58.6170    24.3460     9.4430    11.3420    10.6130     2.3490   -15.7970 
  236.1250    59.4060    24.2830     8.8480     9.8180     9.3270     2.3230   -15.7610 
  236.2500    63.9760    24.2380     8.4470     9.1840     8.9330     2.3030   -15.6940 
  236.3750    72.8780    24.2700     8.6610     9.0940     9.0470     2.2970   -15.5870 
  236.5000    82.4070    24.3570     9.1990     9.2850     9.3680     2.3130   -15.4110 
  236.6250    82.4660    24.3970     9.4630     9.4920     9.5970     2.3600   -15.1500 
  236.7500    73.7750    24.3450    10.6250     9.4960     9.5410     2.4290   -14.8250 
  236.8750    64.9590    24.2570    13.4400     9.2070     9.1370     2.4940   -14.4640 
  237.0000    61.0310    24.2040    15.0680     8.6530     8.4480     2.5210   -14.0980 
  237.1250    59.3600    24.1700    12.3750     7.9500     7.6450     2.4940   -13.7430 
  237.2500    58.3810    24.0980     8.4990     7.2890     6.9490     2.4490   -13.4520 
  237.3750    59.6490    23.9980     6.5300     6.7680     6.4670     2.4170   -13.2190 
  237.5000    61.2160    23.9320     6.2920     6.4230     6.2210     2.4080   -13.0640 
  237.6250    60.0240    23.9350     6.5810     6.2680     6.1970     2.4120   -12.9860 
  237.7500    58.8690    23.9600     6.8160     6.2300     6.2860     2.4110   -12.9470 
  237.8750    60.9500    23.9900     7.0210     6.2550     6.4060     2.4040   -12.9190 
  238.0000    64.8600    24.0020     7.1330     6.2900     6.4930     2.3990   -12.8730 
  238.1250    66.3910    23.9780     7.0250     6.2950     6.5140     2.4050   -12.8050 
  238.2500    64.2980    23.9490     6.8410     6.2740     6.4990     2.4140   -12.7000 
  238.3750    60.1450    23.9560     6.7850     6.2410     6.4800     2.4210   -12.5770 
  238.5000    56.1450    24.0030     6.8550     6.2090     6.4790     2.4230   -12.4290 
  238.6250    54.7260    24.0420     6.8420     6.1880     6.5080     2.4220   -12.2780 
  238.7500    56.2940    24.0400     6.6970     6.1750     6.5550     2.4170   -12.1320 
  238.8750    60.0800    24.0190     6.5680     6.1620     6.5990     2.4070   -11.9930 
  239.0000    62.6370    24.0170     6.5960     6.1390     6.6260     2.3990   -11.8680 
  239.1250    61.6360    24.0370     6.7750     6.1020     6.6240     2.3960   -11.7430 
  239.2500    60.7500    24.0520     6.8850     6.0560     6.6030     2.3900   -11.6290 
  239.3750    62.8600    24.0590     6.8090     6.0080     6.5700     2.3760   -11.5190 
  239.5000    65.9150    24.0690     6.6190     5.9630     6.5360     2.3620   -11.4190 
  239.6250    66.2440    24.0780     6.4810     5.9270     6.5110     2.3580   -11.3230 
  239.7500    65.5170    24.0790     6.4170     5.9000     6.4990     2.3650   -11.2390 
  239.8750    65.0610    24.0760     6.3630     5.8800     6.4960     2.3760   -11.1690 
  240.0000    64.6860    24.0780     6.2900     5.8590     6.4910     2.3880   -11.1070 
  240.1250    64.3870    24.0770     6.2240     5.8310     6.4700     2.3880   -11.0780 
  240.2500    64.6930    24.0830     6.2080     5.7940     6.4330     2.3750   -11.0580 
  240.3750    64.8970    24.1040     6.2700     5.7510     6.3890     2.3580   -11.0530 
  240.5000    64.8550    24.1230     6.4360     5.7070     6.3490     2.3490   -11.0480 
  240.6250    64.7430    24.1150     6.7360     5.6650     6.3220     2.3500   -11.0560 
  240.7500    63.6540    24.0930     7.0410     5.6250     6.3000     2.3560   -11.0630 
  240.8750    61.6600    24.0810     7.1330     5.5880     6.2780     2.3670   -11.0630 
