~V
VERS. 2.00: Ver 2.00
~W
STRT.M 60.0000:
STOP.M 264.0000:
STEP.M 0.1250:
NULL. -999.2500:
UWI. DF32130:
~C
DEPT.M :
SP.MV :
GR.API :
CALI.CM :
RXO.OHMM :
RI. :
RML.OHMM :
DEN.GM/CC :
~A
# ...
   93.7500   -23.9640    74.0820    22.0870     7.5480     6.8050     9.4340     2.1760 
   93.8750   -23.8300    73.9680    22.0650     7.7710     6.8810     9.5090     2.1800 
   94.0000   -23.7110    73.7170    22.0120     8.0560     7.0300     9.7070     2.1910 
   94.1250   -23.5730    74.3190    21.9560     8.5350     7.2470    10.0180     2.1990 
   94.2500   -23.3540    73.2240    21.8700     9.0020     7.4160    10.2590     2.2010 
   94.3750   -23.1340    71.6750    21.7490     9.1850     7.3980    10.2070     2.2000 
   94.5000   -22.9730    72.4680    21.6240     9.0380     7.0850     9.7110     2.2020 
   94.6250   -22.7550    75.9670    21.4480     8.5030     6.4580     8.8110     2.2150 
   94.7500   -22.5730    79.1110    21.2530     7.5030     5.7440     7.8620     2.2380 
   94.8750   -22.5520    80.8860    21.0700     6.3100     5.1430     7.1300     2.2650 
   95.0000   -22.5760    83.1440    20.9740     5.6580     4.7990     6.7780     2.2840 
   95.1250   -22.6140    84.3700    20.9540     5.9220     4.8160     6.9220     2.2810 
   95.2500   -22.7650    81.8650    20.9520     6.4960     5.1070     7.4440     2.2630 
   95.3750   -22.9070    76.2000    20.9440     7.0830     5.5780     8.2150     2.2390 
   95.5000   -22.9790    69.6080    20.9310     7.5510     6.0920     8.9980     2.2180 
   95.6250   -23.0640    66.7410    20.9580     7.6880     6.4690     9.4670     2.2080 
   95.7500   -23.1280    68.5140    21.0740     7.6560     6.6410     9.5660     2.2110 
   95.8750   -23.0960    73.3330    21.2840     7.5450     6.6090     9.3680     2.2190 
   96.0000   -23.0030    76.2090    21.4830     7.4410     6.4120     8.9660     2.2160 
   96.1250   -22.9060    73.4290    21.5990     7.3770     6.0960     8.4270     2.2030 
   96.2500   -22.8020    69.9830    21.7190     7.1990     5.7710     7.8980     2.2050 
   96.3750   -22.7670    69.6510    21.8510     6.8420     5.5220     7.5180     2.2310 
   96.5000   -22.7900    72.1750    21.9250     6.5050     5.4130     7.3890     2.2640 
   96.6250   -22.8280    75.5790    21.9320     6.6830     5.4920     7.5680     2.2710 
   96.7500   -22.9020    76.7150    21.9240     7.2950     5.6890     7.8930     2.2550 
   96.8750   -22.9910    75.2350    21.9190     7.9120     5.9070     8.1740     2.2350 
   97.0000   -23.1070    72.4100    21.9170     8.1080     6.0270     8.2290     2.2210 
   97.1250   -23.2200    72.4780    21.9150     7.7020     5.9600     7.9890     2.2200 
   97.2500   -23.3140    76.9540    21.9180     7.0830     5.8060     7.6700     2.2280 
   97.3750   -23.3810    81.7940    21.9190     6.6230     5.6730     7.4590     2.2400 
   97.5000   -23.4240    82.4360    21.9190     6.5390     5.6340     7.4560     2.2420 
   97.6250   -23.4940    77.9450    21.9190     6.7340     5.7030     7.6890     2.2300 
   97.7500   -23.5400    73.1430    21.9200     6.9080     5.8110     8.0120     2.2160 
   97.8750   -23.5860    71.0260    21.9380     6.9140     5.9030     8.2890     2.2090 
   98.0000   -23.6440    71.4080    21.9920     6.8380     5.9510     8.4340     2.2060 
   98.1250   -23.7950    73.6550    22.0560     6.7800     5.9710     8.4280     2.2070 
   98.2500   -23.9880    74.3640    22.0830     6.8050     6.0060     8.3770     2.2100 
   98.3750   -24.2280    74.0100    22.0900     6.9770     6.0780     8.3740     2.2160 
   98.5000   -24.5280    75.1980    22.1040     7.2930     6.1970     8.4780     2.2190 
   98.6250   -24.8820    76.5010    22.1980     7.5460     6.3570     8.7000     2.2170 
   98.7500   -25.3490    75.8680    22.4140     7.6780     6.5410     8.9910     2.2110 
   98.8750   -25.9070    73.7790    22.6890     7.8630     6.7390     9.3180     2.2070 
   99.0000   -26.4860    72.9970    22.8480     8.2650     6.9380     9.6250     2.2030 
   99.1250   -26.9920    72.2430    22.8850     8.7890     7.1090     9.8310     2.1960 
   99.2500   -27.4260    70.6210    22.8850     9.1030     7.2200     9.9030     2.1850 
   99.3750   -27.7810    68.6620    22.8850     9.2600     7.2410     9.8340     2.1730 
   99.5000   -28.0360    66.8730    22.8850     9.3640     7.1670     9.6610     2.1640 
   99.6250   -28.1970    65.1470    22.8840     9.2910     7.0380     9.4320     2.1580 
   99.7500   -28.2160    63.8300    22.8820     8.9620     6.9150     9.1860     2.1550 
   99.8750   -28.0870    64.2920    22.8820     8.5830     6.8200     8.9470     2.1580 
  100.0000   -27.8710    66.8020    22.8840     8.4120     6.7750     8.7900     2.1630 
  100.1250   -27.5770    69.2600    22.8850     8.6210     6.8060     8.8300     2.1570 
  100.2500   -27.2820    69.8590    22.8790     8.8390     6.8920     9.0490     2.1410 
  100.3750   -26.9700    68.5490    22.8320     8.9210     7.0010     9.3680     2.1320 
  100.5000   -26.6510    66.8950    22.7010     8.8640     7.1000     9.6250     2.1380 
  100.6250   -26.3090    66.4030    22.5040     8.6970     7.1440     9.6300     2.1470 
  100.7500   -25.9650    67.5680    22.3640     8.4900     7.1190     9.4290     2.1460 
  100.8750   -25.6250    68.7880    22.2820     8.3120     7.0530     9.1750     2.1400 
  101.0000   -25.2970    68.2380    22.2420     8.2430     6.9930     9.0260     2.1450 
  101.1250   -25.0160    66.8690    22.2120     8.1930     6.9710     9.0780     2.1680 
  101.2500   -24.7660    67.3690    22.1920     8.0800     6.9830     9.2340     2.1890 
  101.3750   -24.5660    69.3470    22.1850     8.0260     7.0210     9.3770     2.1970 
  101.5000   -24.4120    72.1600    22.1830     8.1020     7.0620     9.4440     2.1910 
  101.6250   -24.3050    75.4970    22.1740     8.1980     7.0890     9.4890     2.1840 
  101.7500   -24.2200    76.0400    22.1500     8.1790     7.1240     9.5810     2.1830 
  101.8750   -24.1710    72.6690    22.1040     8.1240     7.1810     9.7050     2.1900 
  102.0000   -24.1440    69.1090    22.0490     8.1190     7.2380     9.7970     2.2000 
  102.1250   -24.1410    69.6370    21.9990     8.1390     7.2510     9.7800     2.2060 
  102.2500   -24.1990    71.1930    21.9810     8.1450     7.2170     9.6740     2.2100 
  102.3750   -24.3020    71.3640    21.9770     8.1090     7.1500     9.5520     2.2110 
  102.5000   -24.4430    71.6810    21.9770     8.0400     7.0770     9.4940     2.2070 
  102.6250   -24.6200    73.0230    21.9770     8.0110     7.0420     9.5320     2.1960 
  102.7500   -24.8450    73.5270    21.9770     8.0370     7.0690     9.6130     2.1920 
  102.8750   -25.0940    72.8620    21.9770     8.0720     7.1450     9.6900     2.2040 
  103.0000   -25.3760    71.7500    21.9790     8.0510     7.2410     9.7270     2.2360 
  103.1250   -25.6720    71.3320    21.9880     7.9930     7.3200     9.7120     2.2680 
  103.2500   -25.9190    71.6240    22.0020     8.0990     7.3510     9.7200     2.2750 
  103.3750   -26.1200    71.2860    22.0100     8.3810     7.3350     9.7980     2.2520 
  103.5000   -26.2730    70.7330    22.0120     8.6720     7.3020     9.9210     2.2170 
  103.6250   -26.3700    69.7690    22.0070     8.8780     7.2590     9.9860     2.1980 
  103.7500   -26.4070    69.2630    22.0180     9.0650     7.1670     9.8840     2.2050 
  103.8750   -26.3980    69.7160    22.0880     9.2170     6.9980     9.5590     2.2330 
  104.0000   -26.3400    69.5900    22.3330     9.1790     6.7650     9.0530     2.2670 
  104.1250   -26.2570    68.4820    22.7790     8.5970     6.5100     8.5460     2.2830 
  104.2500   -26.1480    69.1410    23.1860     7.9410     6.2930     8.2340     2.2730 
  104.3750   -26.0330    72.9580    23.3520     7.6850     6.1610     8.1920     2.2450 
  104.5000   -25.9250    76.4650    23.3790     7.8890     6.1370     8.3900     2.2140 
  104.6250   -25.8470    75.1420    23.3800     8.1650     6.2250     8.7060     2.1930 
  104.7500   -25.7630    71.2290    23.3800     8.2780     6.3730     8.9770     2.1810 
  104.8750   -25.6430    66.2320    23.3800     8.2240     6.5310     9.1350     2.1760 
