~V
VERS. 2.00: Ver 2.00
~W
STRT.M 62.0000:
STOP.M 235.0000:
STEP.M 0.1250:
NULL. -999.2500:
UWI. DF32059:
~C
DEPT.M :
SP.MV :
GR.API :
CALI.CM :
RXO.OHMM :
RI. :
RML.OHMM :
DEN.GM/CC :
~A
# ...
   95.7500   -30.4910    68.5130    23.3440     8.8460     7.0300     9.9460     2.1480 
   95.8750   -30.1890    69.4080    23.7280     8.9930     7.2090    10.0820     2.1630 
   96.0000   -29.7310    69.3510    23.9340     8.9920     7.3620    10.2110     2.1800 
   96.1250   -29.0670    68.5610    23.9650     8.9390     7.4070    10.2720     2.1940 
   96.2500   -28.2460    68.4280    23.9660     8.9070     7.2960    10.1770     2.2070 
   96.3750   -27.3020    69.8570    23.9710     8.9650     7.0240     9.8530     2.2190 
   96.5000   -26.2730    74.0870    24.0240     9.1170     6.6350     9.2980     2.2310 
   96.6250   -25.2220    80.1890    24.0500     9.0130     6.1990     8.5790     2.2480 
   96.7500   -24.1830    84.6130    23.9430     7.8680     5.7850     7.8590     2.2680 
   96.8750   -23.2000    87.8570    23.7400     6.4100     5.4230     7.2530     2.2840 
   97.0000   -22.2960    90.8660    23.7320     5.6970     5.1360     6.8350     2.2870 
   97.1250   -21.5450    95.6090    23.9900     5.4850     4.9610     6.6570     2.2850 
   97.2500   -20.9320   100.2950    24.2650     5.3730     4.8930     6.6410     2.2900 
   97.3750   -20.4660   102.1620    24.1720     5.3550     4.9130     6.7060     2.3040 
   97.5000   -20.1420   101.1470    23.8140     5.6120     4.9720     6.7550     2.3190 
   97.6250   -19.9350   100.0400    23.6510     5.7240     4.9930     6.6900     2.3260 
   97.7500   -19.8100   101.4660    23.6210     5.5420     4.9350     6.5230     2.3250 
   97.8750   -19.7350   103.8920    23.6760     5.2170     4.8060     6.3100     2.3230 
   98.0000   -19.7090   104.8700    23.6930     5.0130     4.6510     6.1220     2.3230 
   98.1250   -19.7260   106.1520    23.6930     5.0090     4.5460     6.0340     2.3180 
   98.2500   -19.8010   106.9540    23.6590     5.0880     4.5270     6.0480     2.3040 
   98.3750   -19.9210   105.2260    23.6320     5.1610     4.5800     6.1250     2.2880 
   98.5000   -20.0750   101.6840    23.6320     5.1700     4.6510     6.1900     2.2770 
   98.6250   -20.2760    99.5400    23.6150     5.1640     4.6660     6.1730     2.2720 
   98.7500   -20.5080    99.2520    23.6870     5.2230     4.6210     6.1030     2.2700 
   98.8750   -20.7670    99.0060    23.8870     5.1970     4.5540     6.0450     2.2740 
   99.0000   -21.0570    99.3450    24.0790     5.0880     4.5280     6.0750     2.2910 
   99.1250   -21.3700   101.2410    23.9700     5.2200     4.6370     6.2930     2.3200 
   99.2500   -21.7220   101.8410    23.7540     5.8140     4.9070     6.6990     2.3510 
   99.3750   -22.1200   100.7540    23.6530     6.7440     5.3280     7.2750     2.3760 
   99.5000   -22.5760    98.4590    23.6140     7.8410     5.8460     7.9630     2.3870 
   99.6250   -23.0600    95.5470    23.5280     8.6760     6.3530     8.6600     2.3680 
   99.7500   -23.5340    93.6430    23.4130     8.9700     6.7420     9.2390     2.3210 
   99.8750   -23.9900    91.9250    23.3080     8.7340     6.9550     9.6060     2.2610 
  100.0000   -24.3880    88.1290    23.2580     8.2540     6.9860     9.7140     2.2100 
  100.1250   -24.7230    83.7690    23.2820     7.7760     6.8540     9.5370     2.1810 
  100.2500   -24.9760    84.5340    23.4450     7.4220     6.6440     9.1970     2.1720 
  100.3750   -25.1660    89.3320    23.6460     7.2640     6.4060     8.7980     2.1810 
  100.5000   -25.3090    90.5040    23.8820     7.0420     6.1800     8.4370     2.2050 
  100.6250   -25.4710    88.0610    24.2670     6.6520     5.9900     8.2020     2.2240 
  100.7500   -25.6660    86.3070    24.2500     6.4880     5.8400     8.0910     2.2260 
  100.8750   -25.9070    84.5050    23.9950     6.5810     5.7450     8.0960     2.2140 
  101.0000   -26.2240    82.7870    23.7790     6.7050     5.7280     8.2060     2.2020 
  101.1250   -26.6070    84.0230    23.8090     6.7610     5.8270     8.4250     2.1960 
  101.2500   -27.0410    86.4690    23.8780     6.8670     6.0240     8.7220     2.1880 
  101.3750   -27.5130    86.8660    23.9160     7.2050     6.2970     9.0770     2.1720 
  101.5000   -27.9750    85.2080    23.6430     7.7520     6.6070     9.4710     2.1500 
  101.6250   -28.3790    82.4990    23.4660     8.1960     6.9030     9.8810     2.1350 
  101.7500   -28.7220    78.8590    23.5630     8.4450     7.1610    10.2800     2.1330 
  101.8750   -28.9920    76.2220    23.8170     8.6470     7.3790    10.6490     2.1380 
  102.0000   -29.1820    75.3010    23.8810     8.9680     7.5700    10.9650     2.1410 
  102.1250   -29.2860    74.7190    23.7100     9.4880     7.7340    11.1780     2.1320 
  102.2500   -29.3260    75.0300    23.8270     9.8600     7.8530    11.2680     2.1180 
  102.3750   -29.2830    77.8820    23.9900     9.7700     7.8820    11.2210     2.1080 
  102.5000   -29.2010    82.1120    23.8490     9.2190     7.7880    11.0450     2.1120 
  102.6250   -29.0600    84.6720    23.5140     8.7850     7.5650    10.7760     2.1270 
  102.7500   -28.8930    84.7600    23.3140     8.7110     7.2900    10.4850     2.1440 
  102.8750   -28.6880    82.5390    23.4070     8.8020     7.0250    10.2000     2.1570 
  103.0000   -28.4690    79.3300    23.5340     8.6420     6.8260     9.9370     2.1620 
  103.1250   -28.2080    77.5100    23.6320     8.2940     6.7380     9.7310     2.1630 
  103.2500   -27.9260    77.3680    23.6560     8.0250     6.7360     9.6120     2.1640 
  103.3750   -27.6210    77.5830    23.6430     7.9430     6.8000     9.6260     2.1610 
  103.5000   -27.2550    76.9320    23.5520     7.9650     6.9310     9.8220     2.1480 
  103.6250   -26.8320    73.9420    23.5620     8.0350     7.1430    10.2110     2.1300 
  103.7500   -26.3090    69.6780    23.5860     8.1120     7.3810    10.6120     2.1220 
  103.8750   -25.6860    67.4360    23.6160     8.0920     7.5390    10.8020     2.1340 
  104.0000   -24.9430    69.9630    23.6700     8.0080     7.4850    10.5780     2.1640 
  104.1250   -24.1000    76.7650    23.8540     7.8040     7.0870     9.8260     2.2000 
  104.2500   -23.2040    83.6750    24.1290     7.2460     6.4650     8.8170     2.2280 
  104.3750   -22.3180    87.9940    24.3580     6.3740     5.7900     7.8220     2.2460 
  104.5000   -21.4840    90.1220    24.4400     5.6220     5.2280     7.0490     2.2520 
  104.6250   -20.7200    92.7360    24.3520     5.3810     4.9090     6.6350     2.2480 
  104.7500   -20.0780    96.8910    24.2020     5.3350     4.7930     6.5010     2.2450 
  104.8750   -19.5830   100.8070    24.0930     5.3180     4.8070     6.5490     2.2470 
  105.0000   -19.2150   102.6020    23.9150     5.2950     4.8470     6.6410     2.2540 
  105.1250   -19.0020   103.4580    23.7280     5.2360     4.8160     6.6320     2.2560 
  105.2500   -18.8670   104.1150    23.8620     5.1850     4.7100     6.5020     2.2520 
  105.3750   -18.7740   102.2510    24.1900     5.1120     4.5720     6.2950     2.2480 
  105.5000   -18.7090    97.5190    24.5230     4.9650     4.4590     6.0850     2.2540 
  105.6250   -18.6640    94.6020    24.6440     4.8220     4.4350     5.9560     2.2700 
  105.7500   -18.6390    98.6820    24.4920     4.8250     4.4880     5.9380     2.2840 
  105.8750   -18.6080   104.9640    24.0450     4.9200     4.5830     6.0220     2.2910 
  106.0000   -18.5930   106.6870    23.6870     4.9480     4.6680     6.1610     2.2940 
  106.1250   -18.5790   101.9870    23.6270     4.9450     4.6940     6.2610     2.2950 
  106.2500   -18.5560    98.0280    23.7740     4.9290     4.6590     6.2460     2.2890 
  106.3750   -18.5240    97.3630    23.8810     4.9280     4.5820     6.1070     2.2760 
  106.5000   -18.4950    99.8440    23.8710     4.9450     4.4850     5.9020     2.2700 
  106.6250   -18.4860   104.5590    23.8560     4.9160     4.3750     5.7290     2.2920 
  106.7500   -18.4890   106.4650    23.7410     4.8440     4.2550     5.6180     2.3290 
  106.8750   -18.5060   103.4900    23.7750     4.8100     4.1220     5.5310     2.3610 
