~V
VERS. 2.00: Ver 2.00
~W
STRT.M 62.0000:
STOP.M 318.0000:
STEP.M 0.1250:
NULL. -999.2500:
UWI. DF321:
~C
DEPT.M :
DEN.GM/CC :
SP.MV :
AC.US/MT :
GR.API :
CALI.CM :
RXO.OHMM :
RI. :
RML.OHMM :
~A
# ...
  162.0000     2.5030   -25.6260   315.0650    79.4080    23.6430    18.9650    11.4370    13.6680 
  162.1250     2.4250   -26.4240   344.0070    72.1960    23.3970    15.7340    10.9690    12.7050 
  162.2500     2.3200   -27.1720   375.4750    65.0560    23.1490    12.6040    10.1980    11.4830 
  162.3750     2.2300   -27.8570   401.2490    59.7240    22.9890    11.5450     9.5010    10.5330 
  162.5000     2.1780   -28.3590   417.4810    58.4290    22.9320    11.6230     9.0730    10.0550 
  162.6250     2.1650   -28.7000   424.1670    60.8000    22.9300    11.8410     8.9820    10.0470 
  162.7500     2.1650   -28.9230   426.5080    62.7500    22.9460    11.8890     9.0740    10.2370 
  162.8750     2.1670   -28.9950   427.1890    63.3140    22.9680    11.8370     9.2350    10.4430 
  163.0000     2.1700   -28.9690   427.4560    62.8050    22.9890    11.7540     9.3870    10.5850 
  163.1250     2.1720   -28.8330   427.5570    62.8590    23.0120    11.6600     9.5310    10.7050 
  163.2500     2.1720   -28.5880   427.4320    64.5140    23.0210    11.5550     9.6970    10.8870 
  163.3750     2.1720   -28.2690   426.9280    64.6700    23.0210    11.5100     9.8620    11.1180 
  163.5000     2.1750   -27.8950   425.8360    63.2290    23.0270    11.6000     9.9280    11.2620 
  163.6250     2.1800   -27.4470   423.8930    63.0740    23.0530    11.7570     9.6840    11.0130 
  163.7500     2.1900   -26.9220   421.4200    63.9050    23.1030    11.6550     9.0860    10.2800 
  163.8750     2.2070   -26.3380   418.8070    64.6360    23.1490    10.8410     8.2220     9.1740 
  164.0000     2.2340   -25.7180   416.0290    66.8040    23.2340     9.0920     7.3150     8.0170 
  164.1250     2.2550   -25.1200   411.0920    73.5260    23.3630     7.4540     6.7210     7.2910 
  164.2500     2.2520   -24.5890   400.7830    81.5760    23.4060     6.8230     6.6270     7.2190 
  164.3750     2.2330   -24.1180   382.1870    85.1220    23.3550     7.1300     7.1270     7.9000 
  164.5000     2.2360   -23.6920   355.5080    81.5590    23.3820     8.2800     8.2030     9.3100 
  164.6250     2.3060   -23.3690   327.1070    74.0160    23.5800    12.3220     9.6240    11.1590 
  164.7500     2.4120   -23.1950   307.9390    68.5210    23.7390    17.6200    10.7340    12.5170 
  164.8750     2.4920   -23.1170   305.3450    66.1390    23.7920    19.5130    10.9820    12.5800 
  165.0000     2.5030   -23.1430   320.1280    66.4090    23.8100    15.8210    10.3060    11.3740 
  165.1250     2.4480   -23.3100   346.2410    71.2460    23.8380    10.6880     9.1600     9.7490 
  165.2500     2.3820   -23.4730   371.3810    75.5180    23.8290     8.3200     8.1400     8.4950 
  165.3750     2.3300   -23.7320   389.4600    77.4960    23.7330     7.9420     7.4720     7.8090 
  165.5000     2.2950   -24.1250   399.5570    79.4110    23.5470     8.2850     7.2050     7.6590 
  165.6250     2.2810   -24.5280   404.0260    83.3120    23.3400     8.4600     7.3240     7.9510 
  165.7500     2.2840   -25.0400   407.0700    85.2260    23.2380     8.4780     7.6620     8.4450 
  165.8750     2.2890   -25.6260   409.9770    83.0640    23.1630     8.6390     8.1210     9.0250 
  166.0000     2.2770   -26.1810   412.7500    79.1060    23.0510     9.0790     8.6190     9.6080 
  166.1250     2.2450   -26.7270   414.8480    76.9640    22.9620     9.7520     9.0580    10.0950 
  166.2500     2.2110   -27.2550   416.1420    77.6190    22.9280    10.3950     9.3670    10.4130 
  166.3750     2.1870   -27.7280   416.6970    78.9870    22.9220    10.8450     9.5090    10.5180 
  166.5000     2.1740   -28.1150   416.7330    77.3260    22.9260    11.0370     9.4940    10.4350 
  166.6250     2.1730   -28.4610   416.6080    72.2680    22.9380    11.0950     9.3760    10.2570 
  166.7500     2.1800   -28.7130   416.7940    66.8040    22.9490    11.0290     9.2540    10.1060 
  166.8750     2.1880   -28.8770   417.6230    65.9060    22.9510    10.8670     9.1700    10.0210 
  167.0000     2.1900   -29.0180   419.1320    69.6560    22.9460    10.7580     9.1540    10.0130 
  167.1250     2.1810   -29.1120   420.6500    73.2530    22.9450    10.9080     9.2480    10.1060 
  167.2500     2.1700   -29.1340   420.9020    73.3850    22.9510    11.1800     9.4410    10.2890 
  167.3750     2.1700   -29.1090   418.9410    72.6500    22.9680    11.3940     9.7260    10.5530 
  167.5000     2.1870   -29.0360   414.7330    73.2390    23.0030    11.7050    10.0860    10.8890 
  167.6250     2.2140   -28.8790   409.4660    74.2730    23.0330    12.4100    10.5010    11.2870 
  167.7500     2.2370   -28.6940   405.2380    73.6310    23.0500    13.0430    10.9260    11.6890 
  167.8750     2.2460   -28.4550   403.2840    71.0380    23.0410    13.0710    11.3060    12.0300 
  168.0000     2.2450   -28.1390   403.9180    68.4300    23.0290    12.8700    11.5650    12.2160 
  168.1250     2.2380   -27.7350   406.7450    69.1680    23.0300    13.1920    11.5340    12.0570 
  168.2500     2.2250   -27.2880   410.1110    71.4380    23.0390    13.1400    11.1640    11.5150 
  168.3750     2.2080   -26.8000   412.6820    73.9640    23.0620    12.2940    10.4750    10.6370 
  168.5000     2.2000   -26.3340   413.3910    76.6720    23.1290    10.6780     9.5790     9.5680 
  168.6250     2.2170   -25.8730   411.6150    80.2740    23.2720     8.9820     8.6740     8.5570 
  168.7500     2.2420   -25.3970   408.7120    82.8470    23.4040     7.9490     7.9570     7.8180 
  168.8750     2.2640   -25.0220   406.3270    84.2220    23.4750     7.5870     7.5310     7.4530 
  169.0000     2.2790   -24.6750   405.9640    86.3410    23.5090     7.4610     7.4320     7.4770 
  169.1250     2.2900   -24.4050   408.5200    88.7480    23.5150     7.7250     7.6600     7.9070 
  169.2500     2.2840   -24.2510   412.4400    87.7580    23.4500     8.7490     8.0270     8.4290 
  169.3750     2.2600   -24.0970   415.6850    81.9540    23.3390     9.9890     8.3650     8.8270 
  169.5000     2.2380   -23.9550   415.9770    76.2730    23.2850    10.5850     8.5630     8.9690 
  169.6250     2.2480   -23.8240   410.5040    76.7990    23.3460    11.0940     8.6610     8.9460 
  169.7500     2.2820   -23.7080   399.3160    79.9870    23.4720    11.2090     8.8700     9.0790 
  169.8750     2.3290   -23.5460   382.8480    82.2770    23.6430    11.0390     9.4140     9.6720 
  170.0000     2.3790   -23.4120   362.2280    81.0970    23.7350    12.1920    10.5080    10.9780 
  170.1250     2.4240   -23.2810   338.9560    77.0940    23.6300    15.5590    12.4110    13.2650 
  170.2500     2.4610   -23.0950   315.8330    73.3670    23.4760    18.3450    14.9630    16.2670 
  170.3750     2.4930   -22.9680   295.2810    72.1570    23.3560    19.6600    17.8890    19.6020 
  170.5000     2.5240   -22.8810   279.4240    73.4290    23.2870    21.0770    20.6850    22.6520 
  170.6250     2.5430   -22.8030   270.2530    74.4340    23.2710    23.8040    22.6100    24.5680 
  170.7500     2.5420   -22.7290   266.0250    74.1620    23.3970    25.9430    23.5150    25.3010 
  170.8750     2.5290   -22.6770   264.9420    72.6890    23.5100    26.7500    23.5310    25.1010 
  171.0000     2.5200   -22.5760   265.1880    70.5810    23.5720    26.2810    22.9050    24.2880 
  171.1250     2.5230   -22.4750   265.6700    69.1050    23.6840    24.7460    21.8800    23.1300 
  171.2500     2.5270   -22.4210   266.1620    68.6960    23.8760    22.6870    20.8360    22.0010 
  171.3750     2.5160   -22.3340   266.6060    69.1610    23.9880    20.9030    20.0310    21.1540 
  171.5000     2.4920   -22.2590   266.4520    68.9320    23.9540    20.1590    19.6580    20.7880 
  171.6250     2.4740   -22.2160   264.2630    66.8190    23.8340    21.0810    19.9780    21.1910 
  171.7500     2.4780   -22.1490   259.4960    64.1510    23.7240    23.0610    21.0030    22.3710 
  171.8750     2.5070   -22.1000   252.4210    62.7400    23.6610    26.1840    22.7790    24.3570 
