~V
VERS. 2.00: Ver 2.00
~W
STRT.M 60.0000:
STOP.M 258.0000:
STEP.M 0.1250:
NULL. -999.2500:
UWI. DF32100:
~C
DEPT.M :
SP.MV :
GR.API :
CALI.CM :
RXO.OHMM :
RI. :
RML.OHMM :
DEN.GM/CC :
~A
   60.0000    29.1520    50.2260    25.2900     2.6340     0.0180    -0.0800     2.1690 
   60.1250    30.4860    50.6880    25.2600     1.8870     0.0150    -0.3410     2.2660 
   60.2500    31.4670    52.5940    25.1220     1.2070     0.0020    -0.5480     2.3110 
   60.3750    31.8070    54.2150    24.7480     0.9930    -0.0160    -0.6680     2.2880 
   60.5000    31.2260    55.2050    24.1730     0.9340    -0.0300    -0.7230     2.2000 
   60.6250    29.2010    56.3940    23.8000     1.0270    -0.0250    -0.7240     2.1050 
   60.7500    25.8400    58.8440    23.6070     1.5740     0.0300    -0.6750     2.0780 
   60.8750    21.4220    63.1760    23.5060     3.0450     0.1920    -0.5400     2.1130 
   61.0000    16.2630    68.9760    23.3600     5.3810     0.5570    -0.2230     2.1400 
   61.1250    10.6290    71.5950    23.1660     7.1100     1.3270     0.5870     2.1110 
   61.2500     4.9010    70.5450    23.0880     7.9170     2.4780     1.9640     2.0770 
   61.3750    -0.5840    69.1630    23.0880     8.1430     3.7880     3.3630     2.0790 
   61.5000    -5.4230    68.1410    23.1290     8.2620     4.9500     4.1050     2.1080 
   61.6250    -9.1510    67.1280    23.1500     8.3640     5.8090     4.3540     2.1290 
   61.7500   -11.9310    67.7730    23.1570     8.5850     6.4880     4.6110     2.1350 
   61.8750   -14.0070    71.6640    23.1570     8.9640     7.0330     4.9660     2.1410 
   62.0000   -15.5980    76.6290    23.1740     9.2440     7.4350     5.3760     2.1530 
   62.1250   -16.8280    77.8850    23.2260     9.0690     7.6480     5.7240     2.1610 
   62.2500   -17.8450    77.3500    23.2960     8.7540     7.7130     5.9450     2.1580 
   62.3750   -18.6700    76.4840    23.3340     8.5900     7.6810     6.0540     2.1510 
   62.5000   -19.3980    75.3970    23.3530     8.5620     7.6140     6.1110     2.1500 
   62.6250   -20.1020    73.4250    23.3610     8.5280     7.5670     6.1760     2.1500 
   62.7500   -20.7800    71.3060    23.3640     8.5290     7.5470     6.2580     2.1400 
   62.8750   -21.4110    70.2340    23.3640     8.7140     7.5400     6.3460     2.1200 
   63.0000   -21.9720    70.1570    23.3820     9.0950     7.5320     6.4310     2.1030 
   63.1250   -22.4360    70.0940    23.4390     9.4770     7.5090     6.5130     2.1060 
   63.2500   -22.7680    69.7930    23.5170     9.6680     7.4690     6.5990     2.1220 
   63.3750   -23.0270    70.1350    23.5530     9.7300     7.4220     6.6890     2.1340 
   63.5000   -23.2530    71.1850    23.5500     9.7570     7.3870     6.7790     2.1340 
   63.6250   -23.4270    70.2150    23.5220     9.7620     7.3790     6.8610     2.1310 
   63.7500   -23.5310    68.4530    23.4860     9.7350     7.3860     6.9260     2.1350 
   63.8750   -23.5340    68.5270    23.4700     9.6870     7.3910     6.9590     2.1410 
   64.0000   -23.5150    70.0240    23.4670     9.6330     7.3820     6.9630     2.1450 
   64.1250   -23.5380    70.3080    23.4660     9.6310     7.3600     6.9620     2.1440 
   64.2500   -23.6040    69.7180    23.4540     9.5780     7.3420     6.9890     2.1440 
   64.3750   -23.7010    69.1730    23.4030     9.4350     7.3370     7.0560     2.1470 
   64.5000   -23.8140    69.0410    23.3010     9.2980     7.3470     7.1560     2.1480 
   64.6250   -23.9300    70.0090    23.2000     9.2550     7.3710     7.2790     2.1430 
   64.7500   -24.0100    71.3640    23.1630     9.2490     7.4020     7.4140     2.1340 
   64.8750   -24.0610    71.5880    23.1560     9.2150     7.4300     7.5490     2.1290 
   65.0000   -24.0640    72.1220    23.1570     9.1310     7.4260     7.6520     2.1310 
   65.1250   -23.9730    75.2010    23.1570     9.0680     7.3600     7.6740     2.1360 
   65.2500   -23.8600    77.2330    23.1570     9.0620     7.2460     7.6210     2.1390 
   65.3750   -23.7790    77.9390    23.1570     8.9670     7.1190     7.5270     2.1440 
   65.5000   -23.7110    80.9840    23.1570     8.6880     7.0270     7.4490     2.1550 
   65.6250   -23.6630    87.8270    23.1550     8.5310     7.0180     7.4540     2.1650 
   65.7500   -23.6830    91.5690    23.1640     8.6080     7.0900     7.5400     2.1570 
   65.8750   -23.7400    88.4100    23.2060     8.7900     7.2190     7.6620     2.1350 
   66.0000   -23.8690    82.5300    23.3010     8.9990     7.3470     7.7540     2.1200 
   66.1250   -24.0740    80.1990    23.3480     9.2070     7.3760     7.7250     2.1280 
   66.2500   -24.2290    80.9560    23.3640     9.3130     7.2780     7.5650     2.1440 
   66.3750   -24.2660    82.5930    23.3640     9.2150     7.0880     7.3280     2.1550 
   66.5000   -24.2230    84.8090    23.3640     8.9100     6.8870     7.1120     2.1590 
   66.6250   -24.0520    87.7140    23.3640     8.3860     6.7820     7.0270     2.1690 
   66.7500   -23.7410    88.9640    23.3640     7.8850     6.7980     7.0740     2.1820 
   66.8750   -23.3340    88.4830    23.3640     7.7470     6.9060     7.2170     2.1880 
   67.0000   -22.8080    88.2220    23.3650     7.9950     7.0200     7.3620     2.1770 
   67.1250   -22.1510    88.2110    23.3820     8.0860     6.9890     7.3330     2.1560 
   67.2500   -21.4720    88.2680    23.4190     7.5420     6.7320     7.0440     2.1490 
   67.3750   -20.8210    90.7760    23.4530     6.8170     6.2640     6.5310     2.1650 
   67.5000   -20.1420    96.9180    23.4660     6.1490     5.6910     5.9330     2.1980 
   67.6250   -19.5200   102.3150    23.4630     5.6480     5.1820     5.4330     2.2340 
   67.7500   -19.0780   103.7420    23.4600     5.1640     4.8410     5.1200     2.2620 
   67.8750   -18.8460   103.6220    23.4630     5.0330     4.7070     5.0250     2.2780 
   68.0000   -18.8120   104.4950    23.4590     5.1910     4.7810     5.1330     2.2770 
   68.1250   -19.0410   105.3900    23.4260     5.5340     5.0450     5.4350     2.2520 
   68.2500   -19.4410   104.3680    23.3580     5.9490     5.4000     5.8540     2.2160 
   68.3750   -19.9960    99.9990    23.2760     6.4740     5.7730     6.3300     2.1800 
   68.5000   -20.7030    92.6390    23.1680     7.2400     6.0980     6.7850     2.1570 
   68.6250   -21.4580    86.8260    23.0900     7.8090     6.3010     7.1080     2.1480 
   68.7500   -22.0820    84.9020    23.0550     7.8530     6.3730     7.2700     2.1470 
   68.8750   -22.5000    86.0040    23.0550     7.6520     6.3310     7.2930     2.1570 
   69.0000   -22.7350    87.4700    23.0610     7.5680     6.2320     7.2650     2.1810 
   69.1250   -22.7790    88.2390    23.0650     7.4610     6.1920     7.3440     2.2040 
   69.2500   -22.7220    89.2050    23.0650     7.3920     6.2930     7.6130     2.2100 
   69.3750   -22.5610    90.2970    23.0710     7.6130     6.5430     8.0710     2.2050 
   69.5000   -22.3320    90.1040    23.0890     8.1810     6.8650     8.6230     2.2150 
   69.6250   -22.0440    89.0830    23.1250     9.1820     7.0790     9.0120     2.2470 
   69.7500   -21.7620    88.9080    23.1430     9.2230     7.0480     9.0190     2.2710 
   69.8750   -21.6030    89.7950    23.1500     8.4090     6.7560     8.6110     2.2630 
   70.0000   -21.5450    90.2070    23.1500     7.6120     6.3110     7.9730     2.2340 
   70.1250   -21.5300    90.6920    23.1500     7.0410     5.9010     7.3970     2.2110 
   70.2500   -21.6090    93.8820    23.1120     6.5870     5.6550     7.0700     2.2050 
   70.3750   -21.7750    98.8360    22.8920     6.3930     5.6180     7.0650     2.2040 
   70.5000   -21.9960   102.8400    22.2990     6.6170     5.7910     7.3750     2.1990 
   70.6250   -22.3270   101.7960    21.5350     7.0040     6.1340     7.9320     2.1860 
   70.7500   -22.7410    95.6530    21.0870     7.3910     6.5310     8.5370     2.1740 
   70.8750   -23.1680    88.4430    20.9210     7.7840     6.8940     9.0290     2.1690 
   71.0000   -23.5890    85.5500    20.9180     8.0230     7.1400     9.2840     2.1720 
   71.1250   -24.0520    88.1540    21.0190     7.9000     7.1880     9.2410     2.1810 
