~V
VERS. 2.00: Ver 2.00
~W
STRT.M 60.0000:
STOP.M 270.0000:
STEP.M 0.1250:
NULL. -999.2500:
UWI. DF32131:
~C
DEPT.M :
DEN.GM/CC :
GR.API :
CALI.CM :
RXO.OHMM :
RI. :
RML.OHMM :
SP.MV :
~A
# ...
   71.2500     2.1360    68.8500    23.3110    10.8870     7.2090     9.7020   -37.5380 
   71.3750     2.1450    65.9450    23.2980    10.8380     7.1950     9.7140   -37.5800 
   71.5000     2.1590    64.3240    23.2940    10.9440     7.1460     9.6830   -37.6150 
   71.6250     2.1650    64.6780    23.2970    11.2080     7.0810     9.5990   -37.7150 
   71.7500     2.1630    65.7320    23.2990    11.2780     7.0360     9.5040   -37.7640 
   71.8750     2.1670    67.1130    23.2920    10.9150     7.0340     9.4560   -37.7720 
   72.0000     2.1790    68.3510    23.2590    10.5700     7.0900     9.5250   -37.7980 
   72.1250     2.1880    69.5910    23.2400    10.7670     7.2270     9.7770   -37.8220 
   72.2500     2.1860    70.0220    23.2320    11.2940     7.4270    10.1580   -37.8250 
   72.3750     2.1780    67.8640    23.2320    11.6260     7.6580    10.5600   -37.7600 
   72.5000     2.1740    65.4500    23.2310    11.7600     7.8420    10.8230   -37.6030 
   72.6250     2.1770    66.8110    23.2310    11.8350     7.8500    10.7480   -37.3140 
   72.7500     2.1790    69.7210    23.2000    11.5770     7.6600    10.3770   -37.0470 
   72.8750     2.1790    70.7480    23.0800    10.8090     7.3140     9.8310   -36.8080 
   73.0000     2.1790    70.8810    22.8070     9.7520     6.9080     9.2670   -36.5840 
   73.1250     2.1810    74.5140    22.3870     9.0350     6.5640     8.8440   -36.3990 
   73.2500     2.1790    78.8910    22.0460     8.8030     6.3410     8.6090   -36.2880 
   73.3750     2.1740    81.1090    21.9820     8.8290     6.2540     8.5580   -36.2860 
   73.5000     2.1710    80.3710    22.1810     8.8750     6.2890     8.6570   -36.3580 
   73.6250     2.1670    76.3160    22.3580     9.0100     6.4360     8.8620   -36.5520 
   73.7500     2.1610    71.9610    22.4440     9.2380     6.6370     9.0910   -36.7270 
   73.8750     2.1520    69.4760    22.5620     9.5330     6.8520     9.2980   -36.8060 
   74.0000     2.1480    69.1070    22.8510     9.8910     7.0440     9.4570   -36.8220 
   74.1250     2.1520    68.3310    23.4450    10.2270     7.1860     9.5620   -36.7360 
   74.2500     2.1590    66.7580    23.9800    10.3590     7.2900     9.6460   -36.4370 
   74.3750     2.1620    65.3890    24.1840    10.2670     7.3630     9.7240   -35.8820 
   74.5000     2.1630    65.1150    23.9400    10.0370     7.3760     9.7550   -35.0710 
   74.6250     2.1630    66.6860    23.4000     9.6690     7.2360     9.5880   -34.0020 
   74.7500     2.1690    70.1660    22.9470     9.2190     6.8980     9.1260   -32.7870 
   74.8750     2.1890    76.4970    22.6270     8.5760     6.3730     8.3680   -31.5350 
   75.0000     2.2280    86.4950    22.4840     7.5740     5.7400     7.4340   -30.2640 
   75.1250     2.2820    97.1260    22.5590     6.4170     5.1210     6.5330   -29.1300 
   75.2500     2.3260   103.4260    22.7670     5.5340     4.6150     5.8190   -28.2700 
   75.3750     2.3400   105.1870    22.9570     5.0750     4.2730     5.3640   -27.7020 
   75.5000     2.3260   106.2700    23.0300     4.9170     4.1240     5.2020   -27.5070 
   75.6250     2.3080   107.8800    22.9840     4.9460     4.2110     5.3910   -27.6440 
   75.7500     2.3060   106.9860    22.7910     5.2060     4.4950     5.8710   -28.0010 
   75.8750     2.3190   103.4880    22.4870     5.8950     4.9540     6.6050   -28.5550 
   76.0000     2.3420   100.1960    22.1880     7.2140     5.5350     7.5080   -29.2270 
   76.1250     2.3550    96.4070    22.1780     8.4940     6.1180     8.3700   -29.9590 
   76.2500     2.3470    89.8950    22.4610     8.9130     6.5480     8.9310   -30.6240 
   76.3750     2.3120    82.9460    22.8980     8.4370     6.7250     9.0450   -31.1430 
   76.5000     2.2630    79.9420    23.1610     7.7250     6.6550     8.7630   -31.4350 
   76.6250     2.2190    80.6490    23.2060     7.1700     6.4220     8.2860   -31.4690 
   76.7500     2.1930    81.8660    23.1690     6.7500     6.1750     7.8630   -31.3040 
   76.8750     2.1800    83.2970    23.1350     6.5840     5.9960     7.6110   -30.8010 
   77.0000     2.1730    83.9900    23.1210     6.7690     5.9350     7.5800   -29.9100 
   77.1250     2.1740    83.5960    23.1210     6.9870     6.0130     7.7740   -28.5170 
   77.2500     2.1970    85.0850    23.1470     7.0040     6.1420     8.0480   -26.8150 
   77.3750     2.2500    89.2130    23.2630     7.0670     6.2180     8.2420   -25.1040 
   77.5000     2.3190    93.8500    23.5360     7.5680     6.1420     8.1970   -23.5050 
   77.6250     2.3680    96.3380    23.7640     7.4340     5.8380     7.7830   -22.0570 
   77.7500     2.3820    97.5880    23.9140     6.6010     5.4030     7.1610   -20.7730 
   77.8750     2.3680    99.7640    23.9960     5.6810     4.9490     6.5110   -19.7580 
   78.0000     2.3470   104.8660    24.0250     5.2420     4.5680     5.9800   -19.1380 
   78.1250     2.3330   111.5610    24.0190     5.1750     4.3370     5.6860   -19.1040 
   78.2500     2.3230   114.1080    23.9870     5.1810     4.2510     5.6170   -19.4520 
   78.3750     2.3110   111.1170    23.9150     5.2240     4.3040     5.7550   -20.0240 
   78.5000     2.2940   106.5320    23.7900     5.3230     4.4880     6.0840   -20.7420 
   78.6250     2.2720   102.7080    23.6290     5.5690     4.8430     6.6680   -21.5900 
   78.7500     2.2550    98.8830    23.5010     5.9470     5.3680     7.5130   -22.5140 
   78.8750     2.2560    94.7880    23.5100     6.5150     6.0400     8.5940   -23.5800 
   79.0000     2.2760    90.3940    23.6510     7.5590     6.7800     9.7790   -24.7010 
   79.1250     2.2970    83.8950    23.7950     9.7520     7.4100    10.7440   -25.7810 
   79.2500     2.2930    76.9010    23.9110    11.8490     7.7770    11.2120   -26.8050 
   79.3750     2.2590    72.5160    23.9900    12.7480     7.8150    11.1160   -27.6610 
   79.5000     2.2100    70.3660    24.0210    11.9880     7.5880    10.6430   -28.3980 
   79.6250     2.1680    67.5860    24.0150    10.4250     7.2390    10.0820   -29.0690 
   79.7500     2.1400    66.1200    24.0150     9.3270     6.9200     9.6480   -29.5900 
   79.8750     2.1240    67.7480    24.0190     8.9260     6.6920     9.3960   -29.9520 
   80.0000     2.1180    70.8720    24.0190     8.8110     6.5620     9.2910   -30.1850 
   80.1250     2.1190    72.6600    24.0170     8.7210     6.5070     9.2580   -30.2830 
   80.2500     2.1220    71.7530    24.0120     8.6330     6.4830     9.2520   -30.3370 
   80.3750     2.1230    69.7510    24.0080     8.5760     6.4930     9.3050   -30.3650 
   80.5000     2.1230    68.6200    24.0070     8.5690     6.5580     9.4670   -30.3440 
   80.6250     2.1290    69.0560    24.0090     8.7120     6.7160     9.7950   -30.2410 
   80.7500     2.1400    68.2840    24.0100     9.0620     6.9540    10.2520   -30.1270 
   80.8750     2.1510    65.2610    24.0080     9.6390     7.2370    10.7660   -29.9900 
   81.0000     2.1540    63.1290    24.0060    10.2830     7.4920    11.2000   -29.7820 
   81.1250     2.1530    64.2200    23.9990    10.6590     7.5880    11.3300   -29.4190 
   81.2500     2.1580    65.8350    23.9820    10.6310     7.4780    11.0920   -28.9680 
   81.3750     2.1720    66.3690    23.9630    10.1050     7.1790    10.5320   -28.4800 
   81.5000     2.1880    67.6820    23.9580     8.9920     6.7520     9.8010   -27.9710 
   81.6250     2.1980    71.7260    23.9580     7.8440     6.2880     9.1060   -27.4810 
   81.7500     2.2070    76.9670    23.9550     7.1760     5.8780     8.5780   -27.0130 
   81.8750     2.2170    80.0450    23.9510     7.0410     5.5660     8.2480   -26.5260 
   82.0000     2.2160    79.5290    23.9560     7.0000     5.3670     8.0900   -26.1410 
   82.1250     2.1980    76.4320    23.9620     6.8340     5.2890     8.0560   -25.9230 
   82.2500     2.1800    75.0420    23.9540     6.7040     5.2870     8.0500   -25.7260 
   82.3750     2.1780    77.9010    23.9310     6.6710     5.3270     8.0410   -25.5980 
