~V
VERS. 2.00: Ver 2.00
~W
STRT.M 61.0000:
STOP.M 238.0000:
STEP.M 0.1250:
NULL. -999.2500:
UWI. DF32044:
~C
DEPT.M :
DEN.GM/CC :
SP.MV :
GR.API :
RML.OHMM :
RI. :
RXO.OHMM :
CALI.CM :
~A
# ...
  162.2500     2.2240   -21.7320    59.6320   128.8580   116.2270    62.9720    24.4450 
  162.3750     2.2260   -21.7240    58.5170   132.3360   119.9170    64.6060    24.4100 
  162.5000     2.2300   -21.7350    58.7020   135.6910   123.9570    66.1790    24.3770 
  162.6250     2.2350   -21.7530    59.6050   138.1700   127.6260    66.9750    24.3410 
  162.7500     2.2390   -21.7960    59.5120   139.2350   130.3710    66.4980    24.2940 
  162.8750     2.2410   -21.8750    58.5140   138.5350   131.7110    65.3430    24.2430 
  163.0000     2.2390   -21.9850    57.7960   136.0390   131.1340    64.5150    24.1840 
  163.1250     2.2340   -22.1220    57.1280   130.8990   127.5340    64.0420    24.0690 
  163.2500     2.2280   -22.2230    54.9040   123.6610   120.6410    62.4320    23.9430 
  163.3750     2.2230   -22.2590    51.8560   113.6110   109.9620    59.4190    23.8560 
  163.5000     2.2230   -22.4300    52.2220   100.1620    95.5090    56.5350    23.8230 
  163.6250     2.2330   -22.6580    57.2760    84.1280    78.4570    55.3160    23.8170 
  163.7500     2.2550   -22.6900    62.9200    65.3860    62.2080    54.8540    23.8210 
  163.8750     2.2830   -22.7580    67.1510    51.4570    49.3480    52.5660    23.8080 
  164.0000     2.3070   -22.9250    69.2610    43.4210    41.2850    46.7750    23.7680 
  164.1250     2.3160   -22.9670    66.7160    42.0360    39.1540    41.8460    23.7450 
  164.2500     2.3080   -23.0860    61.9030    45.6330    41.7640    42.2170    23.7200 
  164.3750     2.2910   -23.4110    58.7070    53.2360    48.4070    48.6430    23.6640 
  164.5000     2.2730   -23.6630    57.7060    63.3450    57.8010    57.0780    23.5610 
  164.6250     2.2610   -23.8140    57.0730    73.4610    67.6550    59.6960    23.4580 
  164.7500     2.2530   -24.1360    56.7130    80.8440    75.1370    59.7880    23.3850 
  164.8750     2.2450   -24.5130    57.1980    83.9820    78.5800    61.5070    23.3220 
  165.0000     2.2380   -24.8290    58.4150    83.0170    77.9430    63.8680    23.2190 
  165.1250     2.2350   -25.1720    59.5680    79.7420    74.5760    61.7700    23.0730 
  165.2500     2.2370   -25.5370    60.3250    77.1760    71.0790    55.1240    22.9390 
  165.3750     2.2440   -25.8650    60.9930    76.7130    69.0880    49.8110    22.8580 
  165.5000     2.2520   -26.1660    61.8370    79.4880    69.8360    50.4610    22.8250 
  165.6250     2.2570   -26.4980    62.0100    84.8470    74.6020    57.0880    22.8200 
  165.7500     2.2560   -26.8740    60.1810    92.2850    82.6450    64.9900    22.8230 
  165.8750     2.2500   -27.1800    56.8910   100.0320    92.9820    74.1430    22.8250 
  166.0000     2.2440   -27.4410    54.5100   106.7400   103.9540    88.6410    22.8250 
  166.1250     2.2350   -27.7910    55.5400   115.7550   113.0920   100.2450    22.8550 
  166.2500     2.2250   -28.0730    58.0200   121.6950   119.0560    96.5110    22.9690 
  166.3750     2.2130   -28.2090    59.8200   124.3870   121.5890    86.5710    23.2060 
  166.5000     2.2010   -28.4060    60.9140   124.5290   121.4130    78.1620    23.5360 
  166.6250     2.1920   -28.6990    60.8530   123.2700   119.6510    72.9860    23.9810 
  166.7500     2.1920   -28.8020    59.0920   121.9110   117.6190    71.8260    24.3850 
  166.8750     2.1980   -28.8150    55.6890   120.8680   115.7740    75.2350    24.5810 
  167.0000     2.2090   -28.9670    54.3200   120.3550   114.3610    81.4230    24.5880 
  167.1250     2.2180   -28.9820    56.3960   121.0370   113.9770    84.3790    24.5620 
  167.2500     2.2240   -28.8910    58.2750   123.5650   115.1760    82.5600    24.5530 
  167.3750     2.2260   -28.9600    57.6510   128.6670   118.5430    80.9540    24.5530 
  167.5000     2.2240   -28.9670    55.2180   136.7840   124.3960    84.4030    24.5530 
  167.6250     2.2190   -28.7260    54.3810   148.3200   132.9950    92.7370    24.5530 
  167.7500     2.2150   -28.5640    55.8880   162.0300   143.3010    98.8420    24.5530 
  167.8750     2.2120   -28.4850    57.7390   176.7060   154.3300    99.1840    24.5530 
  168.0000     2.2100   -28.2040    58.2240   190.8790   164.8990    95.0020    24.5530 
  168.1250     2.2050   -27.8640    55.9260   202.8250   173.6250    90.7270    24.5530 
  168.2500     2.1980   -27.6210    53.3810   212.2920   180.3340    89.8600    24.5520 
  168.3750     2.1890   -27.3190    52.4750   219.5160   185.2250    89.8650    24.5410 
  168.5000     2.1840   -26.9770    52.8440   224.8910   188.6250    84.1630    24.4940 
  168.6250     2.1840   -26.6490    52.8680   227.8720   190.1710    75.8710    24.3720 
  168.7500     2.1890   -26.3270    53.2530   227.4290   189.2140    75.2110    24.1460 
  168.8750     2.1970   -26.0650    53.7370   221.8210   184.5210    82.7950    23.7470 
  169.0000     2.2080   -25.9030    53.8160   210.2090   175.3670    90.1070    23.3050 
  169.1250     2.2240   -25.7420    54.0460   193.8490   162.2600    85.6020    22.8530 
  169.2500     2.2420   -25.5550    55.8530   177.9200   148.8160    72.1600    22.6540 
  169.3750     2.2530   -25.3970    58.5450   166.5870   138.3080    58.7150    22.6580 
  169.5000     2.2520   -25.2200    59.0820   162.4850   133.1820    53.9740    22.8940 
  169.6250     2.2410   -25.1010    56.2880   166.8070   134.9240    61.7100    23.2600 
  169.7500     2.2350   -25.0340    52.2430   174.9480   140.3060    75.7790    23.5650 
  169.8750     2.2500   -24.8150    50.0090   181.3770   145.3810    86.0420    23.7330 
  170.0000     2.2950   -24.5480    49.7760   179.7980   145.6050    86.6970    23.8060 
  170.1250     2.3710   -24.4950    49.4180   163.2930   135.7280    85.9240    23.8280 
  170.2500     2.4580   -24.3190    48.4320   135.2220   116.8690    86.2840    23.8310 
  170.3750     2.5410   -24.0070    47.6380   102.7560    92.5960    85.4740    23.8230 
  170.5000     2.6010   -23.8710    46.6300    74.2690    68.4730    78.5200    23.8010 
  170.6250     2.6230   -23.8200    45.2740    55.3270    50.1590    60.1360    23.7590 
  170.7500     2.6130   -23.5780    46.6500    43.5920    37.9760    40.6640    23.7430 
  170.8750     2.5840   -23.3440    52.1700    36.8530    30.7210    28.1300    23.7500 
  171.0000     2.5540   -23.2480    58.8320    33.1980    26.7040    24.3370    23.7840 
  171.1250     2.5450   -23.0410    61.7660    30.9950    24.4680    27.5770    23.8550 
  171.2500     2.5590   -22.7900    61.8290    28.6270    22.5140    29.8550    23.9250 
  171.3750     2.5870   -22.5910    61.8820    25.2640    20.2190    26.1930    23.9770 
  171.5000     2.6070   -22.3690    62.5300    20.9350    17.4210    20.1780    24.0010 
  171.6250     2.5940   -22.1160    62.5890    15.9600    14.3990    15.7590    24.0040 
  171.7500     2.5440   -21.8720    62.2000    11.4300    11.6590    12.0050    23.9850 
  171.8750     2.4730   -21.6740    60.5840     8.4360     9.4540     9.1100    23.9250 
  172.0000     2.4070   -21.4660    56.3800     7.1410     7.8180     7.3730    23.8350 
  172.1250     2.3810   -21.1880    50.6620     6.4260     6.7100     6.3800    23.7220 
  172.2500     2.3990   -20.9590    47.2330     5.9270     5.8980     5.4990    23.5850 
  172.3750     2.4500   -20.7990    47.0240     5.5330     5.2650     4.7370    23.4360 
  172.5000     2.5070   -20.6360    47.8090     5.1750     4.7280     4.2200    23.3570 
  172.6250     2.5320   -20.4280    46.6510     4.8190     4.2480     3.7870    23.4380 
  172.7500     2.5190   -20.2880    44.3450     4.4770     3.8120     3.3680    23.6210 
  172.8750     2.4820   -20.2300    43.9090     4.1800     3.4420     3.0930    23.8620 
  173.0000     2.4400   -20.1230    44.9440     3.9680     3.1640     2.9630    24.1000 
  173.1250     2.4080   -20.0880    43.9610     3.9040     3.0330     2.9110    24.2850 
  173.2500     2.3860   -20.2580    40.6330     3.9950     3.0560     3.0070    24.3930 
  173.3750     2.3700   -20.4220    37.9680     4.2490     3.2420     3.3920    24.4420 
