~V
VERS. 2.00: Ver 2.00
~W
STRT.M 62.0000:
STOP.M 272.0000:
STEP.M 0.1250:
NULL. -999.2500:
UWI. DF32143:
~C
DEPT.M :
SP.MV :
GR.API :
CALI.CM :
RXO.OHMM :
RI. :
RML.OHMM :
DEN.GM/CC :
~A
# ...
  129.5000   -19.5440    76.8370    23.9200     6.6990     5.9170     6.2710     2.2650 
  129.6250   -18.5880    78.1290    24.2360     5.0830     4.9610     5.0550     2.2980 
  129.7500   -18.0560    82.0580    24.6020     4.0670     4.3140     4.3560     2.3260 
  129.8750   -17.9450    84.9610    24.7840     3.8430     4.0370     4.2120     2.3380 
  130.0000   -18.1880    83.9390    24.6530     4.3760     4.1420     4.6040     2.3260 
  130.1250   -18.8080    80.2700    24.2660     5.5630     4.6680     5.5400     2.2930 
  130.2500   -19.6320    75.9040    23.6700     7.2340     5.8880     7.3190     2.2650 
  130.3750   -20.5410    72.5990    23.1350     8.3890     7.2210     9.0300     2.2580 
  130.5000   -21.4280    74.5920    22.8760     8.6020     7.9770     9.7990     2.2660 
  130.6250   -22.1930    79.0650    22.7430     8.4580     8.3720    10.0650     2.2680 
  130.7500   -22.8290    78.8200    22.7130     8.3170     8.5110    10.0640     2.2580 
  130.8750   -23.3730    73.9140    22.7840     8.3990     8.5010     9.9580     2.2460 
  131.0000   -23.8970    68.9610    22.9260     8.6450     8.4300     9.8400     2.2410 
  131.1250   -24.4100    66.1790    23.0420     8.9070     8.3520     9.7580     2.2460 
  131.2500   -24.9170    63.5360    23.0620     9.1630     8.2880     9.7180     2.2500 
  131.3750   -25.4030    61.1550    23.0290     9.3830     8.2410     9.7210     2.2470 
  131.5000   -25.8590    61.1270    23.0370     9.5490     8.2080     9.7620     2.2340 
  131.6250   -26.2100    61.6650    23.1380     9.7900     8.1890     9.8290     2.2160 
  131.7500   -26.4400    60.3110    23.2600    10.1170     8.1770     9.8900     2.1990 
  131.8750   -26.5480    58.3780    23.3570    10.2890     8.1590     9.9170     2.1800 
  132.0000   -26.5280    58.3520    23.4110    10.1490     8.1250     9.8950     2.1610 
  132.1250   -26.3520    59.5420    23.4270     9.8520     8.0510     9.7870     2.1490 
  132.2500   -26.0400    61.7520    23.4550     9.6430     7.9260     9.5890     2.1490 
  132.3750   -25.6100    65.1360    23.5130     9.4930     7.7660     9.3330     2.1560 
  132.5000   -25.0980    67.2910    23.5730     9.2710     7.6230     9.1030     2.1630 
  132.6250   -24.5430    65.4230    23.6030     8.9250     7.5870     9.0430     2.1750 
  132.7500   -24.0000    64.7010    23.7000     8.6950     7.6970     9.2160     2.1990 
  132.8750   -23.5010    66.8720    23.9330     8.7640     7.9580     9.6200     2.2310 
  133.0000   -23.0630    68.6570    24.1800     8.9420     8.3110    10.1510     2.2540 
  133.1250   -22.7420    67.8710    24.1480     8.7370     8.6150    10.5670     2.2510 
  133.2500   -22.5040    67.2540    23.8270     8.2580     8.7360    10.6770     2.2360 
  133.3750   -22.3320    68.1060    23.4510     7.9370     8.6190    10.4280     2.2260 
  133.5000   -22.1940    70.5820    23.2650     7.9860     8.3050     9.9170     2.2230 
  133.6250   -22.0970    73.6180    23.3800     8.2740     7.9100     9.3610     2.2210 
  133.7500   -22.0280    75.0500    23.7490     8.4710     7.5730     8.9490     2.2210 
  133.8750   -21.9820    74.8310    24.2130     8.4060     7.3460     8.7290     2.2340 
  134.0000   -21.9750    74.8850    24.5600     8.1880     7.2260     8.6570     2.2580 
  134.1250   -21.9770    75.9270    24.6680     8.2480     7.1740     8.6330     2.2710 
  134.2500   -22.0010    76.7780    24.5420     8.5870     7.1400     8.5820     2.2590 
  134.3750   -22.0620    75.5250    24.1910     8.8150     7.1440     8.5710     2.2310 
  134.5000   -22.1800    72.8850    23.7320     8.7180     7.2840     8.7900     2.2080 
  134.6250   -22.3580    71.3680    23.4200     8.9800     7.7470     9.5450     2.2180 
  134.7500   -22.5750    70.0710    23.2950    11.2830     8.5700    10.8380     2.2740 
  134.8750   -22.8070    67.7840    23.2450    18.0100     9.6950    12.4950     2.3730 
  135.0000   -23.0380    67.9190    23.3080    27.8920    10.8630    14.0220     2.4870 
  135.1250   -23.2620    72.2920    23.4450    29.7390    11.4540    14.4170     2.5410 
  135.2500   -23.4630    74.4720    23.5000    22.4580    11.1880    13.4940     2.5030 
  135.3750   -23.6170    71.8160    23.4720    14.1990    10.3090    11.8900     2.3980 
  135.5000   -23.6970    67.0660    23.4610    10.3640     9.3520    10.5030     2.2870 
  135.6250   -23.6230    65.4130    23.5280     9.9910     8.8290    10.0170     2.2320 
  135.7500   -23.3560    66.2370    23.7000    12.2840     8.8370    10.3520     2.2320 
  135.8750   -22.8980    68.7040    24.0430    17.1490     9.2840    11.2170     2.2670 
  136.0000   -22.2480    70.9700    24.5020    20.7600     9.8500    12.0100     2.3070 
  136.1250   -21.3990    69.5890    24.8220    18.2120     9.8990    11.7690     2.3250 
  136.2500   -20.4130    68.5580    24.9130    12.7200     9.2040    10.4400     2.3220 
  136.3750   -19.3690    71.7650    24.9160     8.4340     8.0040     8.5890     2.3030 
  136.5000   -18.3240    78.2950    24.9930     6.1400     6.7330     6.8880     2.2800 
  136.6250   -17.3530    81.8690    25.1560     5.1640     5.7760     5.8050     2.2690 
  136.7500   -16.4850    82.3070    25.2670     4.9000     5.1750     5.2520     2.2710 
  136.8750   -15.7220    82.4430    25.2730     5.0340     4.8650     5.0630     2.2820 
  137.0000   -15.0890    80.9550    25.2420     5.1650     4.7240     5.0200     2.2980 
  137.1250   -14.6810    78.2390    25.2860     5.0680     4.6160     4.9010     2.3150 
  137.2500   -14.5550    80.1520    25.3760     4.7820     4.4610     4.6510     2.3260 
  137.3750   -14.7350    85.1160    25.4620     4.3630     4.2870     4.3680     2.3310 
  137.5000   -15.2010    86.5110    25.5570     3.9820     4.1810     4.2210     2.3350 
  137.6250   -16.0020    82.4240    25.6180     4.0370     4.2750     4.4100     2.3430 
  137.7500   -17.0750    78.4690    25.5000     4.7940     4.6130     4.9610     2.3410 
  137.8750   -18.3240    76.4530    25.1410     6.2450     5.2230     5.8690     2.3190 
  138.0000   -19.6710    74.2970    24.7050     7.9200     6.0780     7.0640     2.2860 
  138.1250   -21.0280    69.9240    24.4720     9.0530     7.0680     8.3520     2.2570 
  138.2500   -22.2970    65.3750    24.4330     9.5880     7.9640     9.4360     2.2340 
  138.3750   -23.3900    62.7430    24.4750     9.8310     8.6000    10.1240     2.2160 
  138.5000   -24.2930    63.2480    24.5120     9.9520     8.9170    10.3900     2.2020 
  138.6250   -24.9330    64.6720    24.5390     9.9490     8.9510    10.3360     2.1910 
  138.7500   -25.3440    65.5930    24.5610     9.9040     8.8600    10.1770     2.1810 
  138.8750   -25.6130    66.1140    24.5740     9.8660     8.7160     9.9990     2.1750 
  139.0000   -25.7910    66.1400    24.6330     9.8200     8.5640     9.8400     2.1750 
  139.1250   -25.8750    66.8420    24.6700     9.7800     8.4390     9.7340     2.1770 
  139.2500   -25.8810    67.1170    24.5810     9.8140     8.3590     9.6980     2.1750 
  139.3750   -25.8140    66.1420    24.3980     9.9260     8.3370     9.7420     2.1710 
  139.5000   -25.6790    63.7750    24.2340    10.0080     8.3710     9.8510     2.1680 
  139.6250   -25.4910    63.3330    24.1690     9.9330     8.4270     9.9550     2.1680 
  139.7500   -25.2860    64.8020    24.1550     9.8340     8.4440     9.9660     2.1690 
  139.8750   -25.0950    64.8580    24.1620     9.8250     8.3840     9.8430     2.1710 
  140.0000   -24.9220    63.7520    24.1290     9.7910     8.2470     9.6110     2.1770 
  140.1250   -24.8270    64.7990    24.0230     9.6500     8.0750     9.3640     2.1910 
  140.2500   -24.8220    66.7140    23.9330     9.7290     7.9430     9.2130     2.2050 
  140.3750   -24.9160    65.9790    23.9100    10.1640     7.8940     9.2140     2.2080 
  140.5000   -25.0780    64.2310    23.9410    10.6050     7.9370     9.3570     2.1930 
  140.6250   -25.2930    63.9940    24.0020    10.6280     8.0520     9.5800     2.1680 
