~V
VERS. 2.00: Ver 2.00
~W
STRT.M 60.0000:
STOP.M 258.0000:
STEP.M 0.1250:
NULL. -999.2500:
UWI. DF32100:
~C
DEPT.M :
SP.MV :
GR.API :
CALI.CM :
RXO.OHMM :
RI. :
RML.OHMM :
DEN.GM/CC :
~A
# ...
  251.2500    -7.8630    65.2010    23.6220    17.3930    13.9380    15.0090     2.5010 
  251.3750    -7.8730    65.2010    23.7000    17.2610    13.9380    15.0090     2.5060 
  251.5000    -7.8990    65.2010    23.7440    17.2380    13.9380    15.0090     2.5060 
  251.6250    -7.9440    65.2010    23.7550    17.0860    13.9380    15.0090     2.4920 
  251.7500    -7.9480    65.2010    23.7550    16.3100    13.9380    15.0090     2.4690 
  251.8750    -7.9340    65.2010    23.7550    14.6420    13.9380    15.0090     2.4490 
  252.0000    -7.9120    65.2010    23.7550    12.2890    13.9380    15.0090     2.4410 
  252.1250    -7.9240    65.2010    23.7550    10.1390    13.9380    15.0090     2.4500 
  252.2500    -7.9240    65.2010    23.7550     8.8730    13.9380    15.0090     2.4650 
  252.3750    -7.9100    65.2010    23.7550     8.4710    13.9380    15.0090     2.4770 
  252.5000    -7.8990    65.2010    23.7550     8.4120    13.9380    15.0090     2.4780 
  252.6250    -7.9090    65.2010    23.7550     8.2510    13.9380    15.0090     2.4700 
  252.7500    -7.9090    65.2010    23.7600     8.1360    13.9380    15.0090     2.4610 
  252.8750    -7.8810    65.2010    23.7710     8.3170    13.9380    15.0090     2.4560 
  253.0000    -7.8690    65.2010    23.7850     8.8430    13.9380    15.0090     2.4600 
  253.1250    -7.8520    65.2010    23.7740     9.0120    13.9380    15.0090     2.4710 
  253.2500    -7.8450    65.2010    23.7190     8.6740    13.9380    15.0090     2.4830 
  253.3750    -7.8230    65.2010    23.6300     8.1690    13.9380    15.0090     2.4920 
  253.5000    -7.8140    65.2010    23.5730     7.9390    13.9380    15.0090     2.4980 
  253.6250    -7.7910    65.2010    23.5580     8.0860    13.9380    15.0090     2.4990 
  253.7500    -7.8020    65.2010    23.5430     8.4360    13.9380    15.0090     2.4950 
  253.8750    -7.8260    65.2010    23.4930     8.8140    13.9380    15.0090     2.4920 
  254.0000    -7.8510    65.2010    23.4030     9.0690    13.9380    15.0090     2.4980 
  254.1250    -7.8060    65.2010    23.3430     9.4940    13.9380    15.0090     2.4970 
  254.2500    -7.7530    65.2010    23.2600    10.3770    13.9380    15.0090     2.4360 
  254.3750    -7.7230    65.2010    23.0470    11.7430    13.9380    15.0090     2.2930 
  254.5000    -7.6740    65.2010    22.2970    13.0100    13.9380    15.0090     2.1290 
  254.6250    -7.6110    65.2010    20.5800    13.5280    13.9380    15.0090     2.0560 
  254.7500    -7.5910    65.2010    18.8180    13.6250    13.9380    15.0090     2.0710 
  254.8750    -7.5850    65.2010    18.0920    13.6150    13.9380    15.0090     2.1090 
  255.0000    -7.6000    65.2010    17.9940    13.6070    13.9380    15.0090     2.1240 
  255.1250    -7.6920    65.2010    17.9880    13.6010    13.9380    15.0090     2.1140 
  255.2500    -7.8050    65.2010    17.9710    13.5980    13.9380    15.0090     2.1070 
  255.3750    -7.8670    65.2010    17.9480    13.5950    13.9380    15.0090     2.1080 
  255.5000    -7.9420    65.2010    17.9280    13.5900    13.9380    15.0090     2.1110 
  255.6250    -8.0560    65.2010    17.9100    13.5850    13.9380    15.0090     2.1090 
  255.7500    -8.0950    65.2010    17.9030    13.5800    13.9380    15.0090     2.1060 
  255.8750    -8.0920    65.2010    17.9010    13.5740    13.9380    15.0090     2.1030 
  256.0000    -8.0340    65.2010    17.9010    13.5710    13.9380    15.0090     2.1040 
  256.1250    -7.9450  -999.2500  -999.2500  -999.2500  -999.2500  -999.2500     2.1080 
  256.2500    -7.8690  -999.2500  -999.2500  -999.2500  -999.2500  -999.2500     2.1130 
  256.3750    -7.7420  -999.2500  -999.2500  -999.2500  -999.2500  -999.2500     2.1190 
  256.5000    -7.5880  -999.2500  -999.2500  -999.2500  -999.2500  -999.2500     2.1240 
  256.6250    -7.5430  -999.2500  -999.2500  -999.2500  -999.2500  -999.2500     2.1240 
  256.7500    -7.5520  -999.2500  -999.2500  -999.2500  -999.2500  -999.2500     2.1230 
  256.8750    -7.5520  -999.2500  -999.2500  -999.2500  -999.2500  -999.2500     2.1180 
  257.0000    -7.5520  -999.2500  -999.2500  -999.2500  -999.2500  -999.2500     2.1150 
  257.1250  -999.2500  -999.2500  -999.2500  -999.2500  -999.2500  -999.2500     2.1110 
  257.2500  -999.2500  -999.2500  -999.2500  -999.2500  -999.2500  -999.2500     2.1080 
  257.3750  -999.2500  -999.2500  -999.2500  -999.2500  -999.2500  -999.2500     2.1070 
  257.5000  -999.2500  -999.2500  -999.2500  -999.2500  -999.2500  -999.2500     2.1100 
  257.6250  -999.2500  -999.2500  -999.2500  -999.2500  -999.2500  -999.2500     2.1090 
  257.7500  -999.2500  -999.2500  -999.2500  -999.2500  -999.2500  -999.2500     2.1110 
  257.8750  -999.2500  -999.2500  -999.2500  -999.2500  -999.2500  -999.2500     2.1250 
  258.0000  -999.2500  -999.2500  -999.2500  -999.2500  -999.2500  -999.2500     2.1610 
