~V
VERS. 2.00: Ver 2.00
~W
STRT.M 62.0000:
STOP.M 260.0000:
STEP.M 0.1250:
NULL. -999.2500:
UWI. DF32117:
~C
DEPT.M :
GR.API :
CALI.CM :
RXO.OHMM :
RI. :
RML.OHMM :
DEN.GM/CC :
SP.MV :
~A
# ...
   84.5000    69.8180    25.8630    10.6980     5.8560     9.3150     2.3460   -24.0080 
   84.6250    73.6840    25.4970     9.5400     6.3210     9.6950     2.2880   -24.7010 
   84.7500    76.1420    24.9430     7.7150     6.3820     9.2390     2.2200   -25.2070 
   84.8750    76.4830    24.4870     6.7600     6.0940     8.2910     2.1730   -25.4410 
   85.0000    77.8110    24.3070     6.4910     5.6350     7.2890     2.1540   -25.3700 
   85.1250    80.3290    24.2880     6.0590     5.2010     6.5630     2.1600   -25.0130 
   85.2500    84.5210    24.2480     5.3390     4.8740     6.1100     2.1830   -24.4790 
   85.3750    89.8850    24.1750     4.7580     4.6430     5.8480     2.2160   -23.8110 
   85.5000    94.1450    24.0570     4.6820     4.4720     5.6870     2.2450   -23.0680 
   85.6250    94.4510    24.1790     4.9690     4.3280     5.5410     2.2630   -22.2890 
   85.7500    94.5700    24.7830     4.9990     4.1740     5.3400     2.2740   -21.5290 
   85.8750    98.8980    25.6160     4.6110     3.9970     5.0670     2.2830   -20.8460 
   86.0000   106.0260    26.2000     4.0860     3.8040     4.7510     2.2900   -20.2630 
   86.1250   110.3330    26.3330     3.7980     3.6260     4.4630     2.2990   -19.7700 
   86.2500   109.4970    26.3380     3.7510     3.5050     4.2820     2.3140   -19.3210 
   86.3750   107.3170    26.3310     3.8230     3.4770     4.2610     2.3350   -18.9110 
   86.5000   109.0690    26.2780     3.9020     3.5520     4.4120     2.3550   -18.5590 
   86.6250   111.6040    26.2470     4.0480     3.7190     4.7100     2.3710   -18.2790 
   86.7500   107.6310    26.2480     4.4390     3.9120     5.0430     2.3860   -18.0810 
   86.8750    99.4810    26.2690     4.9770     4.0680     5.2950     2.3970   -17.9560 
   87.0000    93.7810    26.3010     5.2390     4.1260     5.3500     2.3980   -17.9190 
   87.1250    93.7920    26.3090     4.9230     4.0460     5.1560     2.3780   -18.0110 
   87.2500    96.3500    26.2780     4.4710     3.9020     4.8750     2.3410   -18.2620 
   87.3750    95.9340    26.2330     4.1970     3.7760     4.6620     2.3030   -18.7150 
   87.5000    89.0300    26.1800     4.1380     3.7400     4.6300     2.2790   -19.3620 
   87.6250    77.2770    25.9890     4.4240     3.8560     4.8560     2.2670   -20.1870 
   87.7500    68.6510    25.6050     5.0440     4.0980     5.2630     2.2520   -21.1170 
   87.8750    66.7960    25.1590     5.6850     4.4250     5.7710     2.2310   -22.1170 
   88.0000    69.6940    24.8580     6.0100     4.7860     6.2880     2.2040   -23.1580 
   88.1250    72.8460    24.7870     6.1270     5.1230     6.7240     2.1710   -24.2090 
   88.2500    74.3330    24.7860     6.3870     5.4010     7.0440     2.1330   -25.2160 
   88.3750    73.3350    24.7600     6.7360     5.6030     7.2410     2.1030   -26.1430 
   88.5000    69.9910    24.7040     6.9490     5.7310     7.3350     2.0970   -26.9790 
   88.6250    65.1340    24.6550     6.9660     5.7890     7.3420     2.1140   -27.7150 
   88.7500    62.5890    24.6310     6.9380     5.8060     7.3040     2.1350   -28.3390 
   88.8750    63.0450    24.6410     6.9090     5.8040     7.2580     2.1510   -28.8170 
   89.0000    64.7670    24.7220     6.8880     5.8160     7.2590     2.1560   -29.0970 
   89.1250    68.4340    24.8850     6.9190     5.8830     7.3650     2.1430   -29.1110 
   89.2500    71.7380    25.0290     6.9980     5.9850     7.5250     2.1290   -28.8750 
   89.3750    72.1360    25.0990     7.0830     6.0640     7.6370     2.1400   -28.3610 
   89.5000    71.3050    25.1420     7.0780     6.0450     7.5830     2.1880   -27.6070 
   89.6250    73.2980    25.2600     6.7320     5.8450     7.2460     2.2540   -26.6930 
   89.7500    80.0650    25.4470     6.0440     5.5000     6.6990     2.2990   -25.7280 
   89.8750    88.1040    25.6420     5.3100     5.0820     6.0690     2.3060   -24.7860 
   90.0000    92.7760    25.7840     4.8480     4.6820     5.5050     2.2830   -23.9260 
   90.1250    92.6220    25.8430     4.6760     4.3910     5.1320     2.2540   -23.2180 
   90.2500    90.9580    25.8480     4.5560     4.2210     4.9420     2.2440   -22.6860 
   90.3750    88.0880    25.8500     4.5100     4.1680     4.9050     2.2560   -22.3500 
   90.5000    83.1980    25.9760     4.6310     4.2060     4.9700     2.2810   -22.1710 
   90.6250    81.4460    26.0760     4.8170     4.3000     5.0780     2.3000   -22.0940 
   90.7500    84.4230    25.8830     4.8720     4.4010     5.1740     2.3000   -22.0430 
   90.8750    86.3340    25.4470     4.8000     4.4790     5.2290     2.2870   -21.9680 
   91.0000    85.3090    25.0280     4.7020     4.5160     5.2270     2.2760   -21.8380 
   91.1250    86.5230    24.8120     4.6190     4.4980     5.1630     2.2790   -21.6320 
   91.2500    90.1710    24.7110     4.5420     4.4390     5.0740     2.2910   -21.3770 
   91.3750    91.4380    24.7300     4.4830     4.3480     4.9800     2.3020   -21.0870 
   91.5000    89.9880    24.7620     4.4470     4.2330     4.8780     2.3010   -20.7840 
   91.6250    90.0350    24.6080     4.3960     4.0970     4.7420     2.2920   -20.4990 
   91.7500    91.7080    24.3510     4.3090     3.9550     4.5720     2.2940   -20.2840 
   91.8750    92.8150    24.1180     4.1790     3.8270     4.4000     2.3130   -20.2070 
   92.0000    90.7720    23.9350     4.0320     3.7390     4.2870     2.3370   -20.3180 
   92.1250    86.4860    23.7820     4.0160     3.7170     4.3100     2.3470   -20.6570 
   92.2500    81.6960    23.6780     4.2320     3.7620     4.4810     2.3370   -21.1700 
   92.3750    77.8250    23.6320     4.6090     3.8810     4.8040     2.3100   -21.8600 
   92.5000    76.1590    23.6400     4.8970     4.0800     5.2740     2.2730   -22.6970 
   92.6250    75.8410    23.7740     4.9660     4.3780     5.9050     2.2430   -23.6490 
   92.7500    74.6080    24.1070     5.1870     4.7590     6.6600     2.2240   -24.6250 
   92.8750    72.4410    24.5800     5.9080     5.2050     7.4990     2.2100   -25.5430 
   93.0000    71.0040    24.9530     7.0240     5.6780     8.3410     2.1950   -26.3300 
   93.1250    71.2180    24.9900     7.9130     6.0950     9.0190     2.1810   -26.9300 
   93.2500    71.5520    24.8400     8.2670     6.3910     9.4400     2.1740   -27.3490 
   93.3750    72.3320    24.6990     8.2470     6.5310     9.5840     2.1720   -27.5820 
   93.5000    73.1330    24.6390     8.1230     6.5320     9.5280     2.1700   -27.6460 
   93.6250    70.5510    24.6260     8.0350     6.4430     9.3970     2.1730   -27.5560 
   93.7500    66.9470    24.6290     7.9550     6.3450     9.3000     2.1830   -27.3890 
   93.8750    66.2970    24.6280     7.8480     6.2690     9.2670     2.1960   -27.2040 
   94.0000    70.9390    24.6110     7.7220     6.2290     9.2970     2.2020   -27.0610 
   94.1250    77.2800    24.5820     7.5910     6.2360     9.3900     2.1990   -26.9940 
   94.2500    78.9970    24.5610     7.4890     6.2840     9.5240     2.1950   -27.0140 
   94.3750    75.7600    24.5570     7.5350     6.3640     9.6860     2.1970   -27.1190 
   94.5000    71.3840    24.5710     7.8220     6.4620     9.8460     2.2070   -27.3040 
   94.6250    69.2460    24.6020     8.2030     6.5540     9.9650     2.2170   -27.5540 
   94.7500    68.8140    24.6350     8.3920     6.6290    10.0360     2.2180   -27.8270 
   94.8750    68.2020    24.6580     8.3550     6.6920    10.0770     2.2100   -28.0940 
   95.0000    68.3560    24.6820     8.2590     6.7460    10.1070     2.1990   -28.3070 
   95.1250    69.6420    24.7230     8.2790     6.7820    10.1160     2.1950   -28.4300 
   95.2500    72.5210    24.7620     8.4230     6.7800    10.0670     2.2020   -28.4590 
   95.3750    76.1940    24.7790     8.5970     6.7100     9.9100     2.2170   -28.3980 
   95.5000    78.1680    24.7770     8.5140     6.5570     9.6200     2.2320   -28.2610 
   95.6250    77.3390    24.7770     7.8500     6.3240     9.2190     2.2380   -28.0730 
