~V
VERS. 2.00: Ver 2.00
~W
STRT.M 62.0000:
STOP.M 260.0000:
STEP.M 0.1250:
NULL. -999.2500:
UWI. DF32117:
~C
DEPT.M :
GR.API :
CALI.CM :
RXO.OHMM :
RI. :
RML.OHMM :
DEN.GM/CC :
SP.MV :
~A
# ...
  140.7500    81.1720    24.4760    12.1060     9.2720    12.8740     2.2510   -22.8500 
  140.8750    82.1680    24.2380    10.8650     8.1910    10.8390     2.2010   -23.3760 
  141.0000    80.7720    24.0720    10.1090     7.7040     9.8570     2.1860   -23.6450 
  141.1250    78.2250    23.9660     9.8300     7.6120     9.6910     2.2210   -23.5760 
  141.2500    79.3000    23.9180    10.4520     7.5660     9.8250     2.2950   -23.2480 
  141.3750    84.1070    23.9450    10.9670     7.3440     9.8670     2.3780   -22.7300 
  141.5000    90.6650    24.0120     9.9110     6.8720     9.5020     2.4310   -22.0900 
  141.6250    95.7280    24.0560     7.5790     6.2400     8.6350     2.4220   -21.3860 
  141.7500    97.1770    24.0610     5.9230     5.6460     7.6330     2.3760   -20.6940 
  141.8750    95.4600    24.0480     5.3920     5.1920     6.7710     2.3250   -20.0660 
  142.0000    94.0900    24.0340     5.4510     4.9110     6.1880     2.2880   -19.5410 
  142.1250    96.2250    23.9810     5.5680     4.7910     5.9220     2.2750   -19.1730 
  142.2500    96.8200    23.8790     5.5760     4.7400     5.8180     2.2780   -18.9630 
  142.3750    94.2610    23.7470     5.4840     4.7110     5.7620     2.2930   -18.9030 
  142.5000    91.8140    23.6470     5.3640     4.6980     5.6930     2.3130   -19.0070 
  142.6250    90.0730    23.7540     5.3650     4.7360     5.6480     2.3300   -19.3370 
  142.7500    86.3980    24.0640     5.5420     4.8300     5.6900     2.3320   -19.8060 
  142.8750    83.3630    24.4100     5.8450     4.9670     5.8340     2.3160   -20.3510 
  143.0000    83.9770    24.6040     6.1180     5.1210     6.0440     2.2910   -20.9080 
  143.1250    85.2580    24.6160     6.1660     5.2730     6.2670     2.2720   -21.4390 
  143.2500    83.1630    24.6010     6.0610     5.4180     6.4750     2.2630   -21.9170 
  143.3750    79.3790    24.5980     6.0310     5.5610     6.6750     2.2600   -22.3090 
  143.5000    78.1900    24.5920     6.2640     5.6940     6.8840     2.2510   -22.5640 
  143.6250    80.2180    24.5750     6.6370     5.7840     7.0820     2.2330   -22.5800 
  143.7500    83.0730    24.5480     6.7690     5.7870     7.2010     2.2190   -22.4230 
  143.8750    84.8380    24.5430     6.5480     5.6800     7.1660     2.2210   -22.1640 
  144.0000    84.9580    24.6040     6.1860     5.4940     6.9450     2.2440   -21.8770 
  144.1250    86.3990    24.7540     5.9540     5.3450     6.6230     2.2820   -21.5700 
  144.2500    85.7030    24.9190     5.8720     5.3390     6.4080     2.3170   -21.2580 
  144.3750    81.2120    25.0360     6.1500     5.5150     6.4410     2.3520   -20.9580 
  144.5000    76.6850    25.0670     7.3390     5.8400     6.7560     2.3910   -20.6980 
  144.6250    78.4270    24.9880     9.3520     6.1880     7.2680     2.4220   -20.5330 
  144.7500    84.5800    24.8680    10.2060     6.3760     7.7050     2.4230   -20.4570 
  144.8750    89.9100    24.7770     8.9940     6.3090     7.8280     2.3910   -20.4390 
  145.0000    93.0720    24.7490     6.9310     6.0190     7.5310     2.3460   -20.4250 
  145.1250    96.0850    24.7520     5.8570     5.6350     6.9200     2.3130   -20.3890 
  145.2500    98.4690    24.7180     5.5610     5.3020     6.2960     2.3000   -20.3230 
  145.3750   100.7790    24.6430     5.4490     5.0720     5.8100     2.3010   -20.2120 
  145.5000   101.7060    24.5630     5.3150     4.9410     5.5090     2.3090   -20.0450 
  145.6250   100.2430    24.5120     5.1910     4.8680     5.3710     2.3180   -19.8220 
  145.7500    97.3680    24.4670     5.0770     4.8000     5.2840     2.3240   -19.5480 
  145.8750    93.6950    24.4080     5.0060     4.7240     5.1960     2.3270   -19.2540 
  146.0000    90.2100    24.3510     5.0290     4.6570     5.0970     2.3300   -18.9900 
  146.1250    90.5570    24.3020     5.1110     4.6490     5.0330     2.3350   -18.8040 
  146.2500    94.4670    24.2340     5.1750     4.7250     5.0630     2.3460   -18.6850 
  146.3750    96.3300    24.1350     5.3940     4.8820     5.2170     2.3580   -18.6560 
  146.5000    91.9630    24.0150     6.1070     5.0980     5.4710     2.3600   -18.7210 
  146.6250    84.8100    23.9060     7.2230     5.3870     5.7890     2.3450   -18.8770 
  146.7500    81.2980    23.8290     7.9150     5.8050     6.1800     2.3320   -19.0890 
  146.8750    80.8050    23.7820     8.2920     6.4800     6.7510     2.3450   -19.3100 
  147.0000    79.1920    23.7600     9.8060     7.5970     7.6940     2.4000   -19.5070 
  147.1250    73.0230    23.7430    14.5770     9.4930     9.1250     2.4940   -19.6690 
  147.2500    66.1610    23.7390    21.1120    12.1840    12.1980     2.5840   -19.8080 
  147.3750    64.0500    23.8500    26.2750    15.5250    16.9650     2.6340   -19.9120 
  147.5000    66.1360    24.1720    27.9570    19.0240    20.4620     2.6230   -19.9850 
  147.6250    69.3150    24.5730    26.7830    21.8290    22.9840     2.5430   -20.0380 
  147.7500    70.6400    24.7640    25.7800    23.7320    24.5690     2.4280   -20.0940 
  147.8750    69.1090    24.7040    26.4960    25.0270    25.6890     2.3100   -20.1760 
  148.0000    65.2930    24.5770    28.7620    26.0890    26.8070     2.2180   -20.2880 
  148.1250    62.9330    24.5830    30.1070    26.9950    28.0020     2.1700   -20.4150 
  148.2500    64.2440    24.8650    28.9580    27.4180    28.7200     2.1520   -20.5400 
  148.3750    67.2320    25.4010    26.2770    26.6870    28.0020     2.1510   -20.6720 
  148.5000    69.8710    25.8800    24.3110    24.2860    25.1740     2.1580   -20.8010 
  148.6250    72.3100    25.9790    23.2960    20.5210    20.8690     2.1730   -20.8950 
  148.7500    74.2540    25.9240    20.1890    16.8750    17.0140     2.1980   -20.9420 
  148.8750    75.4640    25.9200    14.7590    14.2250    14.5550     2.2390   -20.9370 
  149.0000    75.5780    25.9230    10.5030    12.9320    13.8010     2.3060   -20.8690 
  149.1250    71.8510    25.8490    12.3900    13.3030    15.0480     2.4110   -20.7220 
  149.2500    65.2940    25.8160    20.8630    15.0110    17.8220     2.5290   -20.5230 
  149.3750    59.8610    25.8260    30.7760    17.7400    21.5390     2.6250   -20.2700 
  149.5000    59.8560    25.8250    33.8310    20.7000    24.9560     2.6690   -19.9640 
  149.6250    64.0800    25.8020    27.9960    22.3710    26.1050     2.6570   -19.6340 
  149.7500    66.0670    25.9380    22.0070    22.3120    25.0930     2.6220   -19.3130 
  149.8750    66.6100    26.1470    18.7150    21.2100    23.2270     2.5850   -19.0070 
  150.0000    68.4240    26.1220    17.7110    20.1000    21.8000     2.5620   -18.7380 
  150.1250    68.9680    25.7530    18.1960    19.6800    21.4450     2.5610   -18.5470 
  150.2500    65.0070    25.4300    19.0010    19.7870    21.7390     2.5690   -18.4220 
  150.3750    60.4310    25.3590    19.9320    20.0760    22.1990     2.5840   -18.3620 
  150.5000    61.3010    25.4020    20.7940    20.1800    22.3760     2.6010   -18.3930 
  150.6250    65.1060    25.4480    20.4120    19.8040    21.9610     2.6090   -18.5320 
  150.7500    65.8550    25.4560    18.7670    19.1170    21.2150     2.5950   -18.7360 
  150.8750    65.6110    25.3800    17.3740    18.4060    20.4980     2.5650   -18.9850 
  151.0000    67.0060    25.2600    17.6230    17.9160    20.0880     2.5300   -19.2550 
  151.1250    67.2160    25.1710    19.0380    17.7660    20.0790     2.5060   -19.5060 
  151.2500    65.9330    25.1160    19.7170    17.7990    20.2350     2.5020   -19.7270 
  151.3750    65.7320    25.0810    19.1850    17.8730    20.3670     2.5170   -19.9130 
  151.5000    67.2060    25.0840    18.0960    17.8900    20.3810     2.5400   -20.0240 
  151.6250    67.2130    25.1900    17.2760    17.8490    20.3360     2.5530   -20.0250 
  151.7500    64.5750    25.4190    17.0570    17.8380    20.3800     2.5570   -19.9450 
  151.8750    61.8150    25.6590    17.5030    17.8680    20.5140     2.5620   -19.8170 
