~V
VERS. 2.00: Ver 2.00
~W
STRT.M 60.0000:
STOP.M 276.0000:
STEP.M 0.1250:
NULL. -999.2500:
UWI. DF32145:
~C
DEPT.M :
SP.MV :
GR.API :
CALI.CM :
RXO.OHMM :
RI. :
RML.OHMM :
DEN.GM/CC :
~A
# ...
   71.2500   -34.9160    68.2640    23.8530     8.2510     5.8030     8.8150     2.1500 
   71.3750   -34.8750    70.7300    24.0680     8.2720     5.7760     8.8720     2.1510 
   71.5000   -34.7090    72.4310    24.2310     8.3820     5.8200     8.9470     2.1410 
   71.6250   -34.4680    72.2720    24.2820     8.5250     5.8930     9.0120     2.1280 
   71.7500   -34.1420    72.5180    24.2890     8.6010     5.9510     9.0510     2.1270 
   71.8750   -33.7330    72.5120    24.2880     8.4820     5.9480     9.0100     2.1400 
   72.0000   -33.3180    73.4640    24.2290     8.1520     5.8490     8.8350     2.1540 
   72.1250   -32.8530    78.0820    24.0380     7.6390     5.6400     8.5060     2.1680 
   72.2500   -32.2840    83.4610    23.7690     7.3440     5.3790     8.1160     2.1940 
   72.3750   -31.6330    87.6160    23.6230     7.1020     5.1100     7.7510     2.2340 
   72.5000   -31.0310    94.1850    23.5880     6.6570     4.8870     7.4900     2.2710 
   72.6250   -30.6250   103.2670    23.5880     6.3040     4.7730     7.4170     2.2820 
   72.7500   -30.3690   106.5410    23.5880     6.3980     4.7730     7.5130     2.2750 
   72.8750   -30.2320   103.7940    23.5880     6.9660     4.8830     7.7660     2.2700 
   73.0000   -30.1890    99.1530    23.5880     7.5520     5.1010     8.1570     2.2800 
   73.1250   -30.3440    93.1300    23.5710     7.7590     5.4080     8.6560     2.2990 
   73.2500   -30.7470    85.9180    23.4910     7.9880     5.7350     9.1590     2.3030 
   73.3750   -31.3370    82.1730    23.3160     8.6770     6.0230     9.5820     2.2710 
   73.5000   -31.9700    82.3170    23.1240     9.5620     6.2340     9.8680     2.2040 
   73.6250   -32.5950    79.9980    23.0130     9.8120     6.3290     9.9560     2.1470 
   73.7500   -33.1750    74.7720    23.0580     9.2770     6.3420     9.8950     2.1330 
   73.8750   -33.7410    70.9010    23.2470     9.0220     6.3110     9.7530     2.1530 
   74.0000   -34.3310    71.3760    23.4130     9.3710     6.2780     9.6070     2.1760 
   74.1250   -34.8040    76.4250    23.4540     9.5690     6.2720     9.5270     2.1800 
   74.2500   -35.1790    81.5420    23.3920     9.3770     6.2940     9.5300     2.1710 
   74.3750   -35.4300    82.6720    23.3030     9.2010     6.3370     9.6090     2.1580 
   74.5000   -35.6180    78.7660    23.2570     9.2190     6.3780     9.7250     2.1500 
   74.6250   -35.7600    72.2590    23.2560     9.2740     6.3950     9.8300     2.1520 
   74.7500   -35.9380    66.6750    23.2580     9.2990     6.3810     9.8940     2.1590 
   74.8750   -36.1070    63.5660    23.2590     9.2420     6.3300     9.9000     2.1600 
   75.0000   -36.1670    64.2990    23.2620     9.0500     6.2430     9.8480     2.1520 
   75.1250   -36.1930    69.2690    23.2720     8.8810     6.1470     9.7720     2.1440 
   75.2500   -36.1910    74.3950    23.2770     8.8110     6.0830     9.7250     2.1440 
   75.3750   -36.2080    75.1300    23.2790     8.8310     6.0700     9.7280     2.1550 
   75.5000   -36.2160    71.7020    23.2820     8.8600     6.1000     9.7820     2.1690 
   75.6250   -36.1750    68.9090    23.2790     8.8490     6.1470     9.8710     2.1750 
   75.7500   -36.0600    69.5480    23.2780     8.8360     6.1740     9.9500     2.1710 
   75.8750   -35.8910    72.0490    23.2770     8.7890     6.1590     9.9790     2.1660 
   76.0000   -35.7460    73.6150    23.2770     8.6770     6.0950     9.9210     2.1640 
   76.1250   -35.6580    74.5300    23.2770     8.5580     5.9910     9.7620     2.1610 
   76.2500   -35.6330    76.0460    23.2770     8.4520     5.8810     9.5680     2.1480 
   76.3750   -35.6450    78.4280    23.2800     8.3240     5.7920     9.4130     2.1310 
   76.5000   -35.6790    79.5510    23.2970     8.2000     5.7520     9.3600     2.1230 
   76.6250   -35.6900    76.9060    23.3650     8.2490     5.7900     9.4550     2.1290 
   76.7500   -35.7190    73.0470    23.4740     8.5560     5.8890     9.6510     2.1420 
   76.8750   -35.7480    70.4490    23.5780     8.9670     6.0260     9.8960     2.1560 
   77.0000   -35.7700    69.8520    23.6340     9.2210     6.1720    10.1220     2.1650 
   77.1250   -35.7400    70.6580    23.5620     9.1720     6.2830    10.2530     2.1630 
   77.2500   -35.6610    72.6990    23.3870     9.0290     6.3450    10.2790     2.1580 
   77.3750   -35.5310    76.0480    23.2440     8.9550     6.3650    10.2310     2.1600 
   77.5000   -35.3680    78.8250    23.1890     8.9650     6.3700    10.1660     2.1690 
   77.6250   -35.2080    79.3800    23.1890     9.0140     6.3840    10.1290     2.1720 
   77.7500   -35.0540    77.9270    23.1900     9.0820     6.4130    10.1150     2.1640 
   77.8750   -34.9320    75.5390    23.1910     9.1620     6.4500    10.1110     2.1520 
   78.0000   -34.8310    72.6430    23.1890     9.2400     6.4840    10.1210     2.1450 
   78.1250   -34.7290    71.0210    23.1890     9.2470     6.5100    10.1670     2.1430 
   78.2500   -34.5690    71.1650    23.1890     9.1980     6.5260    10.2300     2.1390 
   78.3750   -34.3630    70.3390    23.1870     9.1890     6.5170    10.2600     2.1300 
   78.5000   -34.0870    68.4190    23.1850     9.3100     6.4640    10.1950     2.1240 
   78.6250   -33.7420    68.0060    23.1850     9.4730     6.3480     9.9940     2.1290 
   78.7500   -33.3400    69.0620    23.1580     9.4160     6.1910     9.7220     2.1410 
   78.8750   -32.8820    69.0580    23.0460     9.0490     6.0270     9.4520     2.1490 
   79.0000   -32.4030    68.5340    22.7970     8.5240     5.8900     9.2540     2.1520 
   79.1250   -31.9000    70.9810    22.6710     8.1330     5.8200     9.1800     2.1540 
   79.2500   -31.3970    74.6860    22.6320     7.9580     5.8110     9.2000     2.1560 
   79.3750   -30.9160    77.1770    22.6310     7.8940     5.8440     9.2750     2.1520 
   79.5000   -30.5180    77.5950    22.6320     7.8830     5.8910     9.3560     2.1460 
   79.6250   -30.2040    75.9520    22.7000     7.9420     5.9350     9.4110     2.1450 
   79.7500   -29.9820    73.6880    22.8900     8.0410     5.9830     9.4590     2.1540 
   79.8750   -29.8230    72.1650    23.1240     8.2100     6.0540     9.5390     2.1680 
   80.0000   -29.6520    72.2720    23.2590     8.4460     6.1640     9.6820     2.1790 
   80.1250   -29.4840    72.5590    23.3260     8.6760     6.3170     9.8990     2.1820 
   80.2500   -29.3260    71.8990    23.4120     8.8360     6.4740    10.1330     2.1810 
   80.3750   -29.1630    71.2400    23.4960     8.9230     6.5860    10.2990     2.1790 
   80.5000   -28.8900    70.5440    23.5560     8.9060     6.5890    10.2820     2.1760 
   80.6250   -28.4780    70.7130    23.5960     8.6820     6.3990     9.9420     2.1760 
   80.7500   -27.9840    73.3690    23.6420     8.1880     6.0510     9.3450     2.1820 
   80.8750   -27.4670    78.0500    23.6770     7.4330     5.6190     8.6210     2.1980 
   81.0000   -26.9560    83.6280    23.6910     6.6070     5.2080     7.9400     2.2210 
   81.1250   -26.5010    89.3670    23.6890     6.0600     4.9460     7.5110     2.2400 
   81.2500   -26.1960    93.3360    23.6680     5.9180     4.8760     7.4020     2.2460 
   81.3750   -26.0420    95.2160    23.6130     6.1450     5.0140     7.6470     2.2400 
   81.5000   -26.0710    96.1480    23.5440     6.5720     5.3480     8.2380     2.2270 
   81.6250   -26.1750    95.1630    23.5140     7.1400     5.8450     9.1240     2.2120 
   81.7500   -26.2600    91.5420    23.5110     7.6230     6.3470    10.0060     2.1990 
   81.8750   -26.3090    87.8580    23.5270     7.8630     6.6720    10.5200     2.1870 
   82.0000   -26.2970    86.9370    23.5640     7.8210     6.6600    10.3640     2.1800 
   82.1250   -26.0870    87.9680    23.5990     7.4940     6.2240     9.4550     2.1870 
   82.2500   -25.6600    89.7500    23.6590     6.7560     5.5740     8.2650     2.2150 
   82.3750   -25.1180    93.8020    23.7330     5.7580     4.8980     7.1480     2.2580 
