~V
VERS. 2.00: Ver 2.00
~W
STRT.M 55.0000:
STOP.M 256.0000:
STEP.M 0.1250:
NULL. -999.2500:
UWI. DF327:
~C
DEPT.M :
SP.MV :
DEN.GM/CC :
AC.US/MT :
GR.API :
RML.OHMM :
RI. :
RXO.OHMM :
CALI.CM :
~A
# ...
  135.0000    -8.5140     2.3850   404.9440   101.3920     7.2980     6.7520     7.3730    24.1190 
  135.1250    -8.4610     2.3840   406.6690   101.0780     7.3450     6.7970     7.4670    24.1080 
  135.2500    -8.4440     2.3730   410.8660    96.0570     7.2720     6.7270     7.5110    24.0940 
  135.3750    -8.4320     2.3540   414.3900    91.1070     7.0820     6.5430     7.4300    24.0680 
  135.5000    -8.4050     2.3350   414.7720    91.2700     6.8110     6.2810     7.1600    24.0180 
  135.6250    -8.3600     2.3200   411.5960    95.4950     6.5390     6.0180     6.8440    23.9100 
  135.7500    -8.3310     2.3120   407.1860    97.8960     6.3570     5.8430     6.7520    23.7390 
  135.8750    -8.3340     2.3100   402.8260    99.2180     6.3260     5.8120     6.9040    23.5120 
  136.0000    -8.3680     2.3130   399.1640    99.6770     6.4620     5.9440     7.1520    23.3050 
  136.1250    -8.3830     2.3190   397.3690    97.5460     6.7360     6.2090     7.5280    23.3500 
  136.2500    -8.3680     2.3260   397.9650    93.3690     7.0220     6.4850     7.8580    23.6320 
  136.3750    -8.3620     2.3310   400.9610    91.3370     7.2030     6.6600     8.0770    23.9270 
  136.5000    -8.3620     2.3310   405.3190    94.2450     7.1910     6.6480     7.9730    24.0740 
  136.6250    -8.3300     2.3270   409.1680    97.1190     6.9390     6.4050     7.5350    24.0840 
  136.7500    -8.2460     2.3240   411.5390    96.4720     6.5560     6.0350     6.8960    24.0850 
  136.8750    -8.1210     2.3240   412.5810    96.1950     6.1430     5.6350     6.1310    24.0940 
  137.0000    -7.9530     2.3320   412.6170    98.8540     5.7860     5.2910     5.5450    24.1190 
  137.1250    -7.7850     2.3450   411.3950   100.2810     5.5550     5.0680     5.4110    24.1570 
  137.2500    -7.6570     2.3560   409.0970    99.6770     5.4340     4.9510     5.4750    24.1840 
  137.3750    -7.5560     2.3590   406.3270   100.5580     5.3970     4.9150     5.5980    24.1960 
  137.5000    -7.4830     2.3550   403.9660   101.4280     5.4080     4.9260     5.7380    24.1900 
  137.6250    -7.4420     2.3450   403.0260    99.1600     5.4320     4.9480     5.8280    24.1670 
  137.7500    -7.4190     2.3390   403.7520    96.3910     5.4470     4.9630     5.9050    24.1550 
  137.8750    -7.3960     2.3390   406.0420    97.8180     5.4530     4.9700     5.9770    24.1690 
  138.0000    -7.4220     2.3460   409.0750   100.4240     5.4620     4.9780     6.0410    24.1860 
  138.1250    -7.5180     2.3570   411.4060    97.9580     5.4840     4.9990     6.1130    24.1820 
  138.2500    -7.5900     2.3650   412.2740    93.7450     5.5170     5.0310     6.1720    24.1700 
  138.3750    -7.6340     2.3680   411.8130    93.1900     5.5550     5.0680     6.2290    24.1700 
  138.5000    -7.6540     2.3650   410.7190    95.9820     5.5890     5.1010     6.2630    24.1630 
  138.6250    -7.6540     2.3560   409.9440    97.0810     5.6100     5.1210     6.2350    24.1640 
  138.7500    -7.6510     2.3460   409.8810    96.6730     5.6170     5.1280     6.1720    24.1420 
  138.8750    -7.6480     2.3370   410.2510    98.1860     5.6080     5.1190     6.1410    24.1050 
  139.0000    -7.6480     2.3310   410.4620   102.1060     5.5850     5.0970     6.1310    24.0820 
  139.1250    -7.6260     2.3280   409.9150   105.1060     5.5570     5.0700     6.1110    24.1040 
  139.2500    -7.6170     2.3290   409.2000   106.3950     5.5340     5.0470     6.0510    24.1240 
  139.3750    -7.6030     2.3320   409.6510   105.9280     5.5220     5.0360     5.9790    24.1260 
  139.5000    -7.5810     2.3370   412.5270   103.9390     5.5220     5.0360     5.9200    24.1110 
  139.6250    -7.5810     2.3420   419.0810   101.9660     5.5300     5.0440     5.9090    24.0940 
  139.7500    -7.5930     2.3450   427.6450   102.0980     5.5350     5.0480     5.8980    24.0760 
  139.8750    -7.6370     2.3450   434.3540   105.2620     5.5290     5.0430     5.8560    24.0340 
  140.0000    -7.6840     2.3420   435.0010   109.5330     5.5130     5.0270     5.7980    23.9660 
  140.1250    -7.7290     2.3370   427.8370   113.2120     5.4900     5.0040     5.7460    23.8980 
  140.2500    -7.7580     2.3320   418.7130   114.1230     5.4750     4.9910     5.6750    23.8530 
  140.3750    -7.7770     2.3330   411.8970   112.6320     5.4840     4.9990     5.5750    23.8370 
  140.5000    -7.8060     2.3390   408.3420   112.3420     5.5250     5.0390     5.4960    23.8160 
  140.6250    -7.8200     2.3490   407.2830   116.1360     5.6060     5.1170     5.4810    23.7510 
  140.7500    -7.8190     2.3600   407.6180   119.0310     5.7080     5.2150     5.5370    23.6640 
  140.8750    -7.7850     2.3660   409.8220   116.2040     5.8090     5.3130     5.6630    23.6010 
  141.0000    -7.7150     2.3680   413.7080   110.3720     5.8850     5.3870     5.8050    23.5650 
  141.1250    -7.6000     2.3690   417.8860   107.4760     5.9120     5.4130     5.8330    23.5740 
  141.2500    -7.4430     2.3720   420.4780   106.4340     5.8940     5.3950     5.7380    23.5890 
  141.3750    -7.2490     2.3770   420.6680   104.6500     5.8410     5.3440     5.5740    23.5920 
  141.5000    -7.0250     2.3820   419.1130   103.8930     5.7690     5.2740     5.4090    23.5710 
  141.6250    -6.7890     2.3820   417.2360   104.7130     5.6940     5.2020     5.3030    23.5150 
  141.7500    -6.5520     2.3760   415.6810   103.2350     5.6310     5.1410     5.2650    23.4670 
  141.8750    -6.3250     2.3640   413.9790    99.8660     5.5860     5.0980     5.2580    23.4540 
  142.0000    -6.1160     2.3530   411.9460    99.0160     5.5650     5.0770     5.2520    23.4780 
  142.1250    -5.9080     2.3480   411.0080   103.8510     5.5640     5.0760     5.3440    23.5300 
  142.2500    -5.7560     2.3510   412.7040   106.1600     5.5650     5.0780     5.4890    23.5890 
  142.3750    -5.6850     2.3580   417.0050   102.8570     5.5550     5.0680     5.6110    23.6580 
  142.5000    -5.6520     2.3660   421.6900    99.0360     5.5220     5.0360     5.6930    23.7410 
  142.6250    -5.6320     2.3730   423.3330   101.5800     5.4630     4.9780     5.6750    23.8640 
  142.7500    -5.6370     2.3760   421.9710   106.4020     5.3920     4.9100     5.5740    23.9970 
  142.8750    -5.6590     2.3760   419.3430   107.4160     5.3250     4.8450     5.4280    24.1140 
  143.0000    -5.6640     2.3730   417.1050   104.6010     5.2740     4.7960     5.3430    24.1930 
  143.1250    -5.6820     2.3710   415.7450   101.6840     5.2520     4.7740     5.3120    24.2170 
  143.2500    -5.7070     2.3700   414.8700   100.5730     5.2510     4.7740     5.3060    24.2130 
  143.3750    -5.7170     2.3710   414.6910   101.8100     5.2680     4.7900     5.2970    24.2100 
  143.5000    -5.7190     2.3730   415.5460   103.7430     5.2920     4.8140     5.2870    24.2250 
  143.6250    -5.6840     2.3720   417.6410   105.8200     5.3160     4.8370     5.2720    24.2490 
  143.7500    -5.6210     2.3660   420.3440   109.8330     5.3340     4.8540     5.2530    24.2580 
  143.8750    -5.5450     2.3560   423.1490   112.5240     5.3410     4.8610     5.2280    24.2580 
  144.0000    -5.4810     2.3420   425.6950   110.3770     5.3340     4.8540     5.1950    24.2530 
  144.1250    -5.4380     2.3320   427.7720   105.9680     5.3070     4.8280     5.1490    24.2510 
  144.2500    -5.4140     2.3290   429.4050   105.5720     5.2640     4.7860     5.0940    24.2440 
  144.3750    -5.4030     2.3310   430.5800   108.4080     5.2110     4.7350     5.0390    24.2340 
  144.5000    -5.4080     2.3350   431.4650   109.3450     5.1600     4.6860     4.9930    24.2330 
  144.6250    -5.4580     2.3330   432.5790   106.8410     5.1300     4.6570     4.9630    24.2290 
  144.7500    -5.5300     2.3260   434.1400   104.7050     5.1270     4.6550     4.9490    24.2210 
  144.8750    -5.6110     2.3180   435.6920   106.2330     5.1510     4.6780     4.9440    24.2200 
