~V
VERS. 2.00: Ver 2.00
~W
STRT.M 62.0000:
STOP.M 235.0000:
STEP.M 0.1250:
NULL. -999.2500:
UWI. DF32059:
~C
DEPT.M :
SP.MV :
GR.API :
CALI.CM :
RXO.OHMM :
RI. :
RML.OHMM :
DEN.GM/CC :
~A
# ...
   84.5000   -34.7330    70.9660    22.6300     9.0370     7.4390    10.2490     2.1310 
   84.6250   -34.5700    71.5480    22.5800     9.0840     7.4340    10.2450     2.1410 
   84.7500   -34.4040    70.8320    22.5700     9.0910     7.3750    10.2230     2.1600 
   84.8750   -34.2330    68.5600    22.5760     9.0460     7.2830    10.1890     2.1760 
   85.0000   -34.0620    66.4630    22.6010     8.9490     7.1970    10.1510     2.1800 
   85.1250   -33.8870    67.4750    22.6200     8.8290     7.1560    10.1160     2.1770 
   85.2500   -33.7060    70.7360    22.6390     8.7380     7.1530    10.0830     2.1740 
   85.3750   -33.5470    72.4360    22.6720     8.6820     7.1630    10.0540     2.1730 
   85.5000   -33.4220    71.2020    22.7360     8.6240     7.1570    10.0310     2.1690 
   85.6250   -33.3440    71.1350    22.6700     8.6310     7.1260    10.0200     2.1640 
   85.7500   -33.3060    73.1060    22.6600     8.7140     7.0990    10.0260     2.1620 
   85.8750   -33.3000    74.5150    22.6890     8.8300     7.1010    10.0500     2.1590 
   86.0000   -33.3180    73.8650    22.7240     8.9120     7.1370    10.0910     2.1550 
   86.1250   -33.3490    72.0940    22.7340     8.9450     7.1850    10.1500     2.1530 
   86.2500   -33.3880    71.0150    22.7310     8.9670     7.2140    10.2220     2.1560 
   86.3750   -33.4230    69.8520    22.6840     9.0170     7.2200    10.2990     2.1580 
   86.5000   -33.4400    67.4430    22.6440     9.1020     7.2250    10.3750     2.1590 
   86.6250   -33.4130    65.8210    22.6240     9.2540     7.2660    10.4340     2.1610 
   86.7500   -33.3490    67.4380    22.6040     9.4620     7.3400    10.4660     2.1630 
   86.8750   -33.2340    70.5440    22.5970     9.6810     7.4210    10.4650     2.1630 
   87.0000   -33.0680    70.8840    22.6050     9.8620     7.4930    10.4640     2.1670 
   87.1250   -32.8550    68.6480    22.6250     9.9950     7.6160    10.6050     2.1770 
   87.2500   -32.5950    70.1810    22.6390    10.1480     7.8950    11.0290     2.1970 
   87.3750   -32.2900    75.4680    22.7320    10.3590     8.4100    11.8120     2.2430 
   87.5000   -31.9520    80.4160    22.9400    10.8850     9.1420    12.8850     2.3330 
   87.6250   -31.5900    80.8450    23.1270    12.7580     9.8600    13.8570     2.4500 
   87.7500   -31.2200    79.0760    23.0700    15.9260    10.1980    14.1860     2.5290 
   87.8750   -30.8630    78.1680    22.9360    17.6990     9.9570    13.6110     2.5260 
   88.0000   -30.5240    77.1670    22.9540    15.6930     9.2350    12.3660     2.4480 
   88.1250   -30.1980    73.7820    23.1700    11.6630     8.3590    11.0200     2.3450 
   88.2500   -29.8840    70.7340    23.2880     9.3750     7.6230     9.9770     2.2640 
   88.3750   -29.5510    70.1760    23.3650     8.8090     7.0790     9.2820     2.2160 
   88.5000   -29.1890    71.4100    23.4900     8.8520     6.6630     8.8170     2.1950 
   88.6250   -28.7950    71.5930    23.4730     8.3980     6.2890     8.4300     2.2040 
   88.7500   -28.4320    70.9930    23.2870     7.3190     5.9290     8.0450     2.2350 
   88.8750   -28.1290    72.6370    23.0890     6.1050     5.6260     7.7050     2.2680 
   89.0000   -27.9200    78.2520    23.0910     5.4870     5.4250     7.4680     2.2780 
   89.1250   -27.8140    84.1530    22.8450     5.9450     5.3410     7.3590     2.2570 
   89.2500   -27.8010    86.7110    22.5120     6.4920     5.3200     7.3240     2.2380 
   89.3750   -27.9200    86.8940    22.3510     6.5090     5.3400     7.3420     2.2370 
   89.5000   -28.2060    86.6340    22.4550     6.0640     5.4190     7.4350     2.2410 
   89.6250   -28.6930    84.6220    22.6980     5.9910     5.6350     7.7120     2.2270 
   89.7500   -29.2400    80.1800    22.8150     6.6910     6.0000     8.2190     2.2080 
   89.8750   -29.7920    75.3710    22.7940     7.6260     6.4730     8.9290     2.2060 
   90.0000   -30.2990    72.9760    22.8130     8.2980     6.9440     9.7020     2.2180 
   90.1250   -30.7490    72.7770    22.8920     8.8610     7.2320    10.2320     2.2220 
   90.2500   -31.1190    72.7470    22.8460     9.2820     7.2680    10.3130     2.2050 
   90.3750   -31.3800    71.2440    22.6780     9.4350     7.0720     9.9270     2.1800 
   90.5000   -31.5000    70.1270    22.7290     9.3550     6.7610     9.2830     2.1580 
   90.6250   -31.4290    70.8350    23.1310     9.2730     6.5640     8.8320     2.1510 
   90.7500   -31.2590    71.4350    23.2560     9.3040     6.7130     8.9850     2.1690 
   90.8750   -31.0260    71.0670    23.1220     9.8190     7.4280    10.0700     2.2220 
   91.0000   -30.7680    68.9710    22.9370    11.8750     8.8990    12.3330     2.3060 
   91.1250   -30.5380    66.8030    23.0640    19.3620    11.2340    15.8940     2.3920 
   91.2500   -30.3900    64.5740    23.0730    30.9070    13.6660    19.5020     2.4580 
   91.3750   -30.3470    62.4300    23.0040    38.2370    14.9870    21.1420     2.4910 
   91.5000   -30.3840    61.5650    23.1300    34.0530    14.3290    19.5290     2.4740 
   91.6250   -30.5430    63.7010    23.2270    21.6530    12.1060    15.8180     2.3950 
   91.7500   -30.7810    68.2200    23.1860    13.1810     9.8350    12.4940     2.2970 
   91.8750   -31.0600    71.6670    23.0600     9.5660     8.1270    10.2940     2.2210 
   92.0000   -31.3230    72.4200    22.9700     8.4960     7.0970     9.1820     2.1830 
   92.1250   -31.5370    72.2980    22.9370     8.2860     6.6860     8.9340     2.1650 
   92.2500   -31.6800    74.0570    22.9280     8.2060     6.5800     9.0430     2.1510 
   92.3750   -31.7230    76.4360    22.9250     8.1140     6.6040     9.2380     2.1430 
   92.5000   -31.6960    76.2450    22.9230     7.9730     6.6530     9.3630     2.1470 
   92.6250   -31.5450    74.3400    22.8970     7.8190     6.6960     9.3770     2.1500 
   92.7500   -31.2900    73.1100    22.8290     7.5960     6.7280     9.3260     2.1410 
   92.8750   -30.9440    71.9150    22.7730     7.2960     6.7170     9.2070     2.1220 
   93.0000   -30.5370    69.7330    22.7550     7.1120     6.6140     8.9970     2.1050 
   93.1250   -30.0750    67.9910    22.7490     7.0400     6.3840     8.6690     2.1100 
   93.2500   -29.5640    67.8640    22.7520     6.8450     6.1000     8.2910     2.1310 
   93.3750   -29.0620    69.6030    22.8110     6.3860     5.8470     7.9500     2.1560 
   93.5000   -28.5850    74.6660    22.8570     5.9210     5.6910     7.7320     2.1740 
   93.6250   -28.1940    82.3190    22.8570     5.6870     5.6650     7.7110     2.1800 
   93.7500   -27.8680    86.3520    22.7740     5.7380     5.7060     7.8390     2.1770 
   93.8750   -27.6190    84.6090    22.7170     6.0050     5.7630     8.0470     2.1720 
   94.0000   -27.4500    82.0960    22.6700     6.2630     5.8030     8.2470     2.1700 
   94.1250   -27.3600    85.5430    22.8600     6.3300     5.8080     8.3390     2.1740 
   94.2500   -27.3650    91.2850    23.1910     6.2240     5.7820     8.2990     2.1800 
   94.3750   -27.4470    93.3870    23.3600     6.1360     5.7150     8.1430     2.1880 
   94.5000   -27.6020    92.1990    23.3980     6.1440     5.6080     7.9320     2.1990 
   94.6250   -27.8340    90.6270    23.4180     6.2370     5.4760     7.7590     2.2120 
   94.7500   -28.1580    89.8950    23.4460     6.4010     5.3750     7.6930     2.2200 
   94.8750   -28.5630    89.2570    23.5110     6.6270     5.3600     7.7680     2.2220 
   95.0000   -29.0120    88.4030    23.6210     6.8230     5.4740     7.9910     2.2140 
   95.1250   -29.5030    87.0990    23.7020     7.1570     5.7300     8.3550     2.1960 
   95.2500   -29.9600    82.0420    23.5950     7.5860     6.0510     8.7770     2.1770 
   95.3750   -30.3350    73.8090    23.2380     7.9120     6.3700     9.1910     2.1610 
   95.5000   -30.5730    67.1000    22.9700     8.1640     6.6380     9.5390     2.1490 
   95.6250   -30.6190    66.4160    23.0230     8.4960     6.8440     9.7780     2.1430 
