~V
VERS. 2.00: Ver 2.00
~W
STRT.M 63.0000:
STOP.M 291.0000:
STEP.M 0.1250:
NULL. -999.2500:
UWI. DF325:
~C
DEPT.M :
DEN.GM/CC :
SP.MV :
AC.US/MT :
GR.API :
RML.OHMM :
RI. :
RXO.OHMM :
CALI.CM :
~A
# ...
  223.0000     2.2590   -15.2000   399.6320    71.2390    28.3430    25.5660    31.7200    25.5030 
  223.1250     2.2480   -15.5590   401.8270    70.6840    33.2300    28.6820    37.1230    25.5270 
  223.2500     2.2430   -15.9570   403.2620    71.0920    38.1830    32.2500    42.8410    25.5390 
  223.3750     2.2420   -16.3780   403.9100    72.1570    42.0250    35.9400    47.1130    25.5420 
  223.5000     2.2450   -16.8300   404.1000    73.6290    45.3950    39.3750    49.2700    25.5370 
  223.6250     2.2500   -17.3100   404.2660    71.4050    47.7390    42.0690    50.7190    25.5310 
  223.7500     2.2550   -17.7910   404.6380    66.2510    49.0790    43.9570    52.7540    25.5320 
  223.8750     2.2590   -18.2720   405.0990    63.6980    49.7020    45.1940    53.9440    25.5340 
  224.0000     2.2620   -18.7590   405.3010    65.4290    50.2250    46.2090    53.1560    25.5340 
  224.1250     2.2620   -19.2540   404.8650    66.7520    51.6350    47.7420    52.1300    25.5290 
  224.2500     2.2590   -19.7050   403.9710    65.1730    54.4800    50.3120    52.6910    25.5250 
  224.3750     2.2540   -20.1270   403.0000    62.6500    58.8090    54.1530    55.1300    25.5150 
  224.5000     2.2460   -20.5290   402.4330    60.2360    64.1410    59.0260    59.9590    25.5100 
  224.6250     2.2370   -20.8920   402.8860    58.2300    68.9080    63.8470    64.1840    25.5220 
  224.7500     2.2290   -21.2330   404.2560    58.1400    71.0820    66.8150    65.1410    25.5350 
  224.8750     2.2240   -21.5480   406.0020    60.6920    68.9570    66.2360    63.4260    25.5340 
  225.0000     2.2270   -21.8350   407.2760    64.3240    62.4970    61.2640    59.9270    25.5150 
  225.1250     2.2420   -22.1200   407.0450    66.1420    53.1780    52.5290    53.8030    25.4860 
  225.2500     2.2630   -22.4720   405.3140    68.2070    44.4650    43.4570    46.2080    25.4510 
  225.3750     2.2840   -22.8840   402.5310    72.4810    37.8830    36.4840    36.9830    25.4030 
  225.5000     2.2940   -23.3420   399.4740    76.9320    35.1930    32.8890    30.1750    25.3680 
  225.6250     2.2880   -23.8630   397.3310    74.5690    36.7910    33.5940    32.9380    25.3510 
  225.7500     2.2700   -24.4410   396.9550    68.4770    41.8190    37.9380    44.5770    25.3680 
  225.8750     2.2490   -25.0790   398.6580    66.2240    50.1390    45.8330    61.8040    25.3930 
  226.0000     2.2290   -25.7530   401.9190    67.9080    61.4460    56.9470    82.5460    25.3490 
  226.1250     2.2180   -26.4140   405.5030    67.1890    75.1730    70.5850    99.0140    25.1730 
  226.2500     2.2130   -27.0590   408.3240    64.2870    89.4820    84.6970   110.1520    25.0300 
  226.3750     2.2110   -27.6820   410.1030    64.5830   102.9110    97.7150   118.8200    25.0140 
  226.5000     2.2090   -28.2620   410.9080    67.9870   114.3730   108.5280   129.8640    25.1480 
  226.6250     2.2010   -28.7900   410.7210    69.5110   123.2210   116.4380   135.5030    25.3370 
  226.7500     2.1900   -29.2780   409.8450    69.0050   130.5030   122.4850   136.7160    25.4830 
  226.8750     2.1790   -29.7110   408.5980    69.1620   137.2090   127.6150   137.7660    25.5360 
  227.0000     2.1730   -30.0810   407.3180    70.4670   144.2180   132.6890   139.5740    25.5250 
  227.1250     2.1760   -30.4010   406.2470    69.8430   152.1220   138.3370   143.7460    25.4420 
  227.2500     2.1830   -30.6730   405.6080    66.8960   160.4190   144.4190   150.3600    25.3080 
  227.3750     2.1910   -30.8850   405.7890    64.6290   167.9130   150.2590   159.7550    25.1860 
  227.5000     2.1940   -31.0140   407.0660    64.9570   172.7990   154.6590   165.1930    25.0870 
  227.6250     2.1900   -31.0170   409.4730    66.4160   172.1060   155.3730   161.4200    25.0220 
  227.7500     2.1810   -30.9080   412.1450    67.9170   165.4900   151.6240   152.4200    24.9940 
  227.8750     2.1750   -30.7200   413.4270    70.0140   154.0820   143.6350   144.8360    25.0390 
  228.0000     2.1840   -30.4710   410.0700    71.6400   141.0580   133.3250   136.8720    25.1870 
  228.1250     2.2230   -30.0960   394.9790    69.9370   130.8410   124.1230   124.4770    25.3630 
  228.2500     2.2870   -29.6350   365.5210    67.9900   125.2030   118.3680   108.4430    25.4170 
  228.3750     2.3570   -29.1420   324.4480    65.7890   124.1760   116.7140    92.2500    25.2400 
  228.5000     2.4040   -28.6460   284.0220    61.8280   126.8760   118.6820    83.4490    24.7720 
  228.6250     2.4020   -28.1080   269.3530    58.3590   132.4850   123.5600    89.0010    24.3670 
  228.7500     2.3700   -27.5600   287.2850    56.6670   139.6470   129.9260   104.0310    24.2890 
  228.8750     2.3300   -27.0300   324.4640    56.7500   147.7600   137.1210   123.1250    24.5830 
  229.0000     2.2980   -26.4860   357.7460    58.2680   156.0460   144.3930   138.8220    24.9410 
  229.1250     2.2750   -25.9420   373.8090    59.9140   163.0610   150.4360   140.9100    24.9160 
  229.2500     2.2520   -25.4270   386.2490    59.6670   167.8580   154.4330   139.8980    24.5510 
  229.3750     2.2250   -24.8970   404.8700    56.8580   170.2160   156.1910   140.4120    24.2760 
  229.5000     2.1990   -24.3310   425.5710    54.4090   170.9370   156.3750   142.4370    24.4130 
  229.6250     2.1840   -23.7770   435.7210    55.5800   171.8170   156.5260   145.4320    24.9050 
  229.7500     2.1800   -23.2230   432.1710    59.1100   174.3290   158.0970   145.0870    25.2030 
  229.8750     2.1880   -22.6330   420.2670    62.3150   178.6550   161.5010   151.5310    25.3680 
  230.0000     2.1970   -22.0300   409.5010    61.1050   183.9280   166.2210   163.8240    25.4320 
  230.1250     2.2000   -21.4110   406.8260    57.0370   188.1310   170.5830   177.9950    25.4240 
  230.2500     2.1930   -20.7390   409.1910    56.5480   188.8950   172.2180   187.6530    25.3760 
  230.3750     2.1790   -20.0540   411.6380    59.9980   192.2870   176.4060   193.9000    25.3050 
  230.5000     2.1700   -19.3930   410.4220    63.6950   223.1440   205.8130   197.9320    25.2060 
  230.6250     2.1890   -18.6930   399.1470    65.1980   318.3810   294.5200   205.7580    25.1230 
  230.7500     2.2490   -17.9280   372.3770    64.8300   476.6890   441.1000   215.1540    25.0400 
  230.8750     2.3450   -17.1690   329.6350    63.3790   657.0080   608.0630   222.5170    24.9530 
  231.0000     2.4580   -16.4510   279.4210    61.1210   789.9240   731.1330   224.4510    24.9270 
  231.1250     2.5470   -15.7540   241.5880    58.5300   735.9630   681.1690   199.9210    25.0360 
  231.2500     2.5870   -15.0510   229.5950    56.7830   493.1920   456.3820   146.4980    25.1240 
  231.3750     2.5730   -14.3840   246.2590    54.9400   227.2780   210.1650    81.5560    25.1710 
  231.5000     2.5240   -13.7840   285.5560    52.9220    83.6410    77.1680    39.4410    25.1590 
  231.6250     2.4620   -13.2820   336.5070    52.7380    34.9220    32.0580    19.6670    25.0100 
  231.7500     2.4110   -12.8780   383.3420    52.6910    16.2950    14.8100     9.5720    24.7930 
  231.8750     2.3770   -12.5650   415.9310    49.2720     9.5420     8.5570     6.0850    24.5670 
  232.0000     2.3650   -12.3680   430.2660    42.6220     7.2170     6.4040     5.4820    24.3940 
  232.1250     2.3710   -12.3190   427.9990    38.5550     6.7520     5.9740     5.8410    24.4130 
  232.2500     2.3860   -12.3860   417.7100    38.5740     7.0840     6.2810     6.4670    24.6160 
  232.3750     2.4040   -12.5500   403.2080    41.0310     7.9040     7.0410     7.2920    24.8320 
  232.5000     2.4200   -12.7710   388.0860    43.9840     8.9190     7.9800     8.1650    24.9710 
  232.6250     2.4280   -13.0330   378.8050    44.0540     9.7850     8.7820     8.7150    25.0400 
  232.7500     2.4290   -13.3110   377.8830    41.2820    10.2910     9.2510     8.8290    25.0630 
  232.8750     2.4250   -13.5980   384.0020    39.2870    10.3890     9.3420     8.6760    25.0420 
