~V
VERS. 2.00: Ver 2.00
~W
STRT.M 62.0000:
STOP.M 282.0000:
STEP.M 0.1250:
NULL. -999.2500:
UWI. DF32160:
~C
DEPT.M :
GR.API :
CALI.CM :
RXO.OHMM :
RI. :
RML.OHMM :
DEN.GM/CC :
SP.MV :
~A
# ...
   73.2500    86.7900    26.1430     6.7050     5.5920     7.3870     2.1870   -25.0120 
   73.3750    88.5150    26.0950     5.9600     5.2360     6.9600     2.1780   -24.7430 
   73.5000    83.8330    26.0090     6.0510     5.0940     6.9410     2.1670   -24.5570 
   73.6250    74.2270    25.9900     6.7640     5.2520     7.4110     2.1720   -24.4860 
   73.7500    66.6330    26.0440     7.3950     5.6470     8.2150     2.2090   -24.4980 
   73.8750    64.9020    26.0770     8.0090     6.2040     9.2000     2.2710   -24.5890 
   74.0000    67.3110    25.9620     8.9500     6.7950    10.1290     2.3190   -24.7280 
   74.1250    70.6140    25.6700     9.7330     7.1970    10.6250     2.3090   -24.8540 
   74.2500    73.7300    25.3710     9.5380     7.3040    10.5950     2.2530   -24.9370 
   74.3750    75.8560    25.1830     8.5770     7.1360    10.1700     2.1900   -24.9920 
   74.5000    75.3790    25.1130     7.7180     6.8100     9.6050     2.1580   -25.0310 
   74.6250    73.4330    25.0920     7.6900     6.4640     9.1410     2.1670   -25.0720 
   74.7500    73.3100    25.0850     8.4580     6.1920     8.8410     2.1870   -25.1250 
   74.8750    74.0790    25.0870     9.5780     6.0040     8.6480     2.1960   -25.1760 
   75.0000    72.8710    25.0800    10.0600     5.8620     8.4410     2.1920   -25.2360 
   75.1250    67.7060    25.0660     9.3010     5.7380     8.1830     2.1850   -25.3270 
   75.2500    62.6880    25.0780     8.3840     5.7040     8.0920     2.1840   -25.4480 
   75.3750    61.5580    25.1370     8.0580     5.9020     8.4620     2.1970   -25.5940 
   75.5000    63.2600    25.2120     8.5280     6.4630     9.5090     2.2360   -25.7790 
   75.6250    63.9270    25.2640    11.7360     7.4930    11.3570     2.3180   -26.0070 
   75.7500    63.6030    25.2950    21.5390     8.7600    13.4880     2.4000   -26.2610 
   75.8750    64.4000    25.3040    35.3560     9.8350    15.0310     2.4260   -26.5340 
   76.0000    65.9690    25.2770    38.8090    10.1820    15.0350     2.3650   -26.8120 
   76.1250    65.5570    25.2210    26.0530     9.5010    13.3070     2.2560   -27.0740 
   76.2500    64.4620    25.1800    13.9870     8.4010    11.2270     2.1740   -27.3050 
   76.3750    65.0330    25.1660     9.4770     7.3570     9.6080     2.1390   -27.5110 
   76.5000    67.7770    25.1680     8.6880     6.6220     8.7180     2.1380   -27.6750 
   76.6250    69.2300    25.1690     8.7980     6.3050     8.5570     2.1420   -27.7740 
   76.7500    67.2500    25.1530     8.8370     6.2570     8.7380     2.1390   -27.8350 
   76.8750    64.6220    25.1130     8.8520     6.3490     8.9780     2.1330   -27.8760 
   77.0000    63.9980    25.0770     8.9280     6.4750     9.1040     2.1300   -27.9140 
   77.1250    64.5980    25.0890     9.0530     6.5760     9.1400     2.1330   -27.9810 
   77.2500    66.0110    25.1250     9.1060     6.6420     9.2000     2.1350   -28.0970 
   77.3750    68.0130    25.1580     9.0320     6.6790     9.3120     2.1350   -28.2580 
   77.5000    69.4540    25.1880     8.9330     6.6920     9.4260     2.1380   -28.4730 
   77.6250    69.6340    25.2220     9.0090     6.6830     9.4470     2.1460   -28.7250 
   77.7500    69.5570    25.2420     9.2170     6.6600     9.3670     2.1480   -28.9770 
   77.8750    69.4590    25.2600     9.3510     6.6290     9.2360     2.1410   -29.2100 
   78.0000    68.6330    25.3110     9.2620     6.5950     9.1310     2.1270   -29.4080 
   78.1250    66.8270    25.3920     9.0220     6.5660     9.1030     2.1170   -29.5390 
   78.2500    65.8910    25.4420     8.8710     6.5550     9.1340     2.1130   -29.5940 
   78.3750    66.5720    25.4310     8.8940     6.5740     9.2240     2.1140   -29.5710 
   78.5000    68.2000    25.3550     9.0480     6.6150     9.3510     2.1150   -29.4720 
   78.6250    66.6090    25.2150     9.2530     6.6460     9.4330     2.1180   -29.3120 
   78.7500    63.6630    25.0630     9.4270     6.6280     9.4020     2.1270   -29.1260 
   78.8750    64.5280    24.9300     9.4370     6.5480     9.2520     2.1420   -28.9370 
   79.0000    69.5120    24.8200     9.0850     6.4290     9.0490     2.1600   -28.7630 
   79.1250    71.6180    24.7440     8.4110     6.3270     8.9200     2.1680   -28.6170 
   79.2500    69.1910    24.7020     8.0050     6.2920     8.9470     2.1630   -28.4920 
   79.3750    66.5260    24.7070     8.1910     6.3470     9.1500     2.1540   -28.3900 
   79.5000    66.3600    24.7690     8.7550     6.4820     9.4830     2.1530   -28.2940 
   79.6250    67.7580    24.8540     9.1770     6.6510     9.8160     2.1650   -28.2000 
   79.7500    69.2650    24.8780     9.3420     6.7680     9.9950     2.1780   -28.1190 
   79.8750    70.7450    24.8310     9.3990     6.7790     9.9380     2.1930   -28.0530 
   80.0000    71.5660    24.7700     9.4360     6.6770     9.6760     2.2100   -28.0200 
   80.1250    72.5520    24.7810     9.3900     6.5120     9.3490     2.2160   -28.0550 
   80.2500    74.0300    24.8230     9.2500     6.3740     9.1330     2.2050   -28.1610 
   80.3750    75.0970    24.7870     9.0910     6.3140     9.1030     2.1850   -28.3290 
   80.5000    72.8340    24.6120     9.0410     6.3490     9.2570     2.1690   -28.5710 
   80.6250    67.2820    24.4100     9.1580     6.4700     9.5400     2.1650   -28.9120 
   80.7500    63.7100    24.3870     9.3280     6.6210     9.8280     2.1630   -29.3060 
   80.8750    64.0270    24.6060     9.5010     6.7600    10.0490     2.1600   -29.7350 
   81.0000    66.6640    24.9540     9.6970     6.8580    10.1680     2.1620   -30.1680 
   81.1250    67.4320    25.2970     9.9230     6.9030    10.1890     2.1730   -30.5590 
   81.2500    65.7770    25.5770    10.0990     6.9160    10.1670     2.1810   -30.8940 
   81.3750    62.8500    25.7850    10.1630     6.9120    10.1230     2.1730   -31.1780 
   81.5000    60.4300    25.9080    10.1520     6.8970    10.0680     2.1550   -31.3940 
   81.6250    59.9550    26.0160    10.1720     6.8780    10.0050     2.1480   -31.5000 
   81.7500    59.4020    26.2010    10.2160     6.8540     9.9240     2.1510   -31.5110 
   81.8750    57.9840    26.4040    10.1940     6.8160     9.7950     2.1510   -31.4160 
   82.0000    57.8880    26.4990    10.0910     6.7460     9.5860     2.1390   -31.1970 
   82.1250    61.1200    26.4600     9.8630     6.6330     9.2840     2.1290   -30.8550 
   82.2500    66.2600    26.2810     9.2660     6.5030     8.9740     2.1340   -30.4140 
   82.3750    71.9440    25.8240     8.2050     6.3980     8.7580     2.1470   -29.8860 
   82.5000    74.2990    25.1040     7.0840     6.3660     8.7320     2.1570   -29.2500 
   82.6250    72.6700    24.4710     6.5670     6.4420     8.9540     2.1570   -28.4250 
   82.7500    71.3020    24.2220     6.5800     6.5660     9.2690     2.1560   -27.4230 
   82.8750    73.8890    24.3290     6.7610     6.6330     9.4500     2.1610   -26.2790 
   83.0000    81.2730    24.5660     6.7430     6.5150     9.2490     2.1790   -25.0700 
   83.1250    92.7220    24.7050     6.2260     6.0950     8.4850     2.2190   -23.8640 
   83.2500   104.9800    24.6590     5.4000     5.4850     7.4260     2.2720   -22.7680 
   83.3750   113.4770    24.4050     4.6100     4.8320     6.3700     2.3140   -21.8360 
   83.5000   115.9080    23.9750     4.1120     4.2710     5.5490     2.3280   -21.1540 
   83.6250   112.7730    23.5140     3.9510     3.9170     5.1320     2.3220   -20.9000 
   83.7500   107.9070    23.2100     3.9700     3.7700     5.0720     2.3180   -21.0670 
   83.8750   103.8540    23.0760     4.1420     3.8300     5.3400     2.3160   -21.6020 
   84.0000    98.8680    23.0170     4.5610     4.0830     5.8900     2.3040   -22.4350 
   84.1250    91.6800    22.9870     5.4350     4.5230     6.6720     2.2750   -23.5060 
   84.2500    84.5050    23.0020     6.5490     5.0550     7.5140     2.2380   -24.6320 
   84.3750    79.6960    23.0390     7.4260     5.5890     8.2550     2.2000   -25.7260 
