~V
VERS. 2.00: Ver 2.00
~W
STRT.M 59.0000:
STOP.M 261.0000:
STEP.M 0.1250:
NULL. -999.2500:
UWI. DF32116:
~C
DEPT.M :
SP.MV :
GR.API :
CALI.CM :
RXO.OHMM :
RI. :
RML.OHMM :
DEN.GM/CC :
~A
# ...
  216.5000   -17.0600    92.1770    25.4150     8.3370     7.5490     9.1840     2.4340 
  216.6250   -17.0510    93.6890    25.3960     8.7090     7.8580     9.4740     2.4370 
  216.7500   -17.0280    97.4950    25.3410     9.1900     8.0430     9.5540     2.4300 
  216.8750   -16.9830   101.6690    25.2870     9.4760     8.0670     9.4220     2.4080 
  217.0000   -16.8990   102.1530    25.2810     9.3370     7.9570     9.1730     2.3820 
  217.1250   -16.7740    99.0890    25.3230     8.8090     7.7910     8.9570     2.3700 
  217.2500   -16.6380    96.4740    25.3610     8.3260     7.6460     8.8530     2.3700 
  217.3750   -16.4900    97.0220    25.3720     8.1360     7.5350     8.8430     2.3760 
  217.5000   -16.3470   101.7420    25.3620     8.1030     7.4280     8.8330     2.3850 
  217.6250   -16.2400   109.0570    25.3430     7.7860     7.2450     8.6430     2.3950 
  217.7500   -16.1930   109.1490    25.3440     7.2310     6.9630     8.2300     2.3990 
  217.8750   -16.2390   100.4280    25.3690     6.8330     6.6480     7.7380     2.3930 
  218.0000   -16.4010    90.8280    25.3970     6.7940     6.4670     7.4940     2.3770 
  218.1250   -16.6960    87.2490    25.4100     7.1050     6.7560     8.1350     2.3670 
  218.2500   -17.1260    85.5420    25.4120     8.6670     7.8730    10.1800     2.3740 
  218.3750   -17.7090    80.6850    25.4110    14.6110    10.6220    14.4540     2.3850 
  218.5000   -18.4260    72.8840    25.4090    33.1210    16.5670    22.2980     2.3760 
  218.6250   -19.2540    66.5320    25.4070    94.0830    29.9750    37.6990     2.3390 
  218.7500   -20.1370    61.5790    25.4040   183.6160    53.8710    64.5450     2.3000 
  218.8750   -21.0220    57.8100    25.3820   241.9960    89.3850   107.2770     2.2850 
  219.0000   -21.8710    55.7320    25.3310   255.8350   130.0660   161.7960     2.2920 
  219.1250   -22.6500    57.1590    25.2880   280.7050   159.2930   201.9270     2.3040 
  219.2500   -23.3330    58.6310    25.2870   308.6270   171.2560   214.8110     2.3040 
  219.3750   -23.9030    57.4600    25.3060   300.6690   170.6500   211.2970     2.2890 
  219.5000   -24.3550    56.5600    25.3070   258.5840   164.7460   203.7610     2.2620 
  219.6250   -24.6820    57.7010    25.3140   220.7980   159.8010   199.5520     2.2310 
  219.7500   -24.9290    58.3810    25.3480   207.7200   159.4570   201.4320     2.2100 
  219.8750   -25.1240    57.1060    25.3750   212.2630   165.0990   210.3440     2.2040 
  220.0000   -25.2970    55.8750    25.3650   224.7010   176.1730   225.3060     2.2130 
  220.1250   -25.4590    55.5550    25.3400   243.0590   189.4890   241.5240     2.2240 
  220.2500   -25.6090    54.4070    25.3320   264.7130   198.5890   249.5560     2.2210 
  220.3750   -25.7520    53.5410    25.3290   279.8050   198.0890   242.1520     2.2060 
  220.5000   -25.8970    54.7810    25.3210   275.5720   186.3520   219.9860     2.1920 
  220.6250   -26.0560    57.6580    25.3320   241.4150   166.5440   191.5180     2.1910 
  220.7500   -26.2120    59.9960    25.3680   193.6690   146.2260   165.9550     2.2010 
  220.8750   -26.3610    59.9120    25.4000   152.0410   129.0630   145.9680     2.2120 
  221.0000   -26.5120    58.7990    25.3580   128.9380   116.2420   131.4520     2.2210 
  221.1250   -26.6810    59.3900    25.2180   123.5970   107.6990   121.5770     2.2300 
  221.2500   -26.8730    61.4800    25.0770   122.5410   101.4590   114.0500     2.2420 
  221.3750   -27.0950    62.3340    24.9970   118.4870    96.5860   107.8980     2.2530 
  221.5000   -27.3370    61.0880    24.9810   110.6590    92.6320   102.7310     2.2570 
  221.6250   -27.6200    61.7190    24.9840   102.9130    89.8430    98.9920     2.2560 
  221.7500   -27.9420    63.3750    24.9800    98.1720    88.5860    97.1120     2.2560 
  221.8750   -28.2750    62.6070    24.9770    98.0660    89.2660    97.4070     2.2530 
  222.0000   -28.5860    60.2110    24.9790   103.8560    91.6370    99.4180     2.2440 
  222.1250   -28.8500    59.3310    24.9800   117.9540    94.5060   101.6650     2.2320 
  222.2500   -29.0740    60.1040    24.9660   135.8140    96.2670   102.4710     2.2290 
  222.3750   -29.2360    59.3860    24.9560   142.8940    96.2060   101.2970     2.2400 
  222.5000   -29.3380    58.3500    24.9820   129.5400    94.6130    98.7920     2.2600 
  222.6250   -29.3520    59.3350    25.0510   109.3890    92.5680    96.3290     2.2760 
  222.7500   -29.2790    58.7280    25.0960   104.7130    90.8500    94.3770     2.2860 
  222.8750   -29.1360    55.7570    25.0760   114.5020    88.9490    92.0400     2.2910 
  223.0000   -28.9420    55.0710    25.0190   124.0170    85.7970    88.0490     2.2940 
  223.1250   -28.7120    59.1180    24.9960   114.4990    80.5770    81.8480     2.2910 
  223.2500   -28.4590    62.5180    24.9990    91.3510    74.4680    75.1900     2.2850 
  223.3750   -28.2070    61.9700    24.9850    70.6020    69.1040    69.9690     2.2830 
  223.5000   -27.9760    60.7470    24.9550    64.8320    66.1390    67.7000     2.2890 
  223.6250   -27.7740    60.1730    24.9360    79.0130    67.3650    69.8510     2.2960 
  223.7500   -27.6050    58.5390    24.9290   100.1080    72.4990    75.8890     2.2930 
  223.8750   -27.4740    57.1410    24.9440   115.0320    81.0310    85.2560     2.2760 
  224.0000   -27.3660    57.1550    24.9890   121.0660    91.6000    96.5360     2.2540 
  224.1250   -27.2760    58.9690    25.0690   129.4970   101.6300   106.8950     2.2370 
  224.2500   -27.1910    60.5710    25.1670   147.4910   108.9390   114.0660     2.2290 
  224.3750   -27.1050    62.2470    25.2550   164.3900   113.0010   117.7380     2.2260 
  224.5000   -27.0100    62.4220    25.2970   162.7530   114.5500   118.9480     2.2330 
  224.6250   -26.8970    59.9820    25.2680   146.3260   114.4800   118.6950     2.2660 
  224.7500   -26.7610    57.1880    25.2120   159.1960   113.5020   117.5010     2.3300 
  224.8750   -26.6150    56.1080    25.1570   226.7530   111.3110   114.8250     2.4020 
  225.0000   -26.4680    56.5150    25.0950   276.4150   107.3580   109.9760     2.4480 
  225.1250   -26.3290    56.3730    25.0160   229.8650   101.3070   102.8210     2.4440 
  225.2500   -26.1970    56.7600    24.9350   148.9260    94.6010    95.3780     2.4140 
  225.3750   -26.0770    58.1450    24.8740   105.4130    88.9690    89.6650     2.3780 
  225.5000   -25.9750    59.2320    24.8190    89.5340    85.9870    87.1830     2.3450 
  225.6250   -25.8910    57.8580    24.7900    90.5350    87.2170    89.1950     2.3150 
  225.7500   -25.8140    55.8480    24.8700   107.7990    91.7410    94.3370     2.2900 
  225.8750   -25.7410    56.6930    25.0460   135.1810    97.6800   100.3030     2.2710 
  226.0000   -25.6730    61.1110    25.1920   151.1110   101.8380   103.4070     2.2580 
  226.1250   -25.6110    63.9830    25.1960   141.5880    99.9930    99.3140     2.2470 
  226.2500   -25.5390    63.5660    25.1410   121.8300    92.6950    89.9670     2.2420 
  226.3750   -25.4560    62.7110    25.1020   100.3480    82.7600    79.2370     2.2510 
  226.5000   -25.3510    63.3740    25.0870    79.5530    73.7510    70.7080     2.2730 
  226.6250   -25.2560    62.1330    25.0810    68.2470    68.9240    67.0020     2.2950 
  226.7500   -25.2070    58.5740    25.0500    70.7460    68.4990    67.6810     2.3000 
  226.8750   -25.1910    56.5760    24.9860    87.9580    72.1270    72.2030     2.2900 
  227.0000   -25.1900    57.2080    24.9460   114.1830    78.8310    79.5000     2.2750 
  227.1250   -25.1980    58.4040    24.9970   131.3530    86.7330    87.5400     2.2660 
  227.2500   -25.2190    58.3750    25.0880   131.0940    93.0230    93.5590     2.2590 
  227.3750   -25.2360    57.0920    25.1520   122.1470    96.0690    96.0750     2.2510 
  227.5000   -25.2340    55.3110    25.1740   115.7890    95.8170    95.3580     2.2450 
  227.6250   -25.1810    54.6660    25.1750   113.1740    93.4370    92.9180     2.2400 
