~V
VERS. 2.00: Ver 2.00
~W
STRT.M 61.0000:
STOP.M 257.0000:
STEP.M 0.1250:
NULL. -999.2500:
UWI. DF32086:
~C
DEPT.M :
SP.MV :
GR.API :
CALI.CM :
RXO.OHMM :
RI. :
RML.OHMM :
DEN.GM/CC :
~A
# ...
  207.2500   -24.4030    74.5450    23.9000   123.2940   114.7450   118.6480     2.3150 
  207.3750   -23.9870    71.6600    23.7890   194.7660   100.4920    99.7570     2.4260 
  207.5000   -23.5090    68.4920    23.6260   244.8680    70.5600    66.2090     2.5440 
  207.6250   -23.0410    69.4150    23.5450   175.8810    42.3460    39.2440     2.6220 
  207.7500   -22.5180    73.0760    23.5000    73.1050    24.1770    22.9550     2.6380 
  207.8750   -22.0270    76.2760    23.3460    21.0250    14.2500    14.0390     2.5980 
  208.0000   -21.5210    77.7490    23.0830     8.4140     9.2730     9.4510     2.5300 
  208.1250   -21.1210    77.5690    22.9940     6.6910     7.1260     7.5750     2.4710 
  208.2500   -20.7490    75.7650    23.0050     6.4940     6.2180     6.9620     2.4420 
  208.3750   -20.4590    72.2310    23.0740     6.6410     6.0930     7.0730     2.4400 
  208.5000   -20.2220    67.8880    23.2100     6.7690     6.4340     7.5010     2.4540 
  208.6250   -20.0400    65.5820    23.3630     6.8260     6.9430     7.8990     2.4650 
  208.7500   -19.9260    66.6130    23.4780     6.7550     7.3340     8.0950     2.4630 
  208.8750   -19.8520    70.9790    23.4970     6.6070     7.4880     8.0800     2.4520 
  209.0000   -19.8130    75.5820    23.4700     6.4940     7.3970     7.9170     2.4420 
  209.1250   -19.7520    76.4130    23.4250     6.4060     7.1410     7.6860     2.4380 
  209.2500   -19.6730    73.5610    23.3500     6.3050     6.8820     7.4830     2.4320 
  209.3750   -19.5790    69.7060    23.2430     6.1950     6.7010     7.3470     2.4220 
  209.5000   -19.5200    67.6090    23.0650     6.1370     6.6120     7.2830     2.4110 
  209.6250   -19.4680    65.5530    22.9890     6.1270     6.5510     7.2460     2.4070 
  209.7500   -19.4290    61.2820    22.9950     6.0640     6.4040     7.1550     2.4080 
  209.8750   -19.4030    57.1960    22.9860     5.8780     6.0960     6.9360     2.4110 
  210.0000   -19.3920    57.6990    22.9690     5.6080     5.6280     6.5610     2.4130 
  210.1250   -19.4470    63.1000    22.9810     5.3040     5.1040     6.1030     2.4140 
  210.2500   -19.5500    68.2900    22.9990     5.0490     4.6980     5.7490     2.4130 
  210.3750   -19.6770    74.2220    23.0020     4.9220     4.5260     5.6500     2.4080 
  210.5000   -19.7950    83.2060    23.0670     5.0630     4.6440     5.9010     2.3980 
  210.6250   -19.8920    91.8400    23.2580     5.7500     5.0780     6.5650     2.3890 
  210.7500   -19.9650    95.1050    23.5390     6.7220     5.6800     7.4530     2.3890 
  210.8750   -20.0020    95.3230    23.7530     7.3790     6.3030     8.3430     2.3970 
  211.0000   -20.0140    97.7360    23.8740     7.3880     6.7830     8.9890     2.4050 
  211.1250   -19.9210   103.4340    23.9290     7.1690     6.9600     9.1860     2.4050 
  211.2500   -19.8160   108.5220    23.9370     7.0590     6.8830     9.0790     2.3970 
  211.3750   -19.6920   110.4400    23.9170     7.0310     6.6560     8.8560     2.3830 
  211.5000   -19.5930   108.9710    23.8800     7.0210     6.4180     8.6880     2.3720 
  211.6250   -19.4700   105.8840    23.8530     7.0780     6.3200     8.6920     2.3770 
  211.7500   -19.3550   103.7190    23.8290     7.2730     6.4080     8.8580     2.3970 
  211.8750   -19.2590   103.9010    23.8140     7.5950     6.6700     9.1840     2.4180 
  212.0000   -19.1850   106.8340    23.8110     8.0410     7.0380     9.6580     2.4300 
  212.1250   -19.1520   111.1290    23.8200     8.5290     7.4140    10.2540     2.4250 
  212.2500   -19.1200   113.8500    23.8450     9.0420     7.7330    10.8870     2.4120 
  212.3750   -19.0750   112.1080    23.8860     9.3610     8.0000    11.4980     2.3950 
  212.5000   -19.0020   107.6250    23.9100     9.5630     8.2600    12.0600     2.3780 
  212.6250   -18.9590   104.2590    23.8610     9.7500     8.5830    12.5860     2.3640 
  212.7500   -18.9310   104.1880    23.8660    10.0320     8.9850    13.1090     2.3570 
  212.8750   -18.9220   106.3240    23.9170    10.6270     9.4450    13.6220     2.3530 
  213.0000   -18.9220   106.7310    23.9450    11.2960     9.9120    14.0800     2.3480 
  213.1250   -18.9440   101.2270    23.9300    11.6350    10.3150    14.4170     2.3420 
  213.2500   -18.9560    96.3790    23.8850    11.8370    10.6350    14.6850     2.3410 
  213.3750   -18.9730    98.3810    23.8560    12.3960    10.9260    15.0270     2.3480 
  213.5000   -19.0020   103.8820    23.8500    12.9210    11.2940    15.6210     2.3560 
  213.6250   -19.0150   104.9100    23.8580    13.2430    11.8540    16.5680     2.3580 
  213.7500   -19.0320   103.5970    23.8470    13.5560    12.5300    17.5760     2.3550 
  213.8750   -19.0580   103.3410    23.8400    14.4240    13.1600    18.2850     2.3480 
  214.0000   -19.0930   102.7020    23.8410    15.8980    13.5850    18.4620     2.3420 
  214.1250   -19.1020   102.4660    23.8440    16.1750    13.6910    18.1390     2.3460 
  214.2500   -19.1200   105.6040    23.8450    14.3600    13.5720    17.6790     2.3560 
  214.3750   -19.1480   110.5470    23.8410    12.3820    13.2840    17.2450     2.3620 
  214.5000   -19.1660   112.7490    23.8380    13.0160    12.8180    16.7560     2.3560 
  214.6250   -19.1860   109.6030    23.8380    16.3090    12.0370    15.8140     2.3410 
  214.7500   -19.1970   107.3500    23.8380    17.4630    10.9630    14.2720     2.3330 
  214.8750   -19.1980   108.0740    23.8380    14.6200     9.7340    12.3350     2.3410 
  215.0000   -19.1910   109.1790    23.8380    10.3000     8.5740    10.4470     2.3610 
  215.1250   -19.2170   108.1700    23.8380     7.7530     7.7380     9.1210     2.3790 
  215.2500   -19.2670   105.7280    23.8380     6.9000     7.2800     8.4600     2.3900 
  215.3750   -19.3400   105.1140    23.8380     6.7600     7.1950     8.4240     2.3970 
  215.5000   -19.4410   106.3380    23.8380     6.9140     7.3930     8.8480     2.4010 
  215.6250   -19.5790   108.4600    23.8380     7.2630     7.7140     9.4840     2.4010 
  215.7500   -19.7610   109.4020    23.8310     7.7200     7.9420    10.0070     2.4000 
  215.8750   -19.9790   107.4300    23.7970     8.1450     7.9500    10.2130     2.4010 
  216.0000   -20.2340   105.3920    23.7200     8.1080     7.6900     9.9850     2.3950 
  216.1250   -20.5170   103.7920    23.6640     7.4570     7.2000     9.2940     2.3810 
  216.2500   -20.8040   101.2510    23.6390     6.8720     6.6860     8.4550     2.3760 
  216.3750   -21.0860    98.9940    23.6260     6.6170     6.3330     7.7980     2.3900 
  216.5000   -21.3800    97.9160    23.5960     6.5950     6.3310     7.6720     2.4170 
  216.6250   -21.6960    98.0270    23.5300     6.8840     7.0460     8.6510     2.4330 
  216.7500   -22.0180    99.1500    23.4790     8.3980     8.8160    11.1290     2.4300 
  216.8750   -22.3530    98.2760    23.4580    14.3640    12.3050    15.8530     2.4060 
  217.0000   -22.7100    91.0310    23.4510    30.0000    18.4110    23.8790     2.3680 
  217.1250   -23.0700    77.2330    23.4550    55.2680    28.3930    36.8630     2.3240 
  217.2500   -23.4240    68.7680    23.5010    73.7570    40.2410    52.1580     2.2900 
  217.3750   -23.7590    68.9130    23.6120    77.5530    49.7050    63.4330     2.2730 
  217.5000   -24.0580    71.7470    23.7010    69.2400    53.1440    65.5770     2.2690 
  217.6250   -24.3280    73.1320    23.7180    57.6260    51.0550    60.9540     2.2630 
  217.7500   -24.5650    74.2520    23.6740    49.9160    47.7910    56.1160     2.2510 
  217.8750   -24.7510    74.8990    23.6020    46.2070    45.0920    52.8490     2.2430 
  218.0000   -24.8700    74.0740    23.5320    44.1310    43.4680    51.1900     2.2450 
  218.1250   -24.9260    73.6780    23.5790    43.2870    43.0200    50.8020     2.2510 
  218.2500   -24.9580    76.6330    23.6810    43.2990    43.2050    50.8690     2.2520 
  218.3750   -24.9950    81.0550    23.7430    43.7710    43.6110    50.9330     2.2510 
