~V
VERS. 2.00: Ver 2.00
~W
STRT.M 60.0000:
STOP.M 264.0000:
STEP.M 0.1250:
NULL. -999.2500:
UWI. DF32130:
~C
DEPT.M :
SP.MV :
GR.API :
CALI.CM :
RXO.OHMM :
RI. :
RML.OHMM :
DEN.GM/CC :
~A
# ...
  195.0000    -2.6840    75.4610    26.7650     4.9290     5.0140     7.4050     2.4200 
  195.1250    -3.2830    76.6860    25.5100     5.0440     5.0170     7.3010     2.4310 
  195.2500    -3.7910    78.1290    24.8750     5.1850     5.0420     7.1680     2.4310 
  195.3750    -4.1660    81.5570    24.5270     5.3790     5.0900     7.0550     2.4380 
  195.5000    -4.4470    84.1730    24.3540     5.6560     5.1650     7.0010     2.4450 
  195.6250    -4.6500    83.2710    24.3250     5.8430     5.2690     7.0580     2.4400 
  195.7500    -4.7880    84.0060    24.3230     6.0380     5.3950     7.2570     2.4230 
  195.8750    -4.8820    87.8270    24.3210     6.3730     5.5510     7.6060     2.4050 
  196.0000    -4.9230    91.9720    24.2810     6.5940     5.7490     8.0640     2.3940 
  196.1250    -4.9730    91.7410    24.1320     6.6970     5.9810     8.5190     2.3870 
  196.2500    -5.0810    88.9590    23.8810     6.9010     6.2020     8.8550     2.3770 
  196.3750    -5.2490    87.2200    23.6590     7.2700     6.3800     9.0410     2.3590 
  196.5000    -5.4230    86.1700    23.5560     7.5280     6.5380     9.1600     2.3410 
  196.6250    -5.5510    84.2140    23.6760     7.7220     6.7950     9.3890     2.3280 
  196.7500    -5.7280    82.9070    24.0990     8.2200     7.2430     9.8370     2.3190 
  196.8750    -5.9050    83.3800    24.6910     9.1610     7.8850    10.5210     2.3140 
  197.0000    -6.1490    84.8690    24.9960    10.7970     8.6150    11.3530     2.3240 
  197.1250    -6.3490    85.4770    24.9330    11.9640     9.1980    12.0620     2.3550 
  197.2500    -6.5060    85.6570    24.7970    11.7960     9.4840    12.3880     2.3960 
  197.3750    -6.5710    85.1700    24.7430    10.9400     9.4670    12.2760     2.4220 
  197.5000    -6.5940    84.9410    24.7370    10.4900     9.2590    11.8800     2.4360 
  197.6250    -6.5500    86.6840    24.7370     9.8410     8.9970    11.4220     2.4460 
  197.7500    -6.4510    88.6510    24.7370     9.5540     8.8090    11.1250     2.4560 
  197.8750    -6.3470    87.3530    24.7290     9.9730     8.8340    11.1740     2.4600 
  198.0000    -6.2340    83.7420    24.7060    11.3570     9.2670    11.7390     2.4630 
  198.1250    -6.1290    81.6680    24.6590    12.9330    10.5240    13.1930     2.4700 
  198.2500    -6.0450    79.6150    24.6380    15.7310    12.9220    15.8160     2.4750 
  198.3750    -6.0120    74.1330    24.6330    22.9750    17.0260    20.1800     2.4590 
  198.5000    -6.0570    67.2810    24.6330    36.3310    23.5300    27.1130     2.4200 
  198.6250    -6.2240    64.2230    24.6330    51.5950    33.3580    38.0610     2.3670 
  198.7500    -6.4020    65.8530    24.6330    61.2370    45.0930    51.8240     2.3130 
  198.8750    -6.6260    68.8120    24.6330    64.9890    56.2140    65.1690     2.2730 
  199.0000    -6.8380    71.3040    24.6330    67.1420    64.2980    74.4130     2.2530 
  199.1250    -7.1100    71.5020    24.6330    71.0760    69.0590    79.1530     2.2480 
  199.2500    -7.3660    69.3070    24.6330    78.2200    73.1660    83.3100     2.2480 
  199.3750    -7.6400    67.0060    24.6330    87.2270    77.9160    88.7210     2.2420 
  199.5000    -7.8750    66.3910    24.6330    96.0060    83.3610    95.5070     2.2300 
  199.6250    -8.1300    67.5930    24.6330   104.2790    88.5090   102.2740     2.2160 
  199.7500    -8.4000    67.6470    24.6330   110.5500    91.9900   106.7200     2.2060 
  199.8750    -8.6380    66.7910    24.6330   110.4830    92.8370   107.1940     2.2020 
  200.0000    -8.8750    66.9680    24.6330   101.9490    90.9340   103.6110     2.2010 
  200.1250    -9.0550    68.6080    24.6330    88.9510    86.9980    97.4600     2.2000 
  200.2500    -9.2750    72.1330    24.6330    78.8620    82.8570    91.4580     2.2000 
  200.3750    -9.4490    75.5120    24.6330    74.1610    79.6180    86.8420     2.2030 
  200.5000    -9.6440    75.2100    24.6330    73.0060    77.7430    83.8520     2.2070 
  200.6250    -9.7950    71.2830    24.6330    72.2170    77.1700    82.2200     2.2120 
  200.7500    -9.9640    68.8930    24.6330    71.9540    76.9990    81.0230     2.2190 
  200.8750   -10.1380    69.4220    24.6330    72.1060    76.4590    79.5070     2.2260 
  201.0000   -10.3150    70.5410    24.6330    70.9060    74.8240    76.8930     2.2280 
  201.1250   -10.5010    71.1480    24.6330    68.2800    71.3710    72.4180     2.2250 
  201.2500   -10.6900    72.0880    24.6330    64.9720    66.5960    66.7310     2.2240 
  201.3750   -10.9390    72.8210    24.6330    60.3180    61.3470    60.9080     2.2310 
  201.5000   -11.2240    73.6020    24.6330    53.5930    56.7970    56.2110     2.2390 
  201.6250   -11.5080    77.2230    24.6330    47.1840    54.5780    54.1970     2.2420 
  201.7500   -11.7910    80.8010    24.6330    44.8900    55.4720    55.3710     2.2360 
  201.8750   -12.0570    79.4880    24.6330    48.3780    60.4570    60.4810     2.2250 
  202.0000   -12.3340    73.3280    24.6330    59.0640    70.6050    70.4540     2.2150 
  202.1250   -12.6560    67.8650    24.6400    78.0740    87.6780    87.4010     2.2090 
  202.2500   -12.9230    65.7860    24.6910   102.6410   109.7790   110.3920     2.2050 
  202.3750   -13.2170    64.3660    24.8060   123.7400   133.9750   137.0670     2.2030 
  202.5000   -13.4500    63.3750    24.8920   133.6590   156.4580   162.7510     2.2050 
  202.6250   -13.6610    64.2510    24.8810   132.6930   174.0320   182.2180     2.2110 
  202.7500   -13.8410    66.2860    24.7680   132.8280   187.8310   196.5200     2.2160 
  202.8750   -14.0440    68.4670    24.6120   142.4140   198.9300   207.6270     2.2190 
  203.0000   -14.2860    70.1760    24.4960   162.3710   207.0690   215.7880     2.2160 
  203.1250   -14.4540    70.6400    24.3870   182.7580   209.4880   217.6250     2.2100 
  203.2500   -14.6460    68.7840    24.2650   186.4190   205.6850   212.0300     2.2060 
  203.3750   -14.7920    66.1560    24.1520   171.7230   196.6000   200.2680     2.2110 
  203.5000   -14.9880    65.0190    24.0940   148.5970   184.6700   185.7080     2.2230 
  203.6250   -15.1750    64.7290    24.0790   129.3150   172.4620   172.3110     2.2370 
  203.7500   -15.3570    64.3860    24.0620   121.5660   160.9460   161.8830     2.2450 
  203.8750   -15.5840    65.3310    24.0170   115.7570   151.3400   152.9190     2.2380 
  204.0000   -15.7620    68.8930    23.9730   105.7690   142.8340   145.2590     2.2200 
  204.1250   -16.0000    70.5970    23.9780    96.7470   135.4040   138.9900     2.2030 
  204.2500   -16.2110    69.2080    23.9740    93.7880   129.6380   134.3250     2.1920 
  204.3750   -16.4490    67.0360    23.9030    95.3930   126.6540   132.1410     2.1900 
  204.5000   -16.6410    66.3250    23.8210    98.3900   127.4460   133.5700     2.1930 
  204.6250   -16.8680    65.3240    23.8160   104.7360   133.3350   140.3600     2.2030 
  204.7500   -17.0740    64.1310    23.8360   121.4160   143.6310   151.9970     2.2150 
  204.8750   -17.2250    65.1230    23.8980   153.0650   157.8210   167.8080     2.2190 
  205.0000   -17.3910    67.9650    24.0420   192.5900   174.1100   185.5920     2.2120 
  205.1250   -17.5130    70.0150    24.2520   218.5500   186.3860   199.3520     2.1940 
  205.2500   -17.6750    70.9370    24.4700   224.4900   187.6770   203.0420     2.1780 
  205.3750   -17.7630    70.5060    24.6410   217.1340   175.8290   194.0200     2.1740 
  205.5000   -17.8790    68.7340    24.7160   194.2800   155.8600   175.1840     2.1790 
  205.6250   -17.9230    67.0230    24.7250   152.7340   136.1050   153.6690     2.1860 
  205.7500   -17.9830    68.1200    24.7210   115.0190   121.0640   136.1160     2.1870 
  205.8750   -18.0100    70.4360    24.7010    95.9450   111.2470   124.5520     2.1820 
  206.0000   -18.0070    72.3360    24.6450    95.0800   105.8560   118.5310     2.1750 
  206.1250   -18.0360    74.0260    24.5860   102.9220   104.1000   116.8570     2.1710 
