~V
VERS. 2.00: Ver 2.00
~W
STRT.M 61.0000:
STOP.M 257.0000:
STEP.M 0.1250:
NULL. -999.2500:
UWI. DF32086:
~C
DEPT.M :
SP.MV :
GR.API :
CALI.CM :
RXO.OHMM :
RI. :
RML.OHMM :
DEN.GM/CC :
~A
# ...
  173.5000   -50.3190    74.5530    24.4090    89.5950   151.7570   155.6100     2.2350 
  173.6250   -50.3810    74.2890    24.4020    84.1120   145.8240   149.4990     2.2300 
  173.7500   -50.4620    72.2280    24.3990    95.2720   140.9780   144.5070     2.2270 
  173.8750   -50.5290    69.2490    24.4080   108.7630   136.2640   139.6520     2.2280 
  174.0000   -50.6000    66.5170    24.4130   107.1340   130.9790   134.2080     2.2300 
  174.1250   -50.6560    66.4290    24.4130    94.1380   125.7410   128.8130     2.2330 
  174.2500   -50.7830    69.3240    24.4130    85.1080   122.5980   125.5760     2.2400 
  174.3750   -50.9090    73.0090    24.4130    85.7250   124.0460   127.0670     2.2480 
  174.5000   -51.0750    75.7750    24.4130    91.3920   132.7820   136.0660     2.2530 
  174.6250   -51.1770    75.8060    24.4130   101.5460   154.0270   157.9470     2.2430 
  174.7500   -51.3800    71.9250    24.4120   121.7430   190.1050   195.1080     2.2220 
  174.8750   -51.5690    66.1860    24.3990   167.6250   245.0910   251.7440     2.1960 
  175.0000   -51.8010    61.9450    24.4880   261.2810   322.2570   331.2250     2.1750 
  175.1250   -52.0570    60.7570    24.7660   393.3630   422.7180   434.7000     2.1650 
  175.2500   -52.2740    59.8510    25.0460   490.3030   527.2180   542.3350     2.1620 
  175.3750   -52.5230    57.7080    24.9010   505.1300   607.8410   625.3760     2.1580 
  175.5000   -52.7100    56.0170    24.6840   472.6010   639.2290   657.7060     2.1530 
  175.6250   -52.9570    57.8920    24.6100   453.8760   616.3170   634.1060     2.1510 
  175.7500   -53.1100    60.5160    24.6090   452.8650   576.1000   592.6830     2.1540 
  175.8750   -53.2800    61.4220    24.6100   438.9260   543.9380   559.5560     2.1650 
  176.0000   -53.3690    60.7420    24.6160   399.2180   535.9840   551.3640     2.1810 
  176.1250   -53.3900    59.6940    24.6280   405.0770   568.2480   584.5960     2.1900 
  176.2500   -53.3750    58.2550    24.6420   494.4570   637.3420   655.7620     2.1860 
  176.3750   -53.3090    56.1230    24.6660   641.4160   731.2480   752.4860     2.1710 
  176.5000   -53.2040    54.7080    24.7020   759.7250   815.2720   839.0300     2.1520 
  176.6250   -53.0170    54.5190    24.7190   771.5320   813.5070   837.2120     2.1390 
  176.7500   -52.7470    53.4990    24.7180   683.0260   708.2890   728.8370     2.1380 
  176.8750   -52.4080    51.6210    24.6860   543.3060   544.8480   560.4930     2.1470 
  177.0000   -52.0450    51.4810    24.5980   423.2390   387.2060   398.1230     2.1620 
  177.1250   -51.6460    54.9430    24.4840   329.0190   274.8910   282.4380     2.1780 
  177.2500   -51.2220    59.1990    24.3580   227.9360   201.2770   206.6150     2.1950 
  177.3750   -50.7060    63.1590    24.1550   132.9630   157.6710   161.7010     2.2100 
  177.5000   -50.2090    66.5900    23.8060    75.5820   135.4150   138.7770     2.2220 
  177.6250   -49.6330    68.2930    23.3730    54.7920   128.6410   131.8000     2.2300 
  177.7500   -49.0960    67.8200    23.0030    44.0630   129.3600   132.5400     2.2350 
  177.8750   -48.5000    66.1610    22.7950    39.3080   134.3200   137.6490     2.2350 
  178.0000   -47.9090    64.7960    22.7460    40.4630   141.5530   145.1000     2.2330 
  178.1250   -47.2310    63.6300    22.8140    51.1910   150.6090   154.4280     2.2330 
  178.2500   -46.5550    61.8300    23.0130    71.3030   162.1580   166.3230     2.2300 
  178.3750   -45.8610    61.2920    23.3970   101.1680   177.4930   182.1180     2.2170 
  178.5000   -45.1160    63.4630    23.9500   144.3760   196.6860   202.8180     2.1970 
  178.6250   -44.4110    66.0980    24.3800   191.7000   217.3700   229.6970     2.1840 
  178.7500   -43.6120    65.3600    24.5020   219.5810   235.0150   256.3400     2.1790 
  178.8750   -42.8450    63.2290    24.5090   219.8220   246.8100   277.9790     2.1800 
  179.0000   -41.9990    64.0910    24.5050   203.1620   253.0830   292.9280     2.1810 
  179.1250   -41.2250    66.1530    24.5050   191.8950   257.6650   304.7460     2.1800 
  179.2500   -40.4400    65.5580    24.5050   196.5710   264.9400   319.1500     2.1780 
  179.3750   -39.6770    63.1470    24.5050   216.4640   275.3900   337.0460     2.1760 
  179.5000   -38.9300    62.0120    24.4960   236.0290   285.9310   354.5470     2.1760 
  179.6250   -38.1750    61.9850    24.4670   239.0270   289.2800   360.7490     2.1750 
  179.7500   -37.5000    59.8690    24.4280   230.8920   280.2690   346.9180     2.1720 
  179.8750   -36.8200    58.1050    24.4100   224.2740   256.3740   308.9290     2.1670 
  180.0000   -36.1850    59.4180    24.4050   220.2220   219.7250   252.5290     2.1680 
  180.1250   -35.5130    61.6350    24.4040   201.8850   176.8210   193.6110     2.1790 
  180.2500   -34.7970    61.1910    24.4000   164.3540   137.2450   145.5480     2.1940 
  180.3750   -34.0640    60.1120    24.3900   118.1700   106.1590   111.4140     2.2070 
  180.5000   -33.3000    61.4140    24.3700    81.2190    85.1410    89.6940     2.2170 
  180.6250   -32.4290    64.1840    24.2930    63.0470    74.1840    78.7180     2.2370 
  180.7500   -31.5610    67.2110    24.1760    57.3630    68.7200    73.3630     2.2780 
  180.8750   -30.6530    68.5130    24.0240    61.0630    64.9040    69.4000     2.3270 
  181.0000   -29.7620    66.2830    23.8740    68.5890    58.4680    61.9170     2.3570 
  181.1250   -28.8910    63.6770    23.7350    65.2100    46.6950    48.2850     2.3480 
  181.2500   -28.0720    64.6720    23.6660    47.3470    33.5310    33.7310     2.3350 
  181.3750   -27.3490    69.7650    23.5570    25.8430    22.6070    22.2050     2.3430 
  181.5000   -26.6880    77.8230    23.3840    12.4200    15.1530    14.6090     2.3620 
  181.6250   -26.2220    89.5260    23.2280     7.8260    10.9660    10.4790     2.3660 
  181.7500   -25.7790   101.8820    23.2280     6.6630     8.5360     8.2170     2.3600 
  181.8750   -25.4540   109.4350    23.2710     6.4370     7.2330     7.1740     2.3490 
  182.0000   -25.1870   110.5690    23.3810     6.4680     6.6830     6.9170     2.3300 
  182.1250   -25.0280   108.4340    23.7380     6.3880     6.6760     7.1380     2.3100 
  182.2500   -24.9280   106.3970    24.1470     6.2600     6.8840     7.4690     2.3100 
  182.3750   -24.8680   105.1830    24.2490     6.2360     7.1310     7.7600     2.3390 
  182.5000   -24.8820   104.3960    24.1730     6.4360     7.3060     7.9650     2.3790 
  182.6250   -24.9060   104.8540    24.1020     6.6630     7.3440     8.0820     2.4030 
  182.7500   -25.0040   105.9520    24.1030     6.7580     7.2830     8.1310     2.4050 
  182.8750   -25.1110   105.9180    24.1030     6.8930     7.1810     8.1140     2.3940 
  183.0000   -25.2170   103.0580    24.1030     7.2480     7.1340     8.0690     2.3830 
  183.1250   -25.2560   100.2910    24.1030     7.6490     7.3170     8.1730     2.3750 
  183.2500   -25.2690   101.0850    24.1030     8.1170     7.8750     8.6830     2.3720 
  183.3750   -25.1820   102.1890    24.1030     9.1170     9.0130     9.9510     2.3800 
  183.5000   -24.9980    98.4080    24.1020    11.4530    11.0250    12.4370     2.4040 
  183.6250   -24.6710    89.7460    24.0680    17.2970    14.5000    17.0450     2.4510 
  183.7500   -24.2630    81.8260    23.9910    24.2630    19.1800    23.5380     2.5140 
  183.8750   -23.7530    76.0020    23.9120    31.4840    23.6190    29.8960     2.5700 
  184.0000   -23.1980    71.2190    23.8750    41.6780    24.8560    31.5350     2.5900 
  184.1250   -22.5990    67.7040    23.8700    41.5900    20.8970    25.5700     2.5710 
  184.2500   -21.9970    64.8410    23.8280    29.8020    15.3630    17.8570     2.5590 
  184.3750   -21.4030    61.9290    23.6770    14.6800    10.6520    11.8040     2.5690 
  184.5000   -20.8560    59.9270    23.3930     6.7100     7.3850     7.9890     2.5800 
  184.6250   -20.3850    58.8380    23.1450     5.2900     5.4440     6.0580     2.5630 
