~V
VERS. 2.00: Ver 2.00
~W
STRT.M 60.0000:
STOP.M 266.0000:
STEP.M 0.1250:
NULL. -999.2500:
UWI. DF32129:
~C
DEPT.M :
SP.MV :
GR.API :
CALI.CM :
RXO.OHMM :
RI. :
RML.OHMM :
DEN.GM/CC :
~A
# ...
  161.2500   -29.0660    78.5850    25.9000    16.8640    15.3780    17.7230     2.5780 
  161.3750   -29.1470    79.7290    25.6010    16.0290    15.5770    17.8280     2.5580 
  161.5000   -29.2250    77.4470    25.4590    15.4790    15.6440    17.7910     2.5370 
  161.6250   -29.2780    74.6560    25.4670    15.6260    15.6090    17.6770     2.5270 
  161.7500   -29.3750    74.0820    25.5360    15.9790    15.5370    17.5340     2.5250 
  161.8750   -29.4430    75.0500    25.7430    16.1340    15.4750    17.3900     2.5220 
  162.0000   -29.5540    76.1400    26.1350    16.0350    15.4790    17.3010     2.5150 
  162.1250   -29.6260    75.1540    26.3760    15.8600    15.6440    17.3840     2.5100 
  162.2500   -29.7650    72.7080    26.4020    16.4380    15.9890    17.6790     2.5080 
  162.3750   -29.9040    71.2550    26.2670    17.7510    16.4880    18.1610     2.5060 
  162.5000   -30.0610    73.8250    26.1440    18.9270    17.0490    18.7110     2.4980 
  162.6250   -30.2480    77.2870    25.9930    19.3440    17.5070    19.1250     2.4770 
  162.7500   -30.4570    77.0300    25.6780    19.0230    17.7750    19.3300     2.4480 
  162.8750   -30.7070    75.6540    25.5320    18.7260    17.8880    19.3960     2.4160 
  163.0000   -30.9570    77.8920    25.5110    18.3840    17.9690    19.4660     2.3920 
  163.1250   -31.2690    82.5890    25.6330    18.0630    18.1680    19.7080     2.3810 
  163.2500   -31.5550    84.2290    25.9060    18.3330    18.5380    20.1560     2.3810 
  163.3750   -31.8830    82.6160    26.1770    19.0560    19.0760    20.7810     2.3850 
  163.5000   -32.2140    81.6160    26.3150    19.4340    19.7150    21.4920     2.3890 
  163.6250   -32.5540    82.5960    26.3170    19.3840    20.4030    22.2200     2.3970 
  163.7500   -32.8880    83.8250    26.2880    19.8360    21.2480    23.0880     2.4070 
  163.8750   -33.2500    84.7650    26.2990    21.4140    22.5740    24.4500     2.4150 
  164.0000   -33.6290    86.0610    26.2740    23.7330    24.9250    26.8780     2.4120 
  164.1250   -34.0400    86.3570    26.4480    26.8650    29.5760    31.5980     2.3920 
  164.2500   -34.4340    81.6990    26.4380    33.8070    37.2750    39.3150     2.3520 
  164.3750   -34.8430    74.3110    26.0950    49.7630    48.4480    50.6490     2.2990 
  164.5000   -35.2340    68.7230    25.7830    75.0680    62.0760    64.8740     2.2520 
  164.6250   -35.6090    68.5370    25.6720    89.4560    75.0520    76.7830     2.2330 
  164.7500   -35.9870    70.9270    25.6710    81.5310    83.7310    81.2270     2.2360 
  164.8750   -36.3060    71.4520    25.6890    63.6570    83.2790    82.5270     2.2480 
  165.0000   -36.6300    69.2550    25.7440    56.2110    80.1420    80.8620     2.2550 
  165.1250   -36.8610    65.2760    25.8460    64.2830    78.3690    79.7400     2.2580 
  165.2500   -37.0940    62.0340    25.8810    75.1970    79.0790    80.7700     2.2580 
  165.3750   -37.2540    60.8490    25.8730    79.2130    82.2640    84.2980     2.2550 
  165.5000   -37.3870    61.8250    25.8610    76.0860    87.8750    90.5490     2.2460 
  165.6250   -37.4940    64.8960    25.8180    74.9650    96.9810   101.0260     2.2320 
  165.7500   -37.5490    67.2170    25.8120    80.7340   110.6080   116.9130     2.2190 
  165.8750   -37.5940    67.0530    25.8580    94.0610   130.6000   139.6340     2.2060 
  166.0000   -37.6070    64.1450    26.0320   112.0020   157.5790   168.4170     2.1950 
  166.1250   -37.6540    59.5610    26.0700   126.2110   186.1730   196.7810     2.1870 
  166.2500   -37.6770    56.9850    26.2300   132.6250   202.8720   214.1950     2.1830 
  166.3750   -37.7090    57.2150    26.2930   131.4860   199.4800   214.4090     2.1860 
  166.5000   -37.7220    58.3920    26.2770   123.1660   180.9670   199.6020     2.1950 
  166.6250   -37.7730    58.8560    26.2540   108.5240   159.9320   178.8350     2.2090 
  166.7500   -37.8050    60.5610    26.2920    93.1410   144.1760   161.5200     2.2220 
  166.8750   -37.8550    63.4110    26.1370    85.4920   134.4430   150.1610     2.2330 
  167.0000   -37.8810    64.9740    25.9450    88.9530   129.0220   143.7790     2.2410 
  167.1250   -37.9340    64.4690    25.8600   101.0290   125.3170   139.8650     2.2430 
  167.2500   -37.9910    64.3390    25.8700   109.6770   121.1900   135.8290     2.2390 
  167.3750   -38.0520    66.4890    25.8700   109.5850   116.8960   131.6290     2.2360 
  167.5000   -38.1490    71.1240    25.8600   100.4400   114.2850   129.1340     2.2410 
  167.6250   -38.1860    75.6500    25.8570    88.2260   117.0480   132.9730     2.2500 
  167.7500   -38.2620    77.1520    25.8550    84.7550   127.4940   146.5750     2.2460 
  167.8750   -38.3060    75.9410    25.8550    97.2610   148.7170   173.4590     2.2230 
  168.0000   -38.3810    72.7120    25.8550   124.3250   184.3220   215.8900     2.1900 
  168.1250   -38.3600    66.7310    25.8550   160.2610   239.7490   274.5340     2.1690 
  168.2500   -38.3780    60.7160    25.8560   182.9920   306.5770   337.8460     2.1630 
  168.3750   -38.3870    57.8750    25.8590   185.5850   367.9520   391.9280     2.1640 
  168.5000   -38.3630    56.9940    25.8640   173.5970   406.5590   425.7200     2.1610 
  168.6250   -38.3600    55.9220    25.8590   166.0140   416.8180   435.4550     2.1530 
  168.7500   -38.3050    55.2750    25.8560   170.4230   410.0020   429.8170     2.1490 
  168.8750   -38.2910    54.5050    25.8550   176.0950   386.3270   409.4670     2.1530 
  169.0000   -38.2230    53.2410    25.8550   173.4820   344.1660   372.9700     2.1630 
  169.1250   -38.2150    53.7060    25.8550   165.0650   288.1220   321.6160     2.1690 
  169.2500   -38.1460    57.0470    25.8550   147.9490   233.0110   267.0300     2.1740 
  169.3750   -38.0820    61.0380    25.8550   122.4370   187.6810   218.2470     2.1860 
  169.5000   -38.0150    63.5470    25.8550   102.4540   155.3110   180.7990     2.2050 
  169.6250   -37.9360    63.8190    25.8500    94.0510   136.3990   157.7490     2.2230 
  169.7500   -37.8600    63.8040    25.8390    91.6940   126.1410   145.0690     2.2310 
  169.8750   -37.7610    65.2400    25.8330    90.1590   122.1740   140.2730     2.2330 
  170.0000   -37.6860    67.5930    25.8440    95.2830   122.0870   140.4480     2.2320 
  170.1250   -37.6280    67.7880    25.8600   102.2330   122.7480   141.8670     2.2270 
  170.2500   -37.5420    65.8750    25.8670   104.9280   121.2080   141.0310     2.2210 
  170.3750   -37.4620    63.3940    25.8640   105.1060   116.8120   136.9280     2.2170 
  170.5000   -37.4300    61.5520    25.8610   103.4880   110.8940   130.6240     2.2160 
  170.6250   -37.4070    63.3080    25.8640    96.3360   106.3290   125.1270     2.2160 
  170.7500   -37.4330    69.4670    25.8660    90.0200   105.0720   123.1180     2.2130 
  170.8750   -37.4220    75.2860    25.8660    90.1470   107.7620   125.5130     2.2080 
  171.0000   -37.4540    74.7670    25.8630   100.5590   113.9350   131.5880     2.1980 
  171.1250   -37.4140    67.2980    25.8570   115.9060   122.2190   139.4320     2.1840 
  171.2500   -37.4420    61.0700    25.8530   123.5760   129.7150   146.0670     2.1720 
  171.3750   -37.4690    58.9770    25.8550   112.1520   133.9720   149.3270     2.1700 
  171.5000   -37.4540    59.1540    25.8770    92.0890   133.8000   148.2590     2.1760 
  171.6250   -37.4540    61.3600    25.8690    86.9110   129.9540   143.4640     2.1840 
  171.7500   -37.4170    64.2250    25.8370    94.5970   125.5340   137.9120     2.1940 
  171.8750   -37.3850    64.8990    25.8170   100.4720   122.3940   133.6460     2.2120 
  172.0000   -37.2650    62.6980    25.8160    95.0070   121.7200   132.1800     2.2340 
  172.1250   -37.2190    63.4700    25.8210    91.7690   124.8670   135.2820     2.2410 
  172.2500   -37.1060    68.1200    25.8210    98.2280   131.7920   142.9240     2.2280 
  172.3750   -36.9800    70.7020    25.8170   108.3560   142.6500   155.0940     2.2030 
