~V
VERS. 2.00: Ver 2.00
~W
STRT.M 60.0000:
STOP.M 276.0000:
STEP.M 0.1250:
NULL. -999.2500:
UWI. DF32145:
~C
DEPT.M :
SP.MV :
GR.API :
CALI.CM :
RXO.OHMM :
RI. :
RML.OHMM :
DEN.GM/CC :
~A
# ...
  251.2500   -27.5450    81.5000    23.6110     7.7730     6.8860     8.0650     2.2840 
  251.3750   -27.8540    82.5800    23.6000     7.8530     6.9840     8.2140     2.2760 
  251.5000   -28.1580    85.1240    23.5990     8.2120     7.1030     8.3670     2.2780 
  251.6250   -28.4560    86.8350    23.5990     8.5540     7.1980     8.4530     2.2840 
  251.7500   -28.7340    85.4660    23.5990     8.6880     7.2350     8.4580     2.2860 
  251.8750   -28.9930    82.3730    23.5990     8.5550     7.2270     8.4210     2.2820 
  252.0000   -29.2370    80.6000    23.5990     8.3790     7.2220     8.4090     2.2790 
  252.1250   -29.4570    79.7370    23.5990     8.5190     7.2800     8.4910     2.2840 
  252.2500   -29.6430    78.5230    23.5990     9.1080     7.3840     8.6360     2.2930 
  252.3750   -29.7700    78.5520    23.5990     9.7250     7.4810     8.7800     2.3020 
  252.5000   -29.8050    80.1410    23.5990     9.8040     7.5220     8.8660     2.3070 
  252.6250   -29.7010    80.7160    23.5990     9.2310     7.4880     8.8680     2.2970 
  252.7500   -29.4870    80.4850    23.5980     8.4870     7.4190     8.8400     2.2790 
  252.8750   -29.0820    82.1050    23.5850     8.1050     7.3440     8.8180     2.2670 
  253.0000   -28.4810    85.6410    23.5530     8.3140     7.2640     8.7990     2.2730 
  253.1250   -27.6060    89.4040    23.5150     8.8450     7.1420     8.7110     2.2920 
  253.2500   -26.5320    92.6370    23.5160     9.0070     6.9500     8.5040     2.3070 
  253.3750   -25.2980    93.5490    23.5560     8.5050     6.7050     8.2030     2.3100 
  253.5000   -24.0340    90.9060    23.5890     7.7540     6.4850     7.9300     2.2990 
  253.6250   -22.8350    84.6030    23.5920     7.3600     6.4400     7.8900     2.2750 
  253.7500   -21.7500    80.2300    23.5680     7.5220     6.6450     8.1720     2.2530 
  253.8750   -20.8420    79.4070    23.5260     8.0290     7.1210     8.8060     2.2460 
  254.0000   -20.1240    80.8120    23.4380     8.7890     7.8160     9.7370     2.2500 
  254.1250   -19.6600    83.7610    23.1850     9.6920     8.6130    10.8290     2.2600 
  254.2500   -19.4070    88.2460    22.7620    10.3630     9.3270    11.8220     2.2790 
  254.3750   -19.2820    93.2350    22.4110    10.7350     9.8100    12.4890     2.3150 
  254.5000   -19.2210    96.4410    22.3080    11.0060     9.9620    12.6690     2.3640 
  254.6250   -19.1360    95.8090    22.4790    11.1400     9.6940    12.2490     2.4070 
  254.7500   -18.9160    91.5540    22.7140    11.5650     9.1330    11.4320     2.4280 
  254.8750   -18.6280    84.3110    22.9440    12.3570     8.3960    10.4030     2.4240 
  255.0000   -18.3240    75.4280    23.0470    12.3600     7.6210     9.3670     2.3950 
  255.1250   -18.0360    67.6040    23.0060    10.4630     6.9510     8.5320     2.3510 
  255.2500   -17.6810    63.5850    22.9000     8.1510     6.4400     7.9590     2.3130 
  255.3750   -17.3210    63.6170    22.8340     6.9010     6.1020     7.6580     2.2910 
  255.5000   -16.9520    66.5960    22.8100     6.6830     5.9230     7.5810     2.2870 
  255.6250   -16.6330    70.8000    22.8050     6.9070     5.8780     7.6590     2.2990 
  255.7500   -16.4090    73.4950    22.8390     7.0720     5.9050     7.7820     2.3180 
  255.8750   -16.2490    73.4270    22.9250     7.1060     5.9700     7.9040     2.3390 
  256.0000   -16.0980    71.7950    22.9890     7.1020     6.0490     8.0050     2.3550 
  256.1250   -15.9640    71.5520    23.0090     7.2550     6.1270     8.0680     2.3620 
  256.2500   -15.8840    72.3420    23.0110     7.5040     6.1960     8.0990     2.3590 
  256.3750   -15.8140    73.1580    23.0120     7.5770     6.2570     8.1030     2.3530 
  256.5000   -15.7380    74.0180    23.0130     7.3970     6.3020     8.0920     2.3520 
  256.6250   -15.6980    74.8350    23.0130     7.1960     6.3090     8.0780     2.3620 
  256.7500   -15.6530    74.0650    23.0130     7.2410     6.2750     8.0720     2.3700 
  256.8750   -15.6210    71.2840    23.0130     7.3210     6.2130     8.0750     2.3640 
  257.0000   -15.5670    67.9290    23.0130     7.3070     6.1450     8.0780     2.3480 
  257.1250   -15.4540    67.6280    23.0130     7.3280     6.0910     8.0620     2.3400 
  257.2500   -15.3480    70.5470    23.0130     7.3710     6.0460     8.0160     2.3430 
  257.3750   -15.2450    72.4960    23.0130     7.4180     5.9990     7.9410     2.3490 
  257.5000   -15.1770    70.6000    23.0130     7.3880     5.9480     7.8520     2.3520 
  257.6250   -15.0640    68.1060    23.0380     7.2830     5.9190     7.7700     2.3570 
  257.7500   -14.9570    68.2030    23.1190     7.1710     5.9280     7.7090     2.3690 
  257.8750   -14.8180    68.3220    23.2430     7.1050     5.9590     7.6710     2.3880 
  258.0000   -14.6710    66.7440    23.3240     7.0950     5.9630     7.6510     2.4040 
  258.1250   -14.5440    66.9860    23.3450     6.9990     5.8870     7.6290     2.4040 
  258.2500   -14.4360    68.4490    23.3460     6.7480     5.7350     7.5790     2.3850 
  258.3750   -14.3410    68.2730    23.3460     6.3030     5.5330     7.4810     2.3550 
  258.5000   -14.2740    66.9060    23.3460     5.8070     5.3130     7.3180     2.3260 
  258.6250   -14.2600    66.4190    23.3460     5.4000     5.0890     7.0860     2.3140 
  258.7500   -14.2160    65.9430    23.3450     5.1300     4.8680     6.8200     2.3180 
  258.8750   -14.1900    65.7300    23.3510     4.9380     4.6700     6.5500     2.3280 
  259.0000   -14.1950    66.4020    23.3780     4.8310     4.5250     6.2990     2.3350 
  259.1250   -14.1460    67.1610    23.4340     4.7660     4.4580     6.0890     2.3380 
  259.2500   -14.0270    67.1470    23.4640     4.7390     4.4230     5.9170     2.3430 
  259.3750   -13.9450    65.5860    23.4860     4.7350     4.3640     5.7780     2.3500 
  259.5000   -13.8350    62.6140    23.5120     4.7380     4.2480     5.6630     2.3570 
  259.6250   -13.6440    60.7650    23.5470     4.7460     4.0780     5.5680     2.3590 
  259.7500   -13.4570    62.1860    23.5620     4.7510     3.9220     5.4910     2.3580 
  259.8750   -13.2690    64.1150    23.5690     4.7860     3.8390     5.4370     2.3580 
  260.0000   -13.0660    63.0990    23.5750     4.8710     3.8530     5.4140     2.3640 
  260.1250   -12.8650    60.7820    23.5720     4.9730     3.9390     5.4350     2.3760 
  260.2500   -12.6820    60.3060    23.5730     5.1120     4.0250     5.4910     2.3870 
  260.3750   -12.4940    62.0240    23.5710     5.3600     4.0890     5.5690     2.3920 
  260.5000   -12.3160    64.1430    23.5620     5.8040     4.1410     5.6620     2.3920 
  260.6250   -12.1660    64.1970    23.5600     6.3960     4.2030     5.7630     2.3950 
  260.7500   -12.0320    62.7990    23.5760     6.9370     4.2720     5.8750     2.4050 
  260.8750   -11.8980    60.9780    23.5860     7.1910     4.3230     6.0050     2.4170 
  261.0000   -11.7550    59.7580    23.5880     7.0810     4.3340     6.1530     2.4230 
  261.1250   -11.6910    59.3850    23.5880     6.7600     4.3140     6.3040     2.4200 
  261.2500   -11.6600    59.3270    23.5880     6.4270     4.3050     6.4270     2.4130 
  261.3750   -11.5610    58.7940    23.5880     6.1290     4.3240     6.5020     2.4060 
  261.5000   -11.4070    58.1870    23.5880     5.8790     4.3680     6.5270     2.4030 
  261.6250   -11.3060    59.1040    23.5860     5.7880     4.4360     6.5160     2.4070 
  261.7500   -11.2510    61.7470    23.5840     5.8470     4.5260     6.4990     2.4160 
  261.8750   -11.1510    64.4720    23.5850     5.9620     4.6210     6.4870     2.4280 
  262.0000   -11.0650    67.2730    23.5770     6.0150     4.6820     6.4850     2.4380 
  262.1250   -11.0010    69.5140    23.5510     5.9520     4.6580     6.4930     2.4400 
  262.2500   -10.9130    68.9990    23.5120     5.8610     4.5640     6.5030     2.4350 
  262.3750   -10.8840    65.9190    23.4920     5.8030     4.4550     6.5070     2.4290 
