~V
VERS. 2.00: Ver 2.00
~W
STRT.M 61.0000:
STOP.M 262.0000:
STEP.M 0.1250:
NULL. -999.2500:
UWI. DF32115:
~C
DEPT.M :
GR.API :
CALI.CM :
RXO.OHMM :
RI. :
RML.OHMM :
DEN.GM/CC :
SP.MV :
~A
# ...
   72.2500    73.0700    24.8060    11.4160     9.5040    12.8020     2.3480   -19.2420 
   72.3750    72.0170    24.5370    10.2900     8.6730    11.3760     2.2890   -20.1470 
   72.5000    71.0990    24.1820     9.4930     8.0140    10.4320     2.2540   -20.9790 
   72.6250    70.8460    23.8970     9.3420     7.6320    10.0480     2.2530   -21.6980 
   72.7500    70.3540    23.7530     9.8020     7.4470     9.9910     2.2630   -22.3360 
   72.8750    70.2380    23.7040    10.2390     7.3870    10.0850     2.2680   -22.8900 
   73.0000    72.6340    23.6730     9.9970     7.3750    10.1790     2.2630   -23.3650 
   73.1250    76.9580    23.6780     9.1760     7.3600    10.1880     2.2510   -23.7900 
   73.2500    77.8460    23.8640     8.5830     7.3320    10.1440     2.2310   -24.2050 
   73.3750    73.8100    24.2840     8.4130     7.3010    10.0990     2.2040   -24.6120 
   73.5000    68.3770    24.8010     8.4730     7.2780    10.0770     2.1770   -25.0100 
   73.6250    67.1410    25.2390     8.5460     7.2530    10.0550     2.1650   -25.4040 
   73.7500    67.8970    25.5750     8.5650     7.2040     9.9780     2.1690   -25.7810 
   73.8750    65.8910    25.7430     8.5310     7.1160     9.8230     2.1780   -26.1250 
   74.0000    61.3360    25.6150     8.4680     6.9950     9.6160     2.1810   -26.4250 
   74.1250    58.9650    25.2200     8.3590     6.8660     9.4200     2.1720   -26.6940 
   74.2500    60.6060    24.8720     8.2290     6.7600     9.2890     2.1600   -26.9180 
   74.3750    63.6320    24.6920     8.1360     6.6940     9.2420     2.1520   -27.0880 
   74.5000    64.9370    24.6560     8.1160     6.6690     9.2700     2.1500   -27.2060 
   74.6250    63.8040    24.7000     8.1390     6.6720     9.3370     2.1550   -27.2780 
   74.7500    63.7910    24.7600     8.1500     6.6760     9.3940     2.1580   -27.3010 
   74.8750    67.3100    24.7750     8.1550     6.6700     9.4190     2.1560   -27.2730 
   75.0000    71.6360    24.7290     8.1900     6.6500     9.4120     2.1540   -27.2010 
   75.1250    71.4970    24.6940     8.2460     6.6250     9.3890     2.1540   -27.0790 
   75.2500    69.9080    24.7190     8.2550     6.6040     9.3780     2.1530   -26.9250 
   75.3750    70.7810    24.7560     8.2010     6.5950     9.3900     2.1470   -26.7530 
   75.5000    73.4110    24.7400     8.1300     6.5990     9.4240     2.1400   -26.5720 
   75.6250    72.9770    24.6770     8.0950     6.6170     9.4770     2.1390   -26.3890 
   75.7500    69.3650    24.6400     8.0900     6.6430     9.5430     2.1450   -26.2080 
   75.8750    67.1890    24.6320     8.1010     6.6680     9.6090     2.1560   -26.0460 
   76.0000    70.4320    24.6360     8.1030     6.6780     9.6510     2.1670   -25.9180 
   76.1250    76.4070    24.6520     8.0380     6.6470     9.6190     2.1750   -25.8440 
   76.2500    78.1890    24.6570     7.9090     6.5740     9.5070     2.1770   -25.8470 
   76.3750    75.1740    24.6350     7.7370     6.4700     9.3320     2.1770   -25.9300 
   76.5000    71.9770    24.6100     7.5490     6.3520     9.1330     2.1730   -26.0980 
   76.6250    71.3060    24.6120     7.4350     6.2480     8.9620     2.1630   -26.3530 
   76.7500    70.5470    24.6300     7.4780     6.1780     8.8490     2.1490   -26.6640 
   76.8750    68.2730    24.6710     7.6090     6.1560     8.8150     2.1430   -26.9830 
   77.0000    65.8520    24.7660     7.6830     6.1880     8.8640     2.1500   -27.2550 
   77.1250    65.7510    24.8800     7.7230     6.2820     9.0120     2.1640   -27.4210 
   77.2500    66.8540    24.9410     7.9270     6.4340     9.2660     2.1720   -27.4300 
   77.3750    68.3310    24.9450     8.3010     6.6500     9.6300     2.1760   -27.2320 
   77.5000    69.7190    24.9350     8.6300     6.9000    10.0370     2.1850   -26.7910 
   77.6250    69.7860    24.9500     9.1490     7.0780    10.2850     2.2160   -26.0860 
   77.7500    69.5560    24.9930    10.3520     7.0840    10.2110     2.2700   -25.1860 
   77.8750    72.3620    25.0580    11.4320     6.8740     9.7570     2.3230   -24.1430 
   78.0000    79.1140    25.1290    10.6940     6.4760     9.0070     2.3370   -23.0340 
   78.1250    83.9850    25.1690     8.1860     5.9860     8.1760     2.2950   -21.9310 
   78.2500    84.6770    25.1400     6.3540     5.5240     7.4630     2.2440   -20.8840 
   78.3750    85.2000    25.0290     5.8140     5.1340     6.9110     2.2250   -19.9360 
   78.5000    88.6240    24.8830     5.7110     4.8260     6.4950     2.2470   -19.1200 
   78.6250    92.8170    24.8120     5.3410     4.6060     6.1860     2.2880   -18.4760 
   78.7500    94.7640    24.8660     4.9330     4.4530     5.9560     2.3140   -17.9970 
   78.8750    95.9830    25.0080     4.7700     4.3690     5.8370     2.3170   -17.6910 
   79.0000    97.6850    25.1270     4.8570     4.3660     5.8810     2.3030   -17.5340 
   79.1250    97.8850    25.1000     5.0750     4.4670     6.1310     2.2780   -17.4850 
   79.2500    94.2800    24.9460     5.3490     4.6260     6.4800     2.2560   -17.5090 
   79.3750    89.6500    24.7330     5.6590     4.7840     6.7880     2.2470   -17.6030 
   79.5000    86.6370    24.5600     5.8570     4.8620     6.9000     2.2560   -17.7580 
   79.6250    85.9550    24.5490     5.7370     4.7750     6.6540     2.2780   -17.9610 
   79.7500    87.3350    24.6570     5.4500     4.5520     6.1490     2.3020   -18.2100 
   79.8750    90.6120    24.7890     5.1720     4.2660     5.5610     2.3190   -18.5100 
   80.0000    93.1360    24.8790     4.9450     4.0220     5.1180     2.3230   -18.8760 
   80.1250    91.0340    24.9120     4.8130     3.9670     5.0910     2.3070   -19.3460 
   80.2500    85.5700    24.8910     5.0420     4.1500     5.5290     2.2860   -19.9320 
   80.3750    79.8120    24.8370     6.2090     4.5940     6.4310     2.2720   -20.6330 
   80.5000    75.1160    24.7960     8.7880     5.2710     7.6990     2.2630   -21.3940 
   80.6250    71.4880    24.7890    11.3430     6.0850     9.0840     2.2440   -22.1520 
   80.7500    69.6050    24.7920    11.4180     6.8140    10.1800     2.2160   -22.8260 
   80.8750    70.1860    24.7970     9.3720     7.2630    10.6900     2.1940   -23.3620 
   81.0000    71.2480    24.7830     7.5390     7.3200    10.5170     2.1920   -23.7020 
   81.1250    72.3060    24.6860     7.1890     6.9480     9.7090     2.2110   -23.7940 
   81.2500    76.7800    24.5690     7.3420     6.3380     8.6160     2.2270   -23.6630 
   81.3750    84.9840    24.5850     7.2380     5.6310     7.4650     2.2190   -23.3460 
   81.5000    91.5370    24.7960     6.5500     4.9510     6.4390     2.1840   -22.9600 
   81.6250    92.3700    25.1000     5.5220     4.4160     5.7270     2.1460   -22.6540 
   81.7500    91.3810    25.4100     4.8110     4.0650     5.3450     2.1260   -22.4990 
   81.8750    90.5520    25.6660     4.6920     3.9130     5.2680     2.1270   -22.5270 
   82.0000    87.7600    25.7160     5.0870     3.9490     5.4430     2.1370   -22.7310 
   82.1250    81.5710    25.4900     5.8020     4.2120     5.9250     2.1490   -23.0480 
   82.2500    75.3220    25.2890     6.5870     4.7320     6.8300     2.1630   -23.3850 
   82.3750    70.1760    25.2820     7.4400     5.6110     8.3670     2.1960   -23.6520 
   82.5000    67.4730    25.3730     8.9200     6.9290    10.6620     2.2680   -23.7460 
   82.6250    67.6270    25.3980    13.0980     8.5900    13.4390     2.3810   -23.5940 
   82.7500    70.2830    25.3880    20.3390     9.9170    15.3410     2.4800   -23.2260 
   82.8750    77.2000    25.4010    25.3140    10.1310    14.9680     2.5160   -22.6720 
   83.0000    88.6260    25.4610    22.1860     9.0420    12.3650     2.4790   -21.9890 
   83.1250    98.1010    25.5660    13.2290     7.3350     9.2850     2.4050   -21.2830 
   83.2500    99.9050    25.5910     7.2600     5.8810     7.0930     2.3390   -20.6350 
   83.3750    96.5980    25.3680     5.2050     4.9030     5.9120     2.2890   -20.0970 
