~V
VERS. 2.00: Ver 2.00
~W
STRT.M 60.0000:
STOP.M 266.0000:
STEP.M 0.1250:
NULL. -999.2500:
UWI. DF32129:
~C
DEPT.M :
SP.MV :
GR.API :
CALI.CM :
RXO.OHMM :
RI. :
RML.OHMM :
DEN.GM/CC :
~A
# ...
  138.7500   -32.5010    89.3670    25.1110     8.1420     6.9600     9.0650     2.1880 
  138.8750   -32.5510    91.7380    25.1420     8.1850     7.0600     9.2020     2.1850 
  139.0000   -32.5620    90.1150    25.1760     8.2270     7.1480     9.3380     2.1870 
  139.1250   -32.5250    87.4800    25.2140     8.2420     7.1980     9.4310     2.1930 
  139.2500   -32.4550    88.1020    25.2370     8.1970     7.2010     9.4680     2.2010 
  139.3750   -32.3710    89.5120    25.2630     8.1140     7.1600     9.4520     2.2070 
  139.5000   -32.2570    89.2000    25.3150     8.0540     7.0870     9.3970     2.2050 
  139.6250   -32.0810    86.6560    25.3560     8.0740     6.9950     9.2930     2.1960 
  139.7500   -31.8940    84.8030    25.4010     8.1900     6.9230     9.1750     2.1890 
  139.8750   -31.6970    84.0710    25.4370     8.3590     6.9400     9.1330     2.1870 
  140.0000   -31.4880    83.0790    25.4530     8.5790     7.1520     9.3120     2.1950 
  140.1250   -31.2990    82.7460    25.4920     9.2320     7.7280     9.9570     2.2300 
  140.2500   -31.1220    83.3770    25.6070    11.2130     8.6790    11.1310     2.3050 
  140.3750   -30.9860    83.8600    25.7090    15.2990     9.9490    12.8040     2.4130 
  140.5000   -30.8840    84.3150    25.6130    20.1140    11.3010    14.6600     2.5140 
  140.6250   -30.8220    84.7420    25.2840    21.3850    12.1800    15.8190     2.5350 
  140.7500   -30.7680    83.5530    25.0060    18.0710    12.2770    15.7800     2.4720 
  140.8750   -30.7520    80.1010    24.7550    13.6120    11.6980    14.8000     2.3700 
  141.0000   -30.7930    77.2730    24.5550    11.0190    10.8650    13.5840     2.2800 
  141.1250   -30.8570    77.3200    24.4260    10.3540    10.2650    12.7770     2.2330 
  141.2500   -30.9300    78.0460    24.3070    10.7650    10.1070    12.5390     2.2150 
  141.3750   -30.9710    77.6590    24.1640    12.2100    10.4510    12.9050     2.2090 
  141.5000   -30.9760    76.7230    24.0470    14.3690    11.2950    13.8490     2.2100 
  141.6250   -30.9330    76.5340    24.0730    16.4180    12.6640    15.3820     2.2220 
  141.7500   -30.8840    77.3060    24.3460    18.3160    14.4410    17.3450     2.2460 
  141.8750   -30.8130    77.1530    24.8250    21.1020    16.6440    19.7280     2.2740 
  142.0000   -30.7260    74.9850    25.2290    25.3050    19.3040    22.5620     2.2940 
  142.1250   -30.6080    71.7950    25.4060    33.7260    22.3410    25.7700     2.3070 
  142.2500   -30.4730    67.3280    25.4390    47.1600    25.0820    28.5470     2.3190 
  142.3750   -30.3410    62.9380    25.3510    59.2740    26.4460    29.4750     2.3270 
  142.5000   -30.1770    62.7130    25.1560    57.9540    25.4760    27.4260     2.3250 
  142.6250   -30.0180    67.5340    25.1630    40.6350    22.0840    22.8250     2.3080 
  142.7500   -29.8290    71.1780    25.1590    25.4150    17.9370    17.9260     2.2800 
  142.8750   -29.6220    70.4840    25.1520    16.1330    14.0450    13.7910     2.2500 
  143.0000   -29.3650    68.3270    25.1740    11.1300    10.8870    10.7290     2.2270 
  143.1250   -29.0770    71.7310    25.3240     9.1820     8.6610     8.7400     2.2270 
  143.2500   -28.7620    80.5590    25.5970     7.8520     7.0980     7.3990     2.2530 
  143.3750   -28.4280    90.8290    25.8760     6.7270     6.0560     6.5180     2.3030 
  143.5000   -28.1390    99.1970    25.9390     6.0240     5.4100     5.9660     2.3580 
  143.6250   -27.9040   103.1340    25.6670     5.8240     5.0950     5.7010     2.3960 
  143.7500   -27.7310   102.9630    25.5250     5.7410     4.9790     5.6170     2.4150 
  143.8750   -27.6120   100.0270    25.4890     5.7430     4.9940     5.6480     2.4220 
  144.0000   -27.5480    97.7530    25.4960     5.7850     5.0610     5.7020     2.4290 
  144.1250   -27.5370    97.7940    25.5070     5.7610     5.0850     5.6690     2.4400 
  144.2500   -27.5480    96.8930    25.5050     5.6880     5.0300     5.5340     2.4550 
  144.3750   -27.5900    95.8350    25.4950     5.6010     4.9240     5.3550     2.4650 
  144.5000   -27.6390    96.4540    25.5250     5.5130     4.8300     5.2150     2.4600 
  144.6250   -27.7180    98.8370    25.7100     5.5070     4.8250     5.2080     2.4340 
  144.7500   -27.8160   101.0210    26.0290     5.6990     4.9260     5.3390     2.4030 
  144.8750   -27.9230   101.3610    26.2900     6.1320     5.1170     5.5790     2.3790 
  145.0000   -28.0110    99.7130    26.4480     6.6070     5.3530     5.8710     2.3630 
  145.1250   -28.1350    95.6960    26.4850     6.8080     5.5700     6.1310     2.3490 
  145.2500   -28.2740    89.6790    26.4990     6.8750     5.7310     6.3170     2.3330 
  145.3750   -28.4210    85.0040    26.4990     6.9430     5.8460     6.4510     2.3200 
  145.5000   -28.5660    84.3780    26.4990     7.0550     5.9590     6.5990     2.3100 
  145.6250   -28.6640    86.4240    26.4990     7.1860     6.1280     6.8490     2.3010 
  145.7500   -28.7070    86.8920    26.4990     7.4590     6.3430     7.1910     2.2880 
  145.8750   -28.6940    85.4660    26.4990     7.9720     6.5500     7.5460     2.2720 
  146.0000   -28.6820    83.8070    26.4950     8.4800     6.6730     7.7900     2.2560 
  146.1250   -28.6260    81.6620    26.5190     8.3790     6.6320     7.7810     2.2490 
  146.2500   -28.5880    80.9200    26.5890     7.9600     6.4770     7.5880     2.2580 
  146.3750   -28.5360    82.9880    26.6690     7.7770     6.3290     7.3830     2.2810 
  146.5000   -28.5110    86.8280    26.7060     7.9060     6.3640     7.3920     2.3010 
  146.6250   -28.4890    90.0080    26.7060     8.4540     6.8850     7.9620     2.2930 
  146.7500   -28.5020    91.3480    26.7060     9.8900     8.0820     9.2770     2.2640 
  146.8750   -28.5530    88.6240    26.7060    13.4050    10.2140    11.6050     2.2290 
  147.0000   -28.6330    81.6750    26.7060    20.1750    13.5330    15.2350     2.2040 
  147.1250   -28.7430    73.2810    26.7060    28.8040    18.3080    20.5080     2.1950 
  147.2500   -28.8560    67.5010    26.7030    35.1840    23.7450    26.5210     2.1940 
  147.3750   -28.9780    64.7070    26.6980    37.9900    28.5960    31.7250     2.1920 
  147.5000   -29.0790    64.6260    26.7020    38.3060    31.5540    34.5360     2.1820 
  147.6250   -29.1600    66.4620    26.7050    36.4630    31.9270    34.3330     2.1690 
  147.7500   -29.2590    68.9780    26.7060    32.6760    30.9240    32.7850     2.1650 
  147.8750   -29.3530    71.7560    26.7060    28.4040    29.4950    31.0440     2.1670 
  148.0000   -29.4330    72.5320    26.7060    26.2050    28.2920    29.7730     2.1630 
  148.1250   -29.4570    71.1910    26.7130    26.4070    27.7510    29.3510     2.1480 
  148.2500   -29.5030    69.8120    26.7060    27.7840    27.8770    29.6630     2.1310 
  148.3750   -29.5210    68.1990    26.6330    29.7340    28.6370    30.5900     2.1240 
  148.5000   -29.5060    65.6170    26.4190    32.3500    29.8970    31.9160     2.1270 
  148.6250   -29.5130    64.4610    26.3400    34.3490    31.4410    33.3270     2.1370 
  148.7500   -29.4690    66.9820    26.3150    34.6800    32.9500    34.5310     2.1470 
  148.8750   -29.4390    69.6660    26.3250    35.3600    34.1690    35.3120     2.1540 
  149.0000   -29.3650    68.5280    26.3040    37.2600    34.8750    35.5020     2.1570 
  149.1250   -29.3320    65.8710    26.2710    38.8720    35.0030    35.1700     2.1650 
  149.2500   -29.2250    66.0430    26.2050    38.1110    34.9530    34.8430     2.1910 
  149.3750   -29.1140    68.2450    26.2560    36.1610    35.0110    34.8630     2.2450 
  149.5000   -29.0120    70.3400    26.2950    33.3480    35.2680    35.3230     2.3290 
  149.6250   -28.8800    71.1900    26.1600    32.8590    35.1990    35.5510     2.4340 
  149.7500   -28.7550    70.4540    26.1710    35.3890    33.6270    33.9400     2.5370 
  149.8750   -28.6070    68.7590    26.2290    38.1610    29.6860    29.4420     2.6110 
