~V
VERS. 2.00: Ver 2.00
~W
STRT.M 61.0000:
STOP.M 325.0000:
STEP.M 0.1250:
NULL. -999.2500:
UWI. DF320:
~C
DEPT.M :
GR.API :
RML.OHMM :
RI. :
RXO.OHMM :
CALI.CM :
SP.MV :
DEN.GM/CC :
AC.US/MT :
~A
# ...
  191.0000    83.2800     8.3620     8.1140     9.6900    24.4960   -11.2910     2.3750   372.0650 
  191.1250    88.2930     7.3470     7.1260     8.5650    24.6040   -11.1920     2.3630   378.1210 
  191.2500    94.5390     6.6840     6.3110     7.1810    24.6690   -11.1020     2.3480   392.4020 
  191.3750    97.9180     6.7910     6.0560     6.7560    24.6870   -11.0530     2.3460   406.2190 
  191.5000    98.8450     7.8460     6.5910     8.0810    24.6820   -11.0470     2.3670   408.3290 
  191.6250    96.7950     9.7590     8.0080    11.3860    24.6590   -11.0200     2.4120   388.2970 
  191.7500    88.6400    11.7900     9.7960    16.0380    24.6200   -10.9800     2.4640   352.6940 
  191.8750    75.6240    13.1910    11.3480    20.5660    24.5730   -10.9770     2.5010   313.4630 
  192.0000    66.6410    13.3490    12.0180    22.2810    24.5370   -11.0350     2.5080   286.1260 
  192.1250    70.4980    12.0610    11.3280    18.9450    24.5330   -11.1020     2.4810   287.7790 
  192.2500    82.5620    10.3200     9.9400    13.1370    24.5440   -11.1080     2.4430   313.0840 
  192.3750    94.7550     8.9030     8.5540     8.8700    24.5500   -11.0370     2.4110   348.2890 
  192.5000    98.9320     8.1720     7.6240     7.4610    24.5350   -10.9070     2.3980   375.8100 
  192.6250    94.0650     8.1940     7.3630     7.8600    24.4900   -10.8090     2.4080   380.3260 
  192.7500    88.0130     8.6140     7.5660     8.7370    24.4260   -10.7480     2.4280   367.7750 
  192.8750    84.8510     9.1650     8.0340     9.4230    24.3700   -10.6730     2.4500   349.3000 
  193.0000    86.1220     9.5940     8.5330     9.4190    24.3480   -10.5710     2.4630   334.9740 
  193.1250    90.6800     9.6680     8.7890     9.0760    24.3500   -10.4450     2.4610   331.2500 
  193.2500    94.8560     9.4190     8.7260     8.8950    24.3490   -10.3450     2.4460   337.9040 
  193.3750    96.1190     8.9760     8.4010     8.2300    24.3400   -10.3100     2.4230   354.2420 
  193.5000    95.2550     8.5050     7.9540     7.6790    24.3480   -10.3520     2.3970   374.8800 
  193.6250    97.0490     8.1400     7.5360     7.3320    24.3860   -10.3970     2.3770   389.7460 
  193.7500   102.2450     7.8790     7.2030     6.7600    24.4150   -10.3970     2.3640   395.9060 
  193.8750   106.9450     7.6820     6.9480     6.4070    24.4110   -10.3650     2.3560   396.6920 
  194.0000   108.1460     7.5070     6.7410     6.3620    24.3750   -10.3270     2.3510   396.7130 
  194.1250   105.2050     7.3340     6.5640     6.3130    24.3190   -10.3530     2.3490   398.0800 
  194.2500   101.2660     7.1640     6.4090     6.1880    24.2730   -10.4220     2.3540   399.5760 
  194.3750    98.2440     6.9930     6.2720     6.3810    24.2550   -10.4580     2.3660   398.7590 
  194.5000    95.8280     6.8300     6.1580     6.9040    24.2500   -10.4250     2.3840   391.7910 
  194.6250    92.3970     6.7780     6.1290     7.6040    24.2460   -10.3680     2.4040   377.2290 
  194.7500    89.9680     6.9820     6.2800     8.3080    24.2390   -10.3450     2.4210   362.7880 
  194.8750    89.5110     7.5570     6.7220     8.9130    24.2120   -10.3680     2.4360   353.4520 
  195.0000    87.6370     8.5790     7.5420    10.0740    24.2010   -10.4130     2.4550   346.1920 
  195.1250    79.2100     9.9860     8.8150    12.4290    24.2000   -10.3840     2.4810   330.5770 
  195.2500    68.6830    11.5510    10.3550    15.1440    24.1990   -10.2870     2.5100   306.1790 
  195.3750    59.7800    12.9950    11.9420    17.0650    24.1940   -10.1820     2.5350   281.6060 
  195.5000    53.8330    14.0700    13.2990    17.9730    24.1850   -10.1200     2.5520   265.7810 
  195.6250    52.4820    14.7510    14.0670    17.9890    24.1630   -10.1060     2.5570   261.8580 
  195.7500    54.6950    14.8760    14.2240    17.4940    24.1140   -10.0920     2.5560   263.2070 
  195.8750    56.8750    14.5700    13.8640    16.5490    24.0740   -10.0420     2.5500   266.8620 
  196.0000    58.3460    14.0170    13.1850    15.2870    24.0670    -9.9430     2.5400   272.0010 
  196.1250    60.9150    13.3800    12.3960    14.3490    24.0660    -9.8690     2.5290   277.1250 
  196.2500    62.4070    12.7860    11.6660    13.4200    24.0620    -9.8630     2.5160   280.5460 
  196.3750    61.1990    12.3160    11.0910    12.5710    24.0530    -9.9120     2.5040   282.0490 
  196.5000    57.1650    12.0560    10.7480    12.0390    24.0330    -9.9490     2.4950   282.3740 
  196.6250    54.4890    12.1320    10.7480    12.1480    23.9870    -9.9200     2.4980   282.0680 
  196.7500    54.1560    12.5180    11.0610    12.8540    23.9150    -9.8660     2.5120   280.6920 
  196.8750    54.0330    13.1690    11.6590    14.0650    23.8720    -9.8450     2.5340   277.3650 
  197.0000    52.8560    13.9950    12.4720    15.6050    23.7750    -9.8940     2.5560   272.0640 
  197.1250    52.5500    14.8600    13.3910    17.1180    23.7120    -9.9650     2.5700   266.3360 
  197.2500    54.0210    15.6170    14.2580    18.2470    23.6230    -9.9980     2.5740   261.7990 
  197.3750    56.1140    16.1780    14.9660    19.1170    23.5390    -9.9790     2.5730   258.8090 
  197.5000    57.9540    16.5300    15.4660    19.9140    23.4920    -9.9730     2.5700   257.2030 
  197.6250    58.7380    16.7680    15.7820    19.8630    23.4350   -10.0420     2.5660   257.2820 
  197.7500    56.9600    17.1050    16.0840    19.6620    23.4560   -10.1320     2.5630   258.7520 
  197.8750    54.6410    17.6920    16.5080    19.7600    23.5310   -10.1670     2.5600   260.6490 
  198.0000    54.5930    18.5520    17.1230    20.2150    23.5900   -10.1380     2.5580   261.7720 
  198.1250    54.7260    19.5120    17.8620    20.8420    23.6740   -10.0970     2.5540   261.2820 
  198.2500    53.3220    20.2210    18.4810    21.6770    23.7120   -10.0890     2.5480   260.1840 
  198.3750    54.0740    20.4170    18.7570    22.2870    23.7820   -10.1130     2.5400   259.8160 
  198.5000    58.8040    20.0180    18.5690    22.0280    23.8300   -10.1320     2.5320   261.3170 
  198.6250    63.1760    19.1580    17.9390    20.5980    23.8760   -10.0920     2.5300   265.9150 
  198.7500    63.7390    18.2540    17.1790    18.5280    23.9360   -10.0190     2.5310   272.3720 
  198.8750    61.3280    17.5500    16.5100    17.0020    23.9710    -9.9780     2.5320   278.3920 
  199.0000    56.4190    17.1210    16.0510    16.8390    23.9800    -9.9910     2.5280   281.4420 
  199.1250    52.0390    16.9190    15.8270    17.6070    23.9930   -10.0600     2.5180   280.5250 
  199.2500    51.7700    16.7930    15.7310    18.1260    24.0050   -10.1200     2.5050   278.5110 
  199.3750    53.9790    16.7210    15.7260    18.2180    24.0150   -10.1520     2.4950   277.3720 
  199.5000    55.4440    16.7950    15.8510    17.9260    24.0230   -10.1560     2.4890   277.4930 
  199.6250    56.7760    17.2380    16.2640    17.3890    23.9960   -10.1810     2.4900   277.9550 
  199.7500    59.3670    18.0770    17.0050    17.2510    23.9360   -10.2600     2.4980   277.5430 
  199.8750    61.7860    19.1850    18.0120    18.0380    23.8630   -10.3670     2.5120   275.0430 
  200.0000    62.3480    20.2570    19.0570    19.5830    23.7940   -10.4370     2.5300   269.6550 
  200.1250    60.4400    20.7760    19.7010    21.0820    23.6990   -10.4140     2.5460   262.9510 
  200.2500    58.8600    20.5370    19.6830    20.6970    23.5800   -10.3670     2.5520   258.9520 
  200.3750    59.2350    19.5840    18.9510    18.7560    23.4930   -10.3610     2.5470   259.9730 
  200.5000    59.4600    18.2080    17.7030    16.6090    23.4570   -10.4190     2.5330   265.7110 
  200.6250    58.8370    16.8390    16.3000    14.7020    23.4460   -10.4770     2.5150   274.6010 
  200.7500    59.1290    15.7710    15.0920    13.4610    23.4380   -10.4680     2.4990   284.1420 
  200.8750    60.0170    15.0670    14.2080    13.2050    23.4420   -10.4130     2.4880   292.3780 
