~V
VERS. 2.00: Ver 2.00
~W
STRT.M 61.0000:
STOP.M 257.0000:
STEP.M 0.1250:
NULL. -999.2500:
UWI. DF32086:
~C
DEPT.M :
SP.MV :
GR.API :
CALI.CM :
RXO.OHMM :
RI. :
RML.OHMM :
DEN.GM/CC :
~A
# ...
  184.7500   -19.9260    57.8620    23.0420     4.9130     4.2190     5.0770     2.5350 
  184.8750   -19.5540    56.7930    23.0090     4.6350     3.4620     4.6260     2.5090 
  185.0000   -19.2210    58.7810    22.9730     4.0550     3.0250     4.4200     2.4850 
  185.1250   -19.0210    64.2850    22.9310     3.3910     2.8770     4.3220     2.4620 
  185.2500   -18.8220    67.1100    22.8600     2.9940     2.9610     4.3330     2.4450 
  185.3750   -18.7000    63.1570    22.8390     3.0780     3.2530     4.5230     2.4340 
  185.5000   -18.6050    55.0920    22.8930     3.5890     3.6880     4.9030     2.4210 
  185.6250   -18.5700    50.1610    23.0740     4.1910     4.1430     5.3830     2.4040 
  185.7500   -18.5900    50.3030    23.1480     4.5290     4.4850     5.7920     2.3810 
  185.8750   -18.6190    53.0110    23.0250     4.6080     4.6630     6.0410     2.3510 
  186.0000   -18.6900    53.7160    22.7950     4.5830     4.7120     6.1310     2.3220 
  186.1250   -18.7360    51.6750    22.7080     4.5950     4.7210     6.1350     2.3160 
  186.2500   -18.8180    50.9000    22.6760     4.6490     4.7640     6.1400     2.3290 
  186.3750   -18.9100    52.0430    22.6970     4.7330     4.8430     6.1710     2.3390 
  186.5000   -19.0010    53.3560    22.6530     4.8700     4.9190     6.2290     2.3370 
  186.6250   -19.0850    53.3500    22.4600     5.1220     4.9470     6.3220     2.3340 
  186.7500   -19.1720    54.2850    22.1490     5.4060     4.9350     6.4570     2.3400 
  186.8750   -19.2500    56.7650    21.9170     5.6260     4.9180     6.6450     2.3520 
  187.0000   -19.3310    58.9570    21.9060     5.7610     4.9350     6.8870     2.3660 
  187.1250   -19.3640    61.4550    22.0610     5.9120     5.0070     7.1480     2.3840 
  187.2500   -19.4280    66.3070    22.3200     6.0470     5.1030     7.3680     2.4020 
  187.3750   -19.4740    73.6340    22.6210     5.9960     5.1920     7.4990     2.4170 
  187.5000   -19.5320    80.9930    22.8910     5.7340     5.2610     7.5220     2.4240 
  187.6250   -19.6310    84.5170    23.1580     5.4450     5.3120     7.4600     2.4290 
  187.7500   -19.7270    86.5880    23.3360     5.3040     5.3560     7.3930     2.4350 
  187.8750   -19.8510    90.7910    23.4420     5.2900     5.3840     7.3670     2.4400 
  188.0000   -19.9530    97.3300    23.5010     5.3740     5.3750     7.3830     2.4410 
  188.1250   -20.1620    99.5780    23.5870     5.4730     5.2860     7.3850     2.4450 
  188.2500   -20.3560    95.7500    23.7070     5.4900     5.1250     7.3110     2.4540 
  188.3750   -20.6090    91.0530    23.8430     5.4650     4.9360     7.1690     2.4620 
  188.5000   -20.8680    89.6220    23.9150     5.4730     4.7990     7.0380     2.4600 
  188.6250   -21.1560    90.8620    23.9320     5.4880     4.8290     7.0670     2.4450 
  188.7500   -21.4810    93.0280    23.9270     5.6330     5.0610     7.3420     2.4250 
  188.8750   -21.8150    94.8530    23.9160     6.1820     5.5080     7.9200     2.4030 
  189.0000   -22.1920    94.1020    23.8810     7.2380     6.1350     8.7830     2.3850 
  189.1250   -22.5170    89.5370    23.8500     8.0710     6.8420     9.8070     2.3800 
  189.2500   -22.8780    85.5860    23.8390     8.6860     7.4730    10.7650     2.3880 
  189.3750   -23.2260    85.9330    23.8930     9.4120     7.9360    11.5050     2.4030 
  189.5000   -23.6310    89.8480    24.0030     9.9730     8.2190    11.9770     2.4110 
  189.6250   -24.0200    91.2690    24.1290    10.0530     8.4520    12.3190     2.4030 
  189.7500   -24.4240    88.2110    24.1780    10.6490     8.8830    12.8780     2.3830 
  189.8750   -24.8740    85.5100    24.1850    12.2970     9.7260    13.9660     2.3630 
  190.0000   -25.3640    87.0220    24.1830    14.2040    11.1440    15.8390     2.3470 
  190.1250   -25.8910    90.4160    24.1710    15.8580    13.3540    18.8370     2.3400 
  190.2500   -26.4770    89.8060    24.1430    18.9990    16.2230    22.7630     2.3410 
  190.3750   -27.0950    84.7860    24.1150    24.6490    19.6060    27.3300     2.3530 
  190.5000   -27.7490    78.5470    24.1030    32.2060    23.3410    32.2200     2.3710 
  190.6250   -28.4000    76.1660    24.1030    35.7290    27.5570    37.5610     2.3810 
  190.7500   -29.0600    77.6930    24.1020    34.0230    32.7610    44.0570     2.3760 
  190.8750   -29.7340    77.0580    24.0990    38.7560    40.0220    52.9760     2.3710 
  191.0000   -30.3960    70.1640    24.0910    66.6560    50.5950    65.8800     2.3800 
  191.1250   -31.0960    61.8200    24.0750   115.4370    65.7390    84.9160     2.3800 
  191.2500   -31.6740    60.7070    24.0490   136.0070    83.1830   107.9340     2.3490 
  191.3750   -32.2200    66.6640    24.0370   123.6010    99.2500   129.7430     2.2950 
  191.5000   -32.6900    72.6860    24.1050   108.1970   110.4330   144.0350     2.2430 
  191.6250   -33.1340    72.6150    24.1250   108.2870   116.3780   149.8420     2.2100 
  191.7500   -33.5130    69.5310    24.1070   118.3750   121.8550   155.2130     2.1960 
  191.8750   -33.8430    68.4950    24.0870   121.8140   129.5150   164.2880     2.1980 
  192.0000   -34.1050    71.0030    24.0810   116.6520   139.1780   176.7720     2.2020 
  192.1250   -34.2870    73.9060    24.0740   128.2530   147.5610   187.6310     2.1890 
  192.2500   -34.5140    74.7210    24.0420   163.9540   150.7370   190.2450     2.1640 
  192.3750   -34.6910    73.9070    23.9460   192.8940   146.4630   181.2580     2.1440 
  192.5000   -34.8310    72.0560    23.7750   180.3360   135.0630   162.5360     2.1420 
  192.6250   -34.9440    71.9770    23.6650   136.0820   118.7940   139.3700     2.1590 
  192.7500   -35.0630    74.3010    23.8120   101.4010   102.2610   118.0660     2.1810 
  192.8750   -35.1310    76.0930    24.1270    85.0320    88.3860   101.5810     2.1980 
  193.0000   -35.2210    76.5340    24.3370    76.5520    78.7680    90.8410     2.2040 
  193.1250   -35.2930    77.7770    24.4060    65.9320    74.5130    86.4100     2.2010 
  193.2500   -35.3980    79.5340    24.4280    56.4520    74.6460    86.7970     2.2020 
  193.3750   -35.5450    78.4080    24.4000    61.0780    78.8050    91.4690     2.2060 
  193.5000   -35.7700    74.6160    24.3280    81.2170    86.1660    99.5110     2.2070 
  193.6250   -36.0270    72.7550    24.2370    99.5820    94.9850   109.0100     2.1980 
  193.7500   -36.3010    73.0290    24.1570   100.1320   102.2690   116.5660     2.1820 
  193.8750   -36.5940    73.5670    24.1100    92.8150   105.8980   119.7470     2.1700 
  194.0000   -36.8810    73.3170    24.0990    88.8720   105.3860   118.2930     2.1750 
  194.1250   -37.1640    72.5220    24.1010    87.3640   102.2170   114.3860     2.2070 
  194.2500   -37.3620    71.4450    24.0650    83.4940    99.2850   111.1420     2.2510 
  194.3750   -37.5290    70.4110    23.9640    77.5470    97.8900   109.7050     2.2840 
  194.5000   -37.5880    70.4810    23.8730    74.0410    98.5640   110.4950     2.2870 
  194.6250   -37.6400    70.8220    23.8270    79.5830   101.9350   114.2050     2.2590 
  194.7500   -37.5910    70.1330    23.9230    91.4330   107.4840   120.3820     2.2210 
  194.8750   -37.5200    69.7900    24.2490   102.3820   114.6440   128.5260     2.1860 
  195.0000   -37.3930    69.6650    24.6230   107.3320   122.5340   137.6910     2.1600 
  195.1250   -37.2440    66.3920    24.6650   109.6930   129.9280   146.3150     2.1500 
  195.2500   -37.0970    62.5270    24.3980   113.9630   135.8100   152.9410     2.1520 
  195.3750   -36.9140    62.2290    24.0520   117.7790   139.5070   156.6180     2.1630 
  195.5000   -36.7830    65.2370    24.0940   120.5830   140.6520   156.8750     2.1810 
  195.6250   -36.5710    67.3540    24.2120   127.4630   138.6670   153.0880     2.2020 
  195.7500   -36.4050    67.6370    24.2760   131.4760   134.3750   146.5950     2.2140 
  195.8750   -36.2430    66.8680    24.2690   125.5780   128.5890   138.6920     2.2100 
