~V
VERS. 2.00: Ver 2.00
~W
STRT.M 62.0000:
STOP.M 235.0000:
STEP.M 0.1250:
NULL. -999.2500:
UWI. DF32059:
~C
DEPT.M :
SP.MV :
GR.API :
CALI.CM :
RXO.OHMM :
RI. :
RML.OHMM :
DEN.GM/CC :
~A
# ...
  174.5000   -12.9320    64.3980    23.8970    67.7010    51.4840    55.7810     2.6330 
  174.6250   -12.3420    59.6600    23.9110    71.1800    53.2500    58.2660     2.6860 
  174.7500   -11.7760    58.0880    23.8740    69.0330    51.7660    57.1490     2.7040 
  174.8750   -11.2380    61.7650    23.8460    62.1150    45.3360    50.0680     2.7030 
  175.0000   -10.7360    65.3170    23.8470    52.2220    34.9290    38.1840     2.7040 
  175.1250   -10.2970    63.1860    23.8640    43.8660    24.3260    26.1860     2.7200 
  175.2500    -9.8940    61.5110    23.8580    34.3630    16.1730    17.1020     2.7350 
  175.3750    -9.5280    64.3580    23.7510    21.1770    10.7030    11.1140     2.7270 
  175.5000    -9.2290    67.1510    23.5650     9.6810     7.3400     7.5410     2.6930 
  175.6250    -8.9750    64.1410    23.4640     5.5900     5.5810     5.7970     2.6470 
  175.7500    -8.7870    59.7490    23.4600     4.5660     4.6820     5.0020     2.6040 
  175.8750    -8.6320    57.3440    23.5020     4.3630     4.3620     4.8050     2.5620 
  176.0000    -8.5100    56.3430    23.6750     4.3080     4.4030     4.9450     2.5140 
  176.1250    -8.4030    56.4500    23.9440     4.3370     4.6110     5.1930     2.4600 
  176.2500    -8.3510    56.6970    24.0530     4.4500     4.7930     5.3640     2.4100 
  176.3750    -8.3130    56.3270    24.0120     4.5950     4.8850     5.4020     2.3720 
  176.5000    -8.3020    55.4820    23.7540     4.6830     4.8820     5.3200     2.3530 
  176.6250    -8.3160    54.5760    23.3710     4.6480     4.7990     5.1680     2.3510 
  176.7500    -8.3570    53.5370    23.0940     4.6010     4.6890     5.0350     2.3530 
  176.8750    -8.4260    52.7750    22.9650     4.5870     4.6040     4.9890     2.3540 
  177.0000    -8.5280    52.5760    23.0380     4.6320     4.5970     5.0710     2.3560 
  177.1250    -8.6970    51.6110    23.3150     4.7480     4.7160     5.3100     2.3690 
  177.2500    -8.8940    48.5470    23.5360     4.9180     4.9140     5.6530     2.3890 
  177.3750    -9.1550    44.7380    23.3190     5.1440     5.1240     6.0430     2.4080 
  177.5000    -9.4730    42.4950    23.0570     5.3910     5.2880     6.4120     2.4260 
  177.6250    -9.8680    44.6290    23.1230     5.5810     5.3760     6.6840     2.4470 
  177.7500   -10.3150    48.9450    23.4810     5.7060     5.4230     6.8540     2.4680 
  177.8750   -10.8490    53.2010    23.8550     5.7910     5.4540     6.9600     2.4860 
  178.0000   -11.4560    58.3290    24.0310     5.9120     5.4970     7.0820     2.4960 
  178.1250   -12.1420    66.5720    24.0680     6.1070     5.6010     7.3510     2.4990 
  178.2500   -12.8860    75.1920    24.1010     6.3960     5.8090     7.8220     2.4980 
  178.3750   -13.6900    82.3100    24.1100     6.8830     6.1510     8.4930     2.4910 
  178.5000   -14.5060    89.2560    24.0860     7.7500     6.6040     9.2900     2.4760 
  178.6250   -15.3550    95.6790    24.1300     8.6420     7.0630    10.0330     2.4520 
  178.7500   -16.1830    99.8350    23.9830     9.1970     7.3910    10.5490     2.4270 
  178.8750   -16.9700   100.6180    23.8170     9.2940     7.5280    10.7670     2.4090 
  179.0000   -17.7020    99.6210    23.7250     9.0930     7.4980    10.7390     2.4020 
  179.1250   -18.3670    97.7050    23.6870     8.7740     7.3830    10.6110     2.4050 
  179.2500   -18.9890    94.7290    23.6070     8.5450     7.2810    10.5580     2.4110 
  179.3750   -19.5470    92.3480    23.5620     8.5270     7.2310    10.6490     2.4130 
  179.5000   -20.0690    91.5300    23.6320     8.7610     7.2420    10.8740     2.4120 
  179.6250   -20.4750    93.4570    24.0000     9.1230     7.3110    11.1540     2.4070 
  179.7500   -20.8100    94.8410    24.2090     9.4100     7.3950    11.3560     2.4000 
  179.8750   -21.0360    93.0420    24.3410     9.6120     7.4490    11.4010     2.3910 
  180.0000   -21.1610    88.6180    24.4450     9.8350     7.4630    11.3060     2.3800 
  180.1250   -21.1410    83.5630    24.6970    10.1380     7.5310    11.2620     2.3610 
  180.2500   -20.9900    80.5630    24.8140    10.4290     7.8340    11.5790     2.3430 
  180.3750   -20.7060    80.9050    24.7590    10.6510     8.5780    12.5810     2.3450 
  180.5000   -20.2760    83.7930    24.4840    10.9170     9.9270    14.5480     2.3870 
  180.6250   -19.7290    85.0040    24.0480    12.0250    11.9990    17.7220     2.4670 
  180.7500   -19.0750    82.3640    23.9690    16.2470    14.3450    21.3960     2.5460 
  180.8750   -18.3560    78.9950    24.0990    24.0230    16.2030    24.2230     2.6000 
  181.0000   -17.5740    77.7330    24.0490    29.4200    16.6380    24.5120     2.6150 
  181.1250   -16.7020    79.7410    23.7440    24.6760    15.0690    21.4760     2.5810 
  181.2500   -15.7780    82.3150    23.5710    16.9190    12.5760    17.3150     2.5190 
  181.3750   -14.8350    84.7010    23.5000    12.2520    10.0360    13.5360     2.4590 
  181.5000   -13.8960    86.2160    23.4230    10.2010     7.9490    10.7460     2.4280 
  181.6250   -12.9910    83.8600    23.2630     8.3630     6.5760     9.1130     2.4340 
  181.7500   -12.1570    78.1000    23.0520     6.7720     5.7700     8.2600     2.4470 
  181.8750   -11.4150    70.6770    22.9050     5.9750     5.4050     7.9640     2.4520 
  182.0000   -10.7670    65.1820    22.8450     5.8110     5.3340     8.0190     2.4490 
  182.1250   -10.2950    63.2130    22.8200     5.8710     5.4250     8.2430     2.4500 
  182.2500    -9.9310    60.6550    22.8190     5.9050     5.5380     8.4340     2.4550 
  182.3750    -9.6670    56.3920    22.8460     5.8520     5.6160     8.4890     2.4570 
  182.5000    -9.4920    52.5550    22.9280     5.7100     5.6390     8.3920     2.4530 
  182.6250    -9.4140    51.4450    23.0950     5.5370     5.6060     8.2030     2.4430 
  182.7500    -9.3790    50.3090    23.3780     5.4160     5.5480     8.0300     2.4330 
  182.8750    -9.3570    48.8550    23.5900     5.4090     5.4920     7.9230     2.4290 
  183.0000    -9.3450    50.1220    23.6790     5.5160     5.4680     7.8920     2.4350 
  183.1250    -9.3090    53.3440    23.5930     5.6650     5.4970     7.9160     2.4480 
  183.2500    -9.2810    54.3320    23.3330     5.7330     5.5440     7.9390     2.4620 
  183.3750    -9.2490    52.5750    23.0070     5.6940     5.5660     7.9250     2.4700 
  183.5000    -9.2230    49.7190    22.8840     5.6160     5.5320     7.8630     2.4690 
  183.6250    -9.1610    49.6830    23.0270     5.5330     5.4530     7.7730     2.4620 
  183.7500    -9.0830    53.5790    23.2170     5.4720     5.3920     7.6940     2.4580 
  183.8750    -9.0140    59.9020    23.2870     5.4480     5.3950     7.6610     2.4540 
  184.0000    -8.9910    66.4230    23.2190     5.4700     5.4660     7.6940     2.4500 
  184.1250    -9.0170    72.2320    23.3860     5.5370     5.5810     7.8050     2.4520 
  184.2500    -9.0680    78.1130    23.6130     5.6080     5.6920     7.9610     2.4600 
  184.3750    -9.1550    83.8620    23.7900     5.7210     5.7890     8.1320     2.4710 
  184.5000    -9.2780    89.5380    23.8970     5.9480     5.8820     8.2830     2.4770 
  184.6250    -9.4350    94.0500    24.0090     6.1740     5.9760     8.3700     2.4790 
  184.7500    -9.6230    97.1890    24.1220     6.2570     6.0470     8.3810     2.4840 
  184.8750    -9.8100    98.8650    24.1670     6.2040     6.0590     8.3210     2.4910 
  185.0000    -9.9730    98.2060    24.1770     6.1390     5.9840     8.1950     2.4970 
  185.1250   -10.0990    94.4160    24.1970     6.1150     5.8120     7.9840     2.4970 
  185.2500   -10.2210    91.5230    24.2350     6.0770     5.6090     7.7190     2.4900 
  185.3750   -10.3240    93.9960    24.2660     5.9850     5.4460     7.4740     2.4770 
  185.5000   -10.4130    99.8850    24.2770     5.7970     5.3890     7.3600     2.4560 
  185.6250   -10.4980   101.8420    24.2460     5.6180     5.5200     7.5360     2.4300 
