~V
VERS. 2.00: Ver 2.00
~W
STRT.M 62.0000:
STOP.M 318.0000:
STEP.M 0.1250:
NULL. -999.2500:
UWI. DF321:
~C
DEPT.M :
DEN.GM/CC :
SP.MV :
AC.US/MT :
GR.API :
CALI.CM :
RXO.OHMM :
RI. :
RML.OHMM :
~A
# ...
  312.0000     2.4400   -16.6900   396.5410    40.3730    22.4020     4.7550     6.7510     7.2080 
  312.1250     2.4240   -16.7200   399.1180    40.3730    22.0670     4.4720     6.7440     6.7900 
  312.2500     2.4120   -16.7570   401.1010    40.3730    21.8010     4.5340     6.7390     6.2220 
  312.3750     2.4070   -16.8120   400.3400    40.3730    21.6980     4.8930     6.7390     5.6190 
  312.5000     2.4060   -16.8540   397.0650    40.3730    21.6650     5.3080     6.7410     5.0990 
  312.6250     2.4130   -16.8650   394.4330    40.3730    21.6080     5.1870     6.7350     4.7520 
  312.7500     2.4230   -16.8480   395.4490    40.3730    21.5520     4.7180     6.7280     4.6020 
  312.8750     2.4250   -16.8500   400.4650    40.3730    21.5060     4.2980     6.7280     4.6020 
  313.0000     2.4210   -16.9210   407.5130    40.3730    21.4960     4.1810     6.7280     4.6020 
  313.1250     2.4230   -16.9950   413.3780    40.3730    21.5440     4.2780     6.7280     4.6020 
  313.2500     2.4340   -17.0740   416.6070    40.3730    21.5980     4.3780     6.7280     4.6020 
  313.3750     2.4460   -17.1030   417.5300    40.3730    21.6390     4.4490     6.7280     4.6020 
  313.5000     2.4530   -17.1290   417.2560    40.3730    21.6520     4.5190     6.7280     4.6020 
  313.6250     2.4570   -17.1850   416.8030    40.3730    21.6330     4.5980     6.7280     4.6020 
  313.7500     2.4620   -17.2390   416.5700    40.3730    21.5920     4.5890     6.7280     4.6020 
  313.8750     2.4620   -17.2050   416.5230    40.3730    21.5410     4.4730     6.7280     4.6020 
  314.0000     2.4560   -17.1040   416.5900    40.3730    21.4860     4.3150     6.7280     4.6020 
  314.1250     2.4510   -17.0500   416.7190    40.3730    21.3850     4.1890     6.7280     4.6020 
  314.2500     2.3970   -16.9820   416.8260    40.3730    21.1390     4.1160     6.7280     4.6020 
  314.3750     2.2240   -16.8880   416.8350    40.3730    20.7820     4.0830     6.7280     4.6020 
  314.5000     1.9550   -16.8060   416.7100    40.3730    20.5160     4.0730     6.7280     4.6020 
  314.6250     1.7510   -16.7750   416.4730    40.3730    20.4290     4.0720     6.7280     4.6020 
  314.7500     1.6960   -16.7750   416.2300    40.3730    20.4120     4.0720     6.7280     4.6020 
  314.8750     1.7300   -16.7750   416.0550    40.3730    20.4080     4.0720     6.7280     4.6020 
  315.0000     1.7660  -999.2500   415.9840    40.3730    20.4080     4.0720     6.7280     4.6020 
  315.1250     1.7690  -999.2500   416.0170    40.3730    20.4060     4.0720     6.7280     4.6020 
  315.2500     1.7610  -999.2500   416.0950    40.3730    20.4050     4.0720     6.7280     4.6020 
  315.3750     1.7530  -999.2500   416.1820    40.3730    20.4030     4.0720     6.7280     4.6020 
  315.5000     1.7520  -999.2500   416.2550    40.3730    20.4010     4.0720     6.7280     4.6020 
  315.6250     1.7460  -999.2500   416.3010    40.3730    20.4010     4.0710     6.7280     4.6020 
  315.7500     1.7480  -999.2500   416.3190    40.3730    20.4010     4.0710     6.7280     4.6020 
  315.8750     1.7490  -999.2500   416.3060    40.3730    20.4010     4.0710     6.7280     4.6020 
  316.0000     1.7470  -999.2500   416.2660    40.3730    20.4010     4.0710     6.7280     4.6020 
  316.1250     1.7440  -999.2500   416.2170    40.3730    20.4010     4.0710     6.7280     4.6020 
  316.2500     1.7440  -999.2500   416.1890    40.3730    20.4010     4.0710     6.7280     4.6020 
  316.3750     1.7450  -999.2500   416.1880    40.3730    20.4010     4.0710     6.7280     4.6020 
  316.5000     1.7470  -999.2500   415.3460    40.3730    20.4010     4.0710     6.7280     4.6020 
  316.6250     1.7470  -999.2500   419.7630    40.3730    20.4010     4.0710     6.7280     4.6020 
  316.7500     1.7480  -999.2500   409.0480    40.3730    20.4010     4.0710     6.7280     4.6020 
  316.8750     1.7520  -999.2500   351.6680    40.3730    20.4010     4.0710     6.7280     4.6020 
  317.0000     1.7570  -999.2500   257.6780    40.3730    20.3990     4.0700     6.7280     4.6020 
  317.1250     1.7630  -999.2500   190.1350    40.3730    20.3890     4.0670     6.7280     4.6020 
  317.2500     1.7620  -999.2500   172.5650    40.3730    20.3710     4.0650     6.7280     4.6020 
  317.3750     1.7550  -999.2500   177.5050    40.3730    20.3590     4.0640     6.7280     4.6020 
  317.5000     1.7440  -999.2500  -999.2500    40.3730    20.3550     4.0640     6.7280     4.6020 
  317.6250     1.7370  -999.2500  -999.2500    40.3730    20.3550     4.0640     6.7280     4.6020 
  317.7500     1.7410  -999.2500  -999.2500  -999.2500  -999.2500  -999.2500  -999.2500  -999.2500 
  317.8750     1.7530  -999.2500  -999.2500  -999.2500  -999.2500  -999.2500  -999.2500  -999.2500 
  318.0000     1.7660  -999.2500  -999.2500  -999.2500  -999.2500  -999.2500  -999.2500  -999.2500 
