~V
VERS. 2.00: Ver 2.00
~W
STRT.M 62.0000:
STOP.M 318.0000:
STEP.M 0.1250:
NULL. -999.2500:
UWI. DF321:
~C
DEPT.M :
DEN.GM/CC :
SP.MV :
AC.US/MT :
GR.API :
CALI.CM :
RXO.OHMM :
RI. :
RML.OHMM :
~A
   62.0000     2.1890    81.6790   224.9220    44.3110    25.4970  1715.9370    -0.0900     1.0450 
   62.1250     2.1570    79.4070   243.6010    43.0220    25.4960  1715.9370    -0.1080     0.2000 
   62.2500     2.1400    76.3450   263.9940    42.0460    25.4960  1433.2180    -0.1190    -0.2480 
   62.3750     2.1180    72.1390   288.7910    43.5200    25.4960   722.1620    -0.1270    -0.4460 
   62.5000     2.0820    66.4900   322.0750    46.7960    25.4960     8.3830    -0.1260    -0.4920 
   62.6250     2.0700    58.9930   366.8050    49.8420    25.4660     3.1850    -0.0740    -0.3980 
   62.7500     2.1140    50.3590   415.7380    53.1490    25.2650     4.3900     0.0970    -0.1420 
   62.8750     2.1870    41.0380   459.1350    57.8300    24.7650     6.1680     0.5010     0.4010 
   63.0000     2.2280    31.4090   487.6840    64.9010    24.1300     7.9080     1.2940     1.4860 
   63.1250     2.2080    21.9190   494.5560    71.0400    23.8430     8.7840     2.6330     3.4370 
   63.2500     2.1750    12.9720   488.0730    70.6450    23.7050     9.0880     4.1580     5.2920 
   63.3750     2.1560     4.9900   477.3640    65.4350    23.5780     9.0080     5.4310     6.0190 
   63.5000     2.1560    -1.6590   470.0630    63.6150    23.4500     8.7360     6.2700     5.9940 
   63.6250     2.1620    -6.5860   469.1970    68.0880    23.4020     8.4990     6.7540     5.9990 
   63.7500     2.1620   -10.3150   470.4600    70.7580    23.3900     8.3530     7.0830     6.2010 
   63.8750     2.1570   -13.2060   470.2790    70.3450    23.3890     8.2800     7.3020     6.5080 
   64.0000     2.1520   -15.5370   467.4500    70.6900    23.3950     8.2020     7.4190     6.7940 
   64.1250     2.1530   -17.3650   463.5270    72.2920    23.3970     8.1250     7.4250     6.9310 
   64.2500     2.1560   -18.8090   461.2600    72.9090    23.4010     8.0390     7.3380     6.9050 
   64.3750     2.1530   -20.0340   461.6990    74.5430    23.4020     7.9990     7.1770     6.7580 
   64.5000     2.1440   -21.1360   463.9240    76.9840    23.4030     8.0200     7.0160     6.5910 
   64.6250     2.1310   -22.0800   464.0690    76.7200    23.3970     8.0360     7.0310     6.6040 
   64.7500     2.1190   -22.9240   457.3860    74.9450    23.3540     8.0190     7.3520     6.9330 
   64.8750     2.1200   -23.6480   440.5330    72.1500    23.2500     8.1820     8.0340     7.6570 
   65.0000     2.1510   -24.2170   414.2320    68.5320    23.1610     8.8160     9.0070     8.7560 
   65.1250     2.2340   -24.7160   386.1110    66.0930    23.1410     9.8870     9.9930     9.9470 
   65.2500     2.3370   -25.2270   367.9460    66.8520    23.1480    10.4690    10.5710    10.6240 
   65.3750     2.4080   -25.7190   366.5850    70.1450    23.1330    10.0310    10.5020    10.4400 
   65.5000     2.4030   -26.1690   381.5060    73.3950    23.1200     9.0350     9.8710     9.6140 
   65.6250     2.3280   -26.5730   405.1210    76.7040    23.2600     8.4180     9.0150     8.7070 
   65.7500     2.2450   -26.9740   425.8350    79.1560    23.5790     8.3240     8.3000     8.0820 
   65.8750     2.1900   -27.3840   439.0440    79.8480    23.8840     8.4890     7.8560     7.8110 
   66.0000     2.1680   -27.8400   445.3780    80.3530    24.2660     8.7260     7.6880     7.8420 
   66.1250     2.1650   -28.2460   448.1700    80.8520    24.1400     9.0050     7.7310     8.0580 
   66.2500     2.1670   -28.6240   450.7580    80.5570    24.1530     9.3360     7.8350     8.2790 
   66.3750     2.1680   -28.9290   453.4650    79.0580    24.3770     9.6240     7.9330     8.4290 
   66.5000     2.1700   -29.1210   455.5480    77.9650    24.7150     9.7490     8.0050     8.5010 
   66.6250     2.1730   -29.3560   456.1470    78.7810    24.9110     9.6770     8.0510     8.5170 
   66.7500     2.1780   -29.6000   455.6000    79.2690    25.0130     9.5750     8.0880     8.5170 
   66.8750     2.1780   -29.7940   454.4090    79.1760    25.1190     9.6110     8.1310     8.5330 
   67.0000     2.1690   -29.9630   453.0110    80.1000    25.2440     9.8440     8.1840     8.5820 
   67.1250     2.1590   -30.2320   451.7050    83.0700    25.4860    10.1290     8.2310     8.6610 
   67.2500     2.1570   -30.4820   450.7590    82.8260    25.8780    10.2500     8.2560     8.7280 
   67.3750     2.1570   -30.7320   450.4400    78.4200    26.4430    10.0780     8.2490     8.7530 
   67.5000     2.1550   -31.0250   450.7750    74.0540    27.0770     9.5840     8.2150     8.7240 
   67.6250     2.1530   -31.1830   451.3400    72.5570    27.5180     8.9410     8.1640     8.6650 
   67.7500     2.1480   -31.2750   451.5030    72.3470    27.4660     8.4690     8.1150     8.6180 
   67.8750     2.1350   -31.3390   451.1570    73.4820    26.3740     8.3370     8.0710     8.5960 
   68.0000     2.1180   -31.3600   450.7150    76.6170    24.8920     8.3920     8.0240     8.5810 
   68.1250     2.1210   -31.3140   450.8190    78.6500    23.8280     8.3900     7.9680     8.5460 
   68.2500     2.1370   -31.1980   451.2850    78.0980    23.3820     8.3990     7.9070     8.4980 
   68.3750     2.1470   -31.0730   451.3170    77.9330    23.2740     8.4520     7.8630     8.4740 
   68.5000     2.1450   -30.9700   450.0950    78.5000    23.4210     8.5030     7.8610     8.5150 
   68.6250     2.1400   -31.0340   447.3990    77.8980    23.6950     8.6370     7.9260     8.6510 
   68.7500     2.1400   -31.2110   444.5370    77.5050    24.1300     8.9690     8.0380     8.8420 
   68.8750     2.1340   -31.4380   442.7830    76.8470    25.1060     9.3670     8.1640     9.0370 
   69.0000     2.1100   -31.6900   442.8890    73.2230    26.8570     9.6160     8.2620     9.1780 
   69.1250     2.0580   -31.9500   444.8820    68.3310    29.2300     9.5480     8.2810     9.1990 
   69.2500     1.9970   -32.2690   447.5430    65.5210    31.2030     9.3930     8.2220     9.1180 
   69.3750     1.9470   -32.5330   450.1410    64.7770    32.3920     9.3010     8.1090     8.9840 
   69.5000     1.9140   -32.7630   452.4430    64.5140    32.8700     9.2890     7.9830     8.8600 
   69.6250     1.8880   -32.8640   454.5140    63.9000    32.9830     9.2390     7.8950     8.8200 
   69.7500     1.8660   -32.8300   456.2600    60.5840    33.1020     9.1040     7.8650     8.8700 
   69.8750     1.8630   -32.7230   457.2600    55.4650    33.1700     8.9000     7.8860     8.9980 
   70.0000     1.8910   -32.5560   457.2550    55.1960    32.9940     8.6160     7.9350     9.1730 
   70.1250     1.9450   -32.3360   456.6040    61.7070    32.2080     8.2790     7.9730     9.3490 
   70.2500     1.9920   -32.0650   456.3300    69.1610    30.9410     8.0610     7.9650     9.4770 
   70.3750     2.0160   -31.7890   456.8660    74.5380    29.8130     7.9960     7.8840     9.5160 
   70.5000     2.0200   -31.4450   457.8210    77.5000    29.0850     7.9570     7.7180     9.4410 
   70.6250     2.0240   -31.0400   458.0790    77.8200    28.4170     7.7130     7.4710     9.2410 
   70.7500     2.0460   -30.6370   457.2540    76.6070    27.2830     7.1980     7.2050     8.9960 
   70.8750     2.0940   -30.3080   455.9160    77.6630    25.8390     6.5860     6.9800     8.7940 
   71.0000     2.1610   -30.1100   455.1290    82.7240    24.6630     6.2290     6.8500     8.7180 
   71.1250     2.2170   -29.9750   455.8730    85.3820    24.2300     6.4730     6.8540     8.8390 
   71.2500     2.2380   -29.8960   457.7280    81.3020    24.2140     7.1030     6.9520     9.1000 
   71.3750     2.2240   -29.9270   460.0160    72.8510    24.4690     7.7860     7.0960     9.4170 
   71.5000     2.1980   -30.0180   462.2230    66.4750    24.9080     8.2180     7.2300     9.6810 
   71.6250     2.1750   -30.2410   464.3970    65.3880    25.2710     8.3230     7.2950     9.7740 
   71.7500     2.1490   -30.4940   466.9920    65.9480    25.3880     8.3000     7.2730     9.6990 
   71.8750     2.1160   -30.7150   470.0580    66.4710    25.4920     8.2830     7.1750     9.5080 
