~V
VERS. 2.00: Ver 2.00
~W
STRT.M 59.0000:
STOP.M 261.0000:
STEP.M 0.1250:
NULL. -999.2500:
UWI. DF32116:
~C
DEPT.M :
SP.MV :
GR.API :
CALI.CM :
RXO.OHMM :
RI. :
RML.OHMM :
DEN.GM/CC :
~A
# ...
  182.7500   -20.9710    57.1530    25.1490     7.6000     8.9990     9.1140     2.4540 
  182.8750   -20.7290    56.2480    25.0710     6.0480     7.6410     7.7230     2.4180 
  183.0000   -20.5540    53.7340    25.0680     6.1290     7.1560     7.5040     2.4070 
  183.1250   -20.4490    53.3750    25.1470     7.1490     7.3870     8.1730     2.4220 
  183.2500   -20.4120    55.0990    25.2350     9.2840     7.9590     9.1650     2.4470 
  183.3750   -20.4380    55.8320    25.2790    12.2520     8.5670    10.0430     2.4680 
  183.5000   -20.4950    54.9350    25.2510    14.1350     8.9020    10.4230     2.4750 
  183.6250   -20.5610    54.3240    25.1330    12.8760     8.7290    10.0610     2.4670 
  183.7500   -20.6170    55.0390    25.0170    10.3070     8.2170     9.2710     2.4570 
  183.8750   -20.6440    57.5290    25.0210     8.4680     7.5770     8.3700     2.4520 
  184.0000   -20.6320    59.3450    25.1750     7.7700     7.0020     7.6180     2.4520 
  184.1250   -20.5980    57.1280    25.3540     7.7120     6.6450     7.2050     2.4520 
  184.2500   -20.5370    53.4450    25.4340     7.9580     6.4960     7.0810     2.4500 
  184.3750   -20.4500    50.8110    25.4230     8.3880     6.5220     7.1810     2.4470 
  184.5000   -20.3630    49.4660    25.3870     8.7020     6.6760     7.4310     2.4490 
  184.6250   -20.2770    48.5030    25.3760     8.6670     6.9100     7.7530     2.4670 
  184.7500   -20.1900    50.2020    25.3940     8.5910     7.1530     8.0600     2.4970 
  184.8750   -20.1260    54.8420    25.4240     8.6560     7.3700     8.3300     2.5210 
  185.0000   -20.0800    58.3890    25.4370     8.7170     7.5490     8.5750     2.5160 
  185.1250   -20.0320    57.3920    25.3920     8.4910     7.6710     8.7910     2.4820 
  185.2500   -19.9880    54.1320    25.3120     8.1790     7.6790     8.8850     2.4480 
  185.3750   -19.9440    52.1880    25.2590     8.0450     7.4480     8.6540     2.4350 
  185.5000   -19.8800    53.0590    25.2540     7.9670     6.8510     7.8970     2.4370 
  185.6250   -19.8160    54.9160    25.2400     7.4470     5.8730     6.5700     2.4380 
  185.7500   -19.7580    55.8520    25.1900     6.4980     4.8110     5.1280     2.4320 
  185.8750   -19.7050    56.6460    25.1370     5.4270     3.8980     3.9410     2.4250 
  186.0000   -19.6660    59.4010    25.0940     4.5640     3.2640     3.2200     2.4220 
  186.1250   -19.6530    68.1230    25.0260     4.3250     2.9970     3.0910     2.4240 
  186.2500   -19.6750    80.9630    24.9560     4.7150     3.0320     3.4260     2.4290 
  186.3750   -19.7380    93.1820    24.9440     5.4160     3.3530     4.1700     2.4390 
  186.5000   -19.8560   101.1510    25.0150     6.0460     3.9530     5.2830     2.4560 
  186.6250   -20.0440   100.8380    25.1510     6.9570     4.8780     6.8050     2.4810 
  186.7500   -20.3000    93.1290    25.2860     8.9990     6.0740     8.6800     2.5120 
  186.8750   -20.6180    82.5760    25.3770    12.2080     7.5010    10.8570     2.5470 
  187.0000   -20.9830    75.6950    25.3980    15.1720     9.0350    13.1320     2.5770 
  187.1250   -21.3920    75.7610    25.3530    15.9440    10.3220    14.8950     2.5870 
  187.2500   -21.8300    77.1720    25.2840    15.3430    10.9980    15.5860     2.5750 
  187.3750   -22.2790    77.4090    25.1930    14.5520    10.9130    15.0490     2.5420 
  187.5000   -22.7350    79.5220    25.0860    13.5340    10.2510    13.7100     2.4940 
  187.6250   -23.1660    84.4270    24.9920    11.8760     9.4010    12.3270     2.4390 
  187.7500   -23.5480    87.5920    24.9350    10.4460     8.7120    11.4020     2.3930 
  187.8750   -23.8820    85.4490    24.9140     9.9320     8.2960    11.0440     2.3650 
  188.0000   -24.1650    81.3130    24.9270    10.1770     8.1710    11.1960     2.3550 
  188.1250   -24.3770    80.5580    24.9530    10.7620     8.3420    11.7850     2.3640 
  188.2500   -24.5160    81.8340    24.9530    11.4490     8.6980    12.6010     2.3860 
  188.3750   -24.5900    82.4620    24.9330    12.2050     9.1670    13.5280     2.4130 
  188.5000   -24.5800    80.9400    24.9290    12.9190     9.6730    14.4630     2.4340 
  188.6250   -24.4990    79.9890    24.9510    13.5990    10.1100    15.2330     2.4400 
  188.7500   -24.3650    83.3230    24.9690    14.4350    10.3570    15.6150     2.4390 
  188.8750   -24.1720    90.0820    24.9710    15.2220    10.2740    15.3470     2.4390 
  189.0000   -23.9500    91.6930    24.9720    15.1140     9.7820    14.3120     2.4360 
  189.1250   -23.7060    82.8320    25.0080    13.3260     8.9350    12.7020     2.4230 
  189.2500   -23.4700    74.8780    25.0880    10.7450     8.0460    11.1480     2.4120 
  189.3750   -23.2660    73.2790    25.1780     8.2460     7.3470    10.0860     2.4150 
  189.5000   -23.1110    73.4360    25.2240     6.4310     6.9910     9.7700     2.4270 
  189.6250   -22.9910    72.1090    25.2360     6.1130     7.1050    10.3680     2.4350 
  189.7500   -22.8910    75.4550    25.2960     7.2540     7.5560    11.5150     2.4390 
  189.8750   -22.7990    82.9210    25.4060     9.0950     8.1430    12.7190     2.4430 
  190.0000   -22.6770    85.7210    25.4930    10.4220     8.5500    13.3030     2.4510 
  190.1250   -22.5160    80.4380    25.4920    10.2120     8.3770    12.5570     2.4570 
  190.2500   -22.3060    73.8310    25.4350     8.8910     7.7040    10.9240     2.4560 
  190.3750   -22.0560    67.7700    25.3520     7.1790     6.8020     9.1060     2.4480 
  190.5000   -21.7790    60.5640    25.2580     5.7500     5.9600     7.6570     2.4320 
  190.6250   -21.4980    53.2660    25.1570     4.9990     5.3840     6.8670     2.4130 
  190.7500   -21.2270    49.2310    25.0620     4.6800     5.0600     6.5620     2.3980 
  190.8750   -21.0000    48.4340    24.9940     4.6980     4.9690     6.7130     2.3930 
  191.0000   -20.8220    48.0750    25.0090     4.8130     5.0330     6.9360     2.3950 
  191.1250   -20.7120    48.2910    25.0370     4.8460     5.1110     7.0390     2.4000 
  191.2500   -20.6610    48.1920    25.0540     4.8240     5.1560     7.0330     2.4010 
  191.3750   -20.6430    47.4060    25.0740     4.7480     5.1640     6.9450     2.4030 
  191.5000   -20.6560    47.2780    25.1060     4.6380     5.1480     6.8270     2.4140 
  191.6250   -20.7120    50.8060    25.1130     4.6110     5.1380     6.7560     2.4320 
  191.7500   -20.8440    55.9610    25.0600     4.7000     5.1660     6.7870     2.4420 
  191.8750   -21.0310    60.0470    24.9710     4.8310     5.2530     6.9460     2.4430 
  192.0000   -21.2660    62.6870    24.9090     5.0130     5.4020     7.2230     2.4440 
  192.1250   -21.5520    65.6770    24.9300     5.3870     5.5970     7.5660     2.4520 
  192.2500   -21.8590    69.7770    25.0300     5.8450     5.7860     7.8660     2.4580 
  192.3750   -22.1590    75.0440    25.1850     6.1330     5.9240     8.0390     2.4640 
  192.5000   -22.4280    79.1610    25.3400     6.1220     5.9810     8.0430     2.4750 
  192.6250   -22.6340    79.6550    25.4220     5.9200     5.9410     7.8810     2.4910 
  192.7500   -22.7520    77.2710    25.4430     5.7040     5.8420     7.6490     2.4950 
  192.8750   -22.7830    75.5470    25.4520     5.4810     5.7190     7.4190     2.4820 
  193.0000   -22.7600    74.9010    25.4850     5.2390     5.6050     7.2440     2.4580 
  193.1250   -22.6800    74.8530    25.5340     5.0430     5.5320     7.1660     2.4360 
  193.2500   -22.5810    76.1280    25.5680     5.0070     5.4970     7.1610     2.4200 
  193.3750   -22.4970    78.2760    25.5760     5.1910     5.4890     7.2000     2.4080 
  193.5000   -22.4330    80.2520    25.5690     5.5070     5.4940     7.2480     2.4000 
  193.6250   -22.4170    81.2370    25.5670     5.6940     5.4890     7.2460     2.3980 
  193.7500   -22.4550    82.2800    25.5670     5.6850     5.4540     7.1500     2.3980 
  193.8750   -22.5440    81.1710    25.5670     5.6520     5.3910     6.9700     2.3960 
