~V
VERS. 2.00: Ver 2.00
~W
STRT.M 59.0000:
STOP.M 261.0000:
STEP.M 0.1250:
NULL. -999.2500:
UWI. DF32116:
~C
DEPT.M :
SP.MV :
GR.API :
CALI.CM :
RXO.OHMM :
RI. :
RML.OHMM :
DEN.GM/CC :
~A
# ...
   92.7500   -24.7600    71.3410    22.4430     6.1010     5.2340     7.1140     2.2010 
   92.8750   -25.1360    74.5060    22.4910     6.3580     5.3050     7.3150     2.1930 
   93.0000   -25.6000    75.2440    22.5410     6.6870     5.4560     7.5650     2.1890 
   93.1250   -26.1220    73.5390    22.5640     7.0010     5.6460     7.7880     2.1860 
   93.2500   -26.6440    72.1340    22.5810     7.2910     5.8450     7.9780     2.1880 
   93.3750   -27.0970    69.4250    22.6330     7.5650     6.0530     8.1710     2.1960 
   93.5000   -27.4390    65.9500    22.7750     7.8350     6.2800     8.4170     2.1980 
   93.6250   -27.6020    65.9440    23.0540     8.1290     6.5480     8.7800     2.1890 
   93.7500   -27.5740    68.7370    23.3670     8.4300     6.8410     9.2220     2.1800 
   93.8750   -27.3810    69.2540    23.6370     8.6860     7.1060     9.6240     2.1800 
   94.0000   -27.0300    66.6310    23.8820     8.8710     7.2420     9.7790     2.1890 
   94.1250   -26.4920    66.2460    24.1590     8.8660     7.0890     9.3970     2.2010 
   94.2500   -25.8580    69.5420    24.3930     8.4160     6.6480     8.5390     2.2140 
   94.3750   -25.1960    75.6430    24.5050     7.3970     6.0140     7.4350     2.2310 
   94.5000   -24.5550    82.1930    24.5370     6.0990     5.3540     6.4170     2.2520 
   94.6250   -24.0300    85.7230    24.5610     5.1250     4.8500     5.7840     2.2730 
   94.7500   -23.6430    84.4180    24.5500     4.7570     4.5330     5.5040     2.2830 
   94.8750   -23.3910    79.8090    24.4630     5.0720     4.3780     5.4700     2.2760 
   95.0000   -23.2870    76.6040    24.3420     5.8970     4.3320     5.5400     2.2570 
   95.1250   -23.3610    75.3980    24.2740     6.3640     4.3330     5.5660     2.2490 
   95.2500   -23.5450    74.6540    24.2650     6.0230     4.3440     5.5270     2.2570 
   95.3750   -23.8280    74.9380    24.2280     5.5490     4.4020     5.5520     2.2670 
   95.5000   -24.1750    74.3240    24.0790     5.9080     4.5920     5.8470     2.2660 
   95.6250   -24.5100    70.9050    23.8960     7.1370     5.0690     6.7080     2.2680 
   95.7500   -24.8430    66.2720    23.8650     8.6920     5.9020     8.1980     2.2990 
   95.8750   -25.1690    63.6080    23.9990    11.7690     7.1400    10.3140     2.3600 
   96.0000   -25.4970    62.4600    24.1520    19.4800     8.6980    12.7850     2.4150 
   96.1250   -25.8410    62.9490    24.2100    34.9490    10.1560    14.7450     2.4120 
   96.2500   -26.1880    65.6560    24.2110    47.3390    10.9670    15.4020     2.3540 
   96.3750   -26.4900    67.4270    24.1710    45.0180    10.9060    14.6490     2.2770 
   96.5000   -26.7420    64.9890    24.1030    30.3660    10.1530    13.0250     2.2200 
   96.6250   -26.9440    61.8900    24.0430    17.9910     9.0960    11.2900     2.2080 
   96.7500   -27.0880    63.4410    24.0670    11.9370     8.1140     9.8910     2.2180 
   96.8750   -27.1990    69.2380    24.1730     9.5880     7.3110     8.8740     2.2260 
   97.0000   -27.2830    74.6920    24.2580     8.5700     6.6880     8.1530     2.2210 
   97.1250   -27.3280    75.1940    24.2130     7.8990     6.2490     7.6970     2.2080 
   97.2500   -27.3610    72.5300    24.1370     7.5270     5.9620     7.4600     2.1990 
   97.3750   -27.4090    70.7310    24.1520     7.4150     5.8260     7.4450     2.1950 
   97.5000   -27.4780    71.9750    24.1900     7.4390     5.8250     7.6200     2.1960 
   97.6250   -27.5990    73.9030    24.0800     7.6770     5.9260     7.9010     2.2060 
   97.7500   -27.7400    74.2000    23.9060     7.9860     6.0430     8.1280     2.2200 
   97.8750   -27.8730    72.8460    23.8000     7.9950     6.1210     8.2130     2.2280 
   98.0000   -27.9860    70.7800    23.7770     7.5630     6.1460     8.1600     2.2220 
   98.1250   -28.0600    68.3390    23.7490     7.1190     6.1420     8.0680     2.2070 
   98.2500   -28.0690    65.5520    23.7250     7.1710     6.1610     8.0580     2.1990 
   98.3750   -28.0150    63.7860    23.7350     7.7300     6.2290     8.1820     2.2010 
   98.5000   -27.8880    63.9480    23.7420     8.4030     6.3490     8.4270     2.2060 
   98.6250   -27.6650    64.5860    23.7070     8.6820     6.4980     8.7190     2.2040 
   98.7500   -27.3860    64.1790    23.6680     8.6550     6.6320     8.9600     2.1950 
   98.8750   -27.0510    65.1750    23.6560     8.6410     6.7210     9.1000     2.1850 
   99.0000   -26.6590    68.4280    23.6610     8.8260     6.7470     9.1320     2.1780 
   99.1250   -26.2230    70.6580    23.6660     9.0230     6.7000     9.0570     2.1800 
   99.2500   -25.7780    71.4860    23.6650     8.8720     6.5950     8.8980     2.1840 
   99.3750   -25.3470    72.0290    23.6630     8.3420     6.4380     8.6590     2.1870 
   99.5000   -24.9650    71.9880    23.6650     7.7130     6.2440     8.3610     2.1940 
   99.6250   -24.6700    70.5890    23.6760     7.2890     6.0490     8.0740     2.2040 
   99.7500   -24.4750    69.4490    23.6880     7.0070     5.9060     7.8980     2.2130 
   99.8750   -24.3970    68.7780    23.6830     6.7600     5.8610     7.9110     2.2180 
  100.0000   -24.4430    67.9720    23.6700     6.6350     5.9430     8.1480     2.2200 
  100.1250   -24.6070    67.1740    23.7040     6.9870     6.1620     8.6010     2.2200 
  100.2500   -24.8680    66.4410    23.8140     7.8000     6.4480     9.1190     2.2150 
  100.3750   -25.1910    65.5050    23.9620     8.7180     6.7300     9.5590     2.2020 
  100.5000   -25.5410    64.9450    24.0820     9.3430     6.9360     9.8030     2.1850 
  100.6250   -25.9100    67.5290    24.1370     9.5700     7.0120     9.7930     2.1760 
  100.7500   -26.2540    71.4960    24.1630     9.6650     7.0000     9.6650     2.1780 
  100.8750   -26.5680    74.3360    24.1720     9.6670     6.9560     9.5380     2.1830 
  101.0000   -26.8540    75.0970    24.1560     9.5020     6.9290     9.4930     2.1840 
  101.1250   -27.1150    74.4380    24.1190     9.1910     6.9420     9.5410     2.1810 
  101.2500   -27.3270    72.7940    24.0920     8.9390     6.9660     9.5900     2.1770 
  101.3750   -27.4960    68.9010    24.0900     8.8500     6.9640     9.5560     2.1740 
  101.5000   -27.6300    65.2690    24.1030     8.8390     6.9030     9.3830     2.1710 
  101.6250   -27.6720    66.0130    24.1090     8.7090     6.7660     9.0620     2.1710 
  101.7500   -27.6370    69.3710    24.1010     8.4340     6.6000     8.7140     2.1740 
  101.8750   -27.5030    72.2700    24.0840     8.0650     6.4610     8.4650     2.1820 
  102.0000   -27.2440    73.1970    24.0750     7.6860     6.3980     8.3990     2.1890 
  102.1250   -26.8040    73.3560    24.0840     7.5670     6.4260     8.5120     2.1870 
  102.2500   -26.2100    73.8840    24.0840     7.8730     6.4620     8.6010     2.1780 
  102.3750   -25.4550    74.6770    24.0630     8.3120     6.3980     8.4490     2.1730 
  102.5000   -24.5550    76.7990    24.0400     8.1690     6.1500     7.9220     2.1820 
  102.6250   -23.5710    79.7700    24.0880     6.9440     5.6970     7.0690     2.2090 
  102.7500   -22.5520    82.3090    24.2320     5.4250     5.1860     6.2120     2.2390 
  102.8750   -21.5630    84.6090    24.4160     4.3490     4.7390     5.5750     2.2590 
  103.0000   -20.6370    87.5160    24.5520     3.9590     4.4350     5.2530     2.2680 
  103.1250   -19.8100    91.1160    24.5870     4.0720     4.3100     5.2440     2.2720 
  103.2500   -19.1140    94.9270    24.5790     4.2950     4.2960     5.3670     2.2790 
  103.3750   -18.5650    98.5970    24.5650     4.4820     4.3280     5.4750     2.2910 
  103.5000   -18.1670   101.9540    24.5620     4.5620     4.3340     5.4460     2.3090 
  103.6250   -17.9450   104.8460    24.6230     4.5330     4.2610     5.2200     2.3290 
  103.7500   -17.8500   107.8560    24.7420     4.4860     4.1440     4.9320     2.3490 
  103.8750   -17.8580   108.1350    24.8510     4.4040     4.0500     4.7320     2.3650 
