~V
VERS. 2.00: Ver 2.00
~W
STRT.M 60.0000:
STOP.M 266.0000:
STEP.M 0.1250:
NULL. -999.2500:
UWI. DF32129:
~C
DEPT.M :
SP.MV :
GR.API :
CALI.CM :
RXO.OHMM :
RI. :
RML.OHMM :
DEN.GM/CC :
~A
# ...
  183.7500   -29.5730    68.7650    25.7780    82.4390   105.9540   116.4100     2.2230 
  183.8750   -29.2750    65.1970    25.9200   120.4410   139.9950   157.3390     2.1890 
  184.0000   -28.9200    60.5780    26.1280   164.7960   194.9550   215.9090     2.1610 
  184.1250   -28.5720    58.0430    26.2430   188.2930   272.9720   284.5210     2.1460 
  184.2500   -28.1090    58.0510    26.2160   190.6260   345.1000   340.2800     2.1440 
  184.3750   -27.6180    57.3700    26.0400   183.7220   377.1130   364.6050     2.1520 
  184.5000   -27.0660    53.8380    25.9000   176.5260   362.1190   355.0830     2.1620 
  184.6250   -26.4740    50.8880    25.8550   169.2580   320.2360   323.5520     2.1690 
  184.7500   -25.8880    51.1660    25.8400   157.9190   277.2990   288.3650     2.1730 
  184.8750   -25.2660    53.7670    25.7880   140.7100   242.8600   256.9980     2.1770 
  185.0000   -24.6680    57.2630    25.7180   124.0770   221.5800   234.3640     2.1880 
  185.1250   -23.9700    60.4650    25.8230   117.0230   217.9760   226.7500     2.2210 
  185.2500   -23.3200    61.8650    26.1470   119.0690   223.8630   229.5500     2.2850 
  185.3750   -22.6250    60.3380    26.3120   136.6520   214.0360   227.2740     2.3790 
  185.5000   -21.9360    56.8730    26.1550   191.5800   158.8000   195.0170     2.4970 
  185.6250   -21.2190    53.4630    25.6690   292.8880    89.5280   128.7920     2.6100 
  185.7500   -20.4990    53.2810    25.4780   275.8020    46.4220    70.1080     2.6680 
  185.8750   -19.8160    55.6050    25.5360   146.0640    24.4430    34.3250     2.6320 
  186.0000   -19.1360    55.9190    25.8860    39.7340    13.6560    16.5870     2.5140 
  186.1250   -18.5490    52.0110    26.1810    12.9950     9.5310     8.8280     2.3780 
  186.2500   -18.0560    49.1940    26.4870     6.3380     6.2720     6.4260     2.2870 
  186.3750   -17.6600    51.4000    26.7320     4.8950     4.7840     5.4180     2.2530 
  186.5000   -17.3240    56.5570    26.5440     4.8630     4.2560     5.2390     2.2600 
  186.6250   -17.0780    58.4940    26.0920     4.9560     4.3320     5.5320     2.2840 
  186.7500   -16.8880    56.9890    25.7700     4.9560     4.6030     5.8940     2.2880 
  186.8750   -16.7840    55.7540    25.7520     4.9940     4.8860     6.1420     2.2520 
  187.0000   -16.7020    55.8680    26.0160     5.0820     5.0980     6.2370     2.1670 
  187.1250   -16.6900    54.0190    26.2660     5.2390     5.2320     6.2210     2.0540 
  187.2500   -16.6530    50.3520    26.9490     5.3660     5.3250     6.1810     1.9610 
  187.3750   -16.6580    47.8410    28.5250     5.4350     5.3910     6.1560     1.9180 
  187.5000   -16.6710    47.8950    30.6690     5.4920     5.4260     6.1770     1.9120 
  187.6250   -16.7050    48.3160    32.2450     5.5770     5.4090     6.2620     1.8970 
  187.7500   -16.7600    48.8330    33.3430     5.6660     5.3570     6.3900     1.8520 
  187.8750   -16.8150    49.0610    34.4070     5.7000     5.2950     6.5370     1.7990 
  188.0000   -16.9340    48.1380    35.4130     5.6760     5.2490     6.6840     1.7810 
  188.1250   -17.0450    46.3120    35.4810     5.6510     5.2360     6.8150     1.8140 
  188.2500   -17.2600    45.5950    34.7570     5.6570     5.2380     6.9340     1.8550 
  188.3750   -17.5020    46.5790    33.8040     5.6870     5.2380     7.0540     1.8690 
  188.5000   -17.8300    48.2950    32.9780     5.7130     5.2400     7.1860     1.8540 
  188.6250   -18.2340    49.3950    32.6810     5.7320     5.2600     7.3300     1.8370 
  188.7500   -18.7240    51.1360    32.4780     5.8330     5.2970     7.4740     1.8340 
  188.8750   -19.2910    56.0240    31.8170     6.1200     5.3410     7.6030     1.8440 
  189.0000   -19.8980    63.5480    30.7130     6.5850     5.3710     7.7070     1.8690 
  189.1250   -20.6200    70.9650    30.0790     6.9790     5.3720     7.7840     1.9110 
  189.2500   -21.3500    75.9960    29.9280     7.0890     5.3810     7.8760     1.9590 
  189.3750   -22.1400    78.2100    29.9880     7.0370     5.4630     8.0520     2.0000 
  189.5000   -22.9600    79.7890    29.8240     7.1050     5.6820     8.4050     2.0390 
  189.6250   -23.8130    85.0470    29.1770     7.8160     6.1360     9.0970     2.0950 
  189.7500   -24.6290    91.1290    28.1060     9.3170     6.8400    10.1750     2.1750 
  189.8750   -25.3440    92.2700    26.8980    11.1650     7.7930    11.6510     2.2640 
  190.0000   -25.9620    86.6120    25.9760    12.6240     8.9150    13.4030     2.3360 
  190.1250   -26.4370    80.9220    25.5310    13.7670     9.9620    15.0310     2.3660 
  190.2500   -26.7520    80.1430    25.3680    15.2260    10.6240    16.0180     2.3630 
  190.3750   -26.9280    82.8390    25.1690    16.3060    10.7240    16.0650     2.3400 
  190.5000   -26.9380    84.6510    25.2950    15.7780    10.3210    15.3080     2.3150 
  190.6250   -26.8640    84.0540    25.5810    13.5600     9.6840    14.2760     2.3080 
  190.7500   -26.7390    83.0290    25.8770    12.1060     9.1500    13.5330     2.3230 
  190.8750   -26.5870    82.7910    25.9050    12.0040     8.8640    13.2680     2.3500 
  191.0000   -26.4370    83.4770    25.6670    12.8380     8.8510    13.4720     2.3740 
  191.1250   -26.2270    85.1340    25.2660    13.9870     9.0670    13.9880     2.3880 
  191.2500   -26.0500    87.2050    25.0970    14.5260     9.3410    14.4620     2.3960 
  191.3750   -25.8180    86.9930    25.2350    14.2410     9.5590    14.6980     2.3980 
  191.5000   -25.5830    83.8570    25.4420    13.4350     9.6720    14.7160     2.3940 
  191.6250   -25.2280    82.5560    25.4950    12.6920     9.7140    14.7080     2.3860 
  191.7500   -24.7870    85.8640    25.3980    12.1800     9.7450    14.7980     2.3840 
  191.8750   -24.2830    90.3570    25.3930    11.9410     9.7230    14.8890     2.3870 
  192.0000   -23.7050    91.4210    25.4710    11.8580     9.5350    14.7220     2.3800 
  192.1250   -23.0630    89.9840    25.6550    11.4780     9.0080    13.8980     2.3480 
  192.2500   -22.3570    89.5470    25.8460    10.3990     8.2000    12.5400     2.2980 
  192.3750   -21.6690    89.0000    26.3690     8.8690     7.2820    11.0180     2.2420 
  192.5000   -20.9900    86.1820    27.4510     7.4160     6.4700     9.7520     2.1830 
  192.6250   -20.3890    79.3310    29.3080     6.5390     5.9860     9.1220     2.1420 
  192.7500   -19.8590    71.3510    30.5270     6.3800     5.8420     9.1000     2.1480 
  192.8750   -19.4150    67.3650    30.2130     6.9510     5.9980     9.5770     2.2120 
  193.0000   -19.0080    69.4150    28.6210     8.1150     6.3270    10.2820     2.3040 
  193.1250   -18.7540    76.4230    27.2360     9.0310     6.5950    10.7070     2.3710 
  193.2500   -18.5650    82.8950    26.3970     8.8700     6.6140    10.5500     2.3990 
  193.3750   -18.4590    85.7960    25.9630     7.8220     6.3600     9.8920     2.4030 
  193.5000   -18.4160    84.2320    25.7790     6.7560     5.9430     9.0710     2.3990 
  193.6250   -18.4220    76.5660    25.8230     6.2260     5.5420     8.4540     2.4010 
  193.7500   -18.4370    66.7410    25.9490     5.9470     5.2640     8.1290     2.4130 
  193.8750   -18.4710    59.1570    26.0020     5.7880     5.1240     8.0450     2.4250 
  194.0000   -18.5560    55.1220    25.8180     5.6960     5.0910     8.0910     2.4220 
  194.1250   -18.6400    53.1890    25.5970     5.6970     5.1020     8.1360     2.4040 
  194.2500   -18.7790    51.9900    25.3110     5.7540     5.0940     8.1080     2.3870 
  194.3750   -18.8810    52.8740    25.2680     5.8150     5.0530     8.0100     2.3800 
  194.5000   -19.0200    54.5720    25.4540     5.8270     5.0010     7.8840     2.3880 
  194.6250   -19.1360    53.1930    25.7660     5.7780     4.9690     7.7850     2.4030 
  194.7500   -19.2850    53.0040    25.9030     5.7540     4.9710     7.7260     2.4130 
  194.8750   -19.4530    57.3040    25.8840     5.7900     5.0050     7.6990     2.4180 
