~V
VERS. 2.00: Ver 2.00
~W
STRT.M 62.0000:
STOP.M 256.0000:
STEP.M 0.1250:
NULL. -999.2500:
UWI. DF32087:
~C
DEPT.M :
SP.MV :
GR.API :
RML.OHMM :
RI. :
RXO.OHMM :
CALI.CM :
DEN.GM/CC :
~A
# ...
  140.7500   -17.8240    73.7000     9.1970     8.6160     7.1150    24.9460     2.3970 
  140.8750   -17.8990    71.5310     9.9480     9.3410     9.7260    24.9020     2.4210 
  141.0000   -18.0380    65.1840    10.7560    10.1690    16.0630    24.8460     2.4480 
  141.1250   -18.1530    60.3500    11.2880    10.8200    17.0340    24.8640     2.4550 
  141.2500   -18.2820    62.1750    11.3850    11.0960    13.6280    24.9220     2.4320 
  141.3750   -18.4140    68.1510    11.0910    10.9650    11.3060    24.9640     2.3860 
  141.5000   -18.5140    73.1020    10.6350    10.5740    10.5400    24.9780     2.3370 
  141.6250   -18.5870    74.0350    10.3130    10.1870    10.0350    24.9780     2.3010 
  141.7500   -18.6690    72.4720    10.2450     9.9880     9.7960    24.9780     2.2800 
  141.8750   -18.7150    69.7430    10.4420    10.0330     9.8940    24.9780     2.2690 
  142.0000   -18.7460    67.6540    10.8900    10.3300    10.5450    24.9780     2.2630 
  142.1250   -18.7330    68.6530    11.6170    10.9160    11.3700    24.9780     2.2560 
  142.2500   -18.7390    69.7880    12.5500    11.7210    11.7450    24.9780     2.2460 
  142.3750   -18.6910    68.7590    13.6090    12.6730    12.5170    24.9780     2.2320 
  142.5000   -18.6480    65.8830    14.6760    13.6680    15.3220    24.9780     2.2150 
  142.6250   -18.5760    64.6160    15.6270    14.5960    20.4370    24.9670     2.2050 
  142.7500   -18.4500    64.5090    16.4560    15.4290    20.1780    24.9260     2.2120 
  142.8750   -18.2820    64.2590    17.2280    16.1990    16.4220    24.8490     2.2450 
  143.0000   -18.1050    63.4980    18.0390    16.9670    14.4730    24.7600     2.3050 
  143.1250   -17.9800    62.5470    18.9420    17.7590    19.5640    24.7000     2.3830 
  143.2500   -17.7900    61.0810    19.8550    18.5200    22.9770    24.6810     2.4550 
  143.3750   -17.6970    58.7420    20.6690    19.1700    22.8720    24.7000     2.5060 
  143.5000   -17.5310    57.5830    21.2980    19.6490    20.6620    24.7110     2.5350 
  143.6250   -17.4850    59.2650    21.6850    19.9250    19.2670    24.6890     2.5470 
  143.7500   -17.4490    60.4200    21.9080    20.0770    18.6800    24.6350     2.5560 
  143.8750   -17.4620    59.1710    21.9950    20.1450    19.2500    24.5970     2.5670 
  144.0000   -17.4640    56.3450    21.9270    20.1250    20.6670    24.5480     2.5780 
  144.1250   -17.4850    54.8750    21.6620    19.9760    20.8180    24.4690     2.5870 
  144.2500   -17.5190    56.0430    21.3260    19.7660    19.9780    24.3920     2.5910 
  144.3750   -17.5340    57.9590    21.0980    19.6230    18.6160    24.3250     2.5900 
  144.5000   -17.5980    58.4100    21.1670    19.7030    18.2320    24.2460     2.5860 
  144.6250   -17.5980    56.7900    21.7100    20.1790    18.6530    24.1960     2.5790 
  144.7500   -17.6190    56.3250    22.5880    20.9750    20.8270    24.2310     2.5720 
  144.8750   -17.6550    58.4090    23.5590    21.9110    22.3850    24.3390     2.5690 
  145.0000   -17.6960    60.3000    24.2560    22.6810    22.3870    24.4680     2.5680 
  145.1250   -17.7660    59.1900    24.1460    22.7970    22.1790    24.5470     2.5700 
  145.2500   -17.7930    56.9770    23.1320    22.1070    23.3830    24.6150     2.5690 
  145.3750   -17.8390    57.5330    21.3490    20.6710    24.8530    24.6740     2.5600 
  145.5000   -17.8670    60.7730    19.1830    18.7910    22.0920    24.7200     2.5440 
  145.6250   -17.9020    62.4500    17.1970    16.9440    16.9910    24.7570     2.5250 
  145.7500   -17.9580    63.0880    15.7700    15.5110    13.5990    24.7260     2.5100 
  145.8750   -17.9780    63.3840    15.0570    14.6690    12.7520    24.6220     2.5030 
  146.0000   -18.0310    62.5940    15.0540    14.4590    12.9980    24.5390     2.5010 
  146.1250   -17.9800    60.4780    15.6980    14.8820    13.3450    24.5020     2.5040 
  146.2500   -18.0220    58.3950    16.6390    15.6510    13.5230    24.4680     2.5080 
  146.3750   -18.0050    56.8640    17.6020    16.5260    14.0580    24.4170     2.5150 
  146.5000   -18.0560    54.7260    18.3290    17.2620    15.2530    24.4110     2.5240 
  146.6250   -18.0220    53.6530    18.5660    17.5920    16.5550    24.4430     2.5330 
  146.7500   -17.9460    52.9400    18.3580    17.5070    16.4200    24.3960     2.5360 
  146.8750   -17.8650    51.7790    17.8190    17.0820    15.4950    24.3180     2.5320 
  147.0000   -17.7690    51.1380    17.1420    16.4760    14.7820    24.3630     2.5190 
  147.1250   -17.7140    51.2210    16.5820    15.9060    14.6120    24.5010     2.5000 
  147.2500   -17.6260    51.1920    16.3040    15.5400    14.5920    24.6320     2.4770 
  147.3750   -17.5740    51.7100    16.3820    15.4590    14.8570    24.7360     2.4540 
  147.5000   -17.4880    52.8270    16.8040    15.6750    14.7490    24.7750     2.4360 
  147.6250   -17.5030    52.1820    17.4910    16.1550    14.9380    24.7550     2.4310 
  147.7500   -17.5280    50.3120    18.2330    16.7300    15.4960    24.7210     2.4430 
  147.8750   -17.5710    50.2470    18.8860    17.2800    17.0070    24.7060     2.4680 
  148.0000   -17.5980    53.3060    19.3680    17.7190    19.1120    24.7030     2.5000 
  148.1250   -17.6440    56.0560    19.6690    18.0050    19.3010    24.7010     2.5310 
  148.2500   -17.7140    54.9640    19.9110    18.2140    18.3390    24.6980     2.5530 
  148.3750   -17.7710    51.9430    20.1790    18.4110    18.3400    24.6880     2.5640 
  148.5000   -17.8300    50.8340    20.5040    18.6360    18.8790    24.6680     2.5640 
  148.6250   -17.8420    51.6700    20.8500    18.8820    19.8560    24.6570     2.5550 
  148.7500   -17.8450    51.1700    21.1420    19.1050    20.3930    24.6540     2.5420 
  148.8750   -17.8530    49.8540    21.3440    19.2730    20.4270    24.6670     2.5290 
  149.0000   -17.8480    49.2750    21.4520    19.3760    20.0360    24.6470     2.5210 
  149.1250   -17.8450    48.6730    21.4630    19.4040    19.3510    24.5690     2.5250 
  149.2500   -17.7600    47.5700    21.3810    19.3600    20.5670    24.5610     2.5400 
  149.3750   -17.6930    47.5500    21.1740    19.2200    22.8150    24.6350     2.5590 
  149.5000   -17.5250    49.6860    20.8330    18.9700    23.2100    24.7330     2.5770 
  149.6250   -17.3690    53.4970    20.4010    18.6270    21.2110    24.7740     2.5840 
  149.7500   -17.1860    57.8580    19.9960    18.2780    19.0820    24.7830     2.5820 
  149.8750   -16.9850    61.0940    19.6890    17.9810    17.1640    24.7770     2.5730 
  150.0000   -16.7440    60.9190    19.4690    17.7440    16.8180    24.7660     2.5660 
  150.1250   -16.4340    58.1010    19.2080    17.4840    17.2690    24.7520     2.5640 
  150.2500   -16.1420    56.4620    18.7400    17.0750    18.1140    24.7550     2.5680 
  150.3750   -15.7730    55.7020    17.9690    16.4300    17.6560    24.7350     2.5750 
  150.5000   -15.4860    54.4730    16.9190    15.5510    16.8580    24.7130     2.5780 
  150.6250   -15.2060    53.5610    15.7470    14.5460    14.5110    24.7030     2.5710 
  150.7500   -14.9670    53.1250    14.7020    13.6160    12.3150    24.6880     2.5570 
  150.8750   -14.7430    52.3910    13.9440    12.9000    11.3670    24.6470     2.5380 
  151.0000   -14.5710    51.7790    13.5440    12.4680    11.8240    24.6140     2.5230 
  151.1250   -14.4670    53.3560    13.5260    12.3600    12.3590    24.6040     2.5160 
  151.2500   -14.3750    53.9930    13.7250    12.4560    12.4640    24.6010     2.5150 
  151.3750   -14.3620    51.5530    14.0170    12.6630    12.1310    24.5840     2.5160 
  151.5000   -14.3330    48.4060    14.2870    12.8880    12.0150    24.5330     2.5160 
  151.6250   -14.3280    46.9220    14.4370    13.0450    12.8070    24.3990     2.5130 
  151.7500   -14.3270    47.5460    14.4610    13.1050    13.1490    24.2560     2.5080 
  151.8750   -14.3200    49.3760    14.3880    13.0730    12.8060    24.1580     2.5030 
