~V
VERS. 2.00: Ver 2.00
~W
STRT.M 55.0000:
STOP.M 256.0000:
STEP.M 0.1250:
NULL. -999.2500:
UWI. DF327:
~C
DEPT.M :
SP.MV :
DEN.GM/CC :
AC.US/MT :
GR.API :
RML.OHMM :
RI. :
RXO.OHMM :
CALI.CM :
~A
# ...
  155.0000   -13.5010     2.2410   388.6440    80.0800    22.4490    22.2510    25.5110    24.1360 
  155.1250   -13.4400     2.2280   388.9140    82.3860    23.1650    22.9230    27.8010    24.2120 
  155.2500   -13.3850     2.2210   389.0660    81.6830    24.3540    24.2240    31.9730    24.2630 
  155.3750   -13.3620     2.2200   389.5890    79.3160    25.8500    25.9310    35.7120    24.2700 
  155.5000   -13.3730     2.2260   390.5360    75.4620    27.6270    27.8690    37.5860    24.2460 
  155.6250   -13.4200     2.2320   391.3130    70.2750    29.9290    29.9090    38.5920    24.1990 
  155.7500   -13.5220     2.2360   391.1740    67.3140    32.2530    31.9430    40.5160    24.1670 
  155.8750   -13.6570     2.2370   389.9700    68.0080    33.6780    33.9260    43.7130    24.1700 
  156.0000   -13.7940     2.2340   388.2890    69.8350    34.8410    35.8490    48.4000    24.2420 
  156.1250   -13.9340     2.2280   387.2620    68.4790    36.6920    37.7500    53.1020    24.3140 
  156.2500   -14.0440     2.2190   387.3460    65.7300    39.4590    39.6940    56.4180    24.3580 
  156.3750   -14.1270     2.2100   388.2760    64.9610    42.7860    41.6590    58.3450    24.3650 
  156.5000   -14.2030     2.2060   389.4360    65.9940    45.7080    43.4640    60.9630    24.3460 
  156.6250   -14.2430     2.2110   390.5270    66.7150    47.6430    44.5800    63.3770    24.2970 
  156.7500   -14.2490     2.2220   391.5580    68.1140    48.1480    44.6190    65.9010    24.2470 
  156.8750   -14.2270     2.2340   392.3530    71.1430    47.0220    43.3940    68.0800    24.2000 
  157.0000   -14.1720     2.2420   392.4610    73.6300    44.6330    41.1070    65.6320    24.1490 
  157.1250   -14.0610     2.2410   390.6170    72.2270    41.6750    38.2720    58.2480    24.1550 
  157.2500   -13.9160     2.2350   385.7100    68.7980    38.7590    35.5170    48.4920    24.2350 
  157.3750   -13.7070     2.2300   377.2140    66.3850    35.9280    32.9970    41.1040    24.2990 
  157.5000   -13.4150     2.2300   367.0940    66.9420    33.0220    30.5850    37.3250    24.3230 
  157.6250   -13.1040     2.2380   361.0140    68.8140    29.8530    28.0180    33.8040    24.3120 
  157.7500   -12.7960     2.2510   362.1670    70.5370    26.5350    25.2490    29.5030    24.2840 
  157.8750   -12.4920     2.2640   369.3900    72.2990    23.2950    22.4290    24.9090    24.2450 
  158.0000   -12.2190     2.2720   378.2470    73.7900    20.3300    19.7890    21.0710    24.2090 
  158.1250   -11.9900     2.2750   383.9970    74.5270    17.8360    17.6080    18.6360    24.1870 
  158.2500   -11.8130     2.2770   386.5420    75.3180    15.8940    15.9470    17.4790    24.1950 
  158.3750   -11.7000     2.2780   387.7100    76.6880    14.7010    14.8980    17.2270    24.2310 
  158.5000   -11.6580     2.2790   389.3360    78.3440    14.4200    14.5650    17.7660    24.2600 
  158.6250   -11.6530     2.2750   392.5170    79.7610    15.1880    15.1420    18.5990    24.2240 
  158.7500   -11.6640     2.2620   396.4380    80.3050    16.5730    16.3690    19.6600    24.1750 
  158.8750   -11.6700     2.2440   399.8940    78.1470    18.0720    17.8670    21.1400    24.1730 
  159.0000   -11.6580     2.2270   402.2160    75.2220    19.0360    19.0600    22.9220    24.2380 
  159.1250   -11.6240     2.2190   403.6130    76.2130    18.6910    19.1560    23.4870    24.2810 
  159.2500   -11.5750     2.2210   404.8030    78.0210    17.2470    18.0740    21.8460    24.2480 
  159.3750   -11.5220     2.2310   405.8210    78.3190    15.3170    16.1320    18.1160    24.0960 
  159.5000   -11.4560     2.2440   406.7510    78.3320    13.5650    13.9250    13.7140    23.8390 
  159.6250   -11.4170     2.2560   407.9730    80.4310    12.2920    12.0140    10.8500    23.5930 
  159.7500   -11.4100     2.2660   409.3490    82.5670    11.2310    10.5040     9.5730    23.4770 
  159.8750   -11.4270     2.2750   410.2640    83.7710    10.1680     9.3280     9.3880    23.4700 
  160.0000   -11.4440     2.2830   409.8540    85.5520     9.0840     8.4130     9.6690    23.5130 
  160.1250   -11.4640     2.2870   406.8770    88.0240     8.2310     7.8300     9.9900    23.5750 
  160.2500   -11.5170     2.2880   401.3520    89.1070     7.8350     7.6240    10.0870    23.6680 
  160.3750   -11.6210     2.2910   394.1040    89.1560     8.0130     7.8480    11.0030    23.7550 
  160.5000   -11.7800     2.3000   386.9440    91.0370     8.7350     8.4790    13.5770    23.8140 
  160.6250   -11.9400     2.3200   381.7670    95.2680     9.8590     9.4240    17.0780    23.8280 
  160.7500   -12.1180     2.3460   378.0340    97.7530    11.0390    10.4430    20.0880    23.8320 
  160.8750   -12.3430     2.3690   374.8330    97.8050    12.0520    11.3930    20.3630    23.8240 
  161.0000   -12.5980     2.3820   372.4580    97.1890    12.8490    12.2390    18.9300    23.7980 
  161.1250   -12.9030     2.3740   373.0090    96.1730    13.6640    13.0930    18.2560    23.7500 
  161.2500   -13.2510     2.3530   376.8770    93.7760    14.8310    14.1140    19.0900    23.6870 
  161.3750   -13.6120     2.3250   382.6080    91.5100    16.5080    15.3650    21.5490    23.6160 
  161.5000   -13.9280     2.3010   387.8270    88.8830    18.5870    16.7910    25.2010    23.5470 
  161.6250   -14.2070     2.2840   390.6730    85.3440    20.6650    18.2080    29.6110    23.5000 
  161.7500   -14.4530     2.2700   391.8590    82.2820    22.3630    19.4550    32.7000    23.4670 
  161.8750   -14.6480     2.2570   392.4700    80.7450    23.7250    20.5710    32.9560    23.4470 
  162.0000   -14.8250     2.2430   393.2870    80.3920    25.2360    21.8130    32.4530    23.4910 
  162.1250   -14.9990     2.2290   394.6050    81.0020    27.6440    23.6770    33.9180    23.6650 
  162.2500   -15.1490     2.2190   395.8610    81.9120    30.8540    26.2480    38.4000    23.9650 
  162.3750   -15.2530     2.2170   396.1300    79.8390    34.1480    29.2150    45.2320    24.2350 
  162.5000   -15.3500     2.2230   394.8550    75.4260    36.3710    31.8370    52.4970    24.3720 
  162.6250   -15.4310     2.2340   392.5240    72.6430    36.0250    32.8990    56.4300    24.4190 
  162.7500   -15.5090     2.2470   390.7270    73.0720    33.5160    32.1560    53.6130    24.4200 
  162.8750   -15.6140     2.2570   390.2490    74.9120    30.1300    30.0790    43.5450    24.3920 
  163.0000   -15.7530     2.2630   390.9000    77.7140    27.3320    27.7100    31.8000    24.3450 
  163.1250   -15.9120     2.2630   391.8420    83.1270    26.1960    26.2740    27.7370    24.3370 
  163.2500   -16.0670     2.2600   392.4920    86.3870    26.7340    26.1920    30.1260    24.3330 
  163.3750   -16.2460     2.2550   393.0850    83.9830    29.0170    27.5530    36.0050    24.3340 
  163.5000   -16.4610     2.2490   393.9560    79.1250    32.8820    30.2050    42.6310    24.3350 
  163.6250   -16.6960     2.2440   394.9290    78.6660    37.6460    33.7650    49.6990    24.3390 
  163.7500   -16.9160     2.2440   395.3780    81.2390    41.7440    37.2350    53.8240    24.3340 
  163.8750   -17.1260     2.2510   395.0640    81.2040    43.8630    39.7150    56.1010    24.3280 
  164.0000   -17.3400     2.2640   394.5400    78.5930    43.4160    40.5750    60.1940    24.3340 
  164.1250   -17.5370     2.2770   395.1860    77.3900    41.0160    39.7690    62.2840    24.3410 
  164.2500   -17.7340     2.2820   397.4680    78.1420    38.9840    38.7460    61.5530    24.3290 
  164.3750   -17.9530     2.2750   400.6080    79.8150    38.8980    38.9750    60.8970    24.3070 
  164.5000   -18.1880     2.2590   403.1230    81.9750    41.6580    41.7320    66.6180    24.2710 
  164.6250   -18.4830     2.2410   403.9400    82.7180    48.6510    48.4840    83.0720    24.2700 
  164.7500   -18.8380     2.2300   403.8700    78.7270    59.0570    58.8120   108.8840    24.3100 
  164.8750   -19.2210     2.2260   403.6950    71.1560    72.0430    71.9760   137.8890    24.3490 
