~V
VERS. 2.00: Ver 2.00
~W
STRT.M 62.0000:
STOP.M 272.0000:
STEP.M 0.1250:
NULL. -999.2500:
UWI. DF32144:
~C
DEPT.M :
SP.MV :
DEN.GM/CC :
GR.API :
RML.OHMM :
RI. :
RXO.OHMM :
CALI.CM :
~A
# ...
   84.5000   -10.7110     2.1720    78.6610     8.4660     7.7540     8.6530    22.9060 
   84.6250   -11.5120     2.1730    81.4770     8.5910     7.7710     8.4480    22.7440 
   84.7500   -12.1000     2.1700    81.1360     8.7450     7.8020     8.7190    22.6100 
   84.8750   -12.5350     2.1630    76.1260     8.8980     7.8400     9.2910    22.5380 
   85.0000   -12.8240     2.1550    71.7300     8.9960     7.8560     9.6830    22.5180 
   85.1250   -13.0460     2.1480    73.5450     8.9870     7.8130     9.8390    22.5180 
   85.2500   -13.2240     2.1440    75.7690     8.9240     7.7350     9.7830    22.5180 
   85.3750   -13.2700     2.1420    74.9100     8.9070     7.6750     9.5810    22.5180 
   85.5000   -13.2990     2.1420    73.4840     9.0390     7.6950     9.2100    22.5290 
   85.6250   -13.3500     2.1440    73.3370     9.3810     7.8430     9.1640    22.5570 
   85.7500   -13.4510     2.1490    71.9650     9.8150     8.0620     9.6670    22.5810 
   85.8750   -13.5930     2.1560    67.8960    10.1900     8.2630    10.4500    22.5550 
   86.0000   -13.7930     2.1640    64.7900    10.3660     8.3490    10.9000    22.5220 
   86.1250   -13.9740     2.1710    65.5060    10.2660     8.2460    10.5600    22.5000 
   86.2500   -14.1120     2.1740    65.9100    10.0280     8.0300    10.0180    22.4460 
   86.3750   -14.2840     2.1710    64.0220     9.8020     7.7990     9.6170    22.3220 
   86.5000   -14.4230     2.1660    62.6070     9.7150     7.6410     9.5810    22.1720 
   86.6250   -14.5540     2.1620    64.6380     9.8410     7.6290    10.0420    22.1300 
   86.7500   -14.6940     2.1620    65.1900    10.0850     7.7280    10.3320    22.1730 
   86.8750   -14.8250     2.1660    62.9690    10.3290     7.8770    10.4170    22.2800 
   87.0000   -14.9250     2.1700    61.0280    10.4550     8.0030    10.5520    22.4530 
   87.1250   -15.0160     2.1720    62.3390    10.3660     8.0270    10.7360    22.6780 
   87.2500   -15.0940     2.1700    65.9170    10.1290     7.9490    10.8210    22.8950 
   87.3750   -15.1820     2.1650    69.6360     9.8340     7.8000    10.7140    23.0640 
   87.5000   -15.2910     2.1580    70.4550     9.5790     7.6290    10.3410    23.1770 
   87.6250   -15.2620     2.1520    68.3910     9.4540     7.4890    10.1000    23.2150 
   87.7500   -15.1380     2.1480    66.6130     9.4520     7.4020    10.0580    23.2240 
   87.8750   -14.9840     2.1460    65.1850     9.5380     7.3710    10.0120    23.2240 
   88.0000   -14.8500     2.1470    63.1290     9.6500     7.3780     9.9630    23.2240 
   88.1250   -14.7520     2.1480    63.0750     9.7110     7.3970     9.8370    23.2240 
   88.2500   -14.6740     2.1470    66.9490     9.6920     7.4050     9.6080    23.2240 
   88.3750   -14.5960     2.1430    70.8420     9.5980     7.3950     9.3800    23.2240 
   88.5000   -14.5050     2.1380    71.5910     9.4530     7.3690     9.2750    23.2210 
   88.6250   -14.4660     2.1340    71.0240     9.2860     7.3340     9.2490    23.2030 
   88.7500   -14.4130     2.1340    70.9600     9.1290     7.3090     9.2940    23.1640 
   88.8750   -14.2950     2.1400    70.6660     9.0130     7.3090     9.2800    23.1220 
   89.0000   -14.1180     2.1500    68.8610     8.9700     7.3540     9.1450    23.0970 
   89.1250   -13.8090     2.1600    67.7970     9.0240     7.4550     9.1910    23.0770 
   89.2500   -13.4070     2.1640    68.3440     9.1190     7.5750     9.3640    23.0430 
   89.3750   -12.8530     2.1640    69.6500     9.1580     7.6460     9.3620    23.0090 
   89.5000   -12.1270     2.1640    71.0090     9.0210     7.5810     9.1290    22.9980 
   89.6250   -11.1660     2.1720    72.3130     8.5660     7.2730     8.4880    23.0760 
   89.7500    -9.9990     2.1890    74.4250     7.8580     6.7650     7.7350    23.2940 
   89.8750    -8.6290     2.2150    76.9880     7.0150     6.1450     7.0620    23.6670 
   90.0000    -7.0520     2.2480    82.0880     6.1870     5.5250     6.3190    24.1440 
   90.1250    -5.4640     2.2850    89.7100     5.5540     5.0350     5.1680    24.7460 
   90.2500    -4.0410     2.3190    95.1970     5.1890     4.7260     4.5510    25.2110 
   90.3750    -2.9080     2.3410    96.8810     5.1240     4.6290     4.4020    25.4420 
   90.5000    -2.1000     2.3460    96.4300     5.3300     4.7370     4.4810    25.3800 
   90.6250    -1.6780     2.3300    96.1470     5.7230     5.0150     4.7540    24.9590 
   90.7500    -1.4970     2.3050    94.0990     6.1110     5.3330     5.3390    24.4250 
   90.8750    -1.5090     2.2830    89.4460     6.3500     5.5760     6.0130    24.0100 
   91.0000    -1.6730     2.2700    84.9070     6.3670     5.6610     6.1390    24.0810 
   91.1250    -1.9080     2.2690    83.2510     6.1870     5.5560     5.3560    24.7090 
   91.2500    -2.1000     2.2730    84.6930     5.9780     5.3660     5.0550    25.2490 
   91.3750    -2.1490     2.2790    87.1230     5.8370     5.1700     5.3100    25.5750 
   91.5000    -2.0250     2.2860    90.6250     5.7830     5.0130     5.5720    25.6960 
   91.6250    -1.8030     2.2950    93.7050     5.7800     4.9100     5.5570    25.7370 
   91.7500    -1.6460     2.2980    92.8120     5.7930     4.8530     5.4730    25.8030 
   91.8750    -1.6310     2.2910    89.0830     5.8780     4.8770     5.5190    25.8800 
   92.0000    -1.8020     2.2760    85.3650     6.1340     5.0380     5.6320    25.8860 
   92.1250    -2.1460     2.2700    81.8340     6.6760     5.4170     5.8340    25.7860 
   92.2500    -2.5640     2.2790    77.8780     7.4920     6.0150     6.4480    25.6510 
   92.3750    -3.0740     2.2990    75.8950     8.6020     6.8540     8.0610    25.4970 
   92.5000    -3.7050     2.3240    77.7510     9.9960     7.9440    10.4380    25.3050 
   92.6250    -4.4630     2.3560    79.7030    11.5670     9.2300    11.5220    24.9530 
   92.7500    -5.2700     2.3980    77.9530    12.9930    10.4610    14.5590    24.7150 
   92.8750    -6.0830     2.4460    73.4090    13.9050    11.3320    24.3020    24.7250 
   93.0000    -6.9100     2.4780    69.5720    13.9610    11.5420    32.1280    24.8930 
   93.1250    -7.7640     2.4590    70.4740    12.9620    10.8870    24.5880    24.7920 
   93.2500    -8.6610     2.3960    74.3920    11.4780     9.7920    14.3640    24.3520 
   93.3750    -9.5890     2.3130    76.9020    10.0240     8.6400     9.8840    23.8800 
   93.5000   -10.5210     2.2400    76.5860     8.9740     7.7180     8.6280    23.6040 
   93.6250   -11.4080     2.1990    75.2270     8.5840     7.2350     8.4620    23.4960 
   93.7500   -12.2490     2.1790    74.7100     8.6770     7.1250     8.3950    23.4600 
   93.8750   -13.0940     2.1710    73.9370     9.0350     7.2890     8.4550    23.4530 
   94.0000   -13.9360     2.1690    72.2140     9.4210     7.5780     8.7000    23.4530 
   94.1250   -14.6940     2.1710    70.9240     9.6350     7.8360     9.1150    23.4530 
   94.2500   -15.3720     2.1760    70.0400     9.6400     7.9690     9.4620    23.4530 
   94.3750   -15.9430     2.1820    69.2060     9.4470     7.9480     9.7930    23.4620 
   94.5000   -16.3950     2.1840    69.1620     9.1050     7.7900    10.5750    23.4900 
   94.6250   -16.7340     2.1790    71.2220     8.7060     7.5430    10.4630    23.5410 
   94.7500   -17.0820     2.1670    74.6890     8.3860     7.3040     9.5170    23.5270 
   94.8750   -17.4260     2.1520    78.9100     8.2320     7.1390     9.0780    23.4330 
   95.0000   -17.7360     2.1400    81.8070     8.2730     7.0850     9.3480    23.2980 
   95.1250   -18.0090     2.1380    81.4040     8.5070     7.1610     9.6900    23.2390 
   95.2500   -18.2650     2.1440    79.1350     8.8340     7.3120     9.7580    23.2240 
   95.3750   -18.5660     2.1550    76.2990     9.1650     7.4830     9.7680    23.2240 
   95.5000   -18.9150     2.1620    73.7610     9.4130     7.6090     9.6770    23.2240 
   95.6250   -19.2710     2.1620    72.2000     9.5030     7.6270     9.7860    23.2220 
