~V
VERS. 2.00: Ver 2.00
~W
STRT.M 61.0000:
STOP.M 257.0000:
STEP.M 0.1250:
NULL. -999.2500:
UWI. DF32086:
~C
DEPT.M :
SP.MV :
GR.API :
CALI.CM :
RXO.OHMM :
RI. :
RML.OHMM :
DEN.GM/CC :
~A
# ...
  162.2500   -40.0250    70.3310    23.6840    64.0870    92.1390    96.0410     2.2190 
  162.3750   -40.0270    72.1250    23.6820    71.1020    93.3290    96.3150     2.2170 
  162.5000   -39.9860    81.4890    23.6850    78.4780    89.9950    91.1290     2.2310 
  162.6250   -39.9870    91.9220    23.6880    78.6350    81.6290    80.9870     2.2520 
  162.7500   -39.9980    93.2410    23.6860    67.4800    71.8280    70.3380     2.2670 
  162.8750   -39.9950    85.9150    23.6830    50.9650    63.4180    61.8060     2.2730 
  163.0000   -40.0590    77.4490    23.6810    39.3450    58.2090    56.6670     2.2730 
  163.1250   -40.1320    74.8770    23.6810    38.6220    57.7510    56.0490     2.2720 
  163.2500   -40.1810    76.4570    23.6790    43.5820    61.7240    59.5580     2.2680 
  163.3750   -40.2750    79.0010    23.6780    51.3070    70.0880    67.2910     2.2570 
  163.5000   -40.5040    79.1250    23.6770    61.2510    81.6500    78.5130     2.2360 
  163.6250   -40.7240    77.1460    23.6770    74.2610    92.3340    89.5120     2.2060 
  163.7500   -41.0010    76.6670    23.6770    88.7320    96.9800    94.2250     2.1790 
  163.8750   -41.2970    78.1590    23.6760    93.2760    93.5290    90.1710     2.1650 
  164.0000   -41.5780    79.2560    23.6750    79.7980    84.3780    80.6190     2.1670 
  164.1250   -41.8860    79.6700    23.6730    58.7060    74.8570    71.5700     2.1840 
  164.2500   -42.1970    81.9020    23.6760    44.0810    69.0240    66.4490     2.2080 
  164.3750   -42.5170    85.8550    23.6770    38.3460    68.3530    66.3300     2.2270 
  164.5000   -42.7670    88.1510    23.6770    44.5600    73.4130    71.7500     2.2330 
  164.6250   -43.0190    86.4960    23.6770    65.0220    85.4870    84.2800     2.2190 
  164.7500   -43.2460    84.1880    23.6770    90.3830   103.1070   102.9120     2.2000 
  164.8750   -43.4820    83.7880    23.6770   111.4260   124.3720   126.0900     2.1860 
  165.0000   -43.6820    83.6120    23.6660   128.7230   146.0260   150.2730     2.1820 
  165.1250   -43.8540    80.1970    23.6170   141.0540   163.5460   169.9270     2.1810 
  165.2500   -44.0480    76.3020    23.5400   147.5180   174.8500   182.5460     2.1770 
  165.3750   -44.2050    75.4960    23.4930   149.1350   178.9670   187.2780     2.1690 
  165.5000   -44.3290    76.5170    23.4880   144.8320   176.4360   184.9370     2.1660 
  165.6250   -44.4670    75.8500    23.4850   133.8430   169.4890   178.1250     2.1760 
  165.7500   -44.5730    74.2420    23.4600   119.3550   162.9270   171.8520     2.1930 
  165.8750   -44.6870    74.8180    23.4390   108.3620   159.9840   169.3040     2.2080 
  166.0000   -44.7560    76.9630    23.3840   106.7170   162.6070   172.4290     2.2160 
  166.1250   -44.8080    76.4030    23.3150   116.0390   171.3500   182.1510     2.2180 
  166.2500   -44.8440    73.2010    23.1130   132.9850   182.2240   194.6070     2.2190 
  166.3750   -44.8490    70.5760    22.9450   147.4350   190.9150   204.8460     2.2220 
  166.5000   -44.8960    70.7670    22.8640   149.5670   193.6880   207.9850     2.2230 
  166.6250   -44.9230    73.5680    22.7820   135.6020   188.6780   201.6060     2.2130 
  166.7500   -44.9050    75.7190    22.7810   118.2330   180.1950   191.3680     2.1970 
  166.8750   -44.8590    74.8430    22.7720   109.6880   172.2410   182.1060     2.1860 
  167.0000   -44.9140    73.8350    22.7950   111.3750   167.3750   176.4670     2.1820 
  167.1250   -44.9390    76.7990    23.0530   112.4820   166.3070   174.9480     2.1820 
  167.2500   -44.9260    80.8200    23.4440   107.7960   166.9870   175.2300     2.1830 
  167.3750   -44.9740    81.8070    23.5410   100.7830   167.7210   175.4780     2.1850 
  167.5000   -45.0360    78.3190    23.4270    97.9360   167.1310   174.2010     2.1860 
  167.6250   -45.1190    74.5920    23.3250    98.5830   164.1110   170.1810     2.1830 
  167.7500   -45.2680    73.7270    23.2710    99.9360   159.1270   163.8910     2.1790 
  167.8750   -45.3950    74.8550    23.1250   101.1050   152.6850   155.8570     2.1800 
  168.0000   -45.4570    76.8040    22.9540   100.1310   145.3360   146.7840     2.1900 
  168.1250   -45.5670    77.6780    22.7920    94.7660   137.6470   137.6750     2.2050 
  168.2500   -45.7230    78.3280    22.7350    88.9310   130.3880   129.6540     2.2140 
  168.3750   -45.8600    78.3800    22.7170    85.3260   124.2920   123.5420     2.2080 
  168.5000   -45.9760    79.4230    22.7070    82.4390   120.0170   119.8160     2.1910 
  168.6250   -46.1390    82.3890    22.7020    78.7670   118.4100   119.0410     2.1780 
  168.7500   -46.3450    84.3370    22.6990    77.9890   119.1570   120.6070     2.1810 
  168.8750   -46.5280    84.1310    22.6900    81.9570   122.1040   124.1880     2.1940 
  169.0000   -46.7500    82.2740    22.6910    86.6500   127.2510   129.6170     2.2090 
  169.1250   -47.0000    80.4840    22.7530    86.9480   135.5840   137.6490     2.2200 
  169.2500   -47.2290    78.7930    22.8350    86.8810   147.7020   148.9490     2.2290 
  169.3750   -47.4630    76.2310    22.8620    96.8650   164.3630   167.8270     2.2350 
  169.5000   -47.6290    72.5550    22.9370   128.4810   184.9900   189.8400     2.2360 
  169.6250   -47.7140    70.7680    23.1830   179.1640   205.3260   210.7860     2.2360 
  169.7500   -47.7290    72.3730    23.3560   221.8210   217.8550   223.6910     2.2370 
  169.8750   -47.7770    74.1570    23.4130   231.8290   216.8030   222.6070     2.2410 
  170.0000   -47.7570    72.9260    23.3910   205.2790   201.7210   207.0730     2.2450 
  170.1250   -47.7190    71.7660    23.4060   163.8100   177.8910   182.5280     2.2500 
  170.2500   -47.6720    74.7050    23.4370   126.4870   154.7620   158.7050     2.2580 
  170.3750   -47.5970    79.0250    23.4550   104.9850   136.7280   140.1300     2.2700 
  170.5000   -47.5250    80.2180    23.4580    96.0530   125.1950   128.2510     2.2880 
  170.6250   -47.5130    78.3310    23.4560    89.0570   120.9620   123.8910     2.3090 
  170.7500   -47.5070    78.2890    23.4540    83.2200   122.5360   125.5120     2.3240 
  170.8750   -47.5510    80.0680    23.4430    86.0770   129.6090   132.7980     2.3300 
  171.0000   -47.6230    81.1470    23.3980    99.0760   141.8390   145.3940     2.3250 
  171.1250   -47.6760    79.1640    23.3660   116.5450   159.7470   163.8400     2.3090 
  171.2500   -47.7690    75.3100    23.4560   138.2680   182.6100   187.3880     2.2920 
  171.3750   -47.8850    71.6570    23.6760   161.3190   210.7210   216.3430     2.2800 
  171.5000   -48.0920    69.0050    23.8520   175.4110   244.5220   251.1580     2.2770 
  171.6250   -48.2220    65.7430    23.9150   192.4860   285.1700   293.0250     2.2720 
  171.7500   -48.4220    62.8900    24.1170   246.7220   329.6460   338.8350     2.2480 
  171.8750   -48.5670    62.0720    24.2440   335.0760   371.8230   382.2780     2.2020 
  172.0000   -48.7510    62.2020    24.2860   403.2300   400.6510   411.9710     2.1480 
  172.1250   -48.9520    60.8490    24.2950   395.1570   397.3740   408.5960     2.1180 
  172.2500   -49.1390    60.3900    24.3480   365.2750   363.4650   373.6690     2.1230 
  172.3750   -49.3200    61.2990    24.4840   324.7310   311.5380   320.1840     2.1500 
  172.5000   -49.4410    60.4670    24.7350   256.1760   259.1490   266.2230     2.1850 
  172.6250   -49.6270    58.7700    24.5490   181.5650   220.6900   226.6110     2.2180 
  172.7500   -49.7300    61.4210    24.4310   138.0450   196.6100   201.8080     2.2420 
  172.8750   -49.8750    67.1140    24.3830   129.6940   183.7230   188.5340     2.2470 
  173.0000   -49.9770    70.3140    24.3990   142.6290   177.1210   181.7350     2.2380 
  173.1250   -50.1040    68.5940    24.4100   156.3090   172.1560   176.6210     2.2280 
  173.2500   -50.1850    68.4860    24.4130   146.1450   166.1400   170.4240     2.2280 
  173.3750   -50.2560    71.7340    24.4130   115.9960   158.9910   163.0610     2.2340 
