~V
VERS. 2.00: Ver 2.00
~W
STRT.M 60.0000:
STOP.M 270.0000:
STEP.M 0.1250:
NULL. -999.2500:
UWI. DF32131:
~C
DEPT.M :
DEN.GM/CC :
GR.API :
CALI.CM :
RXO.OHMM :
RI. :
RML.OHMM :
SP.MV :
~A
# ...
  251.2500     2.3320    88.6130    24.4890     8.3260     7.4370     8.8010   -12.0530 
  251.3750     2.3260    85.4070    24.4890     8.0800     7.2260     8.4590   -11.6850 
  251.5000     2.3160    86.3930    24.4890     7.3780     7.0100     8.0820   -11.4150 
  251.6250     2.3130    85.5460    24.4890     6.7290     6.8360     7.7970   -11.3540 
  251.7500     2.3180    80.1570    24.4890     6.5710     6.7470     7.6890   -11.4270 
  251.8750     2.3260    74.0770    24.4890     7.0720     6.7670     7.7880   -11.6100 
  252.0000     2.3340    69.8960    24.4890     7.9260     6.8800     8.0480   -11.8360 
  252.1250     2.3370    68.2800    24.4890     8.5020     7.0200     8.3380   -12.0970 
  252.2500     2.3360    68.8620    24.4890     8.4460     7.0810     8.4730   -12.3480 
  252.3750     2.3300    72.0970    24.4890     7.9700     6.9980     8.3470   -12.5910 
  252.5000     2.3210    75.5370    24.4890     7.4370     6.7720     7.9700   -12.8360 
  252.6250     2.3040    75.8390    24.4890     6.9950     6.4680     7.4730   -12.9190 
  252.7500     2.2830    73.5470    24.4890     6.6270     6.1800     7.0480   -12.8850 
  252.8750     2.2670    71.3710    24.4890     6.3330     5.9560     6.7910   -12.7970 
  253.0000     2.2650    71.4280    24.4860     6.2550     5.8300     6.7390   -12.6350 
  253.1250     2.2830    73.7320    24.4500     6.5410     5.8480     6.9030   -12.3810 
  253.2500     2.3090    76.0680    24.3750     6.8700     5.9820     7.1840   -12.0770 
  253.3750     2.3350    76.5280    24.3090     7.0080     6.1840     7.5010   -11.7600 
  253.5000     2.3520    74.5020    24.2820     7.0440     6.3980     7.7960   -11.4700 
  253.6250     2.3500    72.2940    24.2820     7.1190     6.5980     8.0530   -11.2580 
  253.7500     2.3380    72.9380    24.2820     7.2360     6.8060     8.3110   -11.0610 
  253.8750     2.3270    75.3740    24.2820     7.6580     7.0550     8.6170   -10.9330 
  254.0000     2.3220    76.6330    24.2820     8.4260     7.3700     9.0140   -10.9390 
  254.1250     2.3220    76.4220    24.2820     9.1430     7.7850     9.5610   -10.9680 
  254.2500     2.3210    77.4740    24.2820     9.3990     8.2970    10.2480   -10.9850 
  254.3750     2.3180    81.3980    24.2800     9.5290     8.8890    11.0520   -11.0610 
  254.5000     2.3140    87.2300    24.2560    10.1290     9.5070    11.8930   -11.1040 
  254.6250     2.3200    92.6670    24.1940    11.7700    10.0090    12.5540   -11.0680 
  254.7500     2.3390    94.6640    24.1390    13.7290    10.2730    12.8420   -11.0070 
  254.8750     2.3610    93.6340    24.1320    14.4120    10.2450    12.6880   -10.9410 
  255.0000     2.3680    92.5980    24.1140    13.0270     9.9840    12.2190   -10.8050 
  255.1250     2.3530    91.4650    24.0410    10.9450     9.6470    11.7180   -10.6270 
  255.2500     2.3380    89.0090    24.0040     9.9320     9.4070    11.4330   -10.5030 
  255.3750     2.3380    86.3650    23.9940    10.1880     9.3370    11.4380   -10.3430 
  255.5000     2.3500    85.1490    23.9820    11.3140     9.4120    11.6470   -10.0920 
  255.6250     2.3650    84.9380    23.9460    12.4480     9.4840    11.7860    -9.8540 
  255.7500     2.3850    84.9210    23.8970    12.6990     9.3770    11.5790    -9.6650 
  255.8750     2.4140    83.8500    23.8700    11.6830     9.0130    10.9480    -9.4210 
  256.0000     2.4470    79.0890    23.8880     9.8250     8.4340    10.0300    -9.1340 
  256.1250     2.4660    70.4420    23.9840     8.2840     7.7810     9.0990    -8.9050 
  256.2500     2.4650    64.9610    24.1410     7.3590     7.2130     8.3710    -8.6430 
  256.3750     2.4440    65.3610    24.2470     6.9960     6.7980     7.9100    -8.3480 
  256.5000     2.4130    68.6060    24.2820     6.9740     6.5380     7.6890    -8.1460 
  256.6250     2.3890    69.3530    24.2820     7.2960     6.4070     7.6350    -7.9430 
  256.7500     2.3800    68.1130    24.2820     7.8050     6.3250     7.6130    -7.7000 
  256.8750     2.3840    67.4740    24.2820     8.2190     6.2450     7.5480    -7.5040 
  257.0000     2.3930    69.6020    24.2820     7.8420     6.1280     7.4050    -7.3220 
  257.1250     2.4000    72.3750    24.2820     6.8330     5.9520     7.1900    -7.1240 
  257.2500     2.3970    72.1350    24.2820     5.9400     5.7440     6.9590    -6.9840 
  257.3750     2.3840    68.5230    24.2820     5.3770     5.5470     6.7540    -6.8710 
  257.5000     2.3670    64.8230    24.2820     5.1050     5.4070     6.6090    -6.7180 
  257.6250     2.3610    66.6280    24.2820     5.4510     5.3580     6.5510    -6.6370 
  257.7500     2.3710    72.5400    24.2820     6.2810     5.3710     6.5530    -6.6450 
  257.8750     2.3850    76.6130    24.2820     6.6560     5.4120     6.5890    -6.6850 
  258.0000     2.3930    76.3940    24.2820     6.2570     5.4550     6.6410    -6.7490 
  258.1250     2.3890    72.2660    24.2820     6.0510     5.4910     6.6980    -6.8170 
  258.2500     2.3830    70.2580    24.2820     6.0780     5.5240     6.7590    -6.8800 
  258.3750     2.3800    70.2580    24.2800     6.1400     5.5600     6.8340    -6.9290 
  258.5000     2.3840    70.2580    24.2780     6.2490     5.6090     6.9370    -7.0110 
  258.6250     2.3920    70.2580    24.2620     6.2700     5.6790     7.0840    -7.1440 
  258.7500     2.3990    70.2580    24.2120     6.0000     5.7650     7.2650    -7.2210 
  258.8750     2.4030    70.2580    24.1390     5.6950     5.8610     7.4650    -7.2400 
  259.0000     2.4020    70.2580    24.0960     5.7300     5.9540     7.6500    -7.3100 
  259.1250     2.3940    70.2580    24.0870     6.2230     6.0230     7.7690    -7.3540 
  259.2500     2.3830    70.2580    24.0870     6.5820     6.0570     7.8060    -7.3890 
  259.3750     2.3740    70.2580    24.0870     6.6460     6.0510     7.7680    -7.4880 
  259.5000     2.3730    70.2580    24.0870     6.5620     6.0140     7.6830    -7.5480 
  259.6250     2.3830    70.2580    24.0870     6.5300     5.9670     7.5860    -7.5780 
  259.7500     2.3920    70.2580    24.0870     6.5740     5.9390     7.5170    -7.6390 
  259.8750     2.3880    70.2580    24.0870     6.5640     5.9470     7.4980    -7.6590 
  260.0000     2.3740    70.2580    24.0870     6.4490     6.0000     7.5510    -7.6450 
  260.1250     2.3640    70.2580    24.0870     6.4080     6.1060     7.7060    -7.6910 
  260.2500     2.3720    70.2580    24.0870     6.5580     6.2340     7.9210    -7.6850 
  260.3750     2.3900    70.2580    24.0870     6.9250     6.3380     8.1120    -7.6650 
  260.5000     2.4030    70.2580    24.0870     7.4080     6.3570     8.1550    -7.6700 
  260.6250     2.4000    70.2580    24.0860     7.4010     6.2080     7.9020    -7.5620 
  260.7500     2.3900    70.2580    24.1010     6.8190     5.9140     7.4130    -7.4080 
  260.8750     2.3840    70.2580    24.1910     6.0000     5.5270     6.8070    -7.3360 
  261.0000     2.3830    70.2580    24.4190     5.5030     5.1310     6.2360    -7.2730 
  261.1250     2.3860    70.2580    24.6800     5.3680     4.8210     5.8450    -7.1510 
  261.2500     2.3930    70.2580    24.8240     5.1890     4.6240     5.6450    -7.0810 
  261.3750     2.4030    70.2580    24.8650     5.0040     4.5390     5.6070    -7.0520 
  261.5000     2.4110    70.2580    24.8690     4.8550     4.5330     5.6730    -7.0230 
  261.6250     2.4060    70.2580    24.8690     4.7300     4.5730     5.7740    -7.0700 
  261.7500     2.3960    70.2580    24.8690     4.7040     4.6230     5.8510    -7.1480 
  261.8750     2.3930    70.2580    24.8690     5.0280     4.6690     5.8920    -7.2120 
  262.0000     2.4010    70.2580    24.8680     5.7920     4.7140     5.9100    -7.2670 
  262.1250     2.4120    70.2580    24.8640     7.0760     4.7730     5.9220    -7.3370 
  262.2500     2.4180    70.2580    24.8600     7.7550     4.8510     5.9450    -7.4140 
  262.3750     2.4180    70.2580    24.8580     7.7040     4.9410     5.9840    -7.4670 
