~V
VERS. 2.00: Ver 2.00
~W
STRT.M 62.0000:
STOP.M 282.0000:
STEP.M 0.1250:
NULL. -999.2500:
UWI. DF32160:
~C
DEPT.M :
GR.API :
CALI.CM :
RXO.OHMM :
RI. :
RML.OHMM :
DEN.GM/CC :
SP.MV :
~A
# ...
  219.5000    67.5160    25.4990    61.8230    45.3520    55.9890     2.3110   -22.1750 
  219.6250    69.0280    25.5270    62.0120    47.1200    58.2740     2.3250   -21.8480 
  219.7500    69.2110    25.5200    62.5130    49.3650    61.0670     2.3270   -21.5150 
  219.8750    67.3100    25.4970    63.5030    52.0740    64.3920     2.3080   -21.1820 
  220.0000    64.6530    25.4620    66.7750    55.1110    68.1330     2.2790   -20.8720 
  220.1250    62.8350    25.4280    74.6210    58.2320    72.0140     2.2560   -20.6060 
  220.2500    61.5710    25.4330    83.8150    61.1730    75.6430     2.2440   -20.3710 
  220.3750    60.7520    25.4890    89.8330    63.7310    78.6770     2.2480   -20.1770 
  220.5000    59.9730    25.5550    91.7460    65.7060    80.8140     2.2770   -20.0350 
  220.6250    58.4140    25.5720    92.0400    66.7590    81.6020     2.3180   -19.9240 
  220.7500    58.0920    25.5160    90.8250    66.8910    81.1370     2.3370   -19.8160 
  220.8750    61.2430    25.3890    86.5060    66.1690    79.6180     2.3180   -19.7000 
  221.0000    65.7480    25.2620    79.8410    64.8740    77.4690     2.2760   -19.5830 
  221.1250    69.0780    25.2430    73.1660    63.4400    75.2110     2.2430   -19.4720 
  221.2500    70.9700    25.2920    68.6210    62.2570    73.2780     2.2310   -19.3670 
  221.3750    70.9000    25.3200    67.4990    61.4110    71.7760     2.2240   -19.2750 
  221.5000    68.6410    25.2730    68.4710    60.7230    70.4850     2.2060   -19.2030 
  221.6250    65.3810    25.1770    67.1190    59.6780    68.7540     2.1870   -19.1520 
  221.7500    63.7650    25.1020    62.9310    57.9310    66.2140     2.1850   -19.1150 
  221.8750    65.0590    25.0510    58.1150    55.4590    62.9520     2.1990   -19.1010 
  222.0000    67.5960    24.9880    53.6070    52.5720    59.4130     2.2120   -19.0960 
  222.1250    67.6590    24.9130    49.2080    49.8760    56.2970     2.2110   -19.0800 
  222.2500    66.4720    24.8590    46.2050    47.8450    53.9520     2.2120   -19.0680 
  222.3750    67.6630    24.7780    45.7880    46.6190    52.3670     2.2260   -19.0790 
  222.5000    70.0550    24.6220    47.3140    46.0570    51.3370     2.2490   -19.1170 
  222.6250    68.6220    24.4910    48.9880    45.9160    50.7620     2.2620   -19.1980 
  222.7500    66.2370    24.4890    49.3690    45.9340    50.5370     2.2590   -19.3350 
  222.8750    67.3170    24.6260    48.1860    46.1240    50.6440     2.2470   -19.5050 
  223.0000    72.4840    24.8560    46.4050    46.6550    51.1310     2.2360   -19.6980 
  223.1250    74.5350    25.0840    45.7980    47.8370    52.2080     2.2240   -19.9330 
  223.2500    69.9630    25.1790    45.6470    49.5870    53.8200     2.2090   -20.2020 
  223.3750    63.9410    25.0870    44.1420    51.6120    55.7620     2.2020   -20.5000 
  223.5000    61.8690    24.9010    41.1910    53.4300    57.5820     2.2160   -20.8080 
  223.6250    63.5710    24.7760    39.5970    54.3770    58.6010     2.2390   -21.1240 
  223.7500    65.8030    24.7460    41.2210    54.3900    58.7490     2.2460   -21.4490 
  223.8750    67.5660    24.7620    45.9160    53.8320    58.4290     2.2310   -21.7770 
  224.0000    67.8900    24.7300    51.8150    53.4760    58.4650     2.2110   -22.1020 
  224.1250    66.9450    24.6070    55.6440    54.5960    60.0820     2.2120   -22.4310 
  224.2500    66.0420    24.4910    58.0500    57.9690    63.9130     2.2310   -22.7360 
  224.3750    63.8520    24.4370    63.6580    64.3050    70.6750     2.2510   -22.9940 
  224.5000    60.6180    24.4410    78.3550    74.0380    81.0560     2.2640   -23.2210 
  224.6250    58.7340    24.5350   106.4240    87.4740    95.9240     2.2760   -23.4190 
  224.7500    59.8090    24.7600   137.3180   102.6540   113.3650     2.2970   -23.5630 
  224.8750    62.7550    25.0650   157.3850   117.1060   130.2840     2.3160   -23.6800 
  225.0000    64.9690    25.3110   161.2150   127.9300   142.6200     2.3100   -23.8060 
  225.1250    64.5420    25.4020   158.6400   132.3610   146.7470     2.2740   -23.9280 
  225.2500    63.3990    25.4120   160.5400   132.1170   145.4770     2.2360   -24.0450 
  225.3750    64.1300    25.4050   162.9990   129.4870   142.0160     2.2230   -24.1590 
  225.5000    67.1950    25.4060   160.7830   126.7940   138.9570     2.2380   -24.2590 
  225.6250    66.9090    25.4100   159.9040   125.9250   138.0310     2.2530   -24.3440 
  225.7500    62.0100    25.4130   167.7090   126.9910   139.1220     2.2460   -24.4340 
  225.8750    57.1130    25.4130   181.1090   129.5730   141.6260     2.2250   -24.5360 
  226.0000    58.3550    25.4120   192.9140   132.8720   144.5240     2.2100   -24.6510 
  226.1250    64.0950    25.4100   194.6070   135.4820   146.1380     2.2140   -24.7940 
  226.2500    66.5150    25.4150   184.9930   136.1580   145.3050     2.2200   -24.9650 
  226.3750    64.8580    25.4310   168.5800   134.3360   141.6900     2.2170   -25.1780 
  226.5000    62.7140    25.4590   153.0080   130.2280   135.7280     2.2080   -25.4280 
  226.6250    61.4780    25.4550   142.4870   124.3170   127.8760     2.1980   -25.6670 
  226.7500    59.5910    25.3690   134.6810   117.5070   119.1030     2.1900   -25.8850 
  226.8750    58.3850    25.2280   128.0840   110.1380   110.0930     2.1820   -26.0530 
  227.0000    60.6070    25.1270   120.1910   102.5920   101.6260     2.1790   -26.1250 
  227.1250    65.2750    25.1550   107.5760    95.9560    94.9690     2.1860   -26.0630 
  227.2500    68.1270    25.2030    93.1240    91.4150    90.8520     2.2000   -25.9200 
  227.3750    67.4390    25.1540    83.3760    89.8300    89.8100     2.2140   -25.6960 
  227.5000    63.7130    25.0410    84.7110    91.2390    91.7370     2.2220   -25.4030 
  227.6250    58.3500    24.9880   102.2020    94.4460    95.3780     2.2230   -25.0690 
  227.7500    55.6240    25.0060   121.1020    96.4310    97.5130     2.2280   -24.7260 
  227.8750    57.9710    25.0240   119.8600    94.8520    95.4780     2.2450   -24.4150 
  228.0000    62.0830    25.0070    94.3480    89.0960    88.7630     2.2710   -24.1770 
  228.1250    62.7990    24.9790    66.8630    80.9810    80.0720     2.2910   -24.0490 
  228.2500    61.8410    24.9510    54.0140    74.2120    73.6510     2.2910   -24.0190 
  228.3750    61.0110    24.9260    54.5570    71.1810    71.7710     2.2700   -24.0820 
  228.5000    59.7510    24.9010    64.7100    73.3490    75.5940     2.2400   -24.2070 
  228.6250    59.3700    24.8710    84.8420    82.7670    87.0630     2.2200   -24.3950 
  228.7500    60.0630    24.8630   117.5800    99.0320   105.9120     2.2140   -24.6040 
  228.8750    59.7820    24.9040   164.0940   121.6580   132.1470     2.2120   -24.7750 
  229.0000    57.5860    24.9800   207.2170   148.1830   163.5950     2.2080   -24.8780 
  229.1250    56.7570    25.0490   221.9790   172.6650   193.3320     2.2060   -24.9050 
  229.2500    59.1350    25.0850   220.3280   189.5180   213.6840     2.2100   -24.8410 
  229.3750    62.0150    25.0590   222.6600   197.1810   222.6180     2.2160   -24.6910 
  229.5000    63.4130    24.9770   229.9260   198.1500   223.9110     2.2220   -24.4810 
  229.6250    63.2130    25.0050   222.7870   196.4820   223.0400     2.2340   -24.2390 
  229.7500    61.1920    25.2610   203.9870   195.1700   223.0270     2.2590   -23.9960 
  229.8750    58.6260    25.6150   200.7520   194.4360   223.4450     2.3000   -23.7620 
  230.0000    57.2730    25.8470   230.4460   193.4300   222.5380     2.3440   -23.5330 
  230.1250    57.6980    25.9050   260.6270   189.7400   216.3450     2.3560   -23.2990 
  230.2500    58.0090    25.9320   256.5150   180.8310   201.8470     2.3220   -23.0670 
  230.3750    56.6090    25.9350   226.3720   164.4670   177.5730     2.2730   -22.8130 
  230.5000    55.6890    25.8820   189.3270   140.9610   146.5650     2.2540   -22.5210 
  230.6250    57.5600    25.8180   146.8250   114.5140   116.3620     2.2760   -22.1760 
