~V
VERS. 2.00: Ver 2.00
~W
STRT.M 60.0000:
STOP.M 258.0000:
STEP.M 0.1250:
NULL. -999.2500:
UWI. DF32100:
~C
DEPT.M :
SP.MV :
GR.API :
CALI.CM :
RXO.OHMM :
RI. :
RML.OHMM :
DEN.GM/CC :
~A
# ...
  183.7500   -23.1490    66.5410    23.6510    56.7910    63.5840    68.5480     2.2630 
  183.8750   -22.3730    68.1170    23.6510    44.1690    56.3220    61.1390     2.2500 
  184.0000   -21.5570    71.9930    23.6620    34.5920    49.7470    54.4450     2.2540 
  184.1250   -20.7120    77.3340    23.6930    32.7210    45.3960    50.2310     2.2880 
  184.2500   -19.8520    80.6520    23.7340    33.6860    43.4090    48.7180     2.3440 
  184.3750   -19.0240    78.4250    23.7310    36.9430    43.5350    49.7460     2.4140 
  184.5000   -18.2150    71.8940    23.6700    44.7070    45.0350    52.6210     2.4890 
  184.6250   -17.4960    68.2860    23.5850    52.7520    46.5550    55.7280     2.5690 
  184.7500   -16.8120    70.1280    23.6290    51.5350    46.7700    57.0530     2.6440 
  184.8750   -16.1730    73.0040    23.7130    42.1840    45.3210    55.9130     2.6930 
  185.0000   -15.5980    72.5160    23.7550    33.8520    42.7490    53.1570     2.7070 
  185.1250   -15.1140    69.5010    23.7550    32.6120    39.9800    50.2480     2.6920 
  185.2500   -14.7040    66.4490    23.7590    33.4020    37.4910    47.7260     2.6750 
  185.3750   -14.3670    64.1020    23.7780    33.2460    34.9670    44.8580     2.6760 
  185.5000   -14.0910    62.8030    23.8190    32.1130    31.7350    40.4450     2.6960 
  185.6250   -13.8530    62.0560    23.8400    29.6510    27.3010    33.9010     2.7130 
  185.7500   -13.6760    63.0890    23.8470    24.7230    22.4220    26.9240     2.7070 
  185.8750   -13.5630    65.7450    23.8470    18.1350    17.9330    20.9380     2.6750 
  186.0000   -13.4870    69.6390    23.8470    12.9550    14.3690    16.5560     2.6300 
  186.1250   -13.4470    74.0710    23.8400    10.6290    11.9980    13.9010     2.5860 
  186.2500   -13.4140    79.6780    23.7930    10.0200    10.4630    12.3230     2.5490 
  186.3750   -13.3850    87.0600    23.6740    10.1550     9.5220    11.4490     2.5190 
  186.5000   -13.3590    92.3780    23.5310    10.2330     8.9300    10.9420     2.4970 
  186.6250   -13.2700    92.2650    23.4650     9.7400     8.4440    10.5000     2.4890 
  186.7500   -13.1330    90.7990    23.4100     8.6500     7.8590     9.9280     2.4940 
  186.8750   -12.9270    91.2910    23.2980     7.3560     7.0830     9.1350     2.5110 
  187.0000   -12.7180    90.9070    23.1480     6.1080     6.0740     8.0180     2.5360 
  187.1250   -12.4870    83.8020    23.0810     5.2380     4.8590     6.5050     2.5620 
  187.2500   -12.2670    74.9640    23.0650     4.6980     3.6420     4.8790     2.5790 
  187.3750   -12.0430    68.9850    23.0650     4.1820     2.6040     3.4460     2.5790 
  187.5000   -11.8400    65.9130    23.0650     3.5020     1.8640     2.4210     2.5590 
  187.6250   -11.6830    65.4450    23.0640     2.8080     1.5110     1.9770     2.5140 
  187.7500   -11.5960    67.1190    23.0520     2.4760     1.4730     2.0330     2.4590 
  187.8750   -11.5730    67.7330    22.9950     2.5770     1.7230     2.5620     2.4100 
  188.0000   -11.5650    63.1080    22.8740     3.0450     2.2300     3.5180     2.3790 
  188.1250   -11.5370    56.1580    22.7260     3.5520     2.9470     4.7620     2.3660 
  188.2500   -11.4770    53.7080    22.6640     4.0660     3.6660     5.8650     2.3600 
  188.3750   -11.4130    55.2600    22.6510     4.4690     4.2070     6.4920     2.3600 
  188.5000   -11.3340    56.6880    22.6550     4.7800     4.4890     6.6250     2.3720 
  188.6250   -11.2380    55.3580    22.7100     5.0170     4.5570     6.5320     2.4000 
  188.7500   -11.0710    53.9250    22.8350     5.1710     4.5580     6.4620     2.4270 
  188.8750   -10.8730    53.7440    22.9750     5.2440     4.5430     6.4400     2.4370 
  189.0000   -10.6510    53.3370    23.0490     5.2440     4.5250     6.4390     2.4340 
  189.1250   -10.4770    52.1660    23.0600     5.1750     4.4970     6.4380     2.4310 
  189.2500   -10.3240    53.9580    23.0610     5.0730     4.4620     6.4530     2.4280 
  189.3750   -10.1950    59.1540    23.0580     5.0210     4.4440     6.5220     2.4130 
  189.5000   -10.0710    63.9510    23.0760     5.0370     4.4760     6.6820     2.3880 
  189.6250   -10.0040    66.4230    23.1520     5.0960     4.5810     6.9540     2.3810 
  189.7500    -9.9790    71.2140    23.2670     5.1840     4.7350     7.2780     2.4020 
  189.8750   -10.0010    79.7510    23.3350     5.3690     4.9100     7.5870     2.4310 
  190.0000   -10.0470    87.7220    23.3530     5.6580     5.0690     7.8070     2.4460 
  190.1250   -10.1340    91.3420    23.3520     5.8880     5.1720     7.8530     2.4390 
  190.2500   -10.2480    93.3810    23.3520     5.9180     5.2060     7.7580     2.4280 
  190.3750   -10.3940    93.8400    23.3520     5.7410     5.1720     7.5870     2.4260 
  190.5000   -10.5830    91.2140    23.3520     5.4670     5.0890     7.4250     2.4300 
  190.6250   -10.7470    85.7140    23.3520     5.2770     5.0050     7.3540     2.4350 
  190.7500   -10.9220    82.3830    23.3510     5.3400     4.9750     7.3840     2.4400 
  190.8750   -11.1110    83.0400    23.3480     5.7560     5.0130     7.4810     2.4470 
  191.0000   -11.3580    85.3220    23.3500     6.4130     5.0920     7.5680     2.4520 
  191.1250   -11.6230    85.9220    23.3510     6.6640     5.1670     7.5580     2.4440 
  191.2500   -11.8890    85.7810    23.3520     6.3280     5.2420     7.5200     2.4260 
  191.3750   -12.1630    87.8500    23.3490     5.8330     5.3620     7.5840     2.4050 
  191.5000   -12.4440    91.5870    23.3440     5.6560     5.5670     7.8450     2.3840 
  191.6250   -12.8080    92.8740    23.3420     6.2430     5.8810     8.3520     2.3660 
  191.7500   -13.2090    91.7440    23.3410     7.7630     6.2940     9.0180     2.3510 
  191.8750   -13.6520    90.2050    23.3430     9.4930     6.8310     9.7920     2.3400 
  192.0000   -14.0970    90.0320    23.3470    10.0620     7.5480    10.6970     2.3420 
  192.1250   -14.5330    90.2040    23.3460     9.5830     8.6160    11.9960     2.3600 
  192.2500   -15.0030    90.0910    23.3450    10.6440    10.1820    13.9760     2.3790 
  192.3750   -15.4770    89.0390    23.3420    14.4440    12.4640    16.9650     2.3800 
  192.5000   -15.9330    86.4700    23.3410    20.4580    15.7100    21.2710     2.3600 
  192.6250   -16.3570    83.0640    23.3350    27.1660    20.2660    27.2870     2.3390 
  192.7500   -16.7870    79.2080    23.2940    32.5150    25.6660    34.2640     2.3310 
  192.8750   -17.2080    76.9830    23.1820    36.4320    31.1340    41.0020     2.3380 
  193.0000   -17.5920    76.8980    22.9670    39.6690    35.8420    46.3830     2.3530 
  193.1250   -17.9740    75.2860    22.6090    42.9690    39.2550    50.0100     2.3690 
  193.2500   -18.3120    71.7580    22.2600    45.3010    41.6710    52.5690     2.3770 
  193.3750   -18.6370    70.1620    22.2410    44.9830    43.2830    54.3290     2.3700 
  193.5000   -18.9340    72.7900    22.5290    42.2030    44.3500    55.5310     2.3420 
  193.6250   -19.2320    77.5070    22.9560    40.8800    45.1620    56.4560     2.2990 
  193.7500   -19.4920    80.5900    23.2200    41.1780    46.0140    57.3840     2.2650 
  193.8750   -19.7300    82.3900    23.3220    41.3310    47.0220    58.3920     2.2500 
  194.0000   -19.9590    82.9370    23.3410    40.8580    48.1720    59.4080     2.2480 
  194.1250   -20.1890    80.9010    23.3410    40.8510    49.3140    60.1860     2.2470 
  194.2500   -20.4380    77.1960    23.3410    41.3830    50.3180    60.6380     2.2460 
  194.3750   -20.6960    75.8020    23.3410    41.4530    51.1960    60.8490     2.2470 
  194.5000   -20.9840    78.7470    23.3410    41.2820    52.0340    60.9650     2.2490 
  194.6250   -21.2430    81.2460    23.3410    41.4040    52.9080    61.0270     2.2460 
  194.7500   -21.4900    79.2320    23.3410    42.0420    53.7870    60.9840     2.2370 
  194.8750   -21.7460    75.8460    23.3410    42.3190    54.5670    60.7400     2.2230 
