~V
VERS. 2.00: Ver 2.00
~W
STRT.M 62.0000:
STOP.M 282.0000:
STEP.M 0.1250:
NULL. -999.2500:
UWI. DF32160:
~C
DEPT.M :
GR.API :
CALI.CM :
RXO.OHMM :
RI. :
RML.OHMM :
DEN.GM/CC :
SP.MV :
~A
# ...
  107.0000    68.1330    25.3350    16.6260     7.2360     9.6200     2.0600   -26.1890 
  107.1250    66.2490    24.9670    12.7010     7.0540     9.2580     2.0710   -26.1480 
  107.2500    64.5280    24.6150     9.5600     6.8020     8.8360     2.0840   -26.1540 
  107.3750    65.1210    24.3430     8.4280     6.5740     8.5060     2.0980   -26.2120 
  107.5000    67.9660    24.1620     8.4080     6.4340     8.3470     2.1120   -26.3080 
  107.6250    69.3300    24.1110     8.6370     6.4170     8.3740     2.1230   -26.4200 
  107.7500    67.0810    24.1970     8.8540     6.4740     8.4850     2.1290   -26.5240 
  107.8750    63.9240    24.4110     9.0500     6.5550     8.6010     2.1280   -26.5980 
  108.0000    63.9250    24.7050     9.1760     6.6230     8.6790     2.1260   -26.6280 
  108.1250    63.9510    25.0480     9.1440     6.6540     8.7090     2.1210   -26.5580 
  108.2500    61.8050    25.3780     8.9360     6.6570     8.7100     2.1130   -26.3890 
  108.3750    61.8640    25.5610     8.6120     6.6320     8.6750     2.1080   -26.1340 
  108.5000    65.8870    25.4920     8.2740     6.5740     8.5790     2.1170   -25.8090 
  108.6250    71.0210    25.2320     8.0630     6.4620     8.3810     2.1390   -25.4370 
  108.7500    73.7040    24.9720     8.0130     6.3030     8.1040     2.1570   -25.0570 
  108.8750    74.1050    24.8040     8.0210     6.1110     7.7880     2.1620   -24.6990 
  109.0000    74.2260    24.7720     7.8920     5.9150     7.4910     2.1590   -24.3910 
  109.1250    74.6370    24.8740     7.6000     5.7640     7.2990     2.1660   -24.1750 
  109.2500    73.8760    25.0230     7.3850     5.6920     7.2470     2.1780   -24.0360 
  109.3750    71.4000    25.0880     7.3550     5.7180     7.3420     2.1830   -23.9590 
  109.5000    67.9550    25.0440     7.4590     5.8370     7.5610     2.1770   -23.9250 
  109.6250    65.3260    25.0450     7.6430     6.0260     7.8480     2.1730   -23.8890 
  109.7500    64.3700    24.9970     7.8180     6.2230     8.1120     2.1760   -23.8250 
  109.8750    65.9090    24.7460     7.8460     6.3790     8.2930     2.1720   -23.7260 
  110.0000    66.8980    24.4450     7.7010     6.4600     8.3580     2.1480   -23.5800 
  110.1250    64.6730    24.4130     7.6050     6.4300     8.2650     2.1120   -23.3780 
  110.2500    62.8980    24.6940     7.7560     6.2990     8.0290     2.0850   -23.1550 
  110.3750    64.2990    25.1350     8.0460     6.0810     7.6710     2.0810   -22.9350 
  110.5000    66.8580    25.5090     8.0830     5.8150     7.2540     2.1050   -22.7680 
  110.6250    70.9590    25.5170     7.5650     5.5680     6.8950     2.1500   -22.7380 
  110.7500    75.9720    25.2890     6.9750     5.4060     6.6960     2.1900   -22.8390 
  110.8750    77.8000    25.0780     6.8340     5.3770     6.7230     2.2060   -23.0290 
  111.0000    74.1930    24.9610     7.2870     5.5040     6.9900     2.1990   -23.2760 
  111.1250    69.5730    24.8250     8.1100     5.7960     7.4770     2.1810   -23.5520 
  111.2500    68.6780    24.7910     8.8630     6.1690     8.0310     2.1660   -23.8080 
  111.3750    69.5630    24.8800     9.3140     6.5350     8.5120     2.1570   -24.0160 
  111.5000    69.2180    24.9420     9.4070     6.8020     8.8020     2.1570   -24.1300 
  111.6250    67.3910    24.8200     9.2750     6.8850     8.8180     2.1640   -24.0900 
  111.7500    65.1960    24.7620     9.1130     6.8140     8.6450     2.1760   -23.9110 
  111.8750    64.6740    24.8900     8.9150     6.6330     8.3650     2.1900   -23.6350 
  112.0000    66.6760    24.9500     8.6120     6.3970     8.0540     2.2020   -23.3060 
  112.1250    69.5190    24.6570     8.1960     6.1590     7.7760     2.2070   -22.9780 
  112.2500    70.6320    24.3130     7.8290     5.9570     7.5610     2.2080   -22.7000 
  112.3750    69.9640    24.1570     7.6550     5.8110     7.4280     2.2080   -22.4960 
  112.5000    69.3890    24.1550     7.6770     5.7320     7.3880     2.2090   -22.3800 
  112.6250    69.9940    24.1410     7.7100     5.7370     7.4510     2.2060   -22.3850 
  112.7500    71.0110    24.1120     7.6710     5.8060     7.5850     2.1960   -22.5140 
  112.8750    70.8970    24.0930     7.7350     5.9260     7.7690     2.1850   -22.7430 
  113.0000    68.9060    24.1110     8.0450     6.0750     7.9700     2.1800   -23.0460 
  113.1250    68.3610    24.1570     8.4500     6.2170     8.1420     2.1790   -23.4100 
  113.2500    70.4570    24.1950     8.6860     6.3240     8.2530     2.1760   -23.8100 
  113.3750    71.7930    24.2250     8.7290     6.3790     8.2870     2.1630   -24.2330 
  113.5000    69.8380    24.2480     8.6600     6.3850     8.2510     2.1400   -24.6680 
  113.6250    65.6970    24.2430     8.5470     6.3550     8.1680     2.1140   -25.1030 
  113.7500    63.5180    24.2740     8.4760     6.3190     8.0830     2.0970   -25.5200 
  113.8750    64.3980    24.4060     8.4890     6.2940     8.0220     2.0970   -25.9250 
  114.0000    66.8540    24.5840     8.5580     6.2880     7.9930     2.1090   -26.3080 
  114.1250    66.9610    24.6650     8.6820     6.3020     7.9960     2.1280   -26.6470 
  114.2500    65.3140    24.7940     8.8970     6.3230     8.0070     2.1440   -26.9290 
  114.3750    65.2000    25.0410     9.1420     6.3410     8.0080     2.1510   -27.1510 
  114.5000    66.8490    25.2330     9.2530     6.3490     7.9910     2.1470   -27.3160 
  114.6250    67.0520    25.0310     9.1270     6.3480     7.9610     2.1380   -27.4180 
  114.7500    66.3530    24.5450     8.9230     6.3420     7.9290     2.1340   -27.4590 
  114.8750    66.4530    24.0480     8.7440     6.3350     7.9030     2.1360   -27.4390 
  115.0000    66.1760    23.7730     8.6170     6.3300     7.8830     2.1400   -27.3760 
  115.1250    65.7550    23.8780     8.5880     6.3280     7.8700     2.1430   -27.2680 
  115.2500    66.5200    24.1910     8.6530     6.3300     7.8610     2.1460   -27.1300 
  115.3750    67.6800    24.6330     8.7410     6.3330     7.8560     2.1460   -26.9890 
  115.5000    68.1130    25.0290     8.7610     6.3390     7.8580     2.1390   -26.8460 
  115.6250    68.5230    24.9840     8.6950     6.3530     7.8790     2.1180   -26.7110 
  115.7500    69.4010    24.4940     8.5920     6.3810     7.9230     2.0940   -26.5920 
  115.8750    69.2300    23.8660     8.4830     6.4290     7.9910     2.0830   -26.4700 
  116.0000    69.1950    23.4300     8.4010     6.4960     8.0680     2.0960   -26.3120 
  116.1250    73.1110    23.2680     8.3680     6.5700     8.1350     2.1220   -26.0700 
  116.2500    76.8770    23.2710     8.3250     6.6330     8.1880     2.1410   -25.7120 
  116.3750    75.9560    23.4520     8.2150     6.6690     8.2180     2.1450   -25.2270 
  116.5000    71.0480    23.8130     8.0750     6.6510     8.1900     2.1350   -24.6170 
  116.6250    68.4330    24.2720     8.0590     6.5120     7.9980     2.1180   -23.8530 
  116.7500    70.3040    24.6030     8.1170     6.2400     7.6050     2.1060   -23.0140 
  116.8750    75.4380    24.7570     7.9090     5.8650     7.0630     2.1080   -22.1940 
  117.0000    82.4400    24.8560     7.1180     5.4780     6.5270     2.1320   -21.5040 
  117.1250    88.6700    24.9880     5.9360     5.2160     6.2160     2.1780   -21.1140 
  117.2500    88.8460    25.0120     5.1900     5.1390     6.2010     2.2240   -21.0350 
  117.3750    82.6560    24.7780     5.4260     5.2590     6.4760     2.2480   -21.2250 
  117.5000    74.7200    24.3320     6.6290     5.5370     6.9480     2.2420   -21.6240 
  117.6250    72.2480    23.9240     8.0100     5.8770     7.4350     2.2160   -22.2320 
  117.7500    75.4420    23.6940     8.6530     6.1510     7.7640     2.1880   -22.9450 
  117.8750    79.6110    23.5910     8.5100     6.3020     7.8920     2.1670   -23.6870 
  118.0000    79.9260    23.5750     8.1120     6.3430     7.8850     2.1540   -24.3650 
  118.1250    75.8510    23.7490     7.9670     6.3410     7.8750     2.1500   -24.8070 
