~V
VERS. 2.00: Ver 2.00
~W
STRT.M 61.0000:
STOP.M 325.0000:
STEP.M 0.1250:
NULL. -999.2500:
UWI. DF320:
~C
DEPT.M :
GR.API :
RML.OHMM :
RI. :
RXO.OHMM :
CALI.CM :
SP.MV :
DEN.GM/CC :
AC.US/MT :
~A
# ...
  211.0000    73.8670    30.1870    27.6740    30.8630    24.0590   -29.2300     2.2620   411.2210 
  211.1250    73.0060    27.8290    25.8080    28.9160    24.0440   -29.3240     2.2600   411.8370 
  211.2500    71.0210    26.2400    24.5490    28.8200    24.0120   -29.4650     2.2570   411.9560 
  211.3750    70.0130    25.5200    23.7500    29.0280    23.9310   -29.5910     2.2550   411.8420 
  211.5000    69.6190    25.0320    23.2770    29.2300    23.8680   -29.6630     2.2540   412.0070 
  211.6250    69.2380    24.7310    23.0650    28.6840    23.7660   -29.6980     2.2560   412.7850 
  211.7500    69.9460    24.5620    23.0030    28.3800    23.6920   -29.7640     2.2590   413.7380 
  211.8750    71.7290    24.5000    23.0380    28.6420    23.6200   -29.8660     2.2600   414.3030 
  212.0000    71.7370    24.4980    23.1150    29.3220    23.5340   -30.0050     2.2590   414.2460 
  212.1250    70.0070    24.4790    23.1600    29.8020    23.4990   -30.0990     2.2550   413.8870 
  212.2500    69.3070    24.3710    23.1090    29.8410    23.4480   -30.1360     2.2500   413.6970 
  212.3750    69.7890    24.1370    22.9170    29.5230    23.4140   -30.1590     2.2470   413.6620 
  212.5000    69.0310    23.7620    22.5530    28.6520    23.4230   -30.2250     2.2480   413.5480 
  212.6250    66.4040    23.2050    21.9620    27.0540    23.4600   -30.3440     2.2530   413.5070 
  212.7500    64.6220    22.4510    21.1480    25.3500    23.5440   -30.4410     2.2580   414.1640 
  212.8750    64.4920    21.4700    20.1020    23.7520    23.6690   -30.5070     2.2630   415.5410 
  213.0000    65.9480    20.2730    18.8550    22.2280    23.7480   -30.5170     2.2660   416.7370 
  213.1250    68.3540    18.9340    17.4880    20.5650    23.8570   -30.5050     2.2710   416.1200 
  213.2500    68.9320    17.6080    16.1470    18.5670    23.9170   -30.5080     2.2760   413.9030 
  213.3750    67.3240    16.3880    14.9200    16.8250    23.9180   -30.5340     2.2800   411.3220 
  213.5000    65.4610    15.3260    13.8550    15.5910    23.8940   -30.5850     2.2820   409.4450 
  213.6250    65.8460    14.4720    13.0110    14.8070    23.8390   -30.6260     2.2830   408.3160 
  213.7500    67.5570    13.8190    12.3760    14.2220    23.7440   -30.6430     2.2860   406.7470 
  213.8750    70.1590    13.3940    11.9660    13.7970    23.6440   -30.6690     2.2930   404.0190 
  214.0000    70.8330    13.2230    11.7940    13.6310    23.5670   -30.7620     2.3010   400.1240 
  214.1250    66.8990    13.3470    11.8920    13.8630    23.3960   -30.9630     2.3060   395.9440 
  214.2500    62.9280    13.6640    12.1720    14.3450    23.3920   -31.2100     2.3020   392.8870 
  214.3750    62.6740    14.0690    12.5510    14.9640    23.3780   -31.4530     2.2880   391.7200 
  214.5000    64.3360    14.4280    12.9110    15.5710    23.3400   -31.6770     2.2690   392.6300 
  214.6250    63.0840    14.5680    13.0910    16.0100    23.2530   -31.9270     2.2510   395.6750 
  214.7500    60.8480    14.4640    13.0410    15.9280    23.1200   -32.2570     2.2410   400.0900 
  214.8750    59.6190    14.1320    12.7780    15.3290    22.9870   -32.6230     2.2390   405.1750 
  215.0000    58.6820    13.6750    12.3910    14.6760    22.9380   -32.9410     2.2450   409.9850 
  215.1250    56.8730    13.1410    12.0010    14.5280    23.0180   -33.1510     2.2510   413.6280 
  215.2500    55.6860    12.6470    11.6800    14.7500    23.1760   -33.3160     2.2530   416.3680 
  215.3750    55.4670    12.2700    11.4350    15.1240    23.3320   -33.4760     2.2490   418.7800 
  215.5000    55.6990    11.9810    11.2400    15.4810    23.4340   -33.6300     2.2430   421.2070 
  215.6250    55.2610    11.8400    11.0640    15.6320    23.4630   -33.7110     2.2370   423.2840 
  215.7500    54.6840    11.7230    10.9000    15.4420    23.4680   -33.6880     2.2330   424.3450 
  215.8750    56.5500    11.6250    10.7750    15.0010    23.4680   -33.5970     2.2320   423.9340 
  216.0000    59.9100    11.6240    10.7290    14.7920    23.4680   -33.5020     2.2300   422.3410 
  216.1250    60.3820    11.7640    10.8040    15.0200    23.4680   -33.4460     2.2270   420.5620 
  216.2500    57.4090    11.9850    10.9680    15.5580    23.4690   -33.4040     2.2240   419.1420 
  216.3750    54.3430    12.2120    11.1670    16.3560    23.4720   -33.3400     2.2240   417.2390 
  216.5000    54.7050    12.3610    11.3230    17.1200    23.4780   -33.2460     2.2260   413.6960 
  216.6250    59.0610    12.3470    11.3480    17.3430    23.4960   -33.1420     2.2300   409.1090 
  216.7500    62.7880    12.1960    11.2470    16.8620    23.5280   -33.0660     2.2330   406.4120 
  216.8750    62.6560    11.9470    11.0540    15.8560    23.5330   -33.0310     2.2330   407.3680 
  217.0000    59.4640    11.6470    10.8290    14.8930    23.5350   -33.0200     2.2330   411.2440 
  217.1250    57.3890    11.3530    10.6370    14.5090    23.5460   -33.0080     2.2340   415.1100 
  217.2500    56.5810    11.1250    10.5080    14.4710    23.5680   -32.9680     2.2350   416.9620 
  217.3750    56.1090    11.0380    10.4500    14.6040    23.6110   -32.9100     2.2370   416.9260 
  217.5000    57.4150    11.0440    10.4500    14.8060    23.7140   -32.8550     2.2410   415.9690 
  217.6250    60.3330    11.0870    10.4870    14.9400    23.8120   -32.8370     2.2450   414.6560 
  217.7500    61.3660    11.1250    10.5210    15.0150    23.8630   -32.8340     2.2490   413.0230 
  217.8750    59.0750    11.1290    10.5370    14.9890    23.9440   -32.8030     2.2510   411.0810 
  218.0000    55.0710    11.1050    10.5320    14.8640    24.0320   -32.7090     2.2520   408.9740 
  218.1250    53.7220    11.0740    10.5170    14.7230    24.0260   -32.5580     2.2520   406.8240 
  218.2500    54.4160    11.0660    10.5140    14.6340    23.9800   -32.4250     2.2530   404.8070 
  218.3750    53.9810    11.0970    10.5370    14.6360    23.9340   -32.3240     2.2540   403.1230 
  218.5000    52.9440    11.1730    10.5880    14.7140    23.9170   -32.2390     2.2540   401.8010 
  218.6250    54.8850    11.2760    10.6570    14.9370    23.8870   -32.1150     2.2520   400.6520 
  218.7500    58.7980    11.3700    10.7210    15.1670    23.8240   -31.9400     2.2480   399.4400 
  218.8750    60.2660    11.4270    10.7600    15.2930    23.7580   -31.7370     2.2450   398.3740 
  219.0000    58.7200    11.4360    10.7630    15.2830    23.6740   -31.5550     2.2450   398.2060 
  219.1250    58.9390    11.3940    10.7230    15.0460    23.6510   -31.4180     2.2480   399.8070 
  219.2500    60.7490    11.3280    10.6580    14.7580    23.6240   -31.2770     2.2540   402.2310 
  219.3750    61.9100    11.2580    10.5850    14.5320    23.5650   -31.1280     2.2600   404.1270 
  219.5000    60.6910    11.2040    10.5210    14.4580    23.5380   -30.9450     2.2610   404.8460 
  219.6250    57.1860    11.1870    10.4860    14.4670    23.5310   -30.7620     2.2580   404.9970 
  219.7500    54.8130    11.2080    10.4830    14.5270    23.5190   -30.6240     2.2550   405.2070 
  219.8750    56.9980    11.2620    10.5100    14.5160    23.4960   -30.5330     2.2560   404.8240 
  220.0000    64.0870    11.3370    10.5620    14.4740    23.4610   -30.4630     2.2660   403.1330 
  220.1250    69.5410    11.4240    10.6370    14.4950    23.3330   -30.3590     2.2820   400.3980 
  220.2500    69.6100    11.5140    10.7240    14.5690    23.3020   -30.2460     2.2980   398.0010 
  220.3750    66.5230    11.6040    10.8190    14.6870    23.2830   -30.1700     2.3070   396.7000 
  220.5000    65.8830    11.6930    10.9180    14.9200    23.2830   -30.1570     2.3080   396.5850 
  220.6250    69.2430    11.7800    11.0170    15.1910    23.2840   -30.1860     2.3060   397.2910 
  220.7500    71.7190    11.8550    11.1120    15.4360    23.2480   -30.2060     2.3040   397.8330 
  220.8750    69.9610    11.9130    11.1910    15.5540    23.1820   -30.2170     2.3040   397.9820 
