~V
VERS. 2.00: Ver 2.00
~W
STRT.M 60.0000:
STOP.M 271.0000:
STEP.M 0.1250:
NULL. -999.2500:
UWI. DF324:
~C
DEPT.M :
SP.MV :
AC.US/MT :
DEN.GM/CC :
GR.API :
CALI.CM :
RXO.OHMM :
RI. :
RML.OHMM :
~A
# ...
  110.0000   -23.2460   441.9660     2.1600    79.1610    23.7230     9.0600     6.8110     7.3320 
  110.1250   -22.8660   441.2770     2.1720    81.5330    23.5970     8.8120     6.7230     7.2390 
  110.2500   -22.4670   440.6460     2.1780    82.3450    23.4610     8.6010     6.6200     7.1310 
  110.3750   -22.0470   441.2040     2.1770    81.6230    23.3100     8.4510     6.5190     7.0250 
  110.5000   -21.6120   442.9580     2.1720    80.0940    23.1340     8.2330     6.4570     6.9600 
  110.6250   -21.1480   443.9150     2.1610    79.2470    23.0190     8.1620     6.5090     7.0140 
  110.7500   -20.6370   442.5080     2.1510    79.2640    23.0200     8.3580     6.7000     7.2150 
  110.8750   -20.0600   439.6040     2.1540    79.0170    23.1170     8.7830     7.0170     7.5480 
  111.0000   -19.4160   435.8820     2.1860    77.8200    23.2800     9.2880     7.4010     7.9510 
  111.1250   -18.7270   424.1630     2.2580    76.4630    23.4540     9.5400     7.7240     8.2910 
  111.2500   -18.0520   399.0370     2.3390    76.8880    23.5810    10.0870     7.8570     8.4300 
  111.3750   -17.4360   367.3640     2.3910    80.9550    23.6650    11.6430     7.7000     8.2650 
  111.5000   -16.9140   347.6510     2.3950    89.1910    23.7910    13.9140     7.2370     7.7790 
  111.6250   -16.5320   358.0910     2.3640   100.5740    24.0440    13.6370     6.5220     7.0280 
  111.7500   -16.2930   385.8330     2.3340   111.1920    24.2800    10.5890     5.7430     6.2100 
  111.8750   -16.2080   413.4240     2.3200   118.2010    24.3840     7.2010     5.0280     5.4590 
  112.0000   -16.2790   430.4100     2.3220   121.0180    24.3380     5.4000     4.4620     4.8660 
  112.1250   -16.5130   437.2070     2.3310   120.5480    24.2840     4.9360     4.1290     4.5150 
  112.2500   -16.8560   441.1350     2.3300   119.3600    24.2410     4.6920     4.0240     4.4050 
  112.3750   -17.2780   442.9770     2.3100   117.5580    24.1800     4.4780     4.1600     4.5480 
  112.5000   -17.7490   438.8850     2.2880   113.3600    24.0700     4.3900     4.5290     4.9360 
  112.6250   -18.2530   419.6610     2.2970   105.3970    23.8960     4.6800     5.1190     5.5550 
  112.7500   -18.7740   384.3320     2.3350    97.4700    23.7300     5.6790     5.8160     6.2870 
  112.8750   -19.3070   341.4340     2.3680    93.4680    23.6460     7.2720     6.5060     7.0110 
  113.0000   -19.8390   310.2120     2.3600    93.1580    23.6310     8.7100     7.0580     7.5910 
  113.1250   -20.3520   314.9170     2.3030    93.0810    23.6220     8.9970     7.3090     7.8550 
  113.2500   -20.8330   348.5180     2.2330    92.0070    23.5650     8.5960     7.2760     7.8200 
  113.3750   -21.2740   391.7730     2.1770    90.9820    23.4530     8.1190     7.0270     7.5590 
  113.5000   -21.6820   425.3600     2.1430    90.6630    23.3580     7.8300     6.6840     7.1990 
  113.6250   -22.0570   439.8560     2.1310    90.2120    23.3240     7.6840     6.3800     6.8790 
  113.7500   -22.4020   444.0800     2.1340    88.6960    23.3510     7.5720     6.1850     6.6740 
  113.8750   -22.7160   444.7860     2.1430    86.1250    23.4190     7.4730     6.1140     6.6000 
  114.0000   -23.0080   445.2150     2.1500    83.7790    23.4760     7.4720     6.1450     6.6320 
  114.1250   -23.2820   445.6680     2.1490    83.0270    23.5120     7.6020     6.2330     6.7250 
  114.2500   -23.5450   445.2690     2.1430    82.5410    23.5460     7.8030     6.3260     6.8230 
  114.3750   -23.7910   443.5370     2.1420    80.9300    23.5670     7.9980     6.4050     6.9050 
  114.5000   -24.0070   440.8220     2.1490    78.5020    23.5400     8.1990     6.4640     6.9670 
  114.6250   -24.1830   438.1090     2.1580    77.0920    23.4550     8.4900     6.5070     7.0120 
  114.7500   -24.3250   436.1690     2.1600    77.0900    23.4060     8.8780     6.5400     7.0470 
  114.8750   -24.4360   435.5770     2.1540    77.5810    23.3910     9.2100     6.5660     7.0740 
  115.0000   -24.5150   436.9600     2.1420    77.6360    23.4070     9.2750     6.5850     7.0940 
  115.1250   -24.5600   440.1880     2.1240    77.0130    23.4430     9.0080     6.6030     7.1130 
  115.2500   -24.5800   442.9550     2.1030    76.4790    23.5090     8.7140     6.6180     7.1290 
  115.3750   -24.5790   443.8800     2.0840    76.3290    23.6270     8.5240     6.6210     7.1320 
  115.5000   -24.5670   443.8610     2.0790    76.1710    23.8350     8.3910     6.6100     7.1210 
  115.6250   -24.5450   445.6730     2.0950    75.8150    23.9480     8.4910     6.5920     7.1010 
  115.7500   -24.5160   449.7260     2.1120    76.1960    23.9520     8.7070     6.5770     7.0860 
  115.8750   -24.4770   454.5040     2.1170    77.6910    23.8730     8.8750     6.5690     7.0780 
  116.0000   -24.4310   458.0950     2.1140    79.5240    23.7250     8.8170     6.5710     7.0800 
  116.1250   -24.3870   457.4330     2.1270    80.6650    23.5290     8.7100     6.5860     7.0950 
  116.2500   -24.3500   450.5450     2.1540    81.3320    23.3040     8.7820     6.6110     7.1220 
  116.3750   -24.3260   438.1870     2.1790    81.5530    23.1480     9.0730     6.6410     7.1530 
  116.5000   -24.3080   426.3610     2.1880    80.9280    23.0950     9.5150     6.6650     7.1780 
  116.6250   -24.2900   425.0930     2.1810    79.9790    23.1240     9.9790     6.6710     7.1850 
  116.7500   -24.2700   434.1860     2.1700    79.8720    23.1880    10.2470     6.6610     7.1740 
  116.8750   -24.2510   447.0340     2.1560    80.7210    23.2730    10.1910     6.6450     7.1570 
  117.0000   -24.2330   456.0250     2.1340    81.6940    23.4030     9.8910     6.6330     7.1450 
  117.1250   -24.2050   456.8040     2.1110    82.0770    23.5540     9.4540     6.6340     7.1460 
  117.2500   -24.1580   452.6970     2.1020    82.3320    23.6490     9.0930     6.6490     7.1610 
  117.3750   -24.0860   447.0590     2.1140    82.6670    23.6590     8.8830     6.6740     7.1880 
  117.5000   -23.9970   442.4330     2.1340    82.4610    23.5960     8.7970     6.7070     7.2230 
  117.6250   -23.8930   440.1270     2.1440    80.2260    23.4810     8.7030     6.7410     7.2580 
  117.7500   -23.7840   439.2690     2.1440    77.0830    23.4250     8.5970     6.7680     7.2870 
  117.8750   -23.6630   439.1690     2.1440    75.3260    23.4120     8.5210     6.7850     7.3050 
  118.0000   -23.5250   439.6170     2.1460    75.5190    23.4130     8.4460     6.7900     7.3100 
  118.1250   -23.3580   440.6720     2.1410    75.3150    23.4100     8.3480     6.7850     7.3050 
  118.2500   -23.1650   441.9210     2.1230    73.5920    23.4230     8.2110     6.7780     7.2960 
  118.3750   -22.9460   442.9790     2.0980    72.2040    23.5100     7.9760     6.7720     7.2910 
  118.5000   -22.6900   443.8100     2.0820    72.5600    23.7110     7.7550     6.7730     7.2910 
  118.6250   -22.3770   445.0260     2.0860    73.5880    23.9120     7.7490     6.7860     7.3050 
  118.7500   -22.0080   446.9060     2.1040    74.7850    23.9520     7.9900     6.8140     7.3340 
  118.8750   -21.5790   448.7460     2.1250    77.3100    23.8600     8.2230     6.8600     7.3830 
  119.0000   -21.0850   449.6210     2.1380    80.6640    23.7590     8.1810     6.9270     7.4530 
  119.1250   -20.5060   450.3440     2.1350    81.3110    23.6730     7.7790     7.0120     7.5420 
  119.2500   -19.8530   453.5770     2.1210    79.8910    23.5730     7.3820     7.1040     7.6390 
  119.3750   -19.1210   460.1810     2.1050    80.3070    23.4800     7.1730     7.1910     7.7300 
  119.5000   -18.3210   467.5680     2.0970    83.8920    23.4490     7.1670     7.2560     7.7990 
  119.6250   -17.4690   469.6610     2.1030    87.2340    23.4700     7.2700     7.2670     7.8110 
  119.7500   -16.6130   463.6100     2.1280    89.1630    23.4390     7.3710     7.2060     7.7460 
  119.8750   -15.8010   449.7610     2.1770    92.6080    23.2820     7.3750     7.0480     7.5800 
