~V
VERS. 2.00: Ver 2.00
~W
STRT.M 60.0000:
STOP.M 270.0000:
STEP.M 0.1250:
NULL. -999.2500:
UWI. DF32131:
~C
DEPT.M :
DEN.GM/CC :
GR.API :
CALI.CM :
RXO.OHMM :
RI. :
RML.OHMM :
SP.MV :
~A
# ...
  138.7500     2.2880   101.7710    23.1120     4.9530     4.7400     5.1790   -15.9380 
  138.8750     2.3000   101.0530    23.2100     5.0740     4.6620     5.1200   -15.9170 
  139.0000     2.3060   101.2740    23.4050     5.0760     4.5520     5.0300   -15.8870 
  139.1250     2.3080   101.5050    23.5980     4.9480     4.4270     4.9270   -15.8650 
  139.2500     2.3130   100.1710    23.6740     4.8040     4.3280     4.8650   -15.9020 
  139.3750     2.3210    98.9750    23.6650     4.7210     4.2940     4.8860   -15.9800 
  139.5000     2.3240    97.7500    23.6030     4.8170     4.3480     5.0280   -16.1730 
  139.6250     2.3050    96.5120    23.4660     5.1190     4.5150     5.3290   -16.5100 
  139.7500     2.2700    96.4530    23.3290     5.4890     4.7630     5.7400   -16.9360 
  139.8750     2.2370    96.3480    23.2010     5.8270     5.0540     6.2040   -17.4850 
  140.0000     2.2200    95.1480    23.0670     6.1130     5.3560     6.6620   -18.0820 
  140.1250     2.2190    93.4310    22.8680     6.3300     5.6410     7.0670   -18.7020 
  140.2500     2.2150    91.4600    22.6200     6.4490     5.9030     7.4230   -19.3510 
  140.3750     2.2040    88.7070    22.4380     6.6030     6.1440     7.7400   -20.0100 
  140.5000     2.1900    86.5870    22.3640     6.9630     6.3570     8.0220   -20.5350 
  140.6250     2.1860    87.1740    22.3740     7.4660     6.5230     8.2450   -20.9950 
  140.7500     2.1950    88.3520    22.4790     7.5760     6.6310     8.3940   -21.4040 
  140.8750     2.2160    87.9700    22.7470     7.3240     6.6770     8.4610   -21.7030 
  141.0000     2.2430    85.6470    23.0900     7.0880     6.6780     8.4650   -21.9190 
  141.1250     2.2600    83.1870    23.2500     6.9930     6.6690     8.4390   -22.1570 
  141.2500     2.2610    82.7600    23.2920     6.9770     6.6830     8.4350   -22.3310 
  141.3750     2.2460    85.1190    23.2930     7.0180     6.7430     8.4880   -22.4640 
  141.5000     2.2200    88.9340    23.2920     7.1510     6.8490     8.6100   -22.6450 
  141.6250     2.1910    90.2660    23.2900     7.3640     6.9940     8.7820   -22.7350 
  141.7500     2.1680    89.9160    23.2900     7.5950     7.1520     8.9610   -22.8130 
  141.8750     2.1580    90.5750    23.2920     7.7630     7.3050     9.1290   -22.8590 
  142.0000     2.1610    91.9310    23.2930     7.8090     7.4480     9.2930   -22.9690 
  142.1250     2.1650    91.8750    23.2930     7.7290     7.5820     9.4780   -23.0430 
  142.2500     2.1620    88.3550    23.2930     7.7490     7.7100     9.6960   -23.1060 
  142.3750     2.1530    83.4720    23.2930     7.8860     7.8310     9.9270   -23.1730 
  142.5000     2.1470    80.9060    23.2910     8.0470     7.9250    10.1150   -23.2190 
  142.6250     2.1450    82.2300    23.2750     8.0880     7.9530    10.1820   -23.3090 
  142.7500     2.1440    84.4430    23.2510     7.9630     7.9390    10.1510   -23.4110 
  142.8750     2.1440    83.7880    23.2550     7.7760     7.9310    10.1000   -23.5360 
  143.0000     2.1440    81.4780    23.2970     7.6870     7.9900    10.1400   -23.5970 
  143.1250     2.1450    83.4200    23.3630     7.8250     8.1770    10.3860   -23.5760 
  143.2500     2.1530    88.5420    23.3900     8.2880     8.4620    10.8070   -23.4870 
  143.3750     2.1720    91.4210    23.3780     9.1330     8.7850    11.3090   -23.4170 
  143.5000     2.2010    88.7940    23.2930    10.0410     9.0480    11.7260   -23.3470 
  143.6250     2.2350    85.5900    23.0930    10.4370     9.1340    11.8400   -23.2110 
  143.7500     2.2690    86.5100    22.9240    10.1110     9.0690    11.7010   -23.0540 
  143.8750     2.3020    90.6240    22.8530     9.4560     8.9510    11.5060   -22.9660 
  144.0000     2.3190    94.9940    22.8400     8.9680     8.9360    11.5150   -22.9200 
  144.1250     2.3050    94.7590    22.8410     9.0580     9.2330    12.0460   -22.9490 
  144.2500     2.2680    90.4110    22.8410    10.0860     9.8980    13.1450   -23.0940 
  144.3750     2.2290    85.5250    22.8410    11.5210    10.9050    14.7330   -23.2060 
  144.5000     2.1990    82.7810    22.8410    12.5410    12.0640    16.4550   -23.3100 
  144.6250     2.1820    81.2740    22.8400    13.1620    12.9360    17.5190   -23.4380 
  144.7500     2.1750    79.3610    22.8410    13.4960    13.1840    17.4630   -23.5630 
  144.8750     2.1790    79.7000    22.8380    13.2030    12.7610    16.3870   -23.6060 
  145.0000     2.1940    82.7670    22.8340    11.9480    11.9090    14.8280   -23.6400 
  145.1250     2.2080    83.3470    22.8330    10.1240    10.9740    13.3900   -23.5690 
  145.2500     2.2080    80.9350    22.8320     8.8640    10.1710    12.2770   -23.3620 
  145.3750     2.1940    78.4380    22.8350     8.4540     9.4940    11.4120   -23.0400 
  145.5000     2.1800    79.2850    22.8560     8.3990     8.8530    10.6240   -22.6510 
  145.6250     2.1920    83.2760    22.8770     7.8950     8.1370     9.7250   -22.2030 
  145.7500     2.2260    88.2890    22.9200     6.8860     7.3370     8.7110   -21.7210 
  145.8750     2.2620    92.6420    23.0470     5.8980     6.5430     7.7220   -21.3030 
  146.0000     2.2860    95.3700    23.2390     5.3710     5.8650     6.9170   -20.8950 
  146.1250     2.2960    95.7910    23.5220     5.2440     5.4130     6.4240   -20.6250 
  146.2500     2.3040    95.7230    23.6420     5.2750     5.1720     6.1890   -20.5130 
  146.3750     2.3100    93.5690    23.6720     5.4220     5.1230     6.1800   -20.5760 
  146.5000     2.3090    89.3320    23.6730     5.5640     5.2410     6.3540   -20.7850 
  146.6250     2.2990    88.5370    23.6730     5.5790     5.4960     6.6770   -21.1660 
  146.7500     2.2770    92.3210    23.6730     5.7520     5.8130     7.0540   -21.6510 
  146.8750     2.2500    94.8320    23.6730     6.3260     6.1300     7.3970   -22.0310 
  147.0000     2.2260    92.4130    23.6730     7.0000     6.3910     7.6280   -22.3520 
  147.1250     2.2170    90.1100    23.6730     7.0770     6.6030     7.7610   -22.5630 
  147.2500     2.2200    90.4940    23.6730     6.7740     6.8310     7.9290   -22.6150 
  147.3750     2.2360    87.5690    23.6730     6.6830     7.1100     8.2070   -22.5480 
  147.5000     2.2690    81.0060    23.6730     7.2570     7.4180     8.5810   -22.3220 
  147.6250     2.3220    78.0800    23.6730     8.4150     7.6530     8.8990   -21.9560 
  147.7500     2.3730    78.1290    23.6730     9.0370     7.7020     8.9290   -21.4950 
  147.8750     2.3930    77.7040    23.6730     8.2620     7.4920     8.5470   -21.0620 
  148.0000     2.3750    78.2780    23.6730     6.7000     7.0600     7.8540   -20.6450 
  148.1250     2.3380    82.7000    23.6730     6.0140     6.5370     7.1090   -20.2530 
  148.2500     2.3170    87.5220    23.6730     5.6830     6.0630     6.5080   -19.9400 
  148.3750     2.3180    90.6290    23.6730     5.4940     5.7010     6.0860   -19.6590 
  148.5000     2.3320    92.1660    23.6730     5.2740     5.4410     5.7910   -19.4670 
  148.6250     2.3430    91.9650    23.6730     5.0490     5.2290     5.5230   -19.3150 
  148.7500     2.3480    92.0480    23.6730     4.8570     5.0060     5.2230   -19.2020 
  148.8750     2.3510    94.7320    23.6700     4.7330     4.7730     4.9150   -19.1260 
  149.0000     2.3530    98.7090    23.6650     4.6790     4.5670     4.6570   -19.1010 
  149.1250     2.3570   100.3090    23.6560     4.6040     4.4580     4.5380   -19.1390 
  149.2500     2.3570    99.4430    23.6540     4.6110     4.4940     4.6170   -19.2020 
  149.3750     2.3450    97.0190    23.6350     4.7970     4.7230     4.9590   -19.3510 
  149.5000     2.3200    94.8290    23.5760     5.1880     5.1650     5.6050   -19.5340 
  149.6250     2.2870    94.2810    23.4720     5.9280     5.8370     6.5800   -19.7890 
  149.7500     2.2560    92.7310    23.3850     7.0060     6.6090     7.6870   -20.0740 
  149.8750     2.2310    88.4050    23.3090     8.1160     7.3180     8.6590   -20.4140 
