~V
VERS. 2.00: Ver 2.00
~W
STRT.M 61.0000:
STOP.M 238.0000:
STEP.M 0.1250:
NULL. -999.2500:
UWI. DF32044:
~C
DEPT.M :
DEN.GM/CC :
SP.MV :
GR.API :
RML.OHMM :
RI. :
RXO.OHMM :
CALI.CM :
~A
# ...
   72.2500     2.1960   -42.7760    64.0670     8.9330     7.5580     9.3230    23.5180 
   72.3750     2.1890   -43.0620    64.2040     8.7830     7.3950     9.2070    23.7640 
   72.5000     2.1910   -43.1210    63.9420     8.7480     7.2880     9.2840    24.0710 
   72.6250     2.1900   -43.0340    63.0490     8.7400     7.2080     9.2110    24.3500 
   72.7500     2.1850   -42.8470    62.8360     8.6890     7.1170     8.9400    24.5160 
   72.8750     2.1810   -42.6180    62.8290     8.6010     7.0160     8.7590    24.5640 
   73.0000     2.1830   -42.3400    63.3920     8.5310     6.9310     8.7540    24.5340 
   73.1250     2.1930   -41.9840    66.5240     8.5910     6.9210     8.6000    24.5200 
   73.2500     2.2020   -41.7200    69.9040     8.8150     7.0150     8.2130    24.5370 
   73.3750     2.2070   -41.5980    71.1890     9.1730     7.2150     7.9480    24.5410 
   73.5000     2.2070   -41.5340    71.1170     9.5660     7.4800     8.1820    24.4360 
   73.6250     2.2070   -41.4720    72.9450     9.8290     7.7270     9.2710    24.1360 
   73.7500     2.2110   -41.6230    74.0310     9.8840     7.8800    10.5490    23.8020 
   73.8750     2.2170   -41.8060    71.2460     9.7390     7.9050    11.0750    23.5390 
   74.0000     2.2220   -41.8700    66.1140     9.4760     7.8150    10.6070    23.3570 
   74.1250     2.2220   -42.0490    62.4980     9.2280     7.6640     9.7920    23.3260 
   74.2500     2.2160   -42.1630    62.3370     9.0780     7.5260     9.2800    23.4050 
   74.3750     2.2030   -42.0670    64.6200     9.0360     7.4350     9.1100    23.4870 
   74.5000     2.1860   -41.8700    66.4070     9.0620     7.3950     9.1290    23.5090 
   74.6250     2.1640   -41.5740    67.7570     9.0820     7.3880     9.1030    23.4840 
   74.7500     2.1460   -40.9640    70.3870     9.0360     7.3750     8.9950    23.4550 
   74.8750     2.1390   -40.1880    72.8490     8.8950     7.3280     8.9090    23.4420 
   75.0000     2.1520   -39.4230    73.4550     8.6670     7.2320     8.8790    23.3850 
   75.1250     2.1870   -38.4340    74.2540     8.3940     7.0870     8.8670    23.2110 
   75.2500     2.2290   -37.3500    77.9960     8.1460     6.9340     8.5940    23.0350 
   75.3750     2.2640   -36.3360    82.3380     7.9720     6.8160     7.8230    22.9640 
   75.5000     2.2810   -35.3880    83.5220     7.9170     6.7760     6.9080    22.9170 
   75.6250     2.2830   -34.4540    82.1910     8.0220     6.8530     6.6590    22.7820 
   75.7500     2.2890   -33.6270    83.3440     8.2330     7.0130     7.0300    22.5500 
   75.8750     2.3080   -32.9650    88.4470     8.4810     7.2020     7.4350    22.4320 
   76.0000     2.3350   -32.4100    92.6190     8.6840     7.3560     7.6040    22.4100 
   76.1250     2.3550   -31.9630    88.8680     8.7570     7.4020     7.6890    22.4060 
   76.2500     2.3560   -31.6800    82.1990     8.6990     7.3330     7.4760    22.3990 
   76.3750     2.3410   -31.4940    79.5290     8.5290     7.1640     6.8790    22.3960 
   76.5000     2.3190   -31.2620    80.0820     8.2610     6.9180     6.3370    22.3950 
   76.6250     2.3010   -31.0700    79.4490     7.8550     6.6010     6.2780    22.3950 
   76.7500     2.2920   -31.0550    79.9080     7.3310     6.2440     6.4130    22.3950 
   76.8750     2.2910   -31.1030    85.0900     6.7730     5.9020     6.4500    22.4090 
   77.0000     2.3020   -31.1100    91.2240     6.3770     5.6800     6.3680    22.4790 
   77.1250     2.3330   -31.3630    91.5400     6.5910     5.8520     6.3260    22.6950 
   77.2500     2.3840   -31.7500    86.9030     7.7580     6.6670     6.8070    23.0040 
   77.3750     2.4530   -32.1060    82.0530    10.1340     8.3660     8.8640    23.3550 
   77.5000     2.5280   -32.6540    78.5900    13.6450    10.9920    13.6220    23.7590 
   77.6250     2.5830   -33.4440    72.6360    17.6180    14.2060    22.3630    24.0620 
   77.7500     2.6020   -34.2590    64.3230    20.6590    17.0000    31.7020    24.2490 
   77.8750     2.5810   -35.2070    56.1200    21.5480    18.4070    35.7760    24.3090 
   78.0000     2.5270   -36.3770    50.9500    19.8320    17.8700    32.6300    24.2590 
   78.1250     2.4530   -37.4080    51.3670    16.3870    15.6180    24.8760    24.0120 
   78.2500     2.3800   -38.3210    56.4960    13.1610    13.0500    17.8310    23.5560 
   78.3750     2.3180   -39.2840    63.1400    10.8890    10.9040    13.1890    23.0880 
   78.5000     2.2730   -40.0940    66.0560     9.6210     9.4230    10.9130    23.0260 
   78.6250     2.2480   -40.6710    65.8010     9.2230     8.6470    10.4280    23.5520 
   78.7500     2.2350   -41.0950    67.2490     9.2610     8.3090    10.3900    24.0810 
   78.8750     2.2280   -41.3730    70.1120     9.4970     8.2530    10.2790    24.2710 
   79.0000     2.2230   -41.4790    70.8690     9.7450     8.3370    10.0430    24.2580 
   79.1250     2.2160   -41.4530    67.8790     9.8720     8.4410     9.8880    24.1820 
   79.2500     2.2090   -41.3540    64.4750     9.8790     8.4950     9.9630    24.1350 
   79.3750     2.2010   -41.1730    61.8600     9.7990     8.4860    10.1120    24.0940 
   79.5000     2.1920   -40.8810    60.0410     9.6670     8.4190    10.1000    24.0660 
   79.6250     2.1850   -40.4910    60.9590     9.4930     8.2970     9.8130    24.0550 
   79.7500     2.1800   -40.1670    62.6780     9.2780     8.1350     9.4570    24.0550 
   79.8750     2.1850   -39.7610    62.6550     9.0090     7.9300     9.2290    24.0620 
   80.0000     2.2060   -39.1910    62.2170     8.6820     7.6800     9.1020    24.0720 
   80.1250     2.2460   -38.7830    67.4020     8.3200     7.3920     8.7270    24.0260 
   80.2500     2.2910   -38.5130    75.7010     8.0060     7.1120     8.0940    23.9800 
   80.3750     2.3250   -38.2930    81.1850     7.8220     6.8930     7.4330    23.9550 
   80.5000     2.3340   -38.3600    81.5000     7.8240     6.7840     7.0450    23.9390 
   80.6250     2.3140   -38.7310    76.8000     8.0500     6.8340     7.3210    23.9300 
   80.7500     2.2820   -39.0930    70.2400     8.4070     7.0030     8.2060    23.9670 
   80.8750     2.2520   -39.5690    64.5840     8.8140     7.2470     9.2310    24.0190 
   81.0000     2.2310   -40.2040    60.7310     9.1990     7.5160     9.7610    24.0370 
   81.1250     2.2220   -40.7060    57.9410     9.5170     7.7670     9.8290    23.9970 
   81.2500     2.2170   -41.1380    56.0630     9.7900     7.9970    10.0090    23.9440 
   81.3750     2.2120   -41.5560    56.1810    10.0540     8.2210    10.3610    23.9390 
   81.5000     2.2060   -41.6870    58.8700    10.3290     8.4430    10.7240    23.9810 
   81.6250     2.2010   -41.6400    61.7980    10.5930     8.6360    10.9270    23.9310 
   81.7500     2.2000   -41.6900    62.9980    10.7840     8.7600    10.9020    23.8320 
   81.8750     2.2040   -41.6850    63.7580    10.8570     8.7850    10.6710    23.8380 
   82.0000     2.2100   -41.5890    65.2490    10.8150     8.7160    10.4480    23.9100 
   82.1250     2.2150   -41.6530    66.4850    10.7090     8.5880    10.3270    23.9400 
   82.2500     2.2170   -41.7750    66.8700    10.6200     8.4640    10.2420    23.9180 
   82.3750     2.2140   -41.7920    68.2980    10.5750     8.3750    10.2570    23.9110 
   82.5000     2.2050   -41.9070    68.9290    10.5570     8.3200    10.3610    23.9710 
   82.6250     2.1910   -42.1860    65.6530    10.5220     8.2830    10.3830    24.0960 
   82.7500     2.1750   -42.4070    62.2740    10.4430     8.2400    10.2910    24.1920 
   82.8750     2.1620   -42.6010    61.3880    10.3290     8.1910    10.1880    24.1780 
   83.0000     2.1550   -42.9870    60.8240    10.2120     8.1540    10.1160    24.0880 
   83.1250     2.1560   -43.3500    58.8520    10.1470     8.1580    10.0530    23.9950 
   83.2500     2.1680   -43.6640    58.7650    10.1520     8.2030    10.0240    23.9640 
   83.3750     2.1890   -44.1760    60.9380    10.2100     8.2670    10.0570    23.9580 
