~V
VERS. 2.00: Ver 2.00
~W
STRT.M 62.0000:
STOP.M 272.0000:
STEP.M 0.1250:
NULL. -999.2500:
UWI. DF32144:
~C
DEPT.M :
SP.MV :
DEN.GM/CC :
GR.API :
RML.OHMM :
RI. :
RXO.OHMM :
CALI.CM :
~A
# ...
  197.0000    -8.9360     1.7470    47.9820     8.0230     5.5900     3.9280    38.0180 
  197.1250    -8.2240     1.7570    47.7990     7.9140     5.4980     3.8970    38.0180 
  197.2500    -7.5710     1.7800    48.7270     7.9760     5.5210     3.9500    38.0180 
  197.3750    -6.9830     1.8150    48.8640     8.0990     5.5910     4.0110    38.0180 
  197.5000    -6.4630     1.8610    48.1470     8.2040     5.6590     4.0980    37.9630 
  197.6250    -5.9970     1.9090    47.5000     8.2280     5.6840     4.1920    37.8520 
  197.7500    -5.6020     1.9470    47.5640     8.1590     5.6530     4.2320    37.7830 
  197.8750    -5.2940     1.9620    47.4150     8.0160     5.5710     4.1590    37.8900 
  198.0000    -5.0200     1.9500    46.2540     7.8400     5.4550     4.0470    37.9940 
  198.1250    -4.7760     1.9190    47.5920     7.6980     5.3410     3.9250    38.0180 
  198.2500    -4.5560     1.8980    52.0430     7.6330     5.2600     3.9120    38.0180 
  198.3750    -4.3610     1.9130    54.9990     7.6580     5.2310     3.8100    38.0180 
  198.5000    -4.1260     1.9720    54.7070     7.7580     5.2530     3.7820    37.4300 
  198.6250    -3.9340     2.0580    54.7630     7.8950     5.3160     3.9520    34.8600 
  198.7500    -3.7730     2.1270    56.2050     8.0090     5.3890     4.1580    30.6020 
  198.8750    -3.5460     2.1470    57.9370     8.0640     5.4530     4.1940    27.9730 
  199.0000    -3.2920     2.1060    59.5370     8.0490     5.4960     4.1590    28.5250 
  199.1250    -3.0720     2.0150    60.9010     7.9900     5.5260     4.1220    31.5470 
  199.2500    -2.8380     1.9180    61.3340     7.9530     5.5700     4.2370    34.6010 
  199.3750    -2.6050     1.8430    61.8950     7.9930     5.6550     4.3710    36.8620 
  199.5000    -2.4450     1.8090    64.0550     8.1420     5.8000     4.5440    37.8540 
  199.6250    -2.2960     1.8240    67.1900     8.4100     6.0140     4.5340    38.0180 
  199.7500    -2.1510     1.8660    70.3450     8.7260     6.2540     4.6460    38.0180 
  199.8750    -2.0910     1.9120    74.0280     9.0150     6.4720     4.8250    38.0130 
  200.0000    -2.0930     1.9440    77.3840     9.1970     6.6110     4.8580    37.9630 
  200.1250    -2.1660     1.9540    77.5520     9.1640     6.5940     4.4620    37.8570 
  200.2500    -2.3100     1.9630    75.3660     8.9090     6.4200     4.5700    37.4580 
  200.3750    -2.5200     1.9900    73.7630     8.4540     6.1060     5.1600    35.9470 
  200.5000    -2.7980     2.0440    74.0790     7.8960     5.7230     5.6020    32.6090 
  200.6250    -3.1060     2.1140    74.5170     7.4900     5.4290     5.3920    27.8510 
  200.7500    -3.4280     2.1740    75.2610     7.5370     5.3950     4.9250    24.2300 
  200.8750    -3.7800     2.2090    77.5380     8.3610     5.7920     4.7290    22.3740 
  201.0000    -4.2070     2.2200    81.4850    10.3130     6.8170     4.8850    22.2060 
  201.1250    -4.6560     2.2200    83.8810    14.0260     8.9230     5.3030    22.8910 
  201.2500    -5.1820     2.2250    81.2240    19.4270    12.2770     5.8830    23.4300 
  201.3750    -5.7700     2.2360    75.2610    26.2210    16.9800     6.4880    23.5900 
  201.5000    -6.3140     2.2540    70.4430    33.4920    22.6420     6.9790    23.4960 
  201.6250    -6.9220     2.2750    68.5920    39.5200    28.0460     7.3950    23.1640 
  201.7500    -7.5840     2.2990    67.3100    43.4840    32.0750     7.9950    22.6940 
  201.8750    -8.1850     2.3210    68.0030    45.6370    34.5520     8.7730    22.1950 
  202.0000    -8.7530     2.3350    71.0490    46.8090    35.9380     9.3440    21.6970 
  202.1250    -9.3490     2.3340    71.9250    47.6420    36.7100     9.0270    21.6590 
  202.2500    -9.8400     2.3180    70.3500    48.4460    37.2770     8.3090    22.0600 
  202.3750   -10.2350     2.2880    68.8330    49.3690    37.8530     8.1140    23.0350 
  202.5000   -10.6160     2.2470    66.3730    50.6140    38.6630     8.6170    24.7290 
  202.6250   -10.8850     2.1980    62.6320    52.4540    39.9750     9.9920    27.1990 
  202.7500   -11.0870     2.1500    61.4960    54.8470    41.7840    11.1780    29.3480 
  202.8750   -11.3390     2.1200    63.9250    57.7140    44.0520    12.0400    30.6870 
  203.0000   -11.5580     2.1210    67.3490    60.9200    46.6820    12.8350    30.9770 
  203.1250   -11.6690     2.1600    68.5540    64.3260    49.5550    14.1270    30.0900 
  203.2500   -11.8420     2.2110    66.3620    67.6940    52.4430    15.5510    28.8320 
  203.3750   -12.0400     2.2520    61.4020    70.7170    55.1040    16.6690    28.0050 
  203.5000   -12.2210     2.2610    58.3410    73.0170    57.2710    16.4430    28.0460 
  203.6250   -12.3590     2.2320    61.0730    74.1430    58.6190    15.1530    29.2540 
  203.7500   -12.4590     2.1830    65.4180    74.3100    59.2710    13.7220    30.9280 
  203.8750   -12.5080     2.1280    65.9970    73.7650    59.3680    12.3710    32.3290 
  204.0000   -12.5060     2.0770    63.1790    72.6530    58.9950    11.6990    33.0900 
  204.1250   -12.4700     2.0440    61.9560    70.7440    57.9880    12.9650    34.0690 
  204.2500   -12.3770     2.0340    62.7740    68.0710    56.3730    14.5390    35.3280 
  204.3750   -12.2380     2.0480    62.7130    64.9830    54.3680    14.8790    36.0600 
  204.5000   -12.0720     2.0780    60.8410    62.2040    52.4790    15.0730    36.0140 
  204.6250   -11.9840     2.1050    60.3690    60.7020    51.4510    14.6800    35.6040 
  204.7500   -11.9230     2.1120    61.8090    60.5380    51.4450    15.1690    35.8190 
  204.8750   -11.7910     2.0940    62.5960    61.2560    52.2110    16.1000    36.1230 
  205.0000   -11.7000     2.0560    62.6090    61.9470    53.1010    17.7710    36.0710 
  205.1250   -11.6540     2.0140    62.1710    61.4910    53.2320    18.3020    35.8150 
  205.2500   -11.5510     1.9960    61.5360    59.8460    52.4320    17.8060    35.4710 
  205.3750   -11.4420     2.0240    60.5610    57.5160    50.9880    16.0170    34.1830 
  205.5000   -11.3270     2.1000    58.4320    55.2150    49.4120    13.1320    31.0670 
  205.6250   -11.1710     2.2010    56.5380    53.6170    48.2600     9.9450    27.0710 
  205.7500   -11.0700     2.2830    57.2800    52.7680    47.6750     8.4750    25.0030 
  205.8750   -11.0340     2.3200    60.0530    52.4960    47.5740     8.8720    24.8230 
  206.0000   -11.0160     2.3070    62.9360    52.5780    47.7770    10.4230    25.8940 
  206.1250   -11.0490     2.2570    65.0910    52.9500    48.1790    11.7250    27.4900 
  206.2500   -11.1340     2.1990    66.0390    53.5810    48.7230    12.4030    29.1260 
  206.3750   -11.2590     2.1480    65.4160    54.4710    49.4100    12.5720    31.0290 
  206.5000   -11.3950     2.1130    65.9780    55.5570    50.2140    12.1680    33.0940 
  206.6250   -11.5190     2.1030    68.3330    56.7050    51.0670    12.2790    34.5100 
  206.7500   -11.6420     2.1090    67.8800    57.8360    51.9370    13.0910    34.6090 
  206.8750   -11.8170     2.1180    64.6680    59.1340    52.9910    14.0900    33.9440 
  207.0000   -11.9780     2.1180    63.9740    61.0390    54.6000    14.1820    33.2010 
  207.1250   -12.1350     2.1050    65.6420    64.4200    57.5030    13.7140    33.2720 
  207.2500   -12.3500     2.0890    63.2660    69.7510    62.1170    14.1260    33.7170 
  207.3750   -12.5810     2.0810    58.9600    77.5390    68.9460    15.6680    33.8140 
  207.5000   -12.8920     2.0820    58.5580    87.9880    78.2850    18.2850    33.6280 
  207.6250   -13.2380     2.0860    61.6980   100.7440    90.0380    17.8240    32.4610 
  207.7500   -13.4780     2.0830    62.7760   113.2390   102.0860    19.7230    31.2540 
  207.8750   -13.6730     2.0700    61.4120   121.8300   111.4750    28.6810    31.2270 
  208.0000   -13.8880     2.0460    60.7260   122.0630   114.4200    43.6120    31.9730 
  208.1250   -14.0440     2.0070    62.2060   110.0980   106.7100    46.5330    32.3920 
