~V
VERS. 2.00: Ver 2.00
~W
STRT.M 62.0000:
STOP.M 260.0000:
STEP.M 0.1250:
NULL. -999.2500:
UWI. DF32117:
~C
DEPT.M :
GR.API :
CALI.CM :
RXO.OHMM :
RI. :
RML.OHMM :
DEN.GM/CC :
SP.MV :
~A
# ...
   73.2500   100.3130    25.9540     4.6470     4.1010     5.4440     2.2630   -22.2380 
   73.3750    97.5130    25.9350     4.6830     4.3360     5.8470     2.2530   -22.1660 
   73.5000    93.4340    25.9470     4.8480     4.6090     6.2800     2.2430   -22.1250 
   73.6250    89.9030    25.9950     5.2580     4.8630     6.6460     2.2440   -22.1060 
   73.7500    88.8240    26.0420     5.9240     5.0330     6.8500     2.2570   -22.1500 
   73.8750    90.1190    26.0860     6.5780     5.0760     6.8420     2.2740   -22.2800 
   74.0000    92.5210    26.1490     6.6710     4.9940     6.6480     2.2880   -22.5300 
   74.1250    92.2100    26.1850     6.0060     4.8320     6.3790     2.2880   -22.9180 
   74.2500    89.3600    26.0970     5.3500     4.6860     6.1940     2.2760   -23.4250 
   74.3750    87.0880    26.1260     5.1670     4.6150     6.1850     2.2610   -24.0440 
   74.5000    85.6380    26.3190     5.3810     4.6550     6.3840     2.2480   -24.7330 
   74.6250    84.5560    26.2500     5.7630     4.8250     6.7820     2.2350   -25.4240 
   74.7500    85.0000    25.7880     6.2260     5.0670     7.2530     2.2150   -26.0420 
   74.8750    85.2550    25.2940     6.7440     5.3290     7.7020     2.1950   -26.5260 
   75.0000    83.5670    25.0940     7.1870     5.5780     8.0880     2.1820   -26.8390 
   75.1250    81.2370    25.0660     7.4500     5.8160     8.4450     2.1770   -26.9770 
   75.2500    80.9900    25.0540     7.8630     6.0600     8.8270     2.1770   -26.9940 
   75.3750    83.5360    25.1030     8.9170     6.3010     9.2110     2.1920   -26.9380 
   75.5000    86.2230    25.1790    10.6680     6.4880     9.4920     2.2280   -26.8770 
   75.6250    86.6510    25.2360    11.6170     6.5160     9.4680     2.2740   -26.8780 
   75.7500    87.8000    25.2220    10.6090     6.3560     9.1110     2.2990   -26.9520 
   75.8750    89.1720    25.1370     8.4720     6.0450     8.5300     2.2850   -27.1120 
   76.0000    88.6230    25.0580     6.9000     5.6820     7.9400     2.2450   -27.3600 
   76.1250    87.2570    25.0400     6.5640     5.4070     7.5950     2.2060   -27.6560 
   76.2500    87.0070    25.0110     6.6170     5.2850     7.5590     2.1820   -27.9590 
   76.3750    86.9940    24.9280     6.6740     5.3320     7.8170     2.1700   -28.2180 
   76.5000    83.8270    24.8370     6.7700     5.5120     8.2760     2.1670   -28.3930 
   76.6250    80.8230    24.7510     6.9590     5.7430     8.7610     2.1680   -28.4410 
   76.7500    81.0730    24.5730     7.0700     5.9090     9.0650     2.1660   -28.4010 
   76.8750    82.2340    24.3060     7.0260     5.9340     9.0590     2.1600   -28.2910 
   77.0000    82.7730    24.1220     6.8600     5.7880     8.7080     2.1600   -28.1280 
   77.1250    82.7530    24.2530     6.6320     5.4900     8.0860     2.1750   -27.9550 
   77.2500    84.0060    24.5910     6.4160     5.1770     7.4950     2.1920   -27.8100 
   77.3750    85.5510    24.9160     6.2390     4.9850     7.2070     2.1980   -27.7190 
   77.5000    85.4200    25.0870     6.1080     5.0320     7.4270     2.1940   -27.6930 
   77.6250    82.1350    25.1140     6.3210     5.4400     8.3490     2.2050   -27.7590 
   77.7500    76.5200    25.1140     7.5220     6.1430     9.7830     2.2470   -27.9060 
   77.8750    71.0900    25.1120    10.0650     7.0100    11.4060     2.3090   -28.1530 
   78.0000    68.4970    25.1050    12.7080     7.7780    12.6350     2.3530   -28.4870 
   78.1250    69.8660    25.1020    12.8070     8.0430    12.6990     2.3390   -28.8790 
   78.2500    72.9000    25.1050    10.9180     7.7900    11.8260     2.2860   -29.2830 
   78.3750    74.8260    25.1080     9.0060     7.2210    10.5910     2.2300   -29.6940 
   78.5000    74.0590    25.1050     7.9680     6.6080     9.5300     2.1920   -30.0970 
   78.6250    69.8550    25.0970     7.5410     6.1840     8.9690     2.1710   -30.4940 
   78.7500    64.2870    25.0880     7.3310     5.9780     8.8050     2.1620   -30.8650 
   78.8750    60.0960    25.1020     7.2680     5.9460     8.8830     2.1630   -31.1790 
   79.0000    57.8740    25.1490     7.3140     6.0070     9.0370     2.1640   -31.3990 
   79.1250    57.7560    25.2080     7.4250     6.0860     9.1350     2.1510   -31.4910 
   79.2500    59.4950    25.2410     7.4830     6.1360     9.1210     2.1280   -31.4460 
   79.3750    63.7600    25.2420     7.3990     6.1420     8.9630     2.1100   -31.2150 
   79.5000    69.5360    25.2240     7.1910     6.1030     8.6630     2.1110   -30.7840 
   79.6250    73.7520    25.2130     6.9460     6.0110     8.2460     2.1380   -30.1340 
   79.7500    76.6120    25.2230     6.7080     5.8670     7.7930     2.1730   -29.3050 
   79.8750    78.7270    25.2440     6.4720     5.6670     7.3490     2.1990   -28.3410 
   80.0000    80.7230    25.2400     6.1970     5.4220     6.9360     2.2100   -27.3210 
   80.1250    83.4040    25.1600     5.8260     5.1500     6.5620     2.2140   -26.3430 
   80.2500    86.2400    25.0350     5.4290     4.8860     6.2210     2.2210   -25.4740 
   80.3750    88.6990    24.9210     5.1110     4.6550     5.9310     2.2290   -24.7820 
   80.5000    90.4700    24.8610     4.9000     4.4790     5.7200     2.2320   -24.3020 
   80.6250    91.4180    24.8690     4.7720     4.3900     5.6350     2.2270   -24.0660 
   80.7500    89.1680    24.9050     4.7410     4.3840     5.6770     2.2270   -24.0370 
   80.8750    84.3240    24.9350     4.8760     4.4670     5.8590     2.2340   -24.1620 
   81.0000    80.9470    24.9300     5.1730     4.6300     6.1770     2.2380   -24.3660 
   81.1250    82.6740    24.9020     5.4790     4.8470     6.5780     2.2210   -24.5350 
   81.2500    86.5950    24.8950     5.6630     5.0370     6.9110     2.1940   -24.6030 
   81.3750    89.8400    24.9270     5.8000     5.1170     7.0270     2.1790   -24.5080 
   81.5000    92.1510    24.9730     5.9110     5.0340     6.8480     2.1900   -24.2600 
   81.6250    97.3390    24.9950     5.6860     4.7870     6.4190     2.2230   -23.8660 
   81.7500   102.9660    25.0080     5.0870     4.4910     5.9730     2.2560   -23.3970 
   81.8750   104.1040    25.0240     4.4880     4.2330     5.6590     2.2710   -22.9030 
   82.0000   100.1660    25.0280     4.2740     4.0650     5.5260     2.2650   -22.4230 
   82.1250    97.6610    24.9910     4.4600     3.9980     5.5390     2.2520   -22.0040 
   82.2500    98.7580    24.9400     4.6390     3.9780     5.5550     2.2510   -21.6760 
   82.3750    99.3330    24.9150     4.5870     3.9530     5.4750     2.2680   -21.4830 
   82.5000    97.7580    24.9350     4.3470     3.8930     5.2740     2.2930   -21.4240 
   82.6250    94.6150    24.9980     4.1360     3.8090     5.0430     2.3050   -21.4680 
   82.7500    89.5630    25.1330     4.0600     3.7580     4.9270     2.2960   -21.5400 
   82.8750    84.2800    25.3560     4.1110     3.7800     4.9980     2.2740   -21.5920 
   83.0000    82.6890    25.6100     4.3170     3.8880     5.2560     2.2520   -21.5820 
   83.1250    86.4550    25.9430     4.6260     4.0670     5.6270     2.2350   -21.5140 
   83.2500    89.8320    26.2790     4.7690     4.2380     5.9310     2.2240   -21.3960 
   83.3750    91.1530    26.3750     4.7110     4.3280     6.0320     2.2170   -21.2500 
   83.5000    93.3930    26.1460     4.6730     4.2830     5.8740     2.2190   -21.0660 
   83.6250    97.3770    25.8720     4.7370     4.0820     5.4850     2.2350   -20.8890 
   83.7500    98.4530    25.8200     4.6190     3.8270     5.0780     2.2570   -20.7990 
   83.8750    95.6230    25.8950     4.2600     3.6360     4.8580     2.2690   -20.8740 
   84.0000    91.2610    25.9780     3.9490     3.6160     4.9970     2.2700   -21.1810 
   84.1250    85.7370    26.0380     4.4830     3.8800     5.6680     2.2810   -21.7260 
   84.2500    78.0400    26.0150     6.3950     4.4000     6.7730     2.3150   -22.4260 
   84.3750    71.2900    25.9650     9.1430     5.1130     8.1240     2.3500   -23.2140 
