~V
VERS. 2.00: Ver 2.00
~W
STRT.M 60.0000:
STOP.M 264.0000:
STEP.M 0.1250:
NULL. -999.2500:
UWI. DF32130:
~C
DEPT.M :
SP.MV :
GR.API :
CALI.CM :
RXO.OHMM :
RI. :
RML.OHMM :
DEN.GM/CC :
~A
# ...
   82.5000   -19.5320    96.1610    23.5870     4.8180     4.0720     6.1150     2.3210 
   82.6250   -19.2610    96.3870    23.7270     4.9890     3.9920     6.0080     2.3210 
   82.7500   -18.9800    96.3980    23.7580     5.2490     4.0290     6.1360     2.3070 
   82.8750   -18.7770    95.1260    23.7560     5.4450     4.1390     6.4230     2.2930 
   83.0000   -18.7580    93.3130    23.7510     5.4020     4.2640     6.7490     2.2850 
   83.1250   -18.8870    93.2130    23.7490     5.2950     4.3490     6.9570     2.2840 
   83.2500   -18.9980    93.0240    23.7430     5.1960     4.3720     6.9960     2.2890 
   83.3750   -19.0690    91.7050    23.7140     5.1960     4.3350     6.8930     2.2980 
   83.5000   -19.1420    91.3740    23.6660     5.2400     4.2670     6.7150     2.3050 
   83.6250   -19.2900    94.1560    23.5850     5.1550     4.2180     6.5520     2.3110 
   83.7500   -19.5380    97.9240    23.4220     5.0860     4.2280     6.4970     2.3130 
   83.8750   -19.8190    99.3880    23.0850     5.1320     4.3230     6.6210     2.3070 
   84.0000   -20.0080    97.5630    22.6620     5.2580     4.5210     6.9510     2.2880 
   84.1250   -20.0740    94.0550    22.3430     5.5390     4.8260     7.4500     2.2600 
   84.2500   -20.1390    92.3310    22.1580     6.0610     5.1550     7.9590     2.2320 
   84.3750   -20.2280    91.5930    22.0880     6.8440     5.4140     8.3320     2.2060 
   84.5000   -20.2520    89.7140    22.0720     7.3370     5.5290     8.4580     2.1890 
   84.6250   -20.1190    88.4580    22.0740     6.9790     5.4470     8.2970     2.1990 
   84.7500   -19.8950    90.1150    22.0710     6.4430     5.2360     7.9780     2.2360 
   84.8750   -19.6340    93.1320    22.0680     6.4310     4.9500     7.5870     2.2800 
   85.0000   -19.3610    95.5640    22.0780     6.9220     4.6240     7.1640     2.3050 
   85.1250   -19.0610    99.3860    22.2020     6.7600     4.2800     6.7140     2.3010 
   85.2500   -18.7510   105.6960    22.5450     5.7410     3.9650     6.2590     2.2910 
   85.3750   -18.4880   110.5840    23.0210     4.6980     3.7330     5.8680     2.2870 
   85.5000   -18.3730   110.2540    23.3290     4.2350     3.6370     5.6490     2.2870 
   85.6250   -18.4710   104.5130    23.4380     4.2780     3.7440     5.7800     2.2830 
   85.7500   -18.6720    96.7810    23.4790     4.6430     4.0440     6.2700     2.2810 
   85.8750   -18.9370    90.7690    23.4820     5.1940     4.5120     7.0630     2.2880 
   86.0000   -19.3060    85.8780    23.4520     5.7480     5.0760     7.9900     2.3060 
   86.1250   -19.7870    81.1440    23.3100     6.2060     5.5890     8.7320     2.3250 
   86.2500   -20.3070    77.2950    22.9540     6.4610     5.9390     9.0890     2.3310 
   86.3750   -20.8270    75.5820    22.3390     6.5320     6.1080     9.0830     2.3160 
   86.5000   -21.3070    75.9700    21.6940     6.6670     6.1560     8.9080     2.2840 
   86.6250   -21.7110    76.5730    21.4380     6.8110     6.1690     8.7870     2.2470 
   86.7500   -21.9780    75.8160    21.3790     6.9100     6.1920     8.7810     2.2190 
   86.8750   -22.1220    73.2910    21.3790     7.0270     6.2170     8.8320     2.2030 
   87.0000   -22.1740    71.0120    21.3870     7.1830     6.2160     8.8320     2.1980 
   87.1250   -22.1960    72.5460    21.4140     7.0480     6.1670     8.7090     2.2060 
   87.2500   -22.2040    76.3830    21.4550     6.6500     6.1120     8.5660     2.2240 
   87.3750   -22.1750    80.5360    21.4770     6.2810     6.0950     8.5220     2.2430 
   87.5000   -22.0940    81.8180    21.4820     6.1960     6.1310     8.6290     2.2540 
   87.6250   -21.9340    77.6740    21.4840     6.5270     6.1900     8.8390     2.2520 
   87.7500   -21.7770    74.7760    21.5060     7.0420     6.1860     8.9820     2.2410 
   87.8750   -21.6150    77.3970    21.6060     7.2710     6.0510     8.9020     2.2320 
   88.0000   -21.4420    82.0660    21.9250     7.1050     5.7560     8.5280     2.2320 
   88.1250   -21.2310    83.5620    22.5890     6.5070     5.3230     7.9000     2.2470 
   88.2500   -21.0110    84.8640    23.3300     5.9580     4.8740     7.2380     2.2690 
   88.3750   -20.8330    85.0140    23.7500     5.5760     4.5290     6.7420     2.2860 
   88.5000   -20.7580    80.3050    23.8590     5.3880     4.4200     6.5990     2.2960 
   88.6250   -20.8500    75.0360    23.7960     5.5210     4.7440     7.0740     2.3050 
   88.7500   -21.0720    75.5020    23.6420     6.3630     5.5380     8.2360     2.3290 
   88.8750   -21.4000    78.7510    23.4500     8.8960     6.8390    10.1690     2.3720 
   89.0000   -21.7950    78.7360    23.2940    13.2100     8.5380    12.7450     2.4310 
   89.1250   -22.3050    75.5890    23.0580    15.5380    10.1370    15.0670     2.4780 
   89.2500   -22.8540    72.3710    22.6440    14.1150    10.9490    15.8790     2.4780 
   89.3750   -23.3480    69.6830    22.2000    11.2410    10.7440    14.9880     2.4210 
   89.5000   -23.7900    69.0110    21.9020     9.5410     9.8710    13.3210     2.3300 
   89.6250   -24.1360    72.0410    21.8160     9.0530     8.9140    11.9140     2.2540 
   89.7500   -24.3940    74.8070    21.8340     8.8510     8.2160    11.0430     2.2140 
   89.8750   -24.6290    74.2910    21.9120     8.6610     7.8130    10.6150     2.2010 
   90.0000   -24.8450    70.8680    21.9810     8.5200     7.6210    10.4610     2.1980 
   90.1250   -24.9890    69.5830    22.0360     8.5030     7.5440    10.4370     2.1950 
   90.2500   -25.0220    71.0820    22.0740     8.5120     7.5060    10.4350     2.1920 
   90.3750   -25.0650    72.8050    22.0930     8.4750     7.4940    10.4390     2.1920 
   90.5000   -25.1140    72.0530    22.0940     8.3980     7.4840    10.4320     2.1970 
   90.6250   -25.1350    70.0350    22.0940     8.3310     7.4380    10.3780     2.2090 
   90.7500   -25.1260    70.4020    22.0980     8.2530     7.3590    10.2810     2.2210 
   90.8750   -25.0800    72.1240    22.1020     8.1520     7.2750    10.1730     2.2240 
   91.0000   -25.0650    72.5650    22.1060     7.9990     7.2130    10.1130     2.2170 
   91.1250   -25.0180    71.9000    22.1090     7.9130     7.1940    10.1480     2.2030 
   91.2500   -24.9700    71.8970    22.1100     7.9590     7.1900    10.2210     2.1910 
   91.3750   -24.9140    72.1910    22.1060     8.1200     7.1540    10.2360     2.1880 
   91.5000   -24.8330    72.2370    22.1020     8.3450     7.0480    10.1000     2.1970 
   91.6250   -24.7480    74.2480    22.0990     8.4650     6.8770     9.7940     2.2180 
   91.7500   -24.6680    77.3670    22.0960     8.3070     6.7190     9.4870     2.2400 
   91.8750   -24.6300    78.3390    22.0980     8.0290     6.6410     9.3350     2.2570 
   92.0000   -24.6070    76.1990    22.0990     8.0780     6.6920     9.4430     2.2700 
   92.1250   -24.6100    72.9310    22.0950     8.6910     6.9070     9.8500     2.2830 
   92.2500   -24.6290    69.3970    22.0920     9.1480     7.2030    10.3610     2.2940 
   92.3750   -24.6610    64.9940    22.0920     9.2680     7.4610    10.7330     2.2930 
   92.5000   -24.6560    61.0990    22.0920     9.1520     7.5550    10.7590     2.2710 
   92.6250   -24.6140    60.8430    22.0920     8.8700     7.4110    10.3910     2.2300 
   92.7500   -24.6170    62.7780    22.0920     8.4510     7.1510     9.9070     2.1930 
   92.8750   -24.5740    66.1170    22.0920     7.9400     6.8870     9.5030     2.1740 
   93.0000   -24.4670    70.4760    22.0920     7.5320     6.7070     9.2810     2.1680 
   93.1250   -24.3680    75.2760    22.0920     7.4520     6.6590     9.2670     2.1680 
   93.2500   -24.2990    76.8810    22.0920     7.4850     6.6800     9.3480     2.1730 
   93.3750   -24.1990    74.2140    22.0920     7.4190     6.7170     9.4300     2.1810 
   93.5000   -24.0950    71.7660    22.0920     7.3180     6.7460     9.4600     2.1850 
   93.6250   -24.0520    72.4790    22.0920     7.3700     6.7700     9.4390     2.1810 
