~V
VERS. 2.00: Ver 2.00
~W
STRT.M 62.0000:
STOP.M 235.0000:
STEP.M 0.1250:
NULL. -999.2500:
UWI. DF32059:
~C
DEPT.M :
SP.MV :
GR.API :
CALI.CM :
RXO.OHMM :
RI. :
RML.OHMM :
DEN.GM/CC :
~A
# ...
  140.7500   -16.2720    68.7690    23.5960    12.8420    13.7950    15.6450     2.4890 
  140.8750   -16.2380    68.2130    23.5390    11.9180    13.5650    15.2980     2.4880 
  141.0000   -16.2020    68.6130    23.4570    11.7050    13.3000    15.0280     2.4960 
  141.1250   -16.1770    67.2880    23.3760    12.4110    13.0430    14.8630     2.4970 
  141.2500   -16.1740    64.8340    23.2770    12.9980    12.8460    14.7520     2.4900 
  141.3750   -16.1760    64.3940    23.2140    12.9010    12.7760    14.7140     2.4840 
  141.5000   -16.1960    66.5140    23.2790    12.3880    12.8990    14.8350     2.4850 
  141.6250   -16.2290    69.5620    23.4220    12.5530    13.2840    15.2710     2.4830 
  141.7500   -16.2410    70.5570    23.5520    13.7700    13.8750    16.0220     2.4780 
  141.8750   -16.2400    68.2770    23.6020    15.3660    14.6190    17.0130     2.4730 
  142.0000   -16.2320    65.3610    23.7600    16.6400    15.4140    18.0570     2.4730 
  142.1250   -16.2210    63.7200    24.0820    16.8670    16.0770    18.8320     2.4740 
  142.2500   -16.1890    63.0980    24.2300    16.4710    16.4880    19.2060     2.4710 
  142.3750   -16.1480    64.7820    24.1030    16.1420    16.6220    19.2300     2.4710 
  142.5000   -16.0610    69.0190    23.9820    16.1490    16.5510    19.0800     2.4740 
  142.6250   -15.9740    70.4160    23.9500    16.0300    16.4080    18.9520     2.4760 
  142.7500   -15.8750    64.5160    23.9080    15.8830    16.3340    18.9360     2.4750 
  142.8750   -15.7940    56.2780    23.8840    15.9510    16.3690    19.0150     2.4780 
  143.0000   -15.7200    51.3070    23.8490    16.2630    16.4600    19.1030     2.4890 
  143.1250   -15.6330    50.9590    23.8190    16.6600    16.4710    19.0690     2.4970 
  143.2500   -15.5460    52.8830    23.8070    16.8820    16.3460    18.8940     2.4930 
  143.3750   -15.4680    55.8830    23.8050    16.9240    16.1330    18.6430     2.4840 
  143.5000   -15.4270    58.2060    23.8050    16.6110    15.9560    18.4310     2.4830 
  143.6250   -15.3780    57.5230    23.8050    16.2390    15.9720    18.4040     2.4980 
  143.7500   -15.3510    56.5390    23.8050    16.2460    16.1850    18.5770     2.5190 
  143.8750   -15.3230    58.0490    23.8050    16.8190    16.5090    18.8800     2.5410 
  144.0000   -15.3110    61.1830    23.8050    17.2810    16.8100    19.1710     2.5580 
  144.1250   -15.3160    61.5950    23.8050    17.1860    16.9380    19.2550     2.5640 
  144.2500   -15.3410    59.1160    23.8050    17.2200    16.9070    19.0950     2.5510 
  144.3750   -15.3720    57.3970    23.8050    17.2880    16.7970    18.7580     2.5210 
  144.5000   -15.3960    58.0080    23.8050    16.9130    16.7160    18.3890     2.4910 
  144.6250   -15.4410    57.5880    23.8050    16.3110    16.7420    18.1390     2.4900 
  144.7500   -15.4850    56.1150    23.8140    15.8870    16.8340    18.0230     2.5160 
  144.8750   -15.5290    57.6920    23.8460    15.8550    16.9270    17.9880     2.5490 
  145.0000   -15.5790    60.7720    23.9150    16.0640    16.9720    17.9670     2.5640 
  145.1250   -15.6500    60.7470    23.9250    15.8040    16.9420    17.8910     2.5560 
  145.2500   -15.7290    59.7980    23.9210    15.3250    16.8270    17.7160     2.5420 
  145.3750   -15.8310    61.1600    23.9120    14.9880    16.5410    17.3600     2.5330 
  145.5000   -15.9390    62.1770    23.9080    14.6920    15.9390    16.6890     2.5330 
  145.6250   -16.0780    60.1220    23.9060    14.2120    14.8890    15.5770     2.5380 
  145.7500   -16.2260    59.4080    23.9060    13.3140    13.6420    14.2700     2.5440 
  145.8750   -16.4010    61.1610    23.9170    11.9380    12.5430    13.1170     2.5440 
  146.0000   -16.6040    62.4580    23.9460    10.4530    11.9250    12.4750     2.5260 
  146.1250   -16.8440    61.5380    24.0010     9.8490    12.1410    12.7610     2.4860 
  146.2500   -17.1170    63.0340    24.0670    11.3520    13.1360    13.9440     2.4420 
  146.3750   -17.4120    69.8110    24.1320    15.2840    14.8450    15.9320     2.4120 
  146.5000   -17.7570    78.4810    24.1950    20.3630    17.1040    18.4730     2.3940 
  146.6250   -18.1310    82.1890    24.2530    23.2770    19.6770    21.1870     2.3830 
  146.7500   -18.5500    81.4400    24.3310    23.9730    22.3070    23.8120     2.3740 
  146.8750   -19.0010    79.8140    24.3830    24.5640    25.0950    26.5720     2.3610 
  147.0000   -19.4770    77.3250    24.3650    29.3750    28.5160    30.0840     2.3410 
  147.1250   -19.9620    73.2340    24.2930    38.5560    33.6580    35.5490     2.3130 
  147.2500   -20.4590    69.1400    24.3020    47.8500    41.1850    43.5990     2.2870 
  147.3750   -20.9700    66.8550    24.3490    56.0200    51.8230    54.0860     2.2680 
  147.5000   -21.4600    67.1360    24.3550    71.1060    66.0310    68.7600     2.2520 
  147.6250   -21.9360    68.3660    24.3890    97.8700    84.0720    87.7130     2.2330 
  147.7500   -22.3720    68.5060    24.4660   125.8770   103.9800   108.6260     2.2100 
  147.8750   -22.7620    68.0600    24.5980   143.7660   123.3530   128.9780     2.1920 
  148.0000   -23.1190    67.6630    24.6260   152.3000   138.7380   145.1400     2.1820 
  148.1250   -23.4560    67.6420    24.4900   153.1720   144.8840   151.5960     2.1780 
  148.2500   -23.7810    67.3270    24.2770   150.3220   141.9530   148.5180     2.1740 
  148.3750   -24.0510    67.2940    24.1430   141.9060   132.2990   138.3760     2.1700 
  148.5000   -24.3150    67.3810    24.0790   126.3710   119.7880   125.2320     2.1720 
  148.6250   -24.5490    66.7610    24.0320   109.0150   108.4860   113.3600     2.1870 
  148.7500   -24.8120    67.4900    24.0080    98.0800   100.3580   104.8220     2.2030 
  148.8750   -25.0830    69.0760    23.9940    94.8510    95.6310    99.8560     2.2110 
  149.0000   -25.3390    70.3660    23.9650    94.6540    93.5080    97.6260     2.2080 
  149.1250   -25.5650    70.1980    23.8910    94.2250    92.8470    96.9310     2.2030 
  149.2500   -25.7480    68.9420    23.8120    96.0770    92.4450    96.5090     2.2040 
  149.3750   -25.9450    68.3070    23.7500    95.5290    91.9900    96.0310     2.2090 
  149.5000   -26.1200    68.1640    23.7180    89.3430    91.5180    95.5350     2.2100 
  149.6250   -26.3050    68.2870    23.7050    82.7570    91.3760    95.3860     2.2070 
  149.7500   -26.4430    67.8840    23.7000    83.2540    92.0130    96.0550     2.2050 
  149.8750   -26.5910    67.9430    23.7080    88.9710    94.0270    98.1710     2.2060 
  150.0000   -26.7480    70.2490    23.7270    90.8430    98.1300   102.4810     2.2060 
  150.1250   -26.9130    73.0400    23.7560    86.7350   105.5130   110.2370     2.2000 
  150.2500   -27.0990    74.7790    23.7850    90.9010   115.9060   121.1540     2.1900 
  150.3750   -27.2760    74.6720    23.7890   113.3790   128.6410   134.5330     2.1810 
  150.5000   -27.4620    73.6720    23.7850   146.7700   142.1120   148.6850     2.1790 
  150.6250   -27.6310    71.6640    23.7680   163.3590   153.0920   160.2190     2.1910 
  150.7500   -27.8430    68.7330    23.7360   154.5140   159.1010   166.5310     2.2070 
  150.8750   -28.0740    66.4150    23.7030   137.3320   159.3240   166.7650     2.2180 
  151.0000   -28.3160    65.8480    23.6860   128.4570   155.1810   162.4130     2.2200 
  151.1250   -28.5920    68.5130    23.6630   127.1210   149.5130   156.4590     2.2170 
  151.2500   -28.8800    71.0440    23.6220   123.8470   144.9380   151.6530     2.2160 
  151.3750   -29.1870    70.5260    23.5770   119.7310   142.2190   148.7960     2.2160 
  151.5000   -29.5180    66.6340    23.5280   120.0770   141.2080   147.7350     2.2140 
  151.6250   -29.8550    64.1830    23.4720   124.8470   141.4760   148.0160     2.2100 
  151.7500   -30.1860    66.1310    23.4230   125.4090   142.2890   148.8700     2.2080 
  151.8750   -30.4940    69.6460    23.4050   119.8570   143.3950   150.0320     2.2090 
