~V
VERS. 2.00: Ver 2.00
~W
STRT.M 61.0000:
STOP.M 262.0000:
STEP.M 0.1250:
NULL. -999.2500:
UWI. DF32115:
~C
DEPT.M :
GR.API :
CALI.CM :
RXO.OHMM :
RI. :
RML.OHMM :
DEN.GM/CC :
SP.MV :
~A
# ...
  218.5000   111.2110    25.1840     8.3040     7.1120     9.0020     2.4770   -17.8710 
  218.6250   111.7780    25.1780     7.9830     7.0950     8.9470     2.4710   -17.7600 
  218.7500   110.6330    25.1740     7.5730     7.0130     8.8390     2.4600   -17.6730 
  218.8750   108.3140    25.1740     7.4780     6.9020     8.7340     2.4390   -17.5900 
  219.0000   107.2500    25.1740     7.6840     6.7870     8.6400     2.4120   -17.5140 
  219.1250   108.4510    25.1690     7.8280     6.6730     8.5190     2.3900   -17.4570 
  219.2500   107.8980    25.1620     7.7550     6.5630     8.3600     2.3740   -17.4220 
  219.3750   105.4330    25.1610     7.6060     6.5010     8.2560     2.3660   -17.4160 
  219.5000   104.2320    25.1790     7.6030     6.5990     8.4500     2.3700   -17.4660 
  219.6250   102.6380    25.2310     8.1530     7.1510     9.5040     2.3890   -17.6110 
  219.7500    97.8390    25.2760     9.9590     8.4640    11.8630     2.4050   -17.8630 
  219.8750    89.7730    25.2790    14.7220    11.0960    16.1910     2.3980   -18.2370 
  220.0000    80.9270    25.2590    25.7360    15.9350    23.4080     2.3600   -18.7200 
  220.1250    74.8740    25.2710    45.8390    24.8600    35.5860     2.3130   -19.3170 
  220.2500    72.4330    25.3050    61.2930    38.0430    53.0590     2.2810   -19.9810 
  220.3750    71.9760    25.3090    62.3620    54.5510    75.0330     2.2660   -20.6890 
  220.5000    69.5040    25.2740    56.9260    72.0410    98.4050     2.2570   -21.4130 
  220.6250    63.9760    25.2440    65.6850    88.1820   119.3480     2.2460   -22.1270 
  220.7500    58.5120    25.2380    88.1180   102.8340   137.9820     2.2350   -22.8040 
  220.8750    54.1810    25.3250   107.9170   116.1790   155.4500     2.2320   -23.4410 
  221.0000    52.5710    25.4610   112.2570   127.6710   171.3760     2.2400   -24.0240 
  221.1250    55.3680    25.4700   107.4650   135.7580   183.1560     2.2560   -24.5340 
  221.2500    59.6100    25.3470   109.1130   141.1790   191.2180     2.2650   -25.0030 
  221.3750    62.0750    25.2430   117.8650   145.6770   197.8740     2.2600   -25.4530 
  221.5000    60.7540    25.2470   127.9360   150.8880   205.2190     2.2460   -25.8790 
  221.6250    57.5450    25.2600   130.7720   157.1870   213.3810     2.2350   -26.2800 
  221.7500    55.3000    25.2380   127.1780   163.7010   221.1550     2.2310   -26.6740 
  221.8750    55.5320    25.2310   123.4270   170.1440   228.2410     2.2350   -27.0720 
  222.0000    57.1920    25.2350   124.3500   176.8490   235.3070     2.2420   -27.4940 
  222.1250    57.7990    25.2430   128.7410   184.7320   243.7170     2.2440   -27.9450 
  222.2500    58.0100    25.2630   130.3510   193.6230   253.0110     2.2340   -28.4380 
  222.3750    58.5380    25.2950   127.8400   201.6120   259.8400     2.2150   -28.9790 
  222.5000    58.7000    25.3040   125.2380   205.0520   258.4700     2.1980   -29.5730 
  222.6250    57.5430    25.2620   125.9990   198.8380   242.6400     2.1960   -30.2240 
  222.7500    55.9970    25.2050   123.4440   184.2740   217.4170     2.2080   -30.8880 
  222.8750    56.1320    25.1650   112.0340   164.9740   189.7490     2.2260   -31.5040 
  223.0000    56.9990    25.1360    95.4440   145.6840   165.5290     2.2450   -32.0570 
  223.1250    57.3890    25.0920    83.7100   130.7450   148.3960     2.2610   -32.5330 
  223.2500    57.6370    25.0470    78.6400   120.4450   136.8030     2.2720   -32.8890 
  223.3750    58.6510    25.0210    77.2490   113.8310   129.0900     2.2750   -33.1170 
  223.5000    61.1850    25.0130    76.4140   109.4300   123.4730     2.2660   -33.2380 
  223.6250    64.5730    25.0130    74.2080   105.9480   118.6090     2.2550   -33.2470 
  223.7500    66.6880    25.0120    70.8100   102.6820   114.0720     2.2530   -33.1820 
  223.8750    66.7570    25.0090    67.1360    99.9890   110.5170     2.2640   -33.0860 
  224.0000    65.6570    25.0070    64.5800    98.7190   108.9610     2.2800   -32.9840 
  224.1250    65.7920    25.0080    65.6110   100.3420   110.9500     2.2860   -32.8560 
  224.2500    65.5060    25.0090    70.8310   105.2730   116.6840     2.2770   -32.7280 
  224.3750    63.6300    25.0070    78.6870   113.7590   126.3330     2.2590   -32.5890 
  224.5000    61.9410    25.0050    86.1620   125.2500   139.3220     2.2490   -32.4320 
  224.6250    62.0790    25.0000    92.8230   137.8220   153.4500     2.2580   -32.2480 
  224.7500    61.7230    24.9730   101.6770   147.6230   163.8690     2.2710   -32.0520 
  224.8750    60.4960    24.9180   111.1870   150.9710   165.8470     2.2680   -31.8190 
  225.0000    59.8360    24.8440   114.8810   146.2190   158.0710     2.2530   -31.5540 
  225.1250    60.6140    24.7760   107.8670   135.1150   144.5120     2.2440   -31.2820 
  225.2500    61.3650    24.7260    95.8050   123.7660   132.4960     2.2510   -30.9930 
  225.3750    61.6120    24.6710    84.6830   115.9890   125.4940     2.2640   -30.6960 
  225.5000    62.0110    24.5480    80.3240   113.9220   124.8820     2.2700   -30.3930 
  225.6250    62.3580    24.3390    87.7350   118.9630   131.5150     2.2630   -30.0860 
  225.7500    62.0840    24.1530   100.3160   128.3300   142.3430     2.2490   -29.7390 
  225.8750    60.8800    24.0550   109.1400   138.5720   153.4120     2.2350   -29.3730 
  226.0000    59.6690    24.0260   110.6230   145.1870   159.2470     2.2290   -28.9870 
  226.1250    59.1730    24.0140   107.2020   143.2380   154.3830     2.2330   -28.5520 
  226.2500    58.4650    24.0090   100.2970   134.6350   142.6880     2.2420   -28.0990 
  226.3750    57.0380    24.0190    89.3360   123.3600   129.5640     2.2510   -27.6280 
  226.5000    56.9280    24.0400    78.2380   113.5250   119.2090     2.2580   -27.1570 
  226.6250    59.1280    24.0390    73.1640   108.1730   114.0650     2.2660   -26.7030 
  226.7500    60.8170    24.0000    74.1920   106.8480   113.0510     2.2690   -26.3110 
  226.8750    60.8290    23.9520    79.0330   108.5560   114.9210     2.2560   -25.9650 
  227.0000    61.0670    23.9270    84.7110   111.6540   117.8130     2.2300   -25.6590 
  227.1250    62.1020    23.9260    87.6640   113.6740   118.8820     2.2110   -25.4140 
  227.2500    62.2950    23.9280    86.4480   112.6200   116.1390     2.2130   -25.1950 
  227.3750    62.1460    23.9250    81.9970   107.5950   109.0370     2.2300   -24.9950 
  227.5000    62.0940    23.9050    76.6760    99.1440    98.7560     2.2450   -24.8000 
  227.6250    62.8440    23.8750    70.7890    88.9380    87.5380     2.2510   -24.6070 
  227.7500    66.0950    23.8630    63.3100    79.3260    77.5780     2.2620   -24.3980 
  227.8750    72.0070    23.9330    55.9100    71.7300    70.0870     2.2810   -24.1990 
  228.0000    76.4480    24.1780    51.3650    67.0570    65.7670     2.2950   -24.0050 
  228.1250    74.7050    24.5940    49.7160    66.1810    65.3180     2.2840   -23.8280 
  228.2500    71.6580    24.9430    49.4270    68.3170    67.8310     2.2580   -23.6880 
  228.3750    69.7770    25.0910    52.6510    73.0140    72.7780     2.2290   -23.5840 
  228.5000    67.7430    25.1010    60.3920    79.6280    79.4270     2.2050   -23.4970 
  228.6250    65.8490    25.1030    65.2460    86.9500    86.4450     2.2010   -23.4110 
  228.7500    65.0490    25.1070    62.1560    92.7200    91.5810     2.2180   -23.3140 
  228.8750    63.3530    25.0950    57.2940    94.5520    92.4680     2.2460   -23.2070 
  229.0000    60.1280    25.0900    59.8220    90.6020    87.4250     2.2700   -23.0820 
  229.1250    58.9810    25.1160    67.9260    80.4380    76.5470     2.2820   -22.9290 
  229.2500    62.2360    25.1450    67.2520    68.2550    64.3460     2.2860   -22.7630 
  229.3750    67.8370    25.1590    54.9360    57.4920    54.1610     2.2860   -22.5860 
  229.5000    72.2630    25.1620    40.5750    50.3220    47.9310     2.2850   -22.4240 
  229.6250    73.3320    25.1610    35.2940    48.4820    47.2870     2.2870   -22.2720 
