~V
VERS. 2.00: Ver 2.00
~W
STRT.M 60.0000:
STOP.M 276.0000:
STEP.M 0.1250:
NULL. -999.2500:
UWI. DF32145:
~C
DEPT.M :
SP.MV :
GR.API :
CALI.CM :
RXO.OHMM :
RI. :
RML.OHMM :
DEN.GM/CC :
~A
# ...
  240.0000   -19.1970    66.9470    22.7060    62.2540    49.4050    51.7330     2.3970 
  240.1250   -19.5000    70.4580    22.6150    68.0830    56.0460    59.3340     2.4650 
  240.2500   -19.6970    75.2380    22.8970    69.6640    63.1150    67.5300     2.4870 
  240.3750   -19.8660    79.0180    23.3360    73.5630    69.0790    74.4000     2.4630 
  240.5000   -20.1360    80.4840    23.6120    80.0130    73.0160    78.6460     2.4270 
  240.6250   -20.3820    80.4170    23.7420    84.9680    75.0680    80.4390     2.4160 
  240.7500   -20.5260    80.8570    23.7830    84.1750    76.8680    81.9090     2.4280 
  240.8750   -20.6390    82.4380    23.7950    79.6110    79.6070    84.5150     2.4530 
  241.0000   -20.6790    83.7790    23.8280    81.2290    83.8750    89.0100     2.4930 
  241.1250   -20.6420    83.3240    23.9230    97.0540    89.0480    94.9170     2.5490 
  241.2500   -20.6760    79.9920    24.0450   114.5850    92.3230    98.8200     2.5970 
  241.3750   -20.7780    76.1720    24.0980   133.6750    90.2290    95.9830     2.6160 
  241.5000   -20.9230    76.3070    24.1050   144.5340    80.3650    83.4590     2.5930 
  241.6250   -21.1470    78.4760    24.1050   119.0470    63.4420    63.7780     2.5310 
  241.7500   -21.4080    79.1550    24.1050    74.4510    45.9850    45.0650     2.4570 
  241.8750   -21.6090    80.6610    24.1050    40.4950    31.9070    30.7740     2.3850 
  242.0000   -21.7340    86.9520    24.1010    24.7260    22.2200    21.1670     2.3150 
  242.1250   -21.8760    93.8600    24.0520    17.5760    16.5750    15.6330     2.2500 
  242.2500   -22.0820    93.2470    23.9530    11.8050    13.2260    12.4330     2.2100 
  242.3750   -22.3020    86.3610    23.8650     8.2560    11.4700    10.8750     2.2110 
  242.5000   -22.4780    79.5920    23.8290     7.6770    10.8340    10.4690     2.2440 
  242.6250   -22.5870    78.8090    23.8290     8.5970    11.0300    10.8950     2.2860 
  242.7500   -22.6680    81.4850    23.8290     9.8070    11.5570    11.6010     2.3220 
  242.8750   -22.7390    83.5720    23.8290    10.9160    12.0630    12.1870     2.3560 
  243.0000   -22.8020    85.7700    23.8290    11.8030    12.2660    12.3460     2.3850 
  243.1250   -22.8370    90.3100    23.8290    12.1250    12.0220    11.9650     2.4040 
  243.2500   -22.8110    93.8210    23.8290    11.7390    11.5460    11.3520     2.4090 
  243.3750   -22.7480    92.4550    23.8470    11.1620    11.0330    10.7630     2.4070 
  243.5000   -22.6800    88.3830    23.8970    10.8210    10.6400    10.3920     2.4030 
  243.6250   -22.6650    86.7600    23.9990    10.6260    10.5240    10.4250     2.3910 
  243.7500   -22.7500    87.4390    24.0440    10.7200    10.6850    10.8390     2.3640 
  243.8750   -22.9540    89.1030    24.0580    11.6320    11.0960    11.5780     2.3330 
  244.0000   -23.2530    93.0530    24.0590    13.6030    11.6760    12.5150     2.3180 
  244.1250   -23.6070    99.0030    24.0470    15.2530    12.2840    13.4410     2.3250 
  244.2500   -23.9700   102.6050    23.9930    15.4610    12.7590    14.1610     2.3310 
  244.3750   -24.3150   102.2170    23.8890    14.6500    13.0140    14.5800     2.3220 
  244.5000   -24.6260    99.4350    23.8170    14.0780    13.0340    14.6980     2.2950 
  244.6250   -24.8800    99.0630    23.7920    14.6250    12.8640    14.5850     2.2520 
  244.7500   -25.0530   100.5330    23.7690    15.5260    12.6750    14.4360     2.2130 
  244.8750   -25.1290   100.7590    23.7100    16.2240    12.6290    14.4270     2.2050 
  245.0000   -25.1260    99.0040    23.6280    16.4090    12.8890    14.7520     2.2470 
  245.1250   -25.0570    99.0360    23.5690    16.1390    13.6870    15.7170     2.3300 
  245.2500   -24.9460   100.2620    23.5260    16.1880    15.0390    17.3800     2.4150 
  245.3750   -24.7930    98.3070    23.5100    17.4490    16.9060    19.7190     2.4750 
  245.5000   -24.6070    94.1080    23.5070    20.3900    19.0390    22.4070     2.5010 
  245.6250   -24.4170    92.1320    23.5070    23.7170    20.7380    24.4530     2.5040 
  245.7500   -24.2380    91.8860    23.5070    25.2470    21.3210    24.9170     2.5050 
  245.8750   -24.1060    90.7860    23.5070    24.9420    20.5460    23.5790     2.5050 
  246.0000   -24.0280    89.4550    23.5070    23.5840    18.7540    21.0780     2.4930 
  246.1250   -23.9910    90.3250    23.5070    20.9800    16.6100    18.4120     2.4630 
  246.2500   -23.9520    93.1040    23.5020    17.6500    14.7120    16.2410     2.4230 
  246.3750   -23.8940    97.1090    23.4820    15.0460    13.2560    14.7240     2.3840 
  246.5000   -23.8510    99.3590    23.4380    13.7170    12.2470    13.8000     2.3590 
  246.6250   -23.8110    97.4650    23.3910    12.8200    11.5910    13.2990     2.3530 
  246.7500   -23.6950    93.6350    23.2950    11.8830    11.0170    12.8310     2.3550 
  246.8750   -23.4740    89.5030    23.0130    11.0250    10.3550    12.1470     2.3570 
  247.0000   -23.1980    86.1420    22.5000    10.1260     9.5400    11.1620     2.3540 
  247.1250   -22.8920    83.1640    22.1150     9.0710     8.6510    10.0150     2.3520 
  247.2500   -22.5910    79.7060    22.1210     7.9990     7.8570     8.9880     2.3530 
  247.3750   -22.3550    76.7220    22.5180     7.3100     7.2610     8.2340     2.3580 
  247.5000   -22.2040    76.9370    23.0850     7.1070     6.9040     7.8060     2.3600 
  247.6250   -22.1050    82.5960    23.5750     7.2450     6.7930     7.7140     2.3580 
  247.7500   -22.0610    86.5830    23.7570     7.4140     6.8180     7.8050     2.3540 
  247.8750   -22.1030    85.7710    23.7940     7.6250     6.8990     7.9620     2.3450 
  248.0000   -22.2160    82.4790    23.7950     7.9710     6.9890     8.1020     2.3270 
  248.1250   -22.3380    81.5830    23.7950     8.3890     7.1200     8.2490     2.3110 
  248.2500   -22.5210    85.3710    23.7950     8.7770     7.3730     8.5340     2.3110 
  248.3750   -22.7220    90.0780    23.7950     9.1080     7.8270     9.0890     2.3290 
  248.5000   -22.8440    91.1730    23.7950     9.7860     8.5190     9.9930     2.3570 
  248.6250   -22.9570    87.8950    23.7950    11.7000     9.4080    11.2150     2.3850 
  248.7500   -23.0760    84.8650    23.7950    13.8950    10.2250    12.3640     2.4030 
  248.8750   -23.2140    83.4790    23.7950    14.8920    10.6560    12.9400     2.4030 
  249.0000   -23.3140    82.2680    23.7950    14.1750    10.4790    12.5930     2.3810 
  249.1250   -23.5050    82.4130    23.7950    13.1140     9.6980    11.4140     2.3440 
  249.2500   -23.7140    83.5570    23.7950    11.8120     8.7640    10.1360     2.3080 
  249.3750   -23.9550    82.9040    23.7950    10.3510     7.9940     9.2100     2.2800 
  249.5000   -24.2350    79.9780    23.7950     9.1640     7.5690     8.8430     2.2670 
  249.6250   -24.5100    79.5170    23.7950     8.9430     7.5840     9.1110     2.2760 
  249.7500   -24.8060    83.2720    23.7950     9.6010     7.8750     9.7320     2.3010 
  249.8750   -25.0830    87.0250    23.7910    10.9030     8.2570    10.3950     2.3290 
  250.0000   -25.3390    87.6430    23.7810    12.1920     8.5060    10.7300     2.3500 
  250.1250   -25.5440    85.5720    23.7600    12.2980     8.4050    10.4240     2.3610 
  250.2500   -25.7300    81.7480    23.7510    11.2350     8.0410     9.7250     2.3630 
  250.3750   -25.8980    76.1300    23.7490    10.0860     7.5730     8.9490     2.3540 
  250.5000   -26.0840    71.0920    23.7480     9.6200     7.1530     8.3380     2.3380 
  250.6250   -26.2710    71.7150    23.7440     9.5640     6.8930     8.0140     2.3220 
  250.7500   -26.4830    76.5760    23.7370     9.2440     6.7730     7.8890     2.3140 
  250.8750   -26.7130    81.2750    23.7230     8.8140     6.7530     7.8770     2.3100 
  251.0000   -26.9800    82.8160    23.6870     8.4890     6.7770     7.9050     2.3070 
  251.1250   -27.2530    81.8540    23.6420     8.0580     6.8200     7.9610     2.2970 
