~V
VERS. 2.00: Ver 2.00
~W
STRT.M 53.0000:
STOP.M 258.0000:
STEP.M 0.1250:
NULL. -999.2500:
UWI. DF32102:
~C
DEPT.M :
SP.MV :
GR.API :
RML.OHMM :
RI. :
RXO.OHMM :
CALI.CM :
DEN.GM/CC :
~A
# ...
  131.7500   -29.2160    78.2340     7.6890     6.4720     6.9760    25.1430     2.2550 
  131.8750   -29.2650    80.6540     7.7540     6.6020     7.6730    25.1110     2.2510 
  132.0000   -29.3540    83.3260     7.6460     6.6050     7.7420    25.0960     2.2560 
  132.1250   -29.3260    86.3160     7.4360     6.4940     6.8440    25.0910     2.2650 
  132.2500   -29.3540    88.0330     7.2650     6.3650     6.2420    25.0880     2.2700 
  132.3750   -29.3900    85.3000     7.2090     6.2840     6.2530    25.0660     2.2660 
  132.5000   -29.3780    78.5330     7.2820     6.2760     6.6900    25.0450     2.2530 
  132.6250   -29.2780    73.7210     7.4320     6.3170     7.1380    25.1700     2.2390 
  132.7500   -29.2290    74.8400     7.5300     6.3220     7.1530    25.4270     2.2340 
  132.8750   -29.2030    79.5880     7.4760     6.2210     7.1620    25.5610     2.2410 
  133.0000   -29.1460    84.1670     7.2160     5.9700     6.9760    25.4430     2.2610 
  133.1250   -29.1510    86.7010     6.7570     5.5690     6.4030    25.2060     2.2890 
  133.2500   -29.0950    87.6690     6.2670     5.1350     5.9390    25.1050     2.3160 
  133.3750   -29.0890    87.3460     5.9240     4.7990     5.5140    25.0840     2.3400 
  133.5000   -29.1710    87.5340     5.9080     4.7020     5.1800    25.0820     2.3640 
  133.6250   -29.3240    89.3680     6.4470     5.0370     5.2960    25.0530     2.3980 
  133.7500   -29.5500    89.8150     7.4700     5.7810     6.6450    24.9450     2.4420 
  133.8750   -29.8580    87.7400     8.8160     6.8400     9.9700    24.7180     2.4880 
  134.0000   -30.2390    85.0450    10.1660     7.9890    13.6570    24.4020     2.5170 
  134.1250   -30.6560    83.8440    11.0120     8.8420    16.5490    24.2100     2.5070 
  134.2500   -31.1610    82.1280    11.1510     9.1730    16.6600    24.1630     2.4590 
  134.3750   -31.6110    78.7850    10.6720     8.9690    13.4100    24.1640     2.3880 
  134.5000   -31.9610    74.2340     9.9270     8.4360    10.3150    24.1780     2.3140 
  134.6250   -32.3570    71.4450     9.3330     7.8800     9.1970    24.2920     2.2580 
  134.7500   -32.6530    73.5190     9.0260     7.4880     8.8110    24.5610     2.2220 
  134.8750   -32.8260    78.4870     8.9650     7.2910     8.9180    24.8780     2.2050 
  135.0000   -32.9860    81.7130     9.0530     7.2500     9.3240    25.0510     2.2000 
  135.1250   -33.0080    80.1830     9.1960     7.3150     9.3590    25.0410     2.1990 
  135.2500   -33.0110    77.7840     9.3370     7.4230     9.0950    24.8970     2.1980 
  135.3750   -33.0270    78.4740     9.4780     7.5540     8.9960    24.6910     2.1980 
  135.5000   -32.9860    80.9800     9.6300     7.7030     9.2600    24.6490     2.1980 
  135.6250   -32.8860    80.2090     9.7880     7.8620     9.4290    24.7740     2.1980 
  135.7500   -32.7270    76.8350     9.9210     8.0040     9.3820    24.8670     2.1940 
  135.8750   -32.5040    74.3330     9.9870     8.0960     9.1670    24.8720     2.1860 
  136.0000   -32.1810    74.1730     9.9500     8.1040     9.1030    24.8170     2.1760 
  136.1250   -31.7780    75.7370     9.7680     7.9850     9.0610    24.7360     2.1770 
  136.2500   -31.2530    78.5260     9.4770     7.7640     8.9390    24.6290     2.1950 
  136.3750   -30.6460    81.4360     9.1310     7.4770     8.5020    24.5010     2.2310 
  136.5000   -30.1000    82.5030     8.8090     7.1840     7.9060    24.3490     2.2770 
  136.6250   -29.5110    82.5160     8.5970     6.9510     7.1760    24.1620     2.3190 
  136.7500   -28.9890    83.4860     8.4910     6.7940     6.8910    23.9770     2.3500 
  136.8750   -28.5450    85.9990     8.4480     6.6960     7.3960    23.7810     2.3650 
  137.0000   -28.1160    88.1830     8.4000     6.6240     8.2880    23.6320     2.3650 
  137.1250   -27.8430    87.6470     8.3050     6.5540     8.4840    23.5320     2.3500 
  137.2500   -27.6460    86.5710     8.2190     6.5090     8.3030    23.4580     2.3310 
  137.3750   -27.4770    86.3590     8.2360     6.5470     8.1010    23.3910     2.3160 
  137.5000   -27.2920    86.5980     8.4300     6.7190     7.8030    23.3610     2.3110 
  137.6250   -27.1640    86.3400     8.8050     7.0430     8.0070    23.3620     2.3130 
  137.7500   -26.9750    86.9310     9.2040     7.4130     8.6620    23.3880     2.3110 
  137.8750   -26.6850    87.2160     9.4660     7.7060     9.4180    23.5040     2.2990 
  138.0000   -26.4750    84.1650     9.4620     7.8080     9.4040    23.8550     2.2790 
  138.1250   -26.1710    80.2460     9.1320     7.6340     8.6330    24.3410     2.2620 
  138.2500   -25.8770    79.4370     8.6490     7.2880     7.4070    24.7480     2.2530 
  138.3750   -25.7290    80.5140     8.1640     6.8820     6.7110    24.9010     2.2550 
  138.5000   -25.6080    82.7880     7.7860     6.5130     6.4680    24.9160     2.2640 
  138.6250   -25.6290    85.9390     7.5850     6.2650     6.4630    24.9050     2.2760 
  138.7500   -25.7730    88.7600     7.5370     6.1420     6.6650    24.8980     2.2850 
  138.8750   -26.0810    89.0620     7.6370     6.1530     6.8520    24.8890     2.2890 
  139.0000   -26.5050    85.9170     7.8880     6.3040     6.6690    24.8800     2.2860 
  139.1250   -27.0290    81.1610     8.3070     6.6140     6.7880    24.8140     2.2760 
  139.2500   -27.5800    78.3760     8.8200     7.0300     7.3000    24.6680     2.2620 
  139.3750   -28.0070    79.4940     9.3390     7.4940     8.4570    24.4510     2.2490 
  139.5000   -28.3790    81.6470     9.7700     7.9350     9.4810    24.2840     2.2410 
  139.6250   -28.5990    78.8330    10.0530     8.2930    10.4380    24.2770     2.2410 
  139.7500   -28.6850    73.6180    10.2980     8.6230    10.8250    24.2800     2.2460 
  139.8750   -28.6420    70.1610    10.6860     9.0400    11.0010    24.1910     2.2510 
  140.0000   -28.4220    70.5820    11.3740     9.6710    11.3640    24.0410     2.2530 
  140.1250   -28.0360    71.6090    12.3890    10.5730    12.5180    24.0320     2.2560 
  140.2500   -27.6070    68.0880    13.3830    11.5100    15.4690    24.1780     2.2650 
  140.3750   -27.2020    62.0470    13.9230    12.1540    19.3610    24.2980     2.2790 
  140.5000   -26.7680    60.2360    13.6360    12.1740    20.1530    24.3290     2.2920 
  140.6250   -26.3840    63.8650    12.3500    11.3300    16.2830    24.3090     2.2930 
  140.7500   -26.0790    66.9240    10.7020    10.0380    12.6920    24.3190     2.2830 
  140.8750   -25.8150    68.3650     9.3000     8.7720     9.4600    24.4470     2.2710 
  141.0000   -25.6940    71.6600     8.5300     7.9200     7.2850    24.7160     2.2740 
  141.1250   -25.6520    75.3590     8.5450     7.7210     7.0630    24.9220     2.3050 
  141.2500   -25.5840    74.1600     9.0070     7.9730     8.2700    24.9370     2.3500 
  141.3750   -25.6500    69.3240     9.6070     8.4540    11.4640    24.8490     2.3920 
  141.5000   -25.7370    66.8530    10.0380     8.9010    16.1360    24.7130     2.4110 
  141.6250   -25.7830    70.7600    10.0340     9.0430    12.0940    24.6490     2.3960 
  141.7500   -25.8740    75.9290     9.6940     8.8680     8.4830    24.5970     2.3650 
  141.8750   -25.8750    78.6800     9.1940     8.4770     7.3400    24.5020     2.3350 
  142.0000   -25.7740    77.8000     8.6850     8.0000     7.7220    24.3340     2.3160 
  142.1250   -25.6470    75.8530     8.2190     7.5250     8.0870    24.1970     2.3090 
  142.2500   -25.5110    74.7640     7.7720     7.0790     7.5790    24.1820     2.3030 
  142.3750   -25.2840    74.3470     7.3690     6.6870     6.7190    24.2660     2.2930 
  142.5000   -25.0420    74.5640     7.1200     6.4330     6.2980    24.3220     2.2800 
  142.6250   -24.8540    76.0930     7.3230     6.5610     6.5450    24.2720     2.2760 
  142.7500   -24.6360    76.8680     8.1810     7.2710     7.2110    24.3280     2.2940 
  142.8750   -24.5270    74.1880     9.8820     8.7770     8.7830    24.5620     2.3410 
