~V
VERS. 2.00: Ver 2.00
~W
STRT.M 62.0000:
STOP.M 272.0000:
STEP.M 0.1250:
NULL. -999.2500:
UWI. DF32144:
~C
DEPT.M :
SP.MV :
DEN.GM/CC :
GR.API :
RML.OHMM :
RI. :
RXO.OHMM :
CALI.CM :
~A
# ...
  264.5000     2.0130     2.4360    78.9380     8.2910     7.5490     7.2310    21.4260 
  264.6250     2.1280     2.4320    78.9380     8.3440     7.5930     7.3290    21.3380 
  264.7500     2.2190     2.4240    78.9380     8.4150     7.6580     7.5190    21.2480 
  264.8750     2.2550     2.4150    78.9380     8.4940     7.7340     7.8820    21.1610 
  265.0000     2.2160     2.4070    78.9380     8.5570     7.8080     8.2600    21.1120 
  265.1250     2.1890     2.4040    78.9380     8.5750     7.8560     7.8630    21.0840 
  265.2500     2.1890     2.4030    78.9380     8.5500     7.8720     7.5460    21.0390 
  265.3750     2.1630     2.4050    78.9380     8.5040     7.8540     7.3860    21.0050 
  265.5000     2.1410     2.4100    78.9380     8.4590     7.8100     7.3670    20.9920 
  265.6250     2.1670     2.4150    78.9380     8.4140     7.7500     7.3780    20.9920 
  265.7500     2.1850     2.4170    78.9380     8.3670     7.6870     7.4370    20.9920 
  265.8750     2.1840     2.4140    78.9380     8.3250     7.6240     7.3700    20.9900 
  266.0000     2.2230     2.4070    78.9380     8.2990     7.5610     7.2120    20.9860 
  266.1250     2.3310     2.3980    78.9380     8.2930     7.5000     7.0460    20.9870 
  266.2500     2.4290     2.3940    78.9380     8.2840     7.4460     6.9840    20.9900 
  266.3750     2.5380     2.3950    78.9380     8.2600     7.4020     7.0040    20.9920 
  266.5000     2.6220     2.4000    78.9380     8.2190     7.3740     7.0990    20.9910 
  266.6250     2.6560     2.4060    78.9380     8.1810     7.3600     7.2200    20.9880 
  266.7500     2.6760     2.4100    78.9380     8.1640     7.3560     7.4870    20.9840 
  266.8750     2.6710     2.4100    78.9380     8.1590     7.3560     7.7690    20.9830 
  267.0000     2.6290     2.4090    78.9380     8.1550     7.3580     7.8680    20.9830 
  267.1250     2.4870     2.4060    78.9380     8.1470     7.3590     7.9780    20.9830 
  267.2500     2.3510     2.4050    78.9380     8.1370     7.3600     8.1200    20.9830 
  267.3750     2.2160     2.4070    78.9380     8.1310     7.3610     8.2450    20.9830 
  267.5000     2.1010     2.4100    78.9380     8.1320     7.3620     8.2280    20.9830 
  267.6250     1.9740     2.4140    78.9380     8.1380     7.3620     7.8060    20.9830 
  267.7500     1.8870     2.4150    78.9380     8.1430     7.3610     7.3730    20.9830 
  267.8750     1.8260     2.4130    78.9380     8.1430     7.3610     7.0650    20.9830 
  268.0000     1.8230     2.4070    78.9380     8.1430     7.3610     6.6440    20.9830 
  268.1250     1.8430     2.3950    78.9380     8.1430     7.3610     6.0440    20.9830 
  268.2500     1.8430     2.3790    78.9380     8.1430     7.3610     5.6640    20.9820 
  268.3750     1.8430     2.3620    78.9380     8.1430     7.3610     5.5000    20.9780 
  268.5000  -999.2500     2.3460    78.9380     8.1430     7.3610     5.5090    20.9630 
  268.6250  -999.2500     2.3370    78.9380     8.1430     7.3610     5.4450    20.9190 
  268.7500  -999.2500     2.3360    78.9380     8.1430     7.3610     5.3770    20.8410 
  268.8750  -999.2500     2.3420    78.9380     8.1430     7.3610     5.4190    20.7810 
  269.0000  -999.2500     2.3540    78.9380     8.1430     7.3610     5.5770    20.7550 
  269.1250  -999.2500     2.3650    78.9380     8.1430     7.3610     5.6520    20.7110 
  269.2500  -999.2500     2.3710    78.9380     8.1430     7.3610     5.6590    20.6010 
  269.3750  -999.2500     2.3710    78.9380     8.1430     7.3610     5.5200    20.4680 
  269.5000  -999.2500     2.3670    78.9380     8.1430     7.3610     5.3710    20.3830 
  269.6250  -999.2500     2.3620    78.9380     8.1430     7.3610     5.2680    20.3310 
  269.7500  -999.2500     2.3590    78.9380     8.1430     7.3610     5.1940    20.2860 
  269.8750  -999.2500     2.3580    78.9380     8.1430     7.3610     5.0610    20.1830 
  270.0000  -999.2500     2.3570    78.9380     8.1430     7.3610     5.0900    20.1050 
  270.1250  -999.2500     2.3540    78.9380     8.1430     7.3610     5.1300    19.9500 
  270.2500  -999.2500     2.3480    78.9380     8.1430     7.3610     5.2250    19.7360 
  270.3750  -999.2500     2.3410    78.9380     8.1430     7.3610     5.4300    19.5540 
  270.5000  -999.2500     2.3280    78.9380     8.1430     7.3610     5.7770    19.4290 
  270.6250  -999.2500     2.3010    78.9380     8.1430     7.3610     5.9920    19.3250 
  270.7500  -999.2500     2.2570    78.9380     8.1430     7.3610     5.7520    19.1530 
  270.8750  -999.2500     2.2010    78.9380     8.1430     7.3610     5.4430    18.7330 
  271.0000  -999.2500     2.1420    78.9380     8.1430     7.3610     5.2660    17.9400 
  271.1250  -999.2500     2.0960    78.9380     8.1430     7.3610     5.1230    16.4130 
  271.2500  -999.2500     2.0700    78.9380     8.1430     7.3610     4.9460    14.2220 
  271.3750  -999.2500     2.0580    78.9380     8.1430     7.3610     4.8390    12.5330 
  271.5000  -999.2500     2.0550    78.9380     8.1430     7.3610     4.8090    11.9700 
  271.6250  -999.2500     2.0540    78.9380     8.1430     7.3610     4.8090    11.8990 
  271.7500  -999.2500     2.0560    78.9380     8.1430     7.3610     4.8090    11.8960 
  271.8750  -999.2500     2.0590    78.9380     8.1430     7.3610     4.8110    11.8940 
  272.0000  -999.2500     2.0630    78.9380     8.1430     7.3610     4.8130    11.8930 
