~V
VERS. 2.00: Ver 2.00
~W
STRT.M 60.0000:
STOP.M 271.0000:
STEP.M 0.1250:
NULL. -999.2500:
UWI. DF324:
~C
DEPT.M :
SP.MV :
AC.US/MT :
DEN.GM/CC :
GR.API :
CALI.CM :
RXO.OHMM :
RI. :
RML.OHMM :
~A
# ...
  180.0000   -27.6550   410.5600     2.1910    69.6550    23.4430   159.2790    97.5380   102.6950 
  180.1250   -27.5840   410.3440     2.1760    69.2440    23.5870   139.2700    97.4460   102.5980 
  180.2500   -27.5080   409.9260     2.1800    68.8040    23.6960   120.5310    96.6950   101.8100 
  180.3750   -27.4220   409.3180     2.1980    68.6520    23.7620   107.0930    96.2590   101.3520 
  180.5000   -27.3200   408.7560     2.2190    69.0200    23.8380    99.5840    97.1000   102.2350 
  180.6250   -27.1960   408.5200     2.2240    69.7090    23.9640   100.4450   100.1460   105.4330 
  180.7500   -27.0520   408.4920     2.2150    70.6900    24.0940   110.0440   104.7970   110.3170 
  180.8750   -26.9010   408.4010     2.2000    71.9120    24.2680   128.1920   109.8170   115.5880 
  181.0000   -26.7450   408.1200     2.1870    72.8650    24.4220   148.4390   113.3020   119.2470 
  181.1250   -26.5650   407.9480     2.1750    72.7350    24.4400   173.0380   112.5120   118.4180 
  181.2500   -26.3600   408.1320     2.1690    71.8770    24.3790   198.6570   106.9710   112.5990 
  181.3750   -26.1420   408.2890     2.1730    70.8590    24.3420   213.7720    97.0790   102.2130 
  181.5000   -25.9310   407.6930     2.1930    70.3170    24.3400   198.3470    84.4370    88.9390 
  181.6250   -25.7640   406.1290     2.2260    70.7360    24.3620   148.9030    71.6830    75.5470 
  181.7500   -25.6760   404.7710     2.2620    71.9210    24.4030    98.4170    61.1160    64.4520 
  181.8750   -25.6810   404.4890     2.2880    73.2560    24.4420    69.0620    53.7900    56.7590 
  182.0000   -25.7790   405.1290     2.2970    74.4850    24.4470    58.8080    50.2170    53.0080 
  182.1250   -25.9810   405.5980     2.2920    76.3210    24.3930    52.3700    51.4930    54.3470 
  182.2500   -26.2630   405.4060     2.2860    78.6040    24.2860    45.8460    57.3090    60.4540 
  182.3750   -26.6130   405.0810     2.2780    79.8080    24.1470    50.1120    68.0430    71.7250 
  182.5000   -27.0110   405.2740     2.2630    79.6910    24.0280    71.5810    84.1080    88.5940 
  182.6250   -27.4340   406.2450     2.2390    79.8240    23.9370    98.9120   106.2870   111.8810 
  182.7500   -27.8450   408.1000     2.2150    80.2930    23.8380   124.2540   132.4790   139.3830 
  182.8750   -28.2200   411.6380     2.1940    79.2000    23.7300   150.2090   160.3360   168.6330 
  183.0000   -28.5480   417.3770     2.1790    75.9060    23.6320   173.7570   186.2280   195.8200 
  183.1250   -28.8310   424.0720     2.1690    72.3830    23.5660   184.7590   204.0660   214.5490 
  183.2500   -29.0860   428.7180     2.1670    70.5630    23.5280   191.1960   211.5420   222.3990 
  183.3750   -29.3200   429.6770     2.1650    70.2070    23.5120   204.3830   208.1660   218.8550 
  183.5000   -29.5410   427.4460     2.1540    70.4020    23.5020   224.4840   195.4580   205.5110 
  183.6250   -29.7400   424.2790     2.1350    71.0100    23.4820   227.2360   176.1050   185.1900 
  183.7500   -29.9150   422.5170     2.1250    72.1560    23.4370   207.4880   155.4390   163.4910 
  183.8750   -30.0620   422.9240     2.1360    73.4710    23.3540   168.2250   136.5970   143.7070 
  184.0000   -30.1870   425.1860     2.1630    74.5180    23.2200   122.4280   121.6170   127.9780 
  184.1250   -30.2910   428.0390     2.1830    74.8010    23.1400    86.4350   112.2780   118.1710 
  184.2500   -30.3840   429.7460     2.1890    73.9340    23.1300    68.1590   107.5680   113.2260 
  184.3750   -30.4640   429.3390     2.1860    71.8340    23.1910    69.4370   106.6490   112.2610 
  184.5000   -30.5130   426.6660     2.1800    69.6170    23.3050    83.8840   108.5010   114.2060 
  184.6250   -30.5070   422.3930     2.1760    68.6310    23.3690   106.9480   112.4430   118.3460 
  184.7500   -30.4560   418.4540     2.1800    68.9070    23.4020   138.7980   117.6520   123.8150 
  184.8750   -30.3710   416.3600     2.1920    70.0470    23.4420   176.3270   123.9210   130.3970 
  185.0000   -30.2530   416.6920     2.2030    71.1250    23.5530   198.4750   131.1760   138.0150 
  185.1250   -30.0860   418.8010     2.2030    70.9540    23.7990   189.9770   139.7850   147.0540 
  185.2500   -29.8740   420.9870     2.1940    70.2170    24.0630   177.6740   149.8470   157.6190 
  185.3750   -29.6150   422.4970     2.1830    69.7340    24.2420   181.6290   161.3840   169.7330 
  185.5000   -29.3200   423.1150     2.1720    68.9920    24.3160   195.6950   174.0710   183.0540 
  185.6250   -29.0060   422.7090     2.1660    66.9050    24.3260   202.1500   187.4970   197.1510 
  185.7500   -28.6980   421.7290     2.1670    64.1710    24.3330   208.7910   201.1640   211.5020 
  185.8750   -28.4010   420.7610     2.1690    61.7790    24.3620   238.2590   214.7520   225.7690 
  186.0000   -28.1140   420.2860     2.1660    60.4040    24.4190   297.7260   227.8170   239.4870 
  186.1250   -27.8440   420.2100     2.1550    60.9310    24.4540   357.7290   239.4400   251.6920 
  186.2500   -27.5950   419.9130     2.1430    62.3760    24.4680   371.8260   248.8350   261.5570 
  186.3750   -27.3740   419.1710     2.1360    63.0580    24.4700   354.7210   254.6760   267.6900 
  186.5000   -27.1810   418.1100     2.1340    62.2990    24.4700   352.8990   255.1710   268.2100 
  186.6250   -27.0150   416.7480     2.1330    61.3370    24.4700   386.7880   247.2190   259.8600 
  186.7500   -26.8650   414.9350     2.1300    61.1630    24.4700   431.8610   231.3500   243.1980 
  186.8750   -26.7330   412.6850     2.1320    61.1660    24.4700   457.4210   208.7870   219.5060 
  187.0000   -26.6250   410.3410     2.1490    60.7470    24.4700   444.5760   182.1060   191.4910 
  187.1250   -26.5400   408.0710     2.1850    61.0340    24.4690   381.9340   154.7200   162.7360 
  187.2500   -26.4610   405.2840     2.2200    63.1550    24.4580   292.2150   129.7800   136.5490 
  187.3750   -26.3880   401.4300     2.2460    66.2790    24.4270   201.7380   109.0290   114.7610 
  187.5000   -26.3250   397.0250     2.2670    69.0660    24.3700   136.1500    93.1870    98.1270 
  187.6250   -26.2660   394.2860     2.2850    71.9540    24.3370   105.0980    82.7030    87.1180 
  187.7500   -26.1970   394.6080     2.2910    75.8870    24.3280    93.3550    75.8300    79.9020 
  187.8750   -26.1130   397.6750     2.2780    79.0020    24.3260    91.2510    71.4470    75.2990 
  188.0000   -26.0100   401.7200     2.2570    78.7550    24.3180    92.4100    68.5010    72.2060 
  188.1250   -25.8880   404.2410     2.2420    76.0320    24.3170    89.7230    66.2170    69.8070 
  188.2500   -25.7570   404.3810     2.2340    74.2280    24.3210    83.4430    64.0710    67.5540 
  188.3750   -25.6170   402.9420     2.2310    73.4050    24.3480    80.7630    61.9640    65.3430 
  188.5000   -25.4600   401.9330     2.2340    72.5400    24.4220    83.3660    60.0120    63.2920 
  188.6250   -25.2760   403.6350     2.2450    72.1540    24.5400    81.1590    58.5780    61.7870 
  188.7500   -25.0690   407.4120     2.2540    72.2610    24.6000    70.9730    57.7170    60.8820 
  188.8750   -24.8410   411.4130     2.2590    71.1800    24.6120    60.7800    57.0170    60.1470 
  189.0000   -24.5920   413.8300     2.2610    68.0960    24.6080    60.2470    55.4310    58.4820 
  189.1250   -24.3140   413.4010     2.2620    64.9320    24.6040    69.9200    51.2950    54.1400 
  189.2500   -24.0110   410.7390     2.2650    64.2530    24.5990    78.3980    44.5880    47.0970 
  189.3750   -23.6980   407.0040     2.2710    67.9950    24.5830    78.3820    36.1590    38.2280 
  189.5000   -23.4000   404.8670     2.2810    77.2970    24.5340    67.6100    27.4400    29.0220 
  189.6250   -23.1640   409.8220     2.2990    92.1030    24.3940    48.9400    20.0080    21.1220 
  189.7500   -23.0120   423.4510     2.3260   107.9660    24.1420    30.8640    14.3520    15.1580 
  189.8750   -22.9500   443.1470     2.3600   119.9610    23.8350    16.9320    10.4800    11.1010 
