~V
VERS. 2.00: Ver 2.00
~W
STRT.M 60.0000:
STOP.M 276.0000:
STEP.M 0.1250:
NULL. -999.2500:
UWI. DF32145:
~C
DEPT.M :
SP.MV :
GR.API :
CALI.CM :
RXO.OHMM :
RI. :
RML.OHMM :
DEN.GM/CC :
~A
# ...
  138.7500   -22.9480    99.1850    23.6070     5.9190     5.1220     6.4940     2.3100 
  138.8750   -22.9120    92.9620    23.5770     6.0650     5.1750     6.5690     2.3070 
  139.0000   -22.8810    89.3820    23.5650     5.8680     5.1330     6.4910     2.3160 
  139.1250   -22.9050    91.1030    23.5650     5.5290     4.9550     6.2220     2.3290 
  139.2500   -22.9850    94.7190    23.5650     5.3490     4.6910     5.8590     2.3420 
  139.3750   -23.1010    98.9840    23.5650     5.2480     4.4080     5.5000     2.3550 
  139.5000   -23.2410   102.4340    23.5650     5.0880     4.1780     5.2300     2.3690 
  139.6250   -23.3200   104.1510    23.5650     4.9150     4.0730     5.1260     2.3770 
  139.7500   -23.2960   106.6920    23.5650     4.8850     4.0890     5.1710     2.3740 
  139.8750   -23.2030   109.1150    23.5650     5.0490     4.2050     5.3550     2.3600 
  140.0000   -23.0760   109.7340    23.5650     5.3750     4.3950     5.6560     2.3360 
  140.1250   -22.9880   109.7770    23.5650     5.7690     4.6290     6.0410     2.3130 
  140.2500   -22.9120   108.6180    23.5650     6.0680     4.8570     6.4310     2.3000 
  140.3750   -22.8670   105.0860    23.5650     6.2600     5.0500     6.7650     2.2980 
  140.5000   -22.8750   101.0210    23.5650     6.3840     5.1950     7.0100     2.2980 
  140.6250   -22.9770    99.3800    23.5650     6.4830     5.3070     7.1660     2.2870 
  140.7500   -23.1710    97.2510    23.5650     6.5840     5.4160     7.2890     2.2670 
  140.8750   -23.4190    93.9990    23.5650     6.6850     5.5350     7.4140     2.2460 
  141.0000   -23.6920    92.3420    23.5710     6.7580     5.6560     7.5490     2.2290 
  141.1250   -23.8940    92.5900    23.6290     6.8120     5.7540     7.6760     2.2220 
  141.2500   -24.0220    91.0490    23.7590     6.9090     5.8160     7.7770     2.2280 
  141.3750   -24.1000    89.3820    23.8940     6.9880     5.8500     7.8510     2.2440 
  141.5000   -24.1190    91.0350    23.9590     7.0000     5.8710     7.9050     2.2610 
  141.6250   -24.0770    95.2890    23.9670     6.9690     5.9000     7.9490     2.2710 
  141.7500   -24.0000    98.0080    23.9670     6.9220     5.9440     7.9950     2.2740 
  141.8750   -23.8880    97.4390    23.9670     6.8980     6.0040     8.0500     2.2720 
  142.0000   -23.7530    93.2560    23.9670     6.9120     6.0700     8.1130     2.2610 
  142.1250   -23.6090    86.5580    23.9670     6.9390     6.1410     8.1870     2.2420 
  142.2500   -23.5120    81.8920    23.9670     6.9730     6.2200     8.2780     2.2230 
  142.3750   -23.4390    81.7290    23.9670     7.0540     6.3180     8.3970     2.2080 
  142.5000   -23.3870    84.4650    23.9670     7.1520     6.4350     8.5490     2.1970 
  142.6250   -23.4090    84.9870    23.9670     7.2680     6.5660     8.7190     2.1930 
  142.7500   -23.4700    82.9330    23.9670     7.3960     6.6890     8.8690     2.1960 
  142.8750   -23.5720    81.7750    23.9670     7.5010     6.7910     8.9660     2.2090 
  143.0000   -23.7110    84.6740    23.9670     7.5410     6.8650     9.0010     2.2240 
  143.1250   -23.9030    88.2260    23.9670     7.4760     6.9210     9.0110     2.2290 
  143.2500   -24.1100    88.0170    23.9670     7.3830     6.9790     9.0630     2.2230 
  143.3750   -24.3360    85.1630    23.9670     7.3310     7.0610     9.2110     2.2100 
  143.5000   -24.5520    83.0500    23.9670     7.3710     7.1870     9.4900     2.1990 
  143.6250   -24.7110    81.7300    23.9670     7.4800     7.3510     9.8720     2.1980 
  143.7500   -24.8180    79.5260    23.9670     7.5980     7.4690    10.1790     2.2050 
  143.8750   -24.8650    78.0370    23.9670     7.7110     7.4380    10.1930     2.2130 
  144.0000   -24.8450    79.7920    23.9670     7.7070     7.1680     9.7270     2.2230 
  144.1250   -24.7680    85.9250    23.9820     7.2730     6.6300     8.7250     2.2410 
  144.2500   -24.6380    92.0660    24.0400     6.4550     6.0110     7.5960     2.2710 
  144.3750   -24.4760    95.1450    24.1670     5.7310     5.5170     6.7310     2.3080 
  144.5000   -24.3270    97.8490    24.3710     5.5260     5.3390     6.4230     2.3360 
  144.6250   -24.2050   101.3230    24.5360     6.2350     5.7490     7.0210     2.3230 
  144.7500   -24.1190   100.2720    24.5460     8.3670     6.8500     8.6200     2.2710 
  144.8750   -24.0710    92.4100    24.4160    12.2420     8.7650    11.4290     2.2030 
  145.0000   -24.0580    82.5130    24.3500    16.7690    11.4170    15.4210     2.1490 
  145.1250   -24.1090    77.3900    24.3480    19.4570    14.0760    19.3910     2.1290 
  145.2500   -24.2230    76.6010    24.3340    19.6150    15.4760    21.0220     2.1340 
  145.3750   -24.3830    78.0070    24.2540    17.4370    15.1040    19.6520     2.1610 
  145.5000   -24.5590    78.9440    24.0850    14.2880    13.5910    16.8490     2.2070 
  145.6250   -24.7160    78.3180    23.8420    12.1360    12.0660    14.5810     2.2600 
  145.7500   -24.8730    77.7050    23.6680    11.2500    11.1540    13.4360     2.2930 
  145.8750   -25.0440    77.2220    23.6230    11.4140    11.0030    13.4220     2.2920 
  146.0000   -25.2050    75.4160    23.6720    12.9620    11.6150    14.4210     2.2620 
  146.1250   -25.3120    74.5940    23.7860    15.6020    12.9480    16.2930     2.2250 
  146.2500   -25.3700    76.4180    23.8450    17.7770    14.5680    18.4060     2.2000 
  146.3750   -25.3730    78.7680    23.8630    18.7510    16.0800    20.1920     2.1890 
  146.5000   -25.3270    79.1110    23.8640    18.7320    17.1520    21.2560     2.1880 
  146.6250   -25.2360    76.9930    23.8640    18.0290    17.4910    21.3300     2.1940 
  146.7500   -25.1110    74.5710    23.8640    17.1700    17.0990    20.4520     2.1970 
  146.8750   -24.9720    73.2830    23.8640    16.7090    15.9170    18.5330     2.2000 
  147.0000   -24.8090    73.9070    23.8640    16.0700    14.0250    15.7460     2.2110 
  147.1250   -24.6530    75.5630    23.8640    13.9010    11.7310    12.6800     2.2470 
  147.2500   -24.4950    79.2610    23.8590    10.4310     9.5790    10.0290     2.2910 
  147.3750   -24.3730    86.7220    23.8380     7.5380     7.8580     8.0670     2.3180 
  147.5000   -24.2840    94.0730    23.7750     6.0810     6.6650     6.8140     2.3160 
  147.6250   -24.2310    94.0930    23.6050     5.9220     6.0410     6.2470     2.3020 
  147.7500   -24.1650    89.9350    23.2550     6.1590     5.8060     6.1040     2.3030 
  147.8750   -24.0770    89.2140    22.8490     6.3790     5.8440     6.2250     2.3270 
  148.0000   -23.9910    92.7240    22.5880     6.4570     6.0360     6.4520     2.3640 
  148.1250   -23.9380    94.7510    22.5210     6.5780     6.2710     6.6610     2.3940 
  148.2500   -23.8880    93.5890    22.5110     6.7850     6.4620     6.8000     2.4010 
  148.3750   -23.8370    91.0990    22.5100     6.8550     6.5590     6.8440     2.3880 
  148.5000   -23.7660    89.1030    22.5080     6.8500     6.5400     6.7730     2.3710 
  148.6250   -23.6980    86.7310    22.5070     7.0200     6.4070     6.5840     2.3660 
  148.7500   -23.6530    84.8040    22.4990     6.8150     6.2400     6.3640     2.3750 
  148.8750   -23.6620    86.0100    22.4730     6.3220     6.1210     6.2280     2.3880 
  149.0000   -23.7050    89.9830    22.4420     6.1170     6.1260     6.2790     2.3910 
  149.1250   -23.7340    90.7490    22.4290     6.6360     6.2990     6.5840     2.3710 
  149.2500   -23.7410    87.9180    22.4270     7.5090     6.5820     7.0450     2.3420 
  149.3750   -23.7400    85.7070    22.4210     8.0410     6.9420     7.5900     2.3210 
  149.5000   -23.7780    86.0020    22.4000     7.9930     7.3740     8.1900     2.3170 
  149.6250   -23.8220    87.0630    22.3500     7.8670     7.9700     8.9510     2.3300 
  149.7500   -23.8850    87.0780    22.3340     8.3970     8.8550    10.0600     2.3490 
  149.8750   -23.9100    84.5970    22.3690     9.8380    10.2150    11.7750     2.3650 
