~V
VERS. 2.00: Ver 2.00
~W
STRT.M 60.0000:
STOP.M 232.0000:
STEP.M 0.1250:
NULL. -999.2500:
UWI. DF323:
~C
DEPT.M :
GR.API :
RML.OHMM :
RI. :
RXO.OHMM :
CALI.CM :
SP.MV :
DEN.GM/CC :
AC.US/MT :
~A
# ...
  160.0000    81.3220    10.1670     9.6210    15.9510    29.3120   -18.7990     2.3130   330.3300 
  160.1250    76.2600     9.6960     9.1790    12.4190    29.3220   -18.7250     2.3080   336.0700 
  160.2500    74.7190     9.4680     8.9360    11.5500    29.3230   -18.6680     2.3050   338.1670 
  160.3750    74.0610     9.4510     8.8630    11.8510    29.3200   -18.6360     2.3040   338.9950 
  160.5000    74.1690     9.5530     8.8910    11.5570    29.3200   -18.6110     2.3070   339.7730 
  160.6250    76.3040     9.6560     8.9300    10.5950    29.3210   -18.5720     2.3080   341.1770 
  160.7500    79.3820     9.6560     8.9070    10.0270    29.3290   -18.5000     2.3040   342.9850 
  160.8750    81.3500     9.5220     8.8010    10.1430    29.3410   -18.3830     2.2910   345.1010 
  161.0000    80.2400     9.2740     8.6140    10.1610    29.3430   -18.2150     2.2720   347.9210 
  161.1250    77.2810     8.9590     8.3730     9.3070    29.3310   -18.0520     2.2570   353.3320 
  161.2500    74.4970     8.6710     8.1370     8.4450    29.3240   -17.9160     2.2520   361.8730 
  161.3750    72.7410     8.4650     7.9600     8.3320    29.3320   -17.8100     2.2560   371.8530 
  161.5000    73.3680     8.3640     7.8760     8.8670    29.3350   -17.7510     2.2660   379.6150 
  161.6250    77.0440     8.3910     7.9220     9.2050    29.3190   -17.7180     2.2760   380.8720 
  161.7500    79.2650     8.5370     8.0720     9.3110    29.3080   -17.6780     2.2830   377.1120 
  161.8750    77.2370     8.7980     8.3100    10.2090    29.3210   -17.6020     2.2900   371.1460 
  162.0000    73.5010     9.1270     8.6000    11.8460    29.3430   -17.4560     2.2990   364.7690 
  162.1250    73.6100     9.4300     8.8760    12.4450    29.3470   -17.2110     2.3130   357.2630 
  162.2500    76.2410     9.6080     9.0610    12.6460    29.3400   -16.9120     2.3260   348.2410 
  162.3750    78.2700     9.5960     9.0940    14.2570    29.3310   -16.5830     2.3360   339.2370 
  162.5000    77.2060     9.3780     8.9490    16.4390    29.3280   -16.2610     2.3400   331.7060 
  162.6250    73.6450     8.9810     8.6340    14.5230    29.3240   -15.9440     2.3420   324.5030 
  162.7500    72.1830     8.5460     8.2570    10.6540    29.3210   -15.6500     2.3450   315.7020 
  162.8750    73.2140     8.1810     7.9100     8.6430    29.3330   -15.4320     2.3530   306.0920 
  163.0000    73.3060     7.9850     7.6850     9.9970    29.3450   -15.3810     2.3630   299.2290 
  163.1250    72.3590     8.0600     7.6930    14.2130    29.3360   -15.5740     2.3680   300.1460 
  163.2500    73.9430     8.3850     7.9350    18.3990    29.3110   -15.8920     2.3650   307.4210 
  163.3750    79.3470     8.9350     8.3930    20.1280    29.2900   -16.2540     2.3550   316.3070 
  163.5000    85.6760     9.6360     8.9970    18.5940    29.2850   -16.6100     2.3390   321.5590 
  163.6250    88.2680    10.3080     9.5970    15.7920    29.2980   -16.9660     2.3230   321.5510 
  163.7500    86.4040    10.6910    10.0040    13.7510    29.3180   -17.3420     2.3080   321.6230 
  163.8750    83.9310    10.6200    10.0920    12.6780    29.3290   -17.7180     2.2950   325.7510 
  164.0000    83.7630    10.1360     9.8450    12.0770    29.3260   -18.0200     2.2840   334.2530 
  164.1250    84.1200     9.4700     9.3530    11.7900    29.3270   -18.1980     2.2760   343.9290 
  164.2500    84.0690     8.9040     8.8250    11.4770    29.3270   -18.2990     2.2690   351.5180 
  164.3750    85.2180     8.5210     8.3710    10.7060    29.3290   -18.3540     2.2640   356.9150 
  164.5000    85.5780     8.2980     8.0360    10.2820    29.3330   -18.3830     2.2620   361.6020 
  164.6250    80.7730     8.1750     7.8380    10.7310    29.3390   -18.4130     2.2650   366.0480 
  164.7500    74.6890     8.0890     7.7280    10.6800    29.3360   -18.4130     2.2740   368.1230 
  164.8750    71.9480     8.0410     7.6810     9.6800    29.3220   -18.3720     2.2850   365.4020 
  165.0000    73.0240     8.0350     7.6860     8.9010    29.3150   -18.3290     2.2950   358.2680 
  165.1250    76.7540     8.0970     7.7680     9.7260    29.3270   -18.2620     2.2980   351.5230 
  165.2500    80.3850     8.2740     7.9480    11.4620    29.3310   -18.1510     2.2990   350.0010 
  165.3750    83.1450     8.6380     8.2530    12.2050    29.3190   -18.0250     2.3020   352.7460 
  165.5000    86.5400     9.2230     8.6910    11.1450    29.3140   -17.9130     2.3130   353.5050 
  165.6250    89.6110     9.9850     9.2530    10.1350    29.3320   -17.8150     2.3320   344.5600 
  165.7500    89.6890    10.7280     9.8470    10.3430    29.3440   -17.7410     2.3500   325.8050 
  165.8750    87.3530    11.3030    10.3860    11.4710    29.3380   -17.6930     2.3630   300.4140 
  166.0000    85.5940    11.6430    10.7890    12.9760    29.3280   -17.6570     2.3670   277.0580 
  166.1250    86.0830    11.7550    10.9980    13.9880    29.3340   -17.6710     2.3640   269.8520 
  166.2500    87.2160    11.7690    11.0840    14.0130    29.3430   -17.7550     2.3570   277.9010 
  166.3750    88.3280    11.7690    11.1300    13.7480    29.3420   -17.8740     2.3490   291.3620 
  166.5000    87.9640    11.8150    11.2010    13.7600    29.3240   -17.9860     2.3410   302.9530 
  166.6250    86.0990    11.9320    11.3270    13.2130    29.3090   -18.0590     2.3360   312.6430 
  166.7500    86.0290    12.0760    11.4660    12.1230    29.3080   -18.1070     2.3360   320.0470 
  166.8750    87.0220    12.2080    11.5670    11.6760    29.3180   -18.1260     2.3390   322.6290 
  167.0000    85.0930    12.2900    11.5850    12.2580    29.3300   -18.1070     2.3410   320.9510 
  167.1250    79.1820    12.2880    11.4940    12.6810    29.3330   -18.0320     2.3410   319.9980 
  167.2500    75.0710    12.2240    11.3410    12.4530    29.3270   -17.9090     2.3380   322.2620 
  167.3750    75.5710    12.1080    11.1670    12.2310    29.3210   -17.7610     2.3300   327.1070 
  167.5000    79.6450    11.9510    11.0070    12.3130    29.3200   -17.6240     2.3190   333.2510 
  167.6250    83.6960    11.7980    10.8940    12.2090    29.3200   -17.5150     2.3060   339.3690 
  167.7500    84.7370    11.7110    10.8460    11.8500    29.3200   -17.4120     2.2930   344.8540 
  167.8750    83.9030    11.7330    10.8790    11.5430    29.3230   -17.3250     2.2830   349.1770 
  168.0000    83.6710    11.8850    11.0090    11.5010    29.3300   -17.2610     2.2810   351.1790 
  168.1250    85.2180    12.1530    11.2410    11.8780    29.3380   -17.2340     2.2930   348.0480 
  168.2500    86.2170    12.4260    11.5080    12.3930    29.3380   -17.2010     2.3180   338.9990 
  168.3750    86.4290    12.5860    11.7260    12.7000    29.3320   -17.1620     2.3500   325.3830 
  168.5000    86.8880    12.5430    11.8010    13.0390    29.3240   -17.1070     2.3790   311.0330 
  168.6250    87.4090    12.2270    11.6400    14.7080    29.3150   -17.0410     2.3910   301.1320 
  168.7500    86.2720    11.7610    11.3120    18.4240    29.3080   -16.9790     2.3830   297.0190 
  168.8750    83.0730    11.3080    10.9330    23.4620    29.2950   -16.9120     2.3620   297.0700 
  169.0000    79.9390    11.0180    10.6380    25.0100    29.2840   -16.8380     2.3400   299.1760 
  169.1250    79.8010    10.9980    10.5600    19.5430    29.2940   -16.7380     2.3270   303.1950 
  169.2500    82.1810    11.1870    10.6920    13.9990    29.3170   -16.6400     2.3240   310.0610 
  169.3750    83.5990    11.5010    10.9830    11.1970    29.3310   -16.5480     2.3260   319.0800 
  169.5000    82.6140    11.8450    11.3250    10.4280    29.3170   -16.4560     2.3270   326.6950 
  169.6250    82.7050    12.1270    11.5620    10.2620    29.2990   -16.3870     2.3230   327.8840 
  169.7500    86.6010    12.2870    11.6180     9.7510    29.3070   -16.3650     2.3170   323.1960 
  169.8750    92.5140    12.2450    11.4740     9.1270    29.3260   -16.3890     2.3120   316.7440 
