~V
VERS. 2.00: Ver 2.00
~W
STRT.M 62.0000:
STOP.M 260.0000:
STEP.M 0.1250:
NULL. -999.2500:
UWI. DF32117:
~C
DEPT.M :
GR.API :
CALI.CM :
RXO.OHMM :
RI. :
RML.OHMM :
DEN.GM/CC :
SP.MV :
~A
# ...
  253.2500    61.0120    24.3810     5.8550     6.5140     7.6910     2.4150   -12.3120 
  253.3750    61.0120    24.3690     5.8780     6.5140     7.6840     2.3990   -12.2830 
  253.5000    61.0120    24.3430     5.9700     6.5130     7.6790     2.3820   -12.2820 
  253.6250    61.0120    24.3160     6.2190     6.5120     7.6760     2.3840   -12.3080 
  253.7500    61.0120    24.2900     6.3310     6.5100     7.6730     2.4040   -12.3290 
  253.8750    61.0120    24.2620     6.1140     6.5100     7.6700     2.4270   -12.3600 
  254.0000    61.0120    24.2280     5.7530     6.5090     7.6650     2.4360   -12.3970 
  254.1250    61.0120    24.1940     5.6710     6.5100     7.6570     2.4270   -12.4340 
  254.2500    61.0120    24.1440     5.9020     6.5100     7.6470     2.4190   -12.4610 
  254.3750    61.0120    24.0520     6.2400     6.5100     7.6380     2.4170   -12.4670 
  254.5000    61.0120    23.9160     6.4560     6.5100     7.6290     2.4160   -12.4320 
  254.6250    61.0120    23.7740     6.4360     6.5110     7.6210     2.4110   -12.3920 
  254.7500    61.0120    23.6530     6.3270     6.5120     7.6130     2.4060   -12.3680 
  254.8750    61.0120    23.5340     6.2420     6.5120     7.6040     2.4060   -12.3370 
  255.0000    61.0120    23.3830     6.2130     6.5110     7.5960     2.4100   -12.2950 
  255.1250    61.0120    23.1830     6.2230     6.5100     7.5900     2.4130   -12.2500 
  255.2500    61.0120    22.9430     6.2220     6.5100     7.5900     2.4170   -12.1990 
  255.3750    61.0120    22.6650     6.1550     6.5100     7.5900     2.4220   -12.1570 
  255.5000    61.0120    22.3780     6.0170     6.5100     7.5900     2.4230   -12.1200 
  255.6250    61.0120    22.1420     5.9280     6.5100     7.5900     2.4160   -12.0640 
  255.7500    61.0120    21.9670     5.9590     6.5100     7.5900     2.4080   -12.0000 
  255.8750    61.0120    21.8340     6.0360     6.5100     7.5900     2.4020   -11.9460 
  256.0000    61.0120    21.7120     6.0490     6.5100     7.5900     2.3980   -11.9060 
  256.1250    61.0120    21.5290     5.9590     6.5100     7.5900     2.3970   -11.8710 
  256.2500    61.0120    21.2170     5.7950     6.5100     7.5900     2.3900   -11.8420 
  256.3750    61.0120    20.6440     5.5270     6.5100     7.5900     2.3480   -11.8100 
  256.5000    61.0120    19.4090     5.1740     6.5100     7.5900     2.2510   -11.7910 
  256.6250    61.0120    17.4220     4.8750     6.5100     7.5900     2.1240   -11.7800 
  256.7500    61.0120    15.6680     4.7220     6.5100     7.5900     2.0270   -11.7700 
  256.8750    61.0120    14.8380     4.6840     6.5100     7.5900     2.0670   -11.7590 
  257.0000    61.0120    14.7740     4.6860     6.5100     7.5900     2.1430   -11.7440 
  257.1250    61.0120    14.8300     4.6880     6.5100     7.5900     1.9010   -11.7150 
  257.2500    61.0120    14.8210     4.6880     6.5100     7.5900     1.5720   -11.6800 
  257.3750    61.0120    14.8210     4.6880     6.5100     7.5900     1.6540   -11.6480 
  257.5000    61.0120    14.8210     4.6880     6.5100     7.5900     2.3250   -11.6160 
  257.6250    61.0120    14.8210     4.6880     6.5100     7.5900     3.0930   -11.5880 
  257.7500    61.0120    14.8210     4.6870     6.5100     7.5900     3.2250   -11.5580 
  257.8750    61.0120    14.8210     4.6870     6.5100     7.5900     2.7180   -11.5320 
  258.0000    61.0120    14.8210     4.6860     6.5100     7.5900     2.0910   -11.5010 
  258.1250    61.0120    14.8210     4.6860     6.5100     7.5900     1.9630   -11.4610 
  258.2500    61.0120    14.8210     4.6870     6.5100     7.5900     2.1320   -11.4070 
  258.3750    61.0120    14.8210     4.6880     6.5100     7.5900     2.2340   -11.3330 
  258.5000    61.0120    14.8210     4.6880     6.5100     7.5900     2.2440   -11.2320 
  258.6250    61.0120    14.8210     4.6870     6.5100     7.5900     2.2550   -11.1100 
  258.7500    61.0120    14.8210     4.6860     6.5100     7.5900     2.2550   -10.9900 
  258.8750    61.0120    14.8210     4.6860     6.5100     7.5900     2.2550   -10.8610 
  259.0000    61.0120    14.8210     4.6860     6.5100     7.5900     2.2550   -10.7240 
  259.1250    61.0120    14.8210     4.6870     6.5100     7.5900  -999.2500   -10.6010 
  259.2500    61.0120    14.8210     4.6870     6.5100     7.5900  -999.2500   -10.5060 
  259.3750    61.0120    14.8210     4.6850     6.5100     7.5900  -999.2500   -10.4240 
  259.5000    61.0120    14.8210     4.6840     6.5100     7.5900  -999.2500   -10.4080 
  259.6250    61.0120    14.8210     4.6840     6.5100     7.5900  -999.2500   -10.4080 
  259.7500    61.0120    14.8210     4.6850     6.5100     7.5900  -999.2500  -999.2500 
  259.8750    61.0120    14.8210     4.6850     6.5100     7.5900  -999.2500  -999.2500 
  260.0000    61.0120    14.8210     4.6860     6.5100     7.5900  -999.2500  -999.2500 
