~V
VERS. 2.00: Ver 2.00
~W
STRT.M 62.0000:
STOP.M 272.0000:
STEP.M 0.1250:
NULL. -999.2500:
UWI. DF32144:
~C
DEPT.M :
SP.MV :
DEN.GM/CC :
GR.API :
RML.OHMM :
RI. :
RXO.OHMM :
CALI.CM :
~A
# ...
  118.2500    -8.9800     2.3540    96.9810     6.1060     5.9990     6.8860    24.9380 
  118.3750    -9.5890     2.3130    96.5050     6.1140     5.9970     5.9190    24.5400 
  118.5000   -10.2840     2.2710    94.6190     5.9750     5.8480     5.2820    24.3370 
  118.6250   -10.9850     2.2460    92.5230     5.8240     5.6640     5.2500    24.2840 
  118.7500   -11.6220     2.2370    90.2080     5.7670     5.5420     5.3000    24.2880 
  118.8750   -12.1930     2.2360    86.5480     5.8220     5.5100     5.5720    24.3240 
  119.0000   -12.6690     2.2350    83.5200     5.9480     5.5460     5.8780    24.4260 
  119.1250   -13.0310     2.2290    84.8010     6.0440     5.5840     5.8580    24.5930 
  119.2500   -13.2680     2.2230    88.3520     6.0440     5.5700     5.7560    24.7010 
  119.3750   -13.3530     2.2230    90.2160     5.9640     5.5130     5.9060    24.7210 
  119.5000   -13.2720     2.2360    90.1080     5.9190     5.4850     6.4080    24.6630 
  119.6250   -13.0140     2.2700    89.9270     6.1380     5.6400     6.3160    24.5770 
  119.7500   -12.6350     2.3250    91.0570     6.7140     6.0470     6.0580    24.5910 
  119.8750   -12.1690     2.3930    92.9510     7.6100     6.7010     7.0210    24.6270 
  120.0000   -11.6860     2.4580    93.1890     8.5870     7.4620    10.7500    24.5070 
  120.1250   -11.2390     2.4910    89.4260     9.1180     7.9600    13.4650    24.2050 
  120.2500   -10.9140     2.4810    84.9860     8.9150     7.9180    12.7990    23.8940 
  120.3750   -10.7620     2.4320    84.9210     8.0580     7.3490     9.7230    23.7130 
  120.5000   -10.8120     2.3630    90.5240     6.9550     6.5270     6.8850    23.6830 
  120.6250   -11.0530     2.3020    96.3100     6.1150     5.8160     5.6310    23.6090 
  120.7500   -11.3850     2.2640    97.3080     5.6850     5.3630     5.3650    23.4010 
  120.8750   -11.7120     2.2480    94.0670     5.5680     5.1430     5.4040    23.2060 
  121.0000   -11.9370     2.2480    91.6380     5.5580     5.0460     5.5280    23.1980 
  121.1250   -11.9760     2.2590    93.4140     5.4490     4.9380     5.2770    23.6130 
  121.2500   -11.9230     2.2750    93.3000     5.2180     4.7700     4.9670    24.5430 
  121.3750   -11.8150     2.2950    89.4850     4.9630     4.5860     4.6520    25.7430 
  121.5000   -11.6460     2.3130    87.7920     4.8150     4.4640     4.5360    26.4270 
  121.6250   -11.5250     2.3210    94.0480     4.9060     4.5030     4.5130    26.0520 
  121.7500   -11.5850     2.3130    98.7640     5.2210     4.7120     4.7650    24.9120 
  121.8750   -11.8930     2.2900    96.4560     5.7050     5.0750     5.4280    23.6450 
  122.0000   -12.4320     2.2610    89.9640     6.2430     5.5240     6.3990    22.7650 
  122.1250   -13.2090     2.2370    86.1920     6.6810     5.9460     6.9320    22.4100 
  122.2500   -14.1020     2.2220    85.9520     6.9550     6.2550     6.8590    22.4010 
  122.3750   -15.0600     2.2140    85.4810     7.0900     6.4370     6.9490    22.7620 
  122.5000   -16.0630     2.2070    82.1070     7.1690     6.5350     7.5610    23.2600 
  122.6250   -16.9610     2.1970    76.9770     7.2790     6.6100     8.0720    23.6720 
  122.7500   -17.5800     2.1860    73.5640     7.4220     6.6960     8.3210    23.8980 
  122.8750   -17.8850     2.1760    73.1860     7.5320     6.7620     8.1820    23.9510 
  123.0000   -17.9060     2.1690    74.1370     7.5080     6.7420     7.8850    23.8280 
  123.1250   -17.6180     2.1720    76.3010     7.2290     6.5370     7.5050    23.6030 
  123.2500   -17.0210     2.1840    78.6160     6.7320     6.1640     7.1460    23.5290 
  123.3750   -16.1310     2.2050    81.9110     6.1100     5.6880     6.4790    24.0300 
  123.5000   -14.9990     2.2280    86.0820     5.5100     5.2200     5.6290    25.6330 
  123.6250   -13.7850     2.2390    89.0720     5.1220     4.9020     4.8820    28.0450 
  123.7500   -12.7260     2.2370    91.6770     5.0070     4.7870     4.5950    29.2800 
  123.8750   -11.8710     2.2270    93.1330     5.1550     4.8850     4.7880    28.0370 
  124.0000   -11.2120     2.2230    91.3260     5.4810     5.1490     5.2350    25.8860 
  124.1250   -10.7190     2.2370    86.3960     5.8120     5.4710     5.8260    24.5590 
  124.2500   -10.2970     2.2630    82.3230     5.9680     5.6890     5.9980    24.1110 
  124.3750    -9.9160     2.2870    83.0980     5.8730     5.7070     5.6200    24.4650 
  124.5000    -9.6330     2.2980    87.7710     5.5700     5.5240     4.9270    25.6890 
  124.6250    -9.4340     2.2960    89.8730     5.1990     5.2260     4.5820    27.4230 
  124.7500    -9.1760     2.2940    86.6420     4.9080     4.9450     4.4940    29.7090 
  124.8750    -8.7970     2.3000    82.2230     4.7470     4.7380     4.5690    32.2960 
  125.0000    -8.3060     2.3110    82.1460     4.6970     4.6110     4.6450    33.3480 
  125.1250    -7.8160     2.3160    84.3730     4.6860     4.5330     4.7350    32.8760 
  125.2500    -7.5160     2.3080    84.3150     4.6180     4.4400     4.8130    33.0180 
  125.3750    -7.4150     2.2890    83.5890     4.4690     4.3080     4.9070    33.3570 
  125.5000    -7.4180     2.2680    82.9160     4.3090     4.1790     4.8640    31.7940 
  125.6250    -7.5400     2.2650    82.4600     4.3690     4.2070     4.8560    28.8900 
  125.7500    -7.7740     2.2910    81.3440     4.8850     4.5430     5.0700    27.0300 
  125.8750    -8.0840     2.3530    77.9640     6.1110     5.3610     6.1320    26.4640 
  126.0000    -8.4610     2.4440    72.3730     8.2180     6.8320     9.0740    26.4140 
  126.1250    -8.9070     2.5420    66.2270    11.6980     9.0860    16.8040    26.4150 
  126.2500    -9.3930     2.6120    63.3770    14.5550    11.5140    23.2150    26.4180 
  126.3750   -10.0060     2.6320    63.2790    16.0120    13.0970    24.1620    26.4180 
  126.5000   -10.8060     2.5930    62.8420    15.2910    13.0070    21.5520    26.3620 
  126.6250   -11.7300     2.5040    60.2430    12.8940    11.4350    16.9050    26.1450 
  126.7500   -12.7630     2.4030    57.9440    10.5260     9.7000    12.3290    25.8100 
  126.8750   -13.8830     2.3220    59.5340     8.9240     8.3990     9.3950    25.5990 
  127.0000   -15.0870     2.2750    67.1820     8.2130     7.6910     8.3330    25.5540 
  127.1250   -16.3590     2.2630    74.2420     8.3220     7.5980     8.5870    25.6040 
  127.2500   -17.6450     2.2570    73.9560     8.8810     7.9030     8.9640    25.6290 
  127.3750   -18.8790     2.2410    68.7470     9.6570     8.4530     9.1180    25.5770 
  127.5000   -19.9180     2.2120    65.7160    10.3820     9.0360     9.4300    25.4400 
  127.6250   -20.6490     2.1820    65.3430    10.6580     9.3170     9.6960    25.2370 
  127.7500   -21.0530     2.1650    65.6220    10.2930     9.0960     9.5470    24.9530 
  127.8750   -21.1660     2.1680    68.3710     9.2780     8.3240     9.1140    24.6600 
  128.0000   -21.0020     2.1850    73.1540     7.8350     7.1520     7.9880    24.3370 
  128.1250   -20.4970     2.2120    75.9110     6.3430     5.8850     6.4880    24.3670 
  128.2500   -19.8030     2.2390    77.1770     5.1390     4.8230     5.1730    24.8490 
  128.3750   -19.0730     2.2590    79.2860     4.3830     4.1000     4.4860    25.2390 
  128.5000   -18.5020     2.2720    81.4320     4.1280     3.7600     4.1910    25.1690 
  128.6250   -18.2390     2.2780    81.1260     4.4700     3.8820     4.5790    24.9070 
  128.7500   -18.1730     2.2810    79.2420     5.3110     4.4110     5.6770    24.7820 
  128.8750   -18.2800     2.2820    77.1840     6.5730     5.3370     7.1200    24.7880 
  129.0000   -18.5490     2.2800    76.3600     8.0480     6.5690     9.1260    24.9300 
  129.1250   -19.1320     2.2680    74.8300     9.2940     7.8210    13.2780    25.1800 
  129.2500   -19.9380     2.2470    70.4030     9.9370     8.6960    17.1830    25.3680 
  129.3750   -20.7440     2.2180    63.9720     9.8760     8.9780    17.8110    25.4360 
