~V
VERS. 2.00: Ver 2.00
~W
STRT.M 59.0000:
STOP.M 261.0000:
STEP.M 0.1250:
NULL. -999.2500:
UWI. DF32116:
~C
DEPT.M :
SP.MV :
GR.API :
CALI.CM :
RXO.OHMM :
RI. :
RML.OHMM :
DEN.GM/CC :
~A
# ...
  194.0000   -22.6720    76.4100    25.5690     5.7630     5.3440     6.8080     2.3900 
  194.1250   -22.8550    73.2930    25.5750     5.9330     5.4340     6.9050     2.3860 
  194.2500   -23.0650    73.9580    25.5830     6.3170     5.7580     7.4450     2.3870 
  194.3750   -23.2930    75.1880    25.5870     7.7580     6.4160     8.5740     2.3880 
  194.5000   -23.5400    74.2850    25.5870    11.0950     7.4710    10.3310     2.3820 
  194.6250   -23.7820    74.1150    25.5880    15.4890     8.9640    12.6310     2.3680 
  194.7500   -24.0090    75.1820    25.5830    18.1440    10.6490    14.9950     2.3570 
  194.8750   -24.2280    74.8800    25.5720    18.1340    12.2400    16.9920     2.3590 
  195.0000   -24.4430    73.6910    25.5640    16.9720    13.4600    18.3330     2.3700 
  195.1250   -24.6220    72.8180    25.5720    16.7950    14.0710    18.8510     2.3780 
  195.2500   -24.7900    71.1370    25.5840    17.4280    14.1520    18.7150     2.3750 
  195.3750   -24.9530    69.2100    25.5890    17.5220    13.7100    17.8760     2.3660 
  195.5000   -25.0970    70.5030    25.5800    16.1000    12.7730    16.3080     2.3590 
  195.6250   -25.2150    76.0240    25.5540    13.4070    11.5370    14.3370     2.3590 
  195.7500   -25.3140    80.8240    25.5260    10.8670    10.4920    12.8100     2.3720 
  195.8750   -25.4060    80.4440    25.5170     9.5180    10.0430    12.4170     2.3970 
  196.0000   -25.5070    73.5860    25.5270    11.1500    10.5660    13.7070     2.4280 
  196.1250   -25.6310    65.3530    25.5280    22.0680    12.9190    17.7200     2.4440 
  196.2500   -25.7730    61.8770    25.5010    48.5660    17.7590    24.9680     2.4350 
  196.3750   -25.9440    63.4420    25.4620    82.1210    25.9420    36.3270     2.4010 
  196.5000   -26.1510    65.8270    25.4410    97.1360    37.5220    51.7830     2.3550 
  196.6250   -26.4090    66.1580    25.4530    85.9120    50.2800    68.0450     2.3110 
  196.7500   -26.7170    65.6930    25.4750    77.7050    60.1900    79.3450     2.2750 
  196.8750   -27.0730    64.8080    25.4910    80.3530    65.7980    84.2450     2.2470 
  197.0000   -27.4440    63.0760    25.5000    85.6410    68.3210    85.6100     2.2310 
  197.1250   -27.8370    60.3610    25.5070    87.4860    69.7090    86.7070     2.2290 
  197.2500   -28.2370    60.1760    25.5090    87.0550    71.1020    88.5070     2.2330 
  197.3750   -28.6230    62.5790    25.5090    87.7010    72.4670    90.6010     2.2350 
  197.5000   -29.0010    64.1150    25.5090    90.8920    73.5910    92.4380     2.2320 
  197.6250   -29.3780    63.2650    25.5080    94.7790    74.2420    93.4860     2.2280 
  197.7500   -29.7400    63.2160    25.5090    95.4510    74.4250    93.6970     2.2270 
  197.8750   -30.0880    63.8120    25.5090    92.0170    74.1710    93.1550     2.2230 
  198.0000   -30.4360    62.3080    25.4990    87.6080    73.6230    92.1560     2.2130 
  198.1250   -30.7720    60.0550    25.4750    86.3310    73.1470    91.2990     2.1990 
  198.2500   -31.1210    59.8200    25.4390    86.2990    73.1880    91.1920     2.1910 
  198.3750   -31.4920    61.0530    25.3870    85.3450    74.0840    92.2420     2.1940 
  198.5000   -31.8900    61.3230    25.3270    85.2060    76.0460    94.6880     2.2070 
  198.6250   -32.3210    60.0800    25.3080    90.8490    79.4070    98.9180     2.2260 
  198.7500   -32.7780    58.9060    25.3640   100.6320    84.0890   104.8010     2.2360 
  198.8750   -33.2690    57.8490    25.4840   110.1170    90.2690   112.5260     2.2280 
  199.0000   -33.7830    55.8560    25.6180   117.4030    98.1600   122.3330     2.2060 
  199.1250   -34.3070    53.1400    25.6940   126.6590   108.1980   134.7440     2.1870 
  199.2500   -34.8180    51.5510    25.7070   143.5020   119.9770   149.2630     2.1880 
  199.3750   -35.3180    52.9020    25.6960   169.4950   133.2090   165.4940     2.2000 
  199.5000   -35.8090    56.0790    25.7030   198.7380   147.3660   182.6940     2.2070 
  199.6250   -36.2710    56.8830    25.7260   219.5890   161.4000   199.3530     2.1980 
  199.7500   -36.7210    54.9070    25.7370   233.0660   174.0920   213.8970     2.1840 
  199.8750   -37.1460    54.4560    25.7350   245.2580   184.6020   225.2970     2.1780 
  200.0000   -37.5410    56.4780    25.7290   253.5790   192.5080   233.1130     2.1840 
  200.1250   -37.9240    56.5420    25.7320   249.6990   197.0120   236.2330     2.1910 
  200.2500   -38.2950    55.7060    25.7360   238.0090   197.8510   234.2270     2.1870 
  200.3750   -38.6370    56.6090    25.7380   221.9780   194.1690   226.2060     2.1800 
  200.5000   -38.9420    57.2460    25.7370   201.5420   185.8810   212.7590     2.1830 
  200.6250   -39.2330    55.2420    25.7370   177.8930   174.0590   196.2200     2.1960 
  200.7500   -39.5130    55.0480    25.7230   154.3660   161.7740   180.3840     2.2040 
  200.8750   -39.7550    58.6460    25.6930   133.1490   151.1320   167.4710     2.2000 
  201.0000   -39.9660    60.9910    25.6630   116.0630   143.6150   158.7610     2.1900 
  201.1250   -40.1550    58.8930    25.6550   103.2500   140.6890   155.5160     2.1880 
  201.2500   -40.3130    56.5030    25.6580    94.5930   141.8440   156.8470     2.1900 
  201.3750   -40.4340    56.0870    25.6560    94.1300   146.8450   162.3510     2.1900 
  201.5000   -40.5130    56.1410    25.6490   106.5950   155.1250   171.3250     2.1870 
  201.6250   -40.5300    54.9330    25.6490   131.5060   165.7860   182.6850     2.1950 
  201.7500   -40.4790    54.6740    25.6470   154.4080   176.4510   193.7170     2.2090 
  201.8750   -40.3950    57.0210    25.5750   167.0060   184.7150   201.5840     2.2160 
  202.0000   -40.2790    61.3530    25.4370   172.0740   188.2740   203.6790     2.2040 
  202.1250   -40.1020    65.9880    25.3920   173.3720   185.0360   198.0920     2.1790 
  202.2500   -39.9010    67.0070    25.4770   170.7040   177.2730   188.1590     2.1600 
  202.3750   -39.7140    63.3780    25.5600   168.8660   167.9230   177.5900     2.1550 
  202.5000   -39.5470    58.2430    25.5340   173.7410   160.2940   169.9080     2.1590 
  202.6250   -39.4000    56.5980    25.5130   179.2290   157.6890   168.2090     2.1620 
  202.7500   -39.2830    56.3660    25.6540   179.6820   160.0750   171.8590     2.1630 
  202.8750   -39.1880    55.1340    25.9500   187.9210   166.2860   179.2940     2.1650 
  203.0000   -39.1120    53.9950    26.2910   217.8370   173.5310   187.1820     2.1690 
  203.1250   -39.0700    55.1530    26.4790   246.5340   176.8340   189.5460     2.1710 
  203.2500   -39.0390    57.0130    26.4100   238.1090   173.2980   183.4300     2.1680 
  203.3750   -38.9650    58.3120    26.1460   202.3540   162.6150   169.3620     2.1660 
  203.5000   -38.8390    59.2350    25.8670   172.2550   147.3240   151.3780     2.1670 
  203.6250   -38.6590    60.9800    25.7560   159.7900   132.3950   135.7240     2.1630 
  203.7500   -38.4170    62.5740    25.7580   148.1990   122.2510   126.1550     2.1510 
  203.8750   -38.1020    62.7360    25.7550   133.6980   118.8900   123.8270     2.1490 
  204.0000   -37.7170    61.2210    25.6890   131.4910   122.3660   128.1810     2.1880 
  204.1250   -37.2530    58.4300    25.5600   194.6400   131.0410   137.0230     2.2890 
  204.2500   -36.7360    55.5290    25.4290   331.0900   139.2400   144.2080     2.4000 
  204.3750   -36.2040    53.3430    25.3330   401.0090   141.7570   144.2220     2.4640 
  204.5000   -35.6720    52.6720    25.2870   314.0260   135.8010   135.1710     2.4430 
  204.6250   -35.1400    54.7910    25.2990   172.9820   123.0220   120.8660     2.3450 
  204.7500   -34.6110    58.3820    25.3360   114.9140   110.2240   108.4640     2.2460 
  204.8750   -34.1180    61.7320    25.3900    98.9200   101.3080   101.0250     2.1960 
  205.0000   -33.6860    62.5860    25.4610    98.3710    97.6920    99.0830     2.2090 
  205.1250   -33.3080    60.1350    25.5240   109.6720    99.2480   101.9700     2.2480 
