~V
VERS. 2.00: Ver 2.00
~W
STRT.M 60.0000:
STOP.M 229.0000:
STEP.M 0.1250:
NULL. -999.2500:
UWI. DF32026:
~C
DEPT.M :
SP.MV :
GR.API :
CALI.CM :
RXO.OHMM :
RI. :
RML.OHMM :
DEN.GM/CC :
~A
# ...
  105.0000    72.1450    82.5580    23.6370     8.4310     6.3640     8.0780     2.1940 
  105.1250    72.2800    80.7850    23.6830     8.2200     6.7090     8.6950     2.2290 
  105.2500    72.4280    78.5420    23.6510     8.4110     7.4470     9.9710     2.3010 
  105.3750    72.5990    75.1360    23.5810     9.7960     8.4160    11.6010     2.3920 
  105.5000    72.8160    70.4820    23.5290    13.3720     9.1700    12.8050     2.4650 
  105.6250    72.9760    69.8890    23.5440    15.4050     8.9590    12.2790     2.4770 
  105.7500    73.1080    75.8270    23.5510    12.6930     7.8480    10.2790     2.4380 
  105.8750    73.1630    83.4430    23.5810     7.8710     6.3700     7.8920     2.3860 
  106.0000    73.1450    87.9300    23.8640     5.2660     5.0820     6.0700     2.3400 
  106.1250    73.0250    89.4930    24.5430     4.8120     4.3510     5.2920     2.3020 
  106.2500    72.8310    89.7470    24.9540     5.2830     4.1320     5.3230     2.2660 
  106.3750    72.5730    88.7070    24.7290     6.1280     4.3290     5.9310     2.2360 
  106.5000    72.2850    86.5780    24.1830     6.8800     4.7600     6.7520     2.2210 
  106.6250    72.0010    84.4720    24.0460     7.2030     5.1470     7.2580     2.2250 
  106.7500    71.7270    81.9740    23.9950     7.0960     5.3320     7.2960     2.2370 
  106.8750    71.4840    80.5430    24.0890     6.7020     5.3580     7.0790     2.2390 
  107.0000    71.2850    82.1710    23.9590     6.4380     5.3650     6.9270     2.2270 
  107.1250    71.0740    84.9990    23.8580     6.8490     5.5000     7.0900     2.2070 
  107.2500    70.8790    84.8380    23.8690     7.5870     5.7720     7.5310     2.1910 
  107.3750    70.6880    80.3650    24.0600     8.1350     6.1250     8.1300     2.1820 
  107.5000    70.5040    74.3120    24.0970     8.3290     6.4710     8.7160     2.1730 
  107.6250    70.3330    70.8830    23.8490     8.3240     6.7010     9.0870     2.1610 
  107.7500    70.1530    70.4830    23.5330     8.3190     6.7970     9.2330     2.1490 
  107.8750    69.9910    70.9870    23.5620     8.2980     6.7920     9.2370     2.1380 
  108.0000    69.8330    72.3040    23.9230     8.2650     6.7400     9.1960     2.1280 
  108.1250    69.7380    75.2570    23.8700     8.2840     6.6970     9.1820     2.1230 
  108.2500    69.6710    76.0260    23.9250     8.2950     6.6960     9.2160     2.1220 
  108.3750    69.6360    73.7310    23.8730     8.3320     6.7540     9.3130     2.1240 
  108.5000    69.5950    70.7530    23.7420     8.5060     6.8720     9.4880     2.1250 
  108.6250    69.5520    70.6300    23.6320     8.9050     7.0370     9.7560     2.1250 
  108.7500    69.5220    73.0420    23.6090     9.2830     7.2090    10.0670     2.1280 
  108.8750    69.4910    76.5940    23.6000     9.3950     7.3600    10.3600     2.1360 
  109.0000    69.4670    78.6130    23.5810     9.2850     7.4680    10.5730     2.1480 
  109.1250    69.4390    77.0970    23.5310     9.1350     7.5110    10.6470     2.1590 
  109.2500    69.4210    75.8310    23.4900     9.0420     7.5010    10.6100     2.1630 
  109.3750    69.3750    75.5060    23.4970     9.0200     7.4550    10.5000     2.1600 
  109.5000    69.3510    74.9710    23.6350     9.0310     7.3890    10.3590     2.1540 
  109.6250    69.3070    73.1820    24.0170     8.9960     7.3200    10.2160     2.1470 
  109.7500    69.2720    71.8930    24.4300     8.9080     7.2610    10.0900     2.1450 
  109.8750    69.2550    70.9680    24.5520     8.8770     7.2170     9.9860     2.1440 
  110.0000    69.2470    68.9290    24.3340     8.9000     7.1800     9.8940     2.1420 
  110.1250    69.2370    68.1450    23.9600     8.8920     7.1320     9.7890     2.1400 
  110.2500    69.2500    68.3490    23.9450     8.8230     7.0730     9.6610     2.1380 
  110.3750    69.3010    69.1850    24.0510     8.7310     7.0230     9.5340     2.1320 
  110.5000    69.3390    70.6950    23.9340     8.6610     7.0150     9.4620     2.1240 
  110.6250    69.3870    72.7500    23.9530     8.6270     7.0870     9.5190     2.1260 
  110.7500    69.4210    74.7180    24.2080     8.7230     7.2070     9.6680     2.1360 
  110.8750    69.4550    74.6680    24.5510     9.1220     7.3010     9.8000     2.1440 
  111.0000    69.4910    72.1440    24.7670     9.9360     7.2720     9.7620     2.1490 
  111.1250    69.5190    69.2250    25.1020    10.1010     7.0240     9.4000     2.1630 
  111.2500    69.5060    68.9610    25.2540     9.3350     6.6110     8.8050     2.1920 
  111.3750    69.4990    73.2800    25.0870     7.9840     6.1170     8.1140     2.2260 
  111.5000    69.4730    79.4500    24.7890     6.7290     5.6240     7.4670     2.2520 
  111.6250    69.4120    83.0060    24.6010     6.1010     5.2120     6.9770     2.2650 
  111.7500    69.3330    84.5330    24.4790     6.0480     4.8970     6.6380     2.2730 
  111.8750    69.2300    85.8650    24.3280     6.1230     4.6830     6.4270     2.2850 
  112.0000    69.1440    87.2080    24.1970     6.0050     4.5670     6.3150     2.2970 
  112.1250    69.0220    90.0890    24.1760     5.7350     4.5630     6.3130     2.2940 
  112.2500    68.8540    93.3670    24.1420     5.7790     4.6630     6.4340     2.2710 
  112.3750    68.6310    92.7890    24.0740     6.1250     4.8700     6.7130     2.2410 
  112.5000    68.4240    85.5030    23.9830     6.5860     5.1770     7.1430     2.2200 
  112.6250    68.2350    76.4480    23.8540     7.0540     5.5460     7.6590     2.2190 
  112.7500    68.0670    73.8090    23.7650     7.3740     5.8930     8.1180     2.2280 
  112.8750    67.9130    77.1530    23.7400     7.5640     6.1550     8.4320     2.2360 
  113.0000    67.7410    81.8610    23.7290     7.6410     6.3000     8.5690     2.2370 
  113.1250    67.6320    82.6840    23.7180     7.6610     6.3080     8.5270     2.2330 
  113.2500    67.5820    79.4150    23.6900     7.6470     6.2290     8.3670     2.2240 
  113.3750    67.5910    75.0040    23.6450     7.5820     6.0940     8.1240     2.2130 
  113.5000    67.6120    72.3340    23.6140     7.4470     5.9370     7.8510     2.2070 
  113.6250    67.6610    73.7760    23.5990     7.2060     5.8040     7.6420     2.2080 
  113.7500    67.7370    76.7470    23.6030     6.9470     5.7440     7.5760     2.2190 
  113.8750    67.7860    78.5250    23.6110     6.8330     5.7900     7.6840     2.2360 
  114.0000    67.8560    79.6510    23.6150     6.9360     5.9370     7.9310     2.2570 
  114.1250    67.9010    81.9140    23.6180     7.3510     6.1200     8.1870     2.2780 
  114.2500    67.9630    84.4840    23.6480     8.0190     6.2200     8.2840     2.2920 
  114.3750    68.0300    84.6120    23.6930     8.4850     6.1460     8.1150     2.2990 
  114.5000    68.0940    81.9050    23.7420     8.1880     5.8740     7.6750     2.2980 
  114.6250    68.1690    80.3340    23.8580     6.9380     5.4510     7.0630     2.2970 
  114.7500    68.2040    83.7820    24.0860     6.1420     5.0110     6.4720     2.3010 
  114.8750    68.2160    90.7190    24.3270     5.9430     4.6270     6.0010     2.3100 
  115.0000    68.1920    96.2490    24.4670     5.8700     4.3270     5.6750     2.3260 
  115.1250    68.1200    96.8900    24.4850     5.5920     4.1210     5.4800     2.3460 
  115.2500    67.9850    96.3970    24.5070     5.3450     3.9720     5.3450     2.3670 
  115.3750    67.7980    96.7200    24.5270     5.2710     3.8740     5.2520     2.3750 
  115.5000    67.5760    97.0430    24.5230     5.3190     3.8490     5.2290     2.3570 
  115.6250    67.2690    97.1150    24.4750     5.4530     3.9640     5.3610     2.3150 
  115.7500    66.9510    98.2430    24.4480     5.7020     4.2440     5.6820     2.2650 
  115.8750    66.6590    98.0430    24.4080     6.1910     4.7050     6.2190     2.2210 
  116.0000    66.3440    92.7430    24.3060     7.0180     5.3450     6.9860     2.1900 
  116.1250    66.1000    83.6300    24.1640     8.1530     6.1580     8.0000     2.1820 
