~V
VERS. 2.00: Ver 2.00
~W
STRT.M 60.0000:
STOP.M 227.0000:
STEP.M 0.1250:
NULL. -999.2500:
UWI. DF32025:
~C
DEPT.M :
DEN.GM/CC :
GR.API :
RML.OHMM :
RI. :
RXO.OHMM :
CALI.CM :
SP.MV :
~A
# ...
  116.2500     2.2630    59.6570    12.1420    10.4390    12.0420    23.6350   -30.5910 
  116.3750     2.2070    57.9140    11.0890     9.9360     8.9270    23.4880   -30.9290 
  116.5000     2.1910    59.3340    10.3140     9.4040     8.4090    23.4440   -31.2260 
  116.6250     2.2280    62.4850    10.0460     9.1290     8.5560    23.4720   -31.3320 
  116.7500     2.2980    61.7260     9.9570     9.0100     8.8770    23.5170   -31.4060 
  116.8750     2.3720    57.8540     9.7400     8.8490     9.7750    23.5450   -31.3600 
  117.0000     2.4180    56.7140     9.2070     8.4850    11.2710    23.5970   -31.3660 
  117.1250     2.4100    62.6820     8.3540     7.8560    11.5440    23.7600   -31.3550 
  117.2500     2.3660    71.2350     7.4490     7.1280     8.0960    23.9090   -31.4090 
  117.3750     2.3100    77.5980     6.6750     6.4400     6.1810    23.9200   -31.5580 
  117.5000     2.2680    79.7520     6.1050     5.8770     6.3320    23.8530   -31.6710 
  117.6250     2.2550    78.4300     5.7220     5.4720     6.7080    23.8410   -31.8850 
  117.7500     2.2610    77.1610     5.4260     5.1660     6.1330    23.9560   -32.0400 
  117.8750     2.2750    80.1970     5.1860     4.9280     4.9610    24.1650   -32.2460 
  118.0000     2.2860    86.1860     5.0190     4.7490     4.5610    24.3090   -32.4100 
  118.1250     2.2880    89.3230     4.9840     4.6520     4.5850    24.3690   -32.5210 
  118.2500     2.2850    89.2130     5.0610     4.6270     4.7910    24.3820   -32.6020 
  118.3750     2.2860    89.1410     5.1940     4.6480     4.9000    24.4000   -32.6050 
  118.5000     2.2940    90.3480     5.3050     4.6690     4.8600    24.4450   -32.7450 
  118.6250     2.3060    90.2870     5.3210     4.6390     4.8660    24.5430   -32.8670 
  118.7500     2.3150    90.4290     5.2540     4.5550     4.7430    24.6110   -33.0900 
  118.8750     2.3170    90.3740     5.1440     4.4390     4.6570    24.6830   -33.3720 
  119.0000     2.3160    88.7720     5.0460     4.3300     4.6170    24.7530   -33.6730 
  119.1250     2.3180    87.6910     5.0630     4.2980     4.7380    24.8230   -34.1230 
  119.2500     2.3310    90.1080     5.2690     4.3930     4.7770    24.8770   -34.5030 
  119.3750     2.3510    94.7220     5.7220     4.6550     4.6640    24.8830   -34.9840 
  119.5000     2.3660    96.6090     6.4180     5.0880     4.9950    24.8690   -35.4430 
  119.6250     2.3540    91.0600     7.2810     5.6640     7.1040    24.7370   -35.9680 
  119.7500     2.3180    81.0560     8.1170     6.2700     9.9260    24.6390   -36.4530 
  119.8750     2.2700    73.4140     8.7870     6.8180    10.0500    24.6840   -36.9200 
  120.0000     2.2310    72.4680     9.2390     7.2540     9.1520    24.7950   -37.2920 
  120.1250     2.2140    74.9440     9.5120     7.5700     8.6610    24.7840   -37.5850 
  120.2500     2.2140    73.2310     9.7400     7.8270     8.9930    24.6610   -37.8660 
  120.3750     2.2180    68.7460     9.9460     8.0440     9.2810    24.5210   -38.0370 
  120.5000     2.2190    66.1940    10.0680     8.1890     9.5330    24.4310   -38.1350 
  120.6250     2.2170    67.2500     9.9510     8.1590     9.7990    24.2450   -38.0290 
  120.7500     2.2180    70.3730     9.5730     7.9260     9.8750    23.9280   -37.9420 
  120.8750     2.2240    73.1600     8.9990     7.5140     9.2700    23.7470   -37.7460 
  121.0000     2.2360    76.2060     8.3790     7.0100     8.0210    23.8800   -37.6220 
  121.1250     2.2480    81.3630     7.9280     6.5540     7.0350    23.9090   -37.4660 
  121.2500     2.2560    86.3300     7.7340     6.2350     6.6690    23.7010   -37.2890 
  121.3750     2.2620    87.9800     7.7850     6.0780     6.4950    23.4630   -37.1950 
  121.5000     2.2680    86.6230     7.9820     6.0460     6.6530    23.3680   -37.1090 
  121.6250     2.2780    85.6870     8.1580     6.0670     8.3090    23.4710   -37.1700 
  121.7500     2.2950    85.2270     8.1930     6.0580    10.2180    23.5930   -37.1730 
  121.8750     2.3130    83.9090     8.0800     5.9960     9.1030    23.5120   -37.2130 
  122.0000     2.3260    84.4120     7.9260     5.9170     7.0740    23.2120   -37.2560 
  122.1250     2.3230    86.8270     7.9460     5.9240     6.0740    22.9640   -37.3020 
  122.2500     2.3030    86.8570     8.2660     6.0980     6.1580    22.8290   -37.4240 
  122.3750     2.2700    83.1880     8.9130     6.4760     6.6820    22.8920   -37.4310 
  122.5000     2.2330    77.1710     9.8060     7.0350     7.5920    23.3130   -37.4690 
  122.6250     2.2020    70.3820    10.7450     7.6920     8.8030    23.9820   -37.3380 
  122.7500     2.1790    64.9630    11.4880     8.2980     9.5910    24.4360   -37.1640 
  122.8750     2.1630    62.7880    11.8980     8.7590     9.8320    24.5720   -36.8710 
  123.0000     2.1530    63.8140    11.9630     9.0410     9.9350    24.5540   -36.4320 
  123.1250     2.1440    64.2510    11.7750     9.1690     9.9140    24.4970   -35.7180 
  123.2500     2.1350    63.4430    11.5580     9.2580    10.0850    24.4940   -34.7840 
  123.3750     2.1270    62.4930    11.4620     9.3920    10.2780    24.5140   -33.7130 
  123.5000     2.1190    61.0190    11.5910     9.6330    10.5030    24.5250   -32.4460 
  123.6250     2.1170    59.3540    12.0140    10.0270    10.8020    24.5340   -31.2700 
  123.7500     2.1290    60.6560    12.5760    10.5050    10.9720    24.5490   -30.0440 
  123.8750     2.1650    65.5470    13.0350    10.9270    11.1270    24.5590   -28.9660 
  124.0000     2.2290    71.1510    13.0730    11.0890    11.7610    24.5630   -27.9780 
  124.1250     2.3080    72.6090    12.3130    10.7070    15.0530    24.5150   -27.2220 
  124.2500     2.3700    73.1120    10.9000     9.8210    20.7570    24.4270   -26.6420 
  124.3750     2.3920    77.5210     9.1600     8.6030    20.8850    24.3510   -26.1310 
  124.5000     2.3760    84.5230     7.5350     7.3420    11.0540    24.3170   -25.7930 
  124.6250     2.3400    88.1100     6.4790     6.3790     6.9370    24.3100   -25.4200 
  124.7500     2.3110    87.9140     6.0300     5.8250     5.8680    24.3100   -25.0980 
  124.8750     2.2910    85.9090     6.1130     5.6800     5.9570    24.3100   -24.7070 
  125.0000     2.2780    81.4560     6.5620     5.8650     5.9600    24.3100   -24.2740 
  125.1250     2.2680    76.8330     7.1370     6.2360     6.3220    24.3100   -23.9320 
  125.2500     2.2600    76.8160     7.5500     6.5660     6.6600    24.3100   -23.5200 
  125.3750     2.2560    78.6310     7.6330     6.7050     6.6900    24.3120   -23.1950 
  125.5000     2.2590    79.8580     7.3380     6.5800     6.6770    24.3210   -22.8210 
  125.6250     2.2680    84.1270     6.7190     6.1850     6.2940    24.3340   -22.5190 
  125.7500     2.2810    91.0320     6.0150     5.6780     5.5420    24.3340   -22.2630 
  125.8750     2.2990    96.4650     5.4060     5.1920     4.9540    24.3190   -22.0610 
  126.0000     2.3210    99.3620     5.0320     4.8370     4.5670    24.3100   -21.9180 
  126.1250     2.3470   102.1880     5.0330     4.7270     4.4140    24.3020   -21.7280 
  126.2500     2.3710   104.7360     5.3720     4.8550     4.4760    24.2840   -21.5940 
  126.3750     2.3810   104.5090     6.0100     5.2050     4.8930    24.2750   -21.4420 
  126.5000     2.3720   100.5880     6.8340     5.7120     5.7680    24.2930   -21.2770 
  126.6250     2.3420    93.9490     7.6310     6.2530     6.4200    24.3070   -20.9610 
  126.7500     2.3090    89.1830     8.1650     6.6660     7.0240    24.3220   -20.5690 
  126.8750     2.2840    87.4070     8.3070     6.8500     7.7360    24.3450   -20.0390 
  127.0000     2.2730    85.0240     8.0780     6.7930     7.9360    24.3550   -19.5250 
  127.1250     2.2760    79.4110     7.6720     6.6070     7.1520    24.3420   -18.9450 
  127.2500     2.2760    75.1540     7.5260     6.5400     6.6800    24.3210   -18.3750 
  127.3750     2.2660    75.3060     7.9200     6.7940     6.6860    24.3120   -17.8730 
