~V
VERS. 2.00: Ver 2.00
~W
STRT.M 61.0000:
STOP.M 325.0000:
STEP.M 0.1250:
NULL. -999.2500:
UWI. DF320:
~C
DEPT.M :
GR.API :
RML.OHMM :
RI. :
RXO.OHMM :
CALI.CM :
SP.MV :
DEN.GM/CC :
AC.US/MT :
~A
# ...
  181.0000    94.8910     6.5840     6.4060     6.0590    24.4790   -10.2780     2.3220   397.0690 
  181.1250    93.2280     6.7440     6.5350     6.1340    24.4570   -10.2920     2.3230   395.9860 
  181.2500    95.6230     6.8730     6.6390     6.1230    24.4900   -10.3210     2.3210   400.0760 
  181.3750    99.3420     6.9240     6.6810     6.0950    24.5230   -10.2950     2.3170   406.4190 
  181.5000    99.8810     6.8570     6.6270     6.0260    24.5460   -10.2050     2.3160   411.7060 
  181.6250   100.2210     6.6330     6.4350     5.8610    24.5670   -10.1650     2.3200   414.7810 
  181.7500   102.7940     6.3060     6.1410     5.5520    24.5810   -10.2050     2.3300   417.2690 
  181.8750   105.3770     5.9390     5.7890     5.1800    24.5860   -10.2860     2.3460   420.2150 
  182.0000   106.5130     5.6110     5.4450     4.8690    24.5850   -10.3390     2.3630   423.4400 
  182.1250   106.5960     5.4080     5.1910     4.7260    24.5830   -10.3770     2.3750   426.5930 
  182.2500   105.6800     5.3330     5.0530     4.7560    24.5780   -10.4770     2.3770   429.1420 
  182.3750   104.0840     5.3640     5.0320     4.9640    24.5650   -10.6540     2.3700   429.7450 
  182.5000   104.6930     5.4410     5.0900     5.3810    24.5430   -10.8700     2.3600   426.6700 
  182.6250   107.0980     5.4910     5.1630     5.9290    24.5110   -11.1020     2.3520   418.9650 
  182.7500   106.9260     5.4820     5.1930     6.3970    24.4790   -11.3530     2.3480   409.6010 
  182.8750   105.4400     5.4700     5.1870     6.7340    24.4400   -11.6260     2.3470   401.5840 
  183.0000   104.2700     5.5900     5.2310     7.1390    24.4030   -11.9380     2.3470   396.3980 
  183.1250   102.4430     6.0390     5.5340     8.0480    24.3810   -12.2820     2.3510   392.9270 
  183.2500    95.7090     6.9260     6.2220     9.9430    24.3710   -12.6160     2.3630   387.0070 
  183.3750    84.7380     8.2490     7.3590    12.9200    24.3800   -12.9270     2.3820   374.4870 
  183.5000    73.7990     9.8910     8.8830    16.2790    24.3990   -13.2510     2.4000   354.7190 
  183.6250    66.7720    11.5500    10.5770    18.7550    24.3720   -13.6170     2.4020   333.3010 
  183.7500    62.5050    12.9030    12.0760    18.1410    24.2940   -13.9650     2.3800   320.2190 
  183.8750    59.1350    13.7800    13.1340    15.7100    24.1690   -14.2580     2.3370   322.0510 
  184.0000    58.0440    14.1970    13.6710    14.2730    24.0290   -14.5320     2.2840   339.3000 
  184.1250    62.6500    14.2350    13.7370    14.0540    23.9590   -14.8060     2.2380   366.9690 
  184.2500    68.8500    14.1370    13.5980    14.0300    23.9400   -15.0240     2.2070   392.8800 
  184.3750    72.9770    13.9780    13.3830    13.9700    23.9400   -15.2280     2.1910   410.0370 
  184.5000    73.8760    13.7750    13.1470    13.8460    23.9410   -15.4600     2.1880   417.5020 
  184.6250    71.7770    13.6530    12.9090    13.6410    23.9420   -15.6250     2.1900   418.5330 
  184.7500    69.6060    13.5520    12.6940    13.3720    23.9460   -15.7040     2.1940   418.5140 
  184.8750    68.2550    13.5080    12.5370    13.0720    23.9560   -15.7840     2.1970   418.2430 
  185.0000    67.4630    13.5030    12.4720    12.8720    23.9750   -15.8690     2.2010   417.7260 
  185.1250    65.9420    13.6540    12.5240    12.9310    24.0000   -15.9380     2.2070   416.9870 
  185.2500    66.0860    13.8760    12.6540    13.3130    24.0200   -15.9970     2.2150   416.0620 
  185.3750    71.2820    14.0960    12.8350    13.8470    24.0450   -16.0160     2.2230   414.9160 
  185.5000    79.4530    14.3020    13.0470    14.2030    24.0800   -15.9730     2.2300   413.6190 
  185.6250    83.5320    14.5420    13.2800    14.3220    24.1250   -15.9380     2.2350   412.3330 
  185.7500    80.8680    14.7980    13.5200    14.4580    24.2210   -15.9550     2.2370   411.2260 
  185.8750    72.5900    15.0450    13.7450    14.6900    24.3710   -15.9670     2.2340   410.6630 
  186.0000    64.7350    15.2510    13.9290    14.9440    24.5020   -15.9300     2.2290   410.8280 
  186.1250    63.7110    15.3780    14.0430    15.1180    24.5930   -15.8390     2.2240   411.4110 
  186.2500    65.4380    15.4420    14.0970    15.1390    24.6210   -15.7650     2.2210   411.6330 
  186.3750    65.9550    15.4720    14.1150    15.0400    24.6480   -15.7290     2.2190   411.1980 
  186.5000    65.8100    15.5100    14.1290    14.9830    24.7170   -15.6920     2.2170   410.4470 
  186.6250    68.3030    15.6150    14.1840    15.0190    24.7200   -15.6040     2.2130   410.0290 
  186.7500    71.5360    15.8080    14.3070    15.0890    24.7050   -15.4540     2.2070   410.2230 
  186.8750    71.8080    16.0850    14.5040    15.2540    24.6720   -15.2950     2.1990   410.9630 
  187.0000    68.5510    16.4110    14.7580    15.5020    24.5820   -15.1730     2.1930   411.9220 
  187.1250    65.6890    16.7130    15.0220    15.7800    24.5240   -15.1060     2.1900   412.6930 
  187.2500    66.1730    16.9250    15.2350    16.0340    24.4530   -15.0420     2.1900   413.1650 
  187.3750    67.2260    17.0150    15.3590    16.1720    24.4180   -14.9690     2.1900   413.6920 
  187.5000    65.7610    16.9880    15.3840    16.0310    24.3360   -14.8800     2.1880   414.7620 
  187.6250    61.2600    16.8640    15.3200    15.7030    24.3030   -14.8130     2.1840   416.5360 
  187.7500    57.8740    16.6920    15.2140    15.4660    24.2600   -14.7980     2.1810   418.4050 
  187.8750    58.9800    16.4900    15.0950    15.3720    24.1400   -14.8100     2.1790   419.8130 
  188.0000    62.9870    16.2870    14.9900    15.3890    24.0930   -14.8070     2.1800   420.6300 
  188.1250    64.3130    16.1860    14.9670    15.4240    24.0810   -14.7160     2.1820   421.1650 
  188.2500    62.6450    16.3550    15.1240    15.4450    24.0830   -14.5450     2.1840   421.9820 
  188.3750    61.8550    16.9800    15.5890    15.5020    24.0960   -14.3510     2.1830   423.2180 
  188.5000    62.7480    18.1400    16.4400    15.5450    24.1160   -14.1720     2.1770   424.6600 
  188.6250    62.6730    19.6300    17.5940    15.5030    24.1250   -13.9570     2.1660   426.2290 
  188.7500    62.7450    20.7590    18.5760    15.3020    24.1300   -13.6780     2.1550   427.6830 
  188.8750    63.6870    20.8470    18.8280    14.7600    24.1360   -13.3160     2.1510   428.2950 
  189.0000    65.3240    19.4610    17.9120    13.6440    24.1520   -12.9090     2.1620   426.7550 
  189.1250    69.4240    16.7460    15.6890    11.7970    24.1940   -12.5300     2.1950   421.4830 
  189.2500    77.2720    13.7760    12.9900     9.4260    24.2670   -12.2130     2.2380   415.3540 
  189.3750    88.4960    11.2940    10.4750     7.2340    24.3690   -11.9280     2.2800   412.9920 
  189.5000   100.2620     9.5550     8.5160     6.0090    24.4990   -11.6390     2.3090   417.6320 
  189.6250   108.3280     8.3380     7.2640     5.7140    24.6180   -11.3720     2.3190   427.1840 
  189.7500   111.0050     7.5880     6.5140     5.7630    24.6750   -11.1600     2.3220   434.4610 
  189.8750   108.5110     7.1980     6.1710     5.8730    24.6830   -11.0350     2.3230   436.8920 
  190.0000   103.8540     7.1020     6.1590     5.9300    24.6670   -11.0110     2.3240   435.8330 
  190.1250   100.0190     7.2800     6.4370     6.1820    24.6170   -11.0600     2.3210   432.7140 
  190.2500    95.7270     7.6470     6.8950     6.6460    24.5310   -11.1180     2.3150   427.3230 
  190.3750    88.3400     8.1690     7.4840     7.2600    24.4270   -11.1570     2.3090   419.2310 
  190.5000    79.3790     8.7780     8.1400     7.9480    24.3200   -11.1880     2.3110   409.1970 
  190.6250    76.5270     9.2870     8.7020     8.6820    24.2300   -11.2430     2.3270   398.2520 
  190.7500    79.3000     9.4720     8.9750     9.2960    24.2280   -11.3040     2.3500   387.0720 
  190.8750    81.8870     9.1650     8.7910     9.7120    24.3370   -11.3370     2.3700   377.0840 
