~V
VERS. 2.00: Ver 2.00
~W
STRT.M 62.0000:
STOP.M 256.0000:
STEP.M 0.1250:
NULL. -999.2500:
UWI. DF32087:
~C
DEPT.M :
SP.MV :
GR.API :
RML.OHMM :
RI. :
RXO.OHMM :
CALI.CM :
DEN.GM/CC :
~A
# ...
  219.5000   -27.6200    53.9300   127.8180   110.8180   109.7570    24.5580     2.2140 
  219.6250   -27.5240    52.3700   124.2750   110.3830   111.7450    24.5350     2.2140 
  219.7500   -27.4340    50.4610   117.0520   106.9850   113.3740    24.4290     2.2250 
  219.8750   -27.2980    52.2870   106.4980    99.8800   111.4990    24.2060     2.2510 
  220.0000   -27.1740    58.9450    93.4390    89.4210    99.7460    23.9810     2.2860 
  220.1250   -27.0870    64.5980    81.2710    76.9850    80.2840    23.9920     2.3150 
  220.2500   -26.9790    68.3050    70.7440    64.9350    62.0110    24.1390     2.3250 
  220.3750   -26.9490    72.2150    60.8310    54.6340    48.2370    24.2810     2.3180 
  220.5000   -26.9000    76.3700    52.3470    46.7320    40.0270    24.3610     2.3020 
  220.6250   -26.9940    75.2410    47.2450    41.8020    36.1080    24.5180     2.2860 
  220.7500   -27.1160    72.7490    44.9410    39.4130    34.4260    24.6980     2.2720 
  220.8750   -27.3030    73.0850    45.4790    39.6120    33.2990    24.7790     2.2600 
  221.0000   -27.5280    75.0540    48.8760    42.4330    32.6680    24.7410     2.2530 
  221.1250   -27.8050    73.7790    55.1910    47.9960    36.7420    24.6740     2.2530 
  221.2500   -28.0930    69.4420    62.9300    55.0150    50.2400    24.6680     2.2580 
  221.3750   -28.4090    64.4960    70.4790    62.0950    69.2300    24.7030     2.2660 
  221.5000   -28.7490    61.8290    75.9900    67.5870    78.2650    24.7270     2.2740 
  221.6250   -29.0940    63.1600    77.4710    69.6100    67.1990    24.7260     2.2820 
  221.7500   -29.4510    66.0210    75.6400    68.5130    58.1550    24.7140     2.2890 
  221.8750   -29.8040    67.6510    71.9190    65.2970    59.5270    24.7330     2.2960 
  222.0000   -30.1350    65.7310    68.0690    61.4480    63.3840    24.7820     2.3000 
  222.1250   -30.4600    61.4890    65.9260    58.7160    61.9470    24.8540     2.2990 
  222.2500   -30.7390    60.0200    66.4100    58.2150    56.0480    24.8740     2.2970 
  222.3750   -31.0410    62.1520    70.5260    60.9200    50.9620    24.7930     2.2960 
  222.5000   -31.3000    64.8890    79.3390    67.6960    53.4730    24.6340     2.2960 
  222.6250   -31.5890    63.8840    94.4270    79.6740    72.0750    24.5340     2.2950 
  222.7500   -31.8380    61.3920   114.0390    95.2100   102.0920    24.6070     2.2900 
  222.8750   -32.1000    59.5670   135.4580   112.0460   134.1810    24.7230     2.2830 
  223.0000   -32.2950    58.3370   154.5020   127.0050   151.3220    24.7610     2.2760 
  223.1250   -32.4110    56.8470   165.5110   136.0430   156.6760    24.7500     2.2740 
  223.2500   -32.5460    56.0250   168.2610   138.9770   158.9990    24.7540     2.2750 
  223.3750   -32.5010    55.6990   165.1280   137.2030   152.7050    24.7890     2.2760 
  223.5000   -32.4600    54.5180   159.7870   133.1700   139.1140    24.8470     2.2730 
  223.6250   -32.2240    51.9710   155.2950   129.2680   136.0310    24.8970     2.2650 
  223.7500   -31.9840    50.8940   152.3700   126.5390   135.4510    24.9160     2.2560 
  223.8750   -31.6620    51.5120   150.4550   124.8510   136.2930    24.9190     2.2500 
  224.0000   -31.3740    51.7240   148.5910   123.5810   136.6830    24.9170     2.2480 
  224.1250   -31.0290    50.5410   145.8490   122.0000   139.8280    24.9150     2.2500 
  224.2500   -30.6380    50.9620   142.3210   119.9360   139.8530    24.9140     2.2540 
  224.3750   -30.2700    53.1950   138.6090   117.6820   130.8970    24.9130     2.2600 
  224.5000   -29.8780    54.6190   135.4560   115.7330   117.7080    24.9170     2.2660 
  224.6250   -29.4970    54.8760   133.4330   114.5610   115.2620    24.9190     2.2710 
  224.7500   -29.1120    55.3850   132.0820   113.9150   122.5130    24.9170     2.2770 
  224.8750   -28.7460    55.4790   130.6590   113.2550   125.4350    24.8970     2.2820 
  225.0000   -28.3770    54.2760   128.2830   111.8660   119.7240    24.8270     2.2880 
  225.1250   -28.0210    53.0170   123.8650   108.7690   107.3080    24.6940     2.2920 
  225.2500   -27.7600    53.2180   117.3630   103.7980    96.0910    24.5770     2.2930 
  225.3750   -27.5040    54.6510   108.9570    96.9940    87.4010    24.4860     2.2890 
  225.5000   -27.2420    57.3650    99.2260    88.7880    80.1710    24.3940     2.2810 
  225.6250   -27.0110    60.2410    89.1680    79.9940    71.7750    24.2310     2.2710 
  225.7500   -26.7470    61.2620    79.9630    71.7410    66.0640    24.0730     2.2620 
  225.8750   -26.5110    61.4680    72.3980    64.8040    56.9990    23.9700     2.2550 
  226.0000   -26.2220    62.0430    66.9530    59.6920    46.3810    23.9760     2.2500 
  226.1250   -26.0410    61.9380    64.2220    57.0020    46.6820    24.1510     2.2480 
  226.2500   -25.7370    61.8880    63.7960    56.4030    52.1680    24.4370     2.2480 
  226.3750   -25.5390    63.4390    65.4670    57.7210    55.1360    24.6800     2.2510 
  226.5000   -25.3620    64.9890    68.7380    60.5460    54.8710    24.7770     2.2580 
  226.6250   -25.2470    63.9320    72.6670    64.0550    57.4470    24.7410     2.2690 
  226.7500   -25.1540    61.1410    75.6550    66.7970    68.9070    24.6880     2.2820 
  226.8750   -25.0520    60.0960    76.0640    67.4770    88.3710    24.6670     2.2930 
  227.0000   -24.9470    61.7120    72.9020    65.1430    88.5070    24.7280     2.2990 
  227.1250   -24.8060    64.2620    65.1210    59.2400    70.9010    24.8050     2.2960 
  227.2500   -24.7240    66.2450    55.2000    51.4280    60.5760    24.8580     2.2870 
  227.3750   -24.5910    67.0100    44.8270    43.2870    47.7440    24.8800     2.2780 
  227.5000   -24.4460    68.7280    35.6530    36.1930    34.5770    24.8620     2.2750 
  227.6250   -24.2510    72.3730    31.0100    31.2000    28.5770    24.8520     2.2790 
  227.7500   -24.0800    74.7620    28.1780    28.0220    24.8110    24.8320     2.2860 
  227.8750   -23.9270    75.0100    26.8700    26.3610    23.2620    24.8230     2.2920 
  228.0000   -23.7750    74.7770    26.7760    25.8920    24.4980    24.8220     2.2950 
  228.1250   -23.5870    74.9690    27.7190    26.4430    27.5650    24.8200     2.2950 
  228.2500   -23.3990    73.6710    29.2410    27.5750    28.5420    24.8040     2.2940 
  228.3750   -23.2480    71.7520    31.0580    29.0230    27.9360    24.7680     2.2930 
  228.5000   -23.0850    71.1380    32.8690    30.5070    28.5570    24.7410     2.2900 
  228.6250   -22.9100    70.6110    34.3400    31.7120    32.9950    24.7300     2.2850 
  228.7500   -22.7130    67.7460    35.4240    32.5650    39.2780    24.7320     2.2810 
  228.8750   -22.4840    63.0620    36.3230    33.2150    39.9580    24.7220     2.2770 
  229.0000   -22.3100    59.9690    37.5080    34.0410    34.9560    24.6740     2.2760 
  229.1250   -22.0810    61.0600    39.7050    35.6540    31.1150    24.5610     2.2840 
  229.2500   -21.9070    63.5080    42.9250    38.1170    31.9100    24.4640     2.3060 
  229.3750   -21.6740    65.0700    46.6130    41.0220    36.6240    24.4430     2.3470 
  229.5000   -21.4370    66.3940    49.6090    43.4540    48.1700    24.4910     2.4060 
  229.6250   -21.2830    67.6760    50.0460    43.8780    62.3260    24.5890     2.4700 
  229.7500   -21.1050    68.0200    47.5940    41.9200    57.8290    24.6720     2.5140 
  229.8750   -20.9720    68.3720    43.0250    38.0800    38.7960    24.6580     2.5230 
  230.0000   -20.8020    70.3750    37.9980    33.6310    25.7180    24.5560     2.5000 
  230.1250   -20.7660    74.7030    34.3020    30.0880    23.5070    24.4800     2.4630 
  230.2500   -20.6620    79.1000    32.3140    27.9350    30.9220    24.3960     2.4390 
  230.3750   -20.6130    81.0270    31.8330    27.0970    55.6950    24.4180     2.4410 
  230.5000   -20.5700    79.4130    32.4400    27.2640    72.9300    24.6030     2.4730 
  230.6250   -20.5080    76.6380    33.8960    28.2530    59.9810    24.7530     2.5230 
