~V
VERS. 2.00: Ver 2.00
~W
STRT.M 61.0000:
STOP.M 238.0000:
STEP.M 0.1250:
NULL. -999.2500:
UWI. DF32044:
~C
DEPT.M :
DEN.GM/CC :
SP.MV :
GR.API :
RML.OHMM :
RI. :
RXO.OHMM :
CALI.CM :
~A
# ...
  184.7500     2.3970   -17.6270    81.9170     9.0990     9.1330    11.4600    24.0050 
  184.8750     2.3980   -17.6880    83.5360     8.8780     8.9010    10.3370    24.0200 
  185.0000     2.3950   -17.6760    84.1000     8.9730     8.9460     9.1170    24.0490 
  185.1250     2.3900   -17.7200    85.3080     9.5230     9.4400     9.2000    24.0580 
  185.2500     2.3850   -17.8130    84.0200    10.4170    10.3100    10.7690    24.0360 
  185.3750     2.3830   -17.8510    79.5080    11.5070    11.4400    13.3280    24.0090 
  185.5000     2.3820   -17.8830    76.0830    12.6130    12.6470    15.9640    23.9970 
  185.6250     2.3800   -18.1030    76.3360    13.3640    13.7250    17.4070    23.9970 
  185.7500     2.3760   -18.2890    76.9840    13.7650    14.6930    18.0280    23.9970 
  185.8750     2.3710   -18.4070    74.6360    14.3580    15.8450    18.2880    24.0040 
  186.0000     2.3650   -18.6950    70.0240    16.0950    17.7950    18.1540    24.0240 
  186.1250     2.3510   -19.0150    66.1130    21.5180    21.8610    19.2260    24.0570 
  186.2500     2.3270   -19.3020    62.0150    31.4480    28.6870    24.0640    24.0700 
  186.3750     2.2940   -19.6990    57.3680    46.5140    38.4630    33.9260    24.1070 
  186.5000     2.2580   -20.1110    54.0570    64.4350    50.2820    44.5200    24.1790 
  186.6250     2.2290   -20.4180    56.1590    78.3570    61.5450    45.7900    24.2390 
  186.7500     2.2090   -20.8010    60.2510    87.2870    69.2810    45.9140    24.2720 
  186.8750     2.1980   -21.1880    62.1300    89.1750    72.0190    51.9630    24.2800 
  187.0000     2.1940   -21.4050    62.8430    85.5210    70.5540    59.9980    24.2790 
  187.1250     2.1960   -21.6570    63.9230    80.8370    67.6580    57.4240    24.2550 
  187.2500     2.2000   -21.9270    64.1370    79.0440    66.4590    51.0900    24.1450 
  187.3750     2.2060   -22.0640    62.4180    81.5750    68.4520    53.1230    23.8770 
  187.5000     2.2090   -22.1680    61.1260    88.6260    74.0820    70.1700    23.4390 
  187.6250     2.2090   -22.3590    62.2230    99.5460    82.9710   101.8710    23.2080 
  187.7500     2.2070   -22.5100    62.2000   111.2210    92.6330   117.5520    23.2300 
  187.8750     2.2070   -22.5740    60.0940   120.7730   100.8370   106.9550    23.4490 
  188.0000     2.2100   -22.6810    58.0540   125.8310   105.7700    91.1390    23.6750 
  188.1250     2.2140   -22.8550    57.4600   124.9640   106.1920    81.2270    23.7920 
  188.2500     2.2170   -22.9550    58.6550   120.5310   103.6210    76.4660    23.8440 
  188.3750     2.2180   -23.0010    61.2570   114.3100    99.2980    74.2080    23.9260 
  188.5000     2.2180   -23.1260    63.2090   107.6280    94.2580    71.4480    24.0310 
  188.6250     2.2170   -23.2600    63.4530   101.7530    89.4730    67.2230    24.0910 
  188.7500     2.2160   -23.3120    63.6710    97.5950    85.8030    63.8420    24.1340 
  188.8750     2.2130   -23.4280    64.0120    95.8140    83.9340    63.6770    24.1780 
  189.0000     2.2060   -23.6390    62.1580    96.7190    84.3080    67.3150    24.1980 
  189.1250     2.1970   -23.6850    58.9880   100.5910    87.3730    72.6780    24.1900 
  189.2500     2.1920   -23.7400    57.9950   106.4340    92.3420    76.8020    24.1840 
  189.3750     2.1930   -23.9780    58.4370   113.4900    98.5460    80.2340    24.1760 
  189.5000     2.2010   -24.1640    58.3500   120.9090   105.1760    84.8850    24.1550 
  189.6250     2.2100   -24.2720    57.9880   127.7410   111.3170    91.9560    24.1110 
  189.7500     2.2160   -24.5020    58.6580   133.5080   116.4960    99.2360    24.0640 
  189.8750     2.2170   -24.6830    59.0340   138.0420   120.5800   105.1900    23.9980 
  190.0000     2.2150   -24.7310    57.8100   141.4230   123.6770   110.0130    24.0180 
  190.1250     2.2130   -24.9220    56.3010   143.7610   125.9140   113.8750    24.1950 
  190.2500     2.2100   -25.1010    57.0760   145.4230   127.6130   113.5950    24.4320 
  190.3750     2.2070   -25.0730    59.0140   146.3830   128.7940   107.3900    24.5710 
  190.5000     2.2030   -25.0300    59.0590   146.4390   129.3590   101.3000    24.7360 
  190.6250     2.2020   -25.0750    58.1890   145.2260   129.1060   105.2580    25.0520 
  190.7500     2.2040   -25.0580    57.3100   143.0950   128.2890   115.7990    25.3480 
  190.8750     2.2080   -25.0090    56.4860   140.5520   127.2450   121.9160    25.3900 
  191.0000     2.2110   -24.9820    55.7080   138.1810   126.3730   116.8690    25.1030 
  191.1250     2.2080   -24.9420    54.9860   136.4120   126.0210   107.6840    24.6550 
  191.2500     2.1970   -24.8530    53.7390   134.9990   126.0410   103.4420    24.2070 
  191.3750     2.1780   -24.7830    51.9800   133.4870   126.0960   105.1730    24.0300 
  191.5000     2.1570   -24.8230    51.1860   131.3760   125.7320   107.8450    24.1980 
  191.6250     2.1410   -24.7910    52.0720   128.1180   124.3300   109.4570    24.5600 
  191.7500     2.1360   -24.6490    52.7440   123.7310   121.7330   111.2500    24.7380 
  191.8750     2.1430   -24.6440    53.8230   118.1900   117.7970   112.2320    24.9180 
  192.0000     2.1550   -24.7070    55.9260   111.4930   112.4520   110.6440    25.0650 
  192.1250     2.1640   -24.5970    57.1910   103.6610   105.5880   104.7220    25.1100 
  192.2500     2.1640   -24.5940    56.9490    95.3560    97.8590    98.2620    25.1490 
  192.3750     2.1610   -24.7420    56.3090    87.2290    89.9150    90.8940    25.2130 
  192.5000     2.1670   -24.7500    56.7810    80.0640    82.5720    80.7820    25.2660 
  192.6250     2.2030   -24.7620    56.9480    75.1920    77.1580    71.7220    25.2010 
  192.7500     2.2610   -24.9420    56.3090    73.1940    74.3940    65.6320    24.9750 
  192.8750     2.3210   -25.0030    55.3210    74.6300    74.9630    58.0090    24.6920 
  193.0000     2.3510   -25.0370    54.7220    79.8130    79.3030    48.6430    24.5690 
  193.1250     2.3320   -25.2550    55.7900    89.2480    88.0480    46.2580    24.5720 
  193.2500     2.2880   -25.3420    57.5620   101.5080    99.7370    54.7060    24.5660 
  193.3750     2.2460   -25.2680    58.6640   115.2190   112.8700    74.2110    24.5590 
  193.5000     2.2190   -25.3050    59.4040   128.7690   125.6730    97.2880    24.5540 
  193.6250     2.2080   -25.3340    59.6070   140.5180   136.3650   115.6040    24.5370 
  193.7500     2.2010   -25.1740    59.0380   150.4080   144.9360   132.3810    24.5020 
  193.8750     2.1940   -25.0180    58.6150   158.9970   152.0080   148.0840    24.4690 
  194.0000     2.1860   -24.9080    60.0830   166.7870   158.2260   160.9360    24.4560 
  194.1250     2.1790   -24.7020    61.3660   172.9480   163.1330   172.3660    24.4430 
  194.2500     2.1750   -24.4450    60.1260   176.1870   165.7000   182.2960    24.4140 
  194.3750     2.1760   -24.2320    58.4050   175.6410   165.0980   191.3070    24.3830 
  194.5000     2.1820   -24.0540    58.8160   171.7170   161.5070   199.6730    24.3590 
  194.6250     2.1910   -23.9170    59.3700   165.8670   156.0270   194.6470    24.3560 
  194.7500     2.2000   -23.8160    58.6520   160.0570   150.4920   175.5840    24.3650 
  194.8750     2.2050   -23.7290    59.3110   154.7520   145.5190   158.9820    24.3930 
  195.0000     2.2070   -23.6630    63.8270   149.4730   140.8260   156.7520    24.4320 
  195.1250     2.2080   -23.6270    67.2490   143.3120   135.5730   168.0580    24.4480 
  195.2500     2.2110   -23.6270    65.0080   136.3360   129.5580   173.5480    24.4360 
  195.3750     2.2150   -23.7270    59.4260   129.3090   123.2720   155.4850    24.3970 
  195.5000     2.2190   -23.7980    56.7920   123.2970   117.5850   125.1230    24.3680 
  195.6250     2.2180   -23.6800    59.0210   119.4520   113.5970   109.8890    24.3580 
  195.7500     2.2150   -23.6660    60.2650   117.4860   111.2950   113.4370    24.3580 
  195.8750     2.2110   -23.7940    58.1580   116.7870   110.2790   127.4320    24.3580 
