~V
VERS. 2.00: Ver 2.00
~W
STRT.M 62.0000:
STOP.M 272.0000:
STEP.M 0.1250:
NULL. -999.2500:
UWI. DF32143:
~C
DEPT.M :
SP.MV :
GR.API :
CALI.CM :
RXO.OHMM :
RI. :
RML.OHMM :
DEN.GM/CC :
~A
# ...
  185.7500   -28.9480    61.7360    25.7780    90.6330   112.0860   121.0770     2.2300 
  185.8750   -28.7540    63.2340    25.5890    83.6990   103.6760   112.4000     2.2420 
  186.0000   -28.5380    62.8210    25.4460    79.1150    97.5070   106.1400     2.2370 
  186.1250   -28.2950    60.6800    25.4250    74.4200    93.3350   101.8340     2.2290 
  186.2500   -28.0620    59.2930    25.4690    70.9180    90.2890    98.5780     2.2340 
  186.3750   -27.8550    59.9810    25.5140    69.7290    88.2580    96.3970     2.2480 
  186.5000   -27.6740    61.9290    25.5410    68.7150    87.5590    95.7790     2.2570 
  186.6250   -27.5330    62.5800    25.4530    66.1430    88.9510    97.6270     2.2490 
  186.7500   -27.4210    61.6070    25.2380    68.8080    92.2830   101.7040     2.2300 
  186.8750   -27.3340    60.9160    25.0670    87.2520    97.3100   107.5670     2.2040 
  187.0000   -27.2550    60.8490    25.1540   119.1040   103.2150   114.0180     2.1840 
  187.1250   -27.1850    61.2930    25.4980   133.7400   107.7510   118.1620     2.1790 
  187.2500   -27.1110    62.2480    25.7890   124.7780   108.7000   117.7230     2.1850 
  187.3750   -27.0440    61.5890    25.8690   112.0840   105.1460   112.2280     2.1970 
  187.5000   -26.9720    58.4950    25.7830   102.5480    98.0520   103.3910     2.2150 
  187.6250   -26.9080    55.9730    25.6500    85.2080    89.8980    94.2460     2.2370 
  187.7500   -26.8620    58.0960    25.4850    68.2760    83.2500    87.0690     2.2500 
  187.8750   -26.8300    62.2760    25.2400    63.7680    78.9740    82.3620     2.2500 
  188.0000   -26.8300    63.8170    24.9410    70.7650    76.7860    79.6420     2.2430 
  188.1250   -26.8400    63.3270    24.7630    76.4430    75.9190    78.0890     2.2380 
  188.2500   -26.8600    64.3060    24.6900    73.6360    75.2450    76.6040     2.2390 
  188.3750   -26.8570    68.2150    24.4820    66.0200    74.1270    74.6220     2.2420 
  188.5000   -26.8300    72.5830    24.0690    59.6060    72.3160    72.0740     2.2430 
  188.6250   -26.7610    72.9100    23.8360    55.9740    70.1700    69.5710     2.2460 
  188.7500   -26.6450    70.4520    24.0440    53.6660    68.4210    67.8150     2.2590 
  188.8750   -26.4960    67.9700    24.5310    52.2640    67.2930    66.8730     2.2820 
  189.0000   -26.3320    67.7540    25.0210    53.2540    66.3230    66.0440     2.3050 
  189.1250   -26.2020    69.8750    25.4120    58.5900    64.1220    63.7000     2.3170 
  189.2500   -26.1130    71.6390    25.6720    63.9950    60.0410    59.2940     2.3150 
  189.3750   -26.1230    71.8360    25.7540    62.2510    54.6810    53.7040     2.3050 
  189.5000   -26.2400    70.6880    25.6900    50.7840    49.6450    48.8210     2.2930 
  189.6250   -26.4980    69.4260    25.5820    38.4600    47.3250    47.2750     2.2810 
  189.7500   -26.8740    69.6100    25.5330    38.5590    49.1580    50.2670     2.2710 
  189.8750   -27.3450    69.8280    25.5850    63.1830    56.5730    58.8690     2.2590 
  190.0000   -27.8750    67.5530    25.7260   119.1400    70.5290    73.7760     2.2410 
  190.1250   -28.4080    64.0320    25.8920   161.4770    91.2620    95.3070     2.2180 
  190.2500   -28.9380    62.1730    26.0120   160.4790   113.6100   118.4630     2.2000 
  190.3750   -29.4220    61.2200    26.0430   138.1330   131.0930   136.2270     2.1970 
  190.5000   -29.8510    58.7450    26.0110   125.8510   138.3300   142.5810     2.2080 
  190.6250   -30.2040    56.6140    26.0080   124.1450   133.7820   136.5680     2.2220 
  190.7500   -30.5120    57.9760    26.0440   124.2050   123.8650   125.7640     2.2300 
  190.8750   -30.7770    59.7320    26.0380   117.1970   112.5230   114.2930     2.2340 
  191.0000   -31.0080    58.9460    25.9520   100.2100   102.4440   104.7410     2.2380 
  191.1250   -31.2050    59.1000    25.8550    84.2800    96.2860    99.6300     2.2460 
  191.2500   -31.3520    62.3220    25.8140    81.2620    94.5530    99.1170     2.2520 
  191.3750   -31.4650    65.0780    25.8090    90.9470    97.1730   102.9670     2.2480 
  191.5000   -31.5440    64.2320    25.7950   105.5210   103.3900   110.3240     2.2350 
  191.6250   -31.5970    61.3860    25.7470   114.3110   112.1220   119.9430     2.2210 
  191.7500   -31.5980    59.7390    25.7190   116.1330   121.1860   129.5650     2.2120 
  191.8750   -31.5520    58.8460    25.7640   117.2990   129.1640   137.8250     2.2080 
  192.0000   -31.4610    58.4390    25.8810   124.9880   135.3950   144.2750     2.2130 
  192.1250   -31.3530    59.0790    25.9980   139.8530   139.6380   148.8710     2.2270 
  192.2500   -31.2390    60.0850    26.0440   149.6660   142.1720   151.7920     2.2390 
  192.3750   -31.1000    61.8070    26.0180   148.7200   142.7420   152.6330     2.2390 
  192.5000   -30.9490    63.9880    25.9620   141.6100   141.4380   151.4690     2.2250 
  192.6250   -30.7870    65.4810    25.9290   135.6620   139.0880   149.2860     2.2090 
  192.7500   -30.6420    64.8470    25.9250   131.9010   137.3840   147.8920     2.2040 
  192.8750   -30.5150    62.6840    25.9550   129.5790   137.5140   148.4210     2.2110 
  193.0000   -30.4020    59.7070    25.9990   127.2680   139.9910   151.2410     2.2210 
  193.1250   -30.2930    56.8130    25.9420   121.3570   144.6920   156.0220     2.2280 
  193.2500   -30.1540    55.8800    25.6900   112.9520   149.8690   160.7960     2.2350 
  193.3750   -29.9890    56.5580    25.2920   107.8230   153.2420   162.9120     2.2440 
  193.5000   -29.7920    57.5960    24.9590   111.4690   151.9960   159.3040     2.2520 
  193.6250   -29.5620    58.5500    25.0010   122.1380   143.0930   147.2580     2.2490 
  193.7500   -29.2730    59.2130    25.3080   123.8740   128.6420   130.0910     2.2430 
  193.8750   -28.9470    59.8420    25.6110   108.7010   111.8140   111.7090     2.2460 
  194.0000   -28.6020    59.5280    25.7180    84.9890    96.0660    95.5730     2.2640 
  194.1250   -28.2580    59.2530    25.6120    69.1440    84.4910    84.3400     2.2890 
  194.2500   -27.9430    59.3460    25.3990    62.1500    77.1800    77.5340     2.3050 
  194.3750   -27.6790    59.3760    25.1130    60.5470    73.7390    74.5740     2.3030 
  194.5000   -27.4600    59.3170    24.9010    63.0230    73.3710    74.5180     2.2890 
  194.6250   -27.2910    60.5140    25.0370    71.5630    74.9140    75.9650     2.2750 
  194.7500   -27.2010    61.5840    25.4760    82.2910    76.2050    76.7360     2.2680 
  194.8750   -27.1660    61.6820    25.9290    87.7340    75.8130    75.5080     2.2710 
  195.0000   -27.1820    61.1730    26.0790    82.6350    73.2090    72.0250     2.2850 
  195.1250   -27.2170    62.1360    25.9460    70.5740    68.9910    67.2500     2.3140 
  195.2500   -27.2690    63.2210    25.8730    61.8270    64.9370    63.0270     2.3460 
  195.3750   -27.3070    61.3700    25.9300    60.5980    62.1720    60.3880     2.3650 
  195.5000   -27.3180    57.4950    26.0060    65.1980    61.1960    59.6730     2.3600 
  195.6250   -27.2770    57.1070    26.0180    71.3310    62.0240    60.7180     2.3390 
  195.7500   -27.1720    61.8730    26.0240    75.1160    63.4940    62.2330     2.3180 
  195.8750   -27.0160    67.0120    26.0220    75.9770    64.5420    63.1330     2.3080 
  196.0000   -26.8160    67.6010    26.0080    74.0030    64.4340    62.7950     2.3130 
  196.1250   -26.6010    64.1050    26.0050    68.0440    63.1570    61.4450     2.3280 
  196.2500   -26.3930    61.9520    26.0150    60.7920    61.8050    60.2950     2.3410 
  196.3750   -26.2260    62.2550    26.0250    57.9700    61.2750    60.2260     2.3400 
  196.5000   -26.1130    62.1190    26.0360    64.4390    62.1180    61.6860     2.3210 
  196.6250   -26.0860    59.9000    26.0560    77.1850    64.5310    64.8060     2.2920 
  196.7500   -26.1620    58.4400    26.0760    84.0870    67.7240    68.7920     2.2680 
  196.8750   -26.3580    60.1910    26.0640    82.1810    71.0880    73.0720     2.2570 
