~V
VERS. 2.00: Ver 2.00
~W
STRT.M 62.0000:
STOP.M 318.0000:
STEP.M 0.1250:
NULL. -999.2500:
UWI. DF321:
~C
DEPT.M :
DEN.GM/CC :
SP.MV :
AC.US/MT :
GR.API :
CALI.CM :
RXO.OHMM :
RI. :
RML.OHMM :
~A
# ...
  182.0000     2.4960   -19.9290   262.1400    71.4590    23.2820    16.4820    14.5170    15.3920 
  182.1250     2.5030   -19.7780   270.6910    74.6890    23.2760    16.2150    12.6650    13.1230 
  182.2500     2.5030   -19.6180   288.8520    79.3150    23.2850    14.0300    10.1500    10.0970 
  182.3750     2.4930   -19.4760   314.6380    86.3340    23.9260     8.2300     6.6270     6.5600 
  182.5000     2.4650   -19.2640   342.9220    91.4140    24.3410     4.6210     4.7320     4.6500 
  182.6250     2.4060   -19.0900   366.3750    93.6210    24.3840     3.7290     3.9200     3.8850 
  182.7500     2.3380   -18.9710   381.9230    97.1780    24.3350     3.5320     3.4990     3.5870 
  182.8750     2.2970   -18.8380   390.1510   100.4170    24.2950     3.5720     3.3470     3.5700 
  183.0000     2.2990   -18.7700   394.0770    99.9500    24.2340     3.6020     3.3510     3.6700 
  183.1250     2.3290   -18.7380   397.5060    95.9130    24.0000     3.5730     3.4110     3.7590 
  183.2500     2.3500   -18.7120   402.9080    93.2820    23.7360     3.5240     3.4600     3.7960 
  183.3750     2.3520   -18.7320   410.6080    92.3370    23.7580     3.4960     3.4790     3.7930 
  183.5000     2.3400   -18.8000   419.5650    90.1130    24.2790     3.4790     3.4660     3.7600 
  183.6250     2.3230   -18.8830   427.4610    87.8680    24.8350     3.5050     3.4130     3.6940 
  183.7500     2.3060   -18.9560   432.5070    86.4810    24.9470     3.5150     3.3290     3.6060 
  183.8750     2.2890   -19.0060   434.1920    85.9180    24.7430     3.4890     3.2240     3.5010 
  184.0000     2.2800   -19.0320   433.2150    87.6300    24.5410     3.4410     3.1090     3.3920 
  184.1250     2.2920   -19.0550   430.9170    93.0650    24.3480     3.4210     3.0090     3.3030 
  184.2500     2.3170   -19.0900   428.8110    98.2300    24.1980     3.4280     2.9500     3.2640 
  184.3750     2.3390   -19.1570   427.5230   100.0990    24.1060     3.4290     2.9440     3.3060 
  184.5000     2.3430   -19.2150   427.1810    99.5320    24.0770     3.4540     3.0000     3.4430 
  184.6250     2.3300   -19.2580   427.2750    96.3960    24.1160     3.6400     3.1210     3.6820 
  184.7500     2.3230   -19.3640   426.5400    90.3830    24.2180     3.9810     3.2730     3.9710 
  184.8750     2.3310   -19.4570   423.9230    86.0540    24.2750     4.3260     3.4290     4.2600 
  185.0000     2.3500   -19.5260   419.1450    87.6220    24.2870     4.5080     3.5560     4.4920 
  185.1250     2.3660   -19.6830   413.1220    92.0820    24.2850     4.4830     3.6140     4.6030 
  185.2500     2.3770   -19.7880   407.8960    94.1750    24.2790     4.4300     3.6140     4.6110 
  185.3750     2.3780   -19.8660   404.6890    94.4980    24.2570     4.4620     3.5800     4.5600 
  185.5000     2.3580   -20.0200   403.6580    95.7290    24.2070     4.5140     3.5490     4.5110 
  185.6250     2.2960   -20.1320   403.9330    98.6950    24.1390     4.4940     3.5590     4.5330 
  185.7500     2.2200   -20.2520   403.9100   100.2230    23.9930     4.5100     3.6190     4.6520 
  185.8750     2.1690   -20.4230   402.8610    98.3400    23.5960     4.7350     3.7300     4.8670 
  186.0000     2.1600   -20.6180   400.8450    93.9460    22.9680     5.0090     3.8870     5.1630 
  186.1250     2.1870   -20.7990   398.6320    91.3810    22.6700     5.1780     4.0950     5.5440 
  186.2500     2.2230   -21.0050   397.1250    90.8020    22.7880     5.3900     4.3480     5.9930 
  186.3750     2.2540   -21.2430   396.6530    89.6950    22.7700     5.7700     4.6260     6.4680 
  186.5000     2.2610   -21.4050   397.0970    87.5770    22.4090     6.2330     4.8810     6.8800 
  186.6250     2.2410   -21.5570   398.2530    86.8120    22.0520     6.6080     5.0320     7.0790 
  186.7500     2.2230   -21.6340   399.8820    87.4030    21.8100     6.7660     5.0610     7.0410 
  186.8750     2.2240   -21.5960   401.8760    88.2880    21.7860     6.4930     4.9910     6.8340 
  187.0000     2.2460   -21.4840   403.8100    90.2070    21.8450     5.9830     4.8900     6.6020 
  187.1250     2.2870   -21.3520   404.6020    92.5710    22.3740     5.7940     4.8330     6.4990 
  187.2500     2.3350   -21.1730   403.7070    92.7300    22.8990     6.1820     4.8430     6.5390 
  187.3750     2.3700   -20.9490   401.3500    90.3860    23.3630     6.7510     4.9050     6.6660 
  187.5000     2.3800   -20.7710   398.5790    89.0210    23.5550     7.0060     4.9860     6.7930 
  187.6250     2.3710   -20.5830   396.9200    90.0520    23.4100     6.7200     5.0380     6.8270 
  187.7500     2.3600   -20.4350   396.7620    92.2100    23.1130     6.4350     5.0350     6.7550 
  187.8750     2.3580   -20.3560   397.6980    95.3900    22.8750     6.3250     4.9740     6.6070 
  188.0000     2.3680   -20.3070   399.0590    98.5250    22.7890     6.2840     4.8710     6.4310 
  188.1250     2.3840   -20.2370   400.5310   100.3440    22.8470     6.0220     4.7530     6.2550 
  188.2500     2.3900   -20.1670   402.2600   101.3380    22.9430     5.6140     4.6450     6.0800 
  188.3750     2.3840   -20.1010   404.3620   102.3800    23.1810     5.2910     4.5510     5.9060 
  188.5000     2.3780   -20.0320   406.6460   103.1390    23.6270     5.1970     4.4680     5.7440 
  188.6250     2.3780   -19.9450   408.8980   103.5990    24.0030     5.2300     4.4010     5.6210 
  188.7500     2.3770   -19.8650   411.5520   103.4500    24.1380     5.1590     4.3480     5.5450 
  188.8750     2.3700   -19.8160   415.4840   103.1020    24.1130     4.9030     4.3050     5.5070 
  189.0000     2.3670   -19.7150   421.1560   103.6170    23.9730     4.6160     4.2620     5.4800 
  189.1250     2.3740   -19.6280   427.6130   105.7230    23.7790     4.5940     4.1970     5.4160 
  189.2500     2.3790   -19.5750   432.4610   108.9360    23.5570     4.7440     4.1010     5.2890 
  189.3750     2.3750   -19.4800   434.2290   111.0070    23.4820     4.8030     3.9800     5.1010 
  189.5000     2.3700   -19.3860   433.1560   109.9770    23.6170     4.6840     3.8550     4.8890 
  189.6250     2.3800   -19.2960   430.9630   105.2860    23.8330     4.5700     3.7760     4.7490 
  189.7500     2.3970   -19.2030   429.0720   101.0950    24.0180     4.5650     3.7810     4.7600 
  189.8750     2.4100   -19.1010   426.6350   100.3340    24.2270     4.7170     3.8940     4.9650 
  190.0000     2.4170   -19.0810   421.6440   100.4570    24.4020     5.0390     4.1120     5.3590 
  190.1250     2.4300   -19.0750   412.1780   100.8670    24.4030     5.4860     4.4060     5.8700 
  190.2500     2.4490   -19.0290   400.1960   102.5560    24.4410     5.8750     4.6870     6.3250 
  190.3750     2.4690   -19.0380   388.5860   104.4410    24.5280     6.0780     4.8760     6.5790 
  190.5000     2.4790   -19.0930   380.2080   104.7390    24.5440     6.0580     4.9120     6.5850 
  190.6250     2.4670   -19.1830   377.4730   104.1550    24.5210     5.9680     4.8970     6.5050 
  190.7500     2.4440   -19.2850   379.0430   101.9020    24.3810     5.7380     4.7610     6.2070 
  190.8750     2.4240   -19.4380   382.9570   101.7460    24.2150     5.4990     4.5720     5.8680 
  191.0000     2.4180   -19.5630   386.6590   104.3160    24.0850     5.2190     4.4260     5.6450 
  191.1250     2.4210   -19.7320   387.2770   110.1510    24.0560     4.9580     4.4330     5.6950 
  191.2500     2.4130   -20.0020   384.4700   115.6370    24.0180     4.9360     4.5960     6.0060 
  191.3750     2.3900   -20.2540   379.4420   117.5320    23.9630     5.2170     4.8660     6.4960 
  191.5000     2.3620   -20.5260   374.5660   115.1150    23.8710     5.6560     5.1400     6.9930 
  191.6250     2.3450   -20.8300   372.8350   108.3500    23.6870     5.9750     5.2670     7.2100 
  191.7500     2.3340   -21.0880   374.6280   101.8940    23.5020     5.8990     5.2020     7.0640 
  191.8750     2.3260   -21.3500   378.8430   101.3000    23.4320     5.4960     4.9890     6.6550 
