~V
VERS. 2.00: Ver 2.00
~W
STRT.M 62.0000:
STOP.M 318.0000:
STEP.M 0.1250:
NULL. -999.2500:
UWI. DF321:
~C
DEPT.M :
DEN.GM/CC :
SP.MV :
AC.US/MT :
GR.API :
CALI.CM :
RXO.OHMM :
RI. :
RML.OHMM :
~A
# ...
  282.0000     2.5730   -19.0260   255.5390    76.9860    21.8130    24.4230    35.1750    38.2560 
  282.1250     2.5910   -19.0520   251.3620    73.8880    21.9150    25.9470    35.3520    38.4620 
  282.2500     2.5920   -19.0660   247.8070    71.5470    22.2520    30.7860    36.1660    39.4210 
  282.3750     2.5850   -19.0790   247.4150    71.2180    22.8130    35.5010    37.1520    40.5210 
  282.5000     2.5720   -19.1110   251.4370    71.1510    23.3080    36.2130    37.8860    41.1940 
  282.6250     2.5430   -19.1330   260.2930    70.1950    23.4050    33.0380    38.1600    41.1770 
  282.7500     2.4920   -19.1970   271.5430    70.4850    23.3400    32.4100    38.2770    40.9260 
  282.8750     2.4310   -19.3160   282.8240    71.0540    23.2190    33.3600    38.6150    40.9720 
  283.0000     2.3820   -19.4530   291.7440    71.0310    23.0550    33.2080    39.5040    41.7730 
  283.1250     2.3700   -19.5840   295.7710    71.7440    22.9230    32.5580    41.1380    43.5900 
  283.2500     2.3970   -19.7150   295.2290    75.3080    22.8690    34.4280    43.1530    45.8730 
  283.3750     2.4460   -19.8330   291.2170    81.2990    22.8830    38.5570    45.1300    48.0050 
  283.5000     2.4920   -19.9170   285.8640    84.9370    22.9170    41.2360    46.6540    49.4370 
  283.6250     2.5120   -19.9810   282.0100    82.1140    22.9270    41.4960    47.3160    49.7650 
  283.7500     2.5140   -19.9810   280.8070    78.8210    22.8570    41.5400    47.2620    49.3430 
  283.8750     2.5030   -19.9120   281.7480    80.4360    22.6810    41.6920    46.8160    48.6310 
  284.0000     2.4860   -19.8070   283.4030    82.7190    22.4260    40.8230    46.4780    48.1650 
  284.1250     2.4700   -19.6590   284.3240    79.8310    22.4760    40.4760    46.9620    48.6300 
  284.2500     2.4650   -19.4900   284.1670    78.6190    22.6660    42.5190    48.6050    50.3180 
  284.3750     2.4720   -19.2970   282.7480    83.4840    22.7920    45.9790    51.6040    53.4290 
  284.5000     2.4880   -19.0930   279.4520    88.3040    22.7940    48.2320    56.0020    57.9790 
  284.6250     2.5030   -18.8570   273.1590    86.6850    22.7580    51.5990    61.5780    63.5870 
  284.7500     2.5110   -18.6080   264.9310    82.4510    22.7630    59.3820    66.2280    67.6800 
  284.8750     2.5120   -18.3590   256.7500    78.5650    22.7400    65.7780    66.6940    66.3430 
  285.0000     2.5170   -18.0990   250.6830    75.8400    22.5410    61.2850    60.9850    58.1190 
  285.1250     2.5330   -17.8710   247.6330    73.9900    22.0290    48.3810    51.0180    46.9250 
  285.2500     2.5520   -17.6170   245.3970    70.4470    21.5670    37.5680    41.5860    37.6120 
  285.3750     2.5640   -17.3710   241.9870    65.2170    21.3020    29.8400    34.3640    31.0190 
  285.5000     2.5710   -17.1410   236.9830    60.7350    21.2520    27.5600    29.2460    26.5170 
  285.6250     2.5880   -16.9700   233.0950    57.3230    21.5060    32.8460    25.3980    23.1560 
  285.7500     2.6180   -16.8060   234.3630    54.6190    21.9860    38.4340    21.7870    19.9530 
  285.8750     2.6460   -16.6960   243.3920    53.5770    22.5660    33.3250    18.3150    16.7550 
  286.0000     2.6540   -16.6290   259.9810    55.8090    22.9600    20.8340    15.2480    13.8040 
  286.1250     2.6290   -16.6120   280.9310    59.4660    23.0420    13.9930    12.9430    11.5310 
  286.2500     2.5910   -16.6260   300.4650    62.5200    23.0310    12.9470    11.3440     9.9970 
  286.3750     2.5560   -16.6580   315.5530    65.5050    23.0200    13.1180    10.3800     9.1650 
  286.5000     2.5300   -16.6710   325.8220    68.3720    22.9950    12.3220     9.9000     8.8530 
  286.6250     2.5050   -16.6550   333.0390    70.4140    22.9270    10.5810     9.6600     8.7430 
  286.7500     2.4690   -16.6290   340.4810    71.4670    22.8680     9.2700     9.3190     8.4670 
  286.8750     2.4290   -16.5200   349.8780    71.5840    22.8290     8.8770     8.7200     7.8870 
  287.0000     2.4000   -16.3660   361.9290    70.6510    22.7860     8.5360     7.8690     7.0460 
  287.1250     2.3970   -16.1380   376.3300    66.7130    22.7100     7.0230     6.8790     6.0900 
  287.2500     2.4110   -15.9240   390.6480    59.3540    22.6750     5.4660     5.9150     5.1880 
  287.3750     2.4250   -15.6740   402.3640    50.1280    22.6370     4.6330     5.0730     4.4350 
  287.5000     2.4310   -15.4880   409.4390    41.5140    22.5910     4.4520     4.4270     3.9010 
  287.6250     2.4300   -15.3420   410.1550    37.7420    22.6020     4.5130     4.0830     3.6850 
  287.7500     2.4280   -15.2990   405.6740    38.7830    22.7140     4.5970     4.0480     3.7800 
  287.8750     2.4250   -15.3890   396.3160    41.4860    22.7950     4.7800     4.3550     4.2080 
  288.0000     2.4210   -15.6160   382.5210    45.3710    22.8050     5.3030     5.0240     4.9910 
  288.1250     2.4170   -15.9360   365.7020    53.6340    22.8010     6.8660     6.0970     6.1890 
  288.2500     2.4140   -16.3050   349.8890    66.4990    22.8940     9.1330     7.4160     7.6390 
  288.3750     2.4050   -16.6830   338.3780    80.3630    22.9860    10.8520     8.7840     9.1080 
  288.5000     2.3830   -17.0370   332.6020    91.5250    23.0050    11.1500     9.9570    10.2990 
  288.6250     2.3540   -17.3740   331.6370    95.1400    22.9500    11.4460    10.6780    10.9210 
  288.7500     2.3340   -17.6140   331.6870    90.9340    22.9120    12.5270    11.0010    11.1110 
  288.8750     2.3290   -17.8120   331.0720    84.6900    22.8990    13.4600    11.0430    11.0730 
  289.0000     2.3360   -17.8970   329.9170    82.8590    22.8690    13.2520    10.9430    10.9920 
  289.1250     2.3490   -17.9050   329.5420    83.6180    22.8490    12.2650    10.7670    10.9230 
  289.2500     2.3600   -17.8150   330.5840    82.3240    22.8410    11.2570    10.4730    10.7500 
  289.3750     2.3690   -17.6560   333.3050    79.5560    22.8570    10.8100     9.9480    10.3140 
  289.5000     2.3760   -17.4520   338.5390    78.3800    22.8960    10.8520     9.1110     9.5030 
  289.6250     2.3760   -17.1440   348.9350    77.1660    22.9290     9.9050     7.9520     8.2880 
  289.7500     2.3670   -16.8060   364.9730    72.2610    22.8680     7.9160     6.6990     6.9470 
  289.8750     2.3550   -16.3530   385.2410    63.1050    22.7710     5.6910     5.5580     5.7390 
  290.0000     2.3490   -15.8050   405.8090    51.9710    22.7280     4.3010     4.6700     4.8400 
  290.1250     2.3560   -15.2930   420.5140    44.4760    22.7650     3.9540     4.1310     4.3690 
  290.2500     2.3740   -14.8200   427.2690    40.7070    22.8450     3.9720     3.8580     4.2070 
  290.3750     2.3940   -14.3880   427.0050    39.1380    22.9070     4.0700     3.7840     4.2420 
  290.5000     2.4070   -14.0120   422.8410    39.0350    22.9370     4.1320     3.8200     4.3430 
  290.6250     2.4100   -13.7510   418.3100    39.8310    22.9420     4.1370     3.8690     4.3920 
  290.7500     2.4080   -13.5390   415.0230    40.3730    22.9470     4.1270     3.8840     4.3860 
  290.8750     2.4060   -13.4730   412.3960    39.5130    22.9550     4.1530     3.8870     4.3810 
  291.0000     2.4070   -13.5600   409.0240    37.7720    22.9700     4.2560     3.9190     4.4430 
  291.1250     2.4090   -13.7100   403.1990    37.6110    23.0030     4.5270     4.0360     4.6380 
  291.2500     2.4060   -13.9420   394.7900    40.3620    23.0340     5.0190     4.2420     4.9400 
  291.3750     2.4020   -14.2740   384.1600    45.1140    23.0510     5.7570     4.5210     5.3120 
  291.5000     2.4050   -14.6220   372.1370    50.6370    23.0620     6.5790     4.8430     5.7160 
  291.6250     2.4170   -14.9240   359.6580    56.2580    23.0610     7.2110     5.2240     6.1730 
  291.7500     2.4280   -15.2620   347.2720    62.1710    23.0300     7.6970     5.7320     6.7680 
  291.8750     2.4330   -15.4730   334.7380    66.8810    22.9580     8.2230     6.4580     7.6200 
