~V
VERS. 2.00: Ver 2.00
~W
STRT.M 61.0000:
STOP.M 238.0000:
STEP.M 0.1250:
NULL. -999.2500:
UWI. DF32044:
~C
DEPT.M :
DEN.GM/CC :
SP.MV :
GR.API :
RML.OHMM :
RI. :
RXO.OHMM :
CALI.CM :
~A
# ...
  196.0000     2.2080   -23.7790    56.3680   116.6020   109.9140   134.2540    24.3580 
  196.1250     2.2090   -23.7760    59.3960   116.4600   109.7400   126.4460    24.3580 
  196.2500     2.2110   -23.9500    63.7780   116.4840   109.7600   119.5830    24.3580 
  196.3750     2.2130   -24.0330    64.8860   117.1160   110.3580   118.2320    24.3580 
  196.5000     2.2150   -24.0230    62.3650   118.7460   111.9270   120.0580    24.3580 
  196.6250     2.2140   -24.2060    59.5980   121.6170   114.7400   125.5430    24.3600 
  196.7500     2.2130   -24.4990    57.7880   125.1430   118.1990   137.1490    24.3630 
  196.8750     2.2100   -24.7370    55.4520   128.5200   121.4870   149.5210    24.3650 
  197.0000     2.2060   -24.9690    52.6570   130.5270   123.4580   151.3870    24.3660 
  197.1250     2.2010   -25.2170    52.1540   128.8690   122.1300   145.2000    24.3780 
  197.2500     2.1980   -25.4390    52.8770   122.4770   116.6850   141.9460    24.4100 
  197.3750     2.1960   -25.6260    53.3680   110.9370   106.7330   138.1950    24.4360 
  197.5000     2.1980   -25.7450    53.5390    95.3660    93.0170   125.4680    24.4460 
  197.6250     2.2050   -25.8060    55.2790    78.4930    77.5010   104.4550    24.4460 
  197.7500     2.2190   -25.7450    59.6650    63.5070    63.0890    80.3210    24.4460 
  197.8750     2.2380   -25.5320    64.6880    51.9330    51.4690    57.5840    24.4460 
  198.0000     2.2580   -25.3230    66.9810    44.2260    43.4020    42.2770    24.4460 
  198.1250     2.2730   -25.1040    64.9140    40.8220    39.4910    36.2670    24.4460 
  198.2500     2.2810   -24.7190    62.2700    40.7490    38.8150    34.9250    24.4460 
  198.3750     2.2810   -24.2930    59.9930    43.6160    41.0150    36.0510    24.4460 
  198.5000     2.2750   -24.0170    57.7900    48.8080    45.5630    40.6920    24.4470 
  198.6250     2.2700   -23.7490    57.9050    55.3240    51.6100    52.5890    24.4620 
  198.7500     2.2720   -23.3490    60.2720    61.4120    57.4650    68.9470    24.4870 
  198.8750     2.2780   -23.0680    61.6840    65.8550    61.8940    78.8940    24.4920 
  199.0000     2.2830   -22.8820    60.2070    68.1690    64.2880    75.9890    24.4680 
  199.1250     2.2770   -22.5370    57.9460    68.8260    64.8470    69.9780    24.4500 
  199.2500     2.2610   -22.2990    57.3390    69.5070    65.0650    67.7610    24.4460 
  199.3750     2.2390   -22.2300    57.6710    71.2820    65.9620    69.9380    24.4460 
  199.5000     2.2210   -22.0580    58.0210    74.5250    68.0000    75.0250    24.4460 
  199.6250     2.2140   -21.7570    59.1110    78.7960    70.9480    81.4460    24.4480 
  199.7500     2.2160   -21.6370    60.7810    82.5960    73.6230    87.5130    24.4610 
  199.8750     2.2210   -21.5900    61.7370    84.5550    74.9060    91.8150    24.4950 
  200.0000     2.2230   -21.4350    60.8560    83.7710    74.0390    97.1160    24.5480 
  200.1250     2.2200   -21.3200    60.8620    80.0880    70.7960   104.9580    24.6170 
  200.2500     2.2160   -21.2680    62.7880    75.4030    66.6120    98.1870    24.6910 
  200.3750     2.2160   -21.2520    63.6950    71.4030    62.8540    76.9810    24.7250 
  200.5000     2.2220   -21.3070    60.9890    69.4200    60.7310    62.6350    24.7340 
  200.6250     2.2290   -21.3580    56.4920    70.5460    61.3780    65.4130    24.7400 
  200.7500     2.2310   -21.3260    54.6750    74.1060    64.3850    77.3400    24.7400 
  200.8750     2.2240   -21.3350    57.0330    79.2650    69.1720    89.7150    24.7420 
  201.0000     2.2150   -21.4110    60.5170    84.8330    74.7850    98.3070    24.7500 
  201.1250     2.2080   -21.4420    62.6140    89.4520    79.9750   103.9740    24.7430 
  201.2500     2.2040   -21.4390    62.9360    92.9630    84.1420   106.5000    24.6980 
  201.3750     2.1980   -21.4130    62.4470    96.0530    87.4800   108.0310    24.6530 
  201.5000     2.1810   -21.3130    62.2830    99.4360    90.4730   109.4730    24.6380 
  201.6250     2.1570   -21.2630    61.3420   102.3530    92.8020   107.8030    24.6350 
  201.7500     2.1450   -21.2920    59.2870   101.9260    92.6880   102.7840    24.6320 
  201.8750     2.1680   -21.1700    57.6470    94.6260    87.4120    98.0520    24.6020 
  202.0000     2.2400   -21.0270    58.2940    78.5180    74.9770    99.6820    24.4980 
  202.1250     2.3510   -21.1100    60.2330    56.1580    56.0570   116.9130    24.2520 
  202.2500     2.4480   -21.1300    61.5850    35.9870    37.2280   116.1530    24.0470 
  202.3750     2.4880   -21.0540    62.5390    21.9730    22.9570    59.0370    23.9380 
  202.5000     2.4620   -21.1790    62.9470    13.8530    14.2440    19.5920    23.9050 
  202.6250     2.4000   -21.5190    63.1690    10.2420    10.2280     8.9790    23.8860 
  202.7500     2.3490   -21.8050    64.5750     8.8840     8.5400     6.1950    23.8560 
  202.8750     2.3250   -22.1540    67.4280     8.9070     8.2470     6.6330    23.8520 
  203.0000     2.3280   -22.6560    70.6140     9.6840     8.7720     7.9080    23.9260 
  203.1250     2.3440   -23.1690    76.0210    10.6570     9.6760     8.6260    24.2190 
  203.2500     2.3570   -23.6570    82.4100    11.3500    10.4720     9.0330    24.6460 
  203.3750     2.3610   -24.1270    86.0190    11.5850    10.9190     9.4210    24.9900 
  203.5000     2.3570   -24.5360    86.8150    11.4250    10.9860     9.8620    25.1530 
  203.6250     2.3520   -24.8820    87.7580    11.1670    10.8420    10.0440    25.1800 
  203.7500     2.3510   -25.1950    90.1600    11.1970    10.7990    10.1020    25.1910 
  203.8750     2.3540   -25.4580    91.4230    11.6740    11.0590    10.5760    25.1740 
  204.0000     2.3590   -25.6960    90.0020    12.7540    11.7640    12.1790    25.1200 
  204.1250     2.3590   -25.9370    86.7940    14.3050    13.0740    15.2090    25.0430 
  204.2500     2.3490   -26.1720    82.8290    16.2830    14.8760    18.7830    24.9910 
  204.3750     2.3300   -26.4530    79.1410    18.3920    17.0470    22.3760    24.9970 
  204.5000     2.3060   -26.7700    75.5790    20.3970    19.3680    26.1260    25.0520 
  204.6250     2.2850   -27.0310    71.6010    22.9940    21.5230    29.6310    25.0720 
  204.7500     2.2720   -27.2490    67.3340    25.1370    23.3170    31.4240    25.0580 
  204.8750     2.2660   -27.5360    64.8730    26.7950    24.7170    31.2100    25.0590 
  205.0000     2.2640   -27.7530    66.5610    28.1120    25.8370    29.1260    25.1120 
  205.1250     2.2650   -27.7590    71.2710    29.3160    26.8750    26.3180    25.0660 
  205.2500     2.2640   -27.8440    73.1490    30.6040    28.0140    24.5980    24.9610 
  205.3750     2.2640   -27.9710    71.1260    32.0200    29.3040    24.4620    24.8360 
  205.5000     2.2660   -27.9110    68.0410    33.5290    30.7110    25.1300    24.7060 
  205.6250     2.2710   -27.8180    65.8450    35.0580    32.1520    25.7820    24.5650 
  205.7500     2.2760   -27.8440    63.4860    36.5650    33.5650    27.1320    24.5180 
  205.8750     2.2790   -27.7650    61.2440    38.0750    34.9670    29.8280    24.6480 
  206.0000     2.2800   -27.6120    60.8490    39.6370    36.4180    33.8210    24.8390 
  206.1250     2.2780   -27.5860    61.9980    41.2250    37.9450    38.4720    24.9120 
  206.2500     2.2810   -27.5330    62.5340    42.6170    39.3930    43.4060    24.9000 
  206.3750     2.2900   -27.3510    62.3930    43.4940    40.4890    49.9380    24.8580 
  206.5000     2.3040   -27.1420    62.2250    43.5580    40.9340    58.4020    24.8220 
  206.6250     2.3180   -26.9040    61.2340    42.5860    40.4210    61.2320    24.8160 
  206.7500     2.3220   -26.5990    60.7160    41.0770    39.2880    55.1930    24.8440 
  206.8750     2.3140   -26.3080    62.0650    39.6420    38.0440    48.1110    24.9220 
  207.0000     2.2980   -25.9280    63.9390    38.8780    37.2830    44.8960    25.0300 
  207.1250     2.2870   -25.4530    64.7190    39.1810    37.5140    43.5660    25.0930 
