~V
VERS. 2.00: Ver 2.00
~W
STRT.M 62.0000:
STOP.M 318.0000:
STEP.M 0.1250:
NULL. -999.2500:
UWI. DF321:
~C
DEPT.M :
DEN.GM/CC :
SP.MV :
AC.US/MT :
GR.API :
CALI.CM :
RXO.OHMM :
RI. :
RML.OHMM :
~A
# ...
  232.0000     2.3670   -29.9750   389.0980    82.8780    22.9850    13.9010    10.9190    12.3530 
  232.1250     2.3600   -29.7890   391.9570    80.7050    22.9730    13.7380    10.6330    12.0290 
  232.2500     2.3490   -29.6370   392.2840    79.7490    22.9370    13.8400    10.4660    11.9190 
  232.3750     2.3400   -29.5710   390.4390    79.2590    22.9010    14.0790    10.4250    11.9770 
  232.5000     2.3390   -29.6340   387.1580    77.2640    22.8850    14.1020    10.4740    12.1090 
  232.6250     2.3540   -29.6840   383.4470    74.9010    22.8850    14.1560    10.5670    12.2330 
  232.7500     2.3780   -29.7160   380.7560    75.7550    22.8800    14.6240    10.6630    12.3310 
  232.8750     2.3970   -29.8400   380.3110    77.3340    22.8570    15.3590    10.7450    12.4030 
  233.0000     2.3960   -30.0120   382.6960    77.7790    22.7980    15.4100    10.8020    12.4390 
  233.1250     2.3710   -30.1720   387.4740    78.1960    22.7480    14.4080    10.8320    12.4300 
  233.2500     2.3380   -30.3780   392.4510    79.6550    22.7030    13.6200    10.8440    12.4010 
  233.3750     2.3120   -30.5930   396.1390    79.8040    22.6990    13.2300    10.8480    12.3800 
  233.5000     2.2970   -30.7870   398.0490    78.0130    22.7470    13.1790    10.8600    12.3950 
  233.6250     2.2920   -31.0460   398.7510    78.2410    22.8340    13.4510    10.8890    12.4580 
  233.7500     2.2900   -31.3020   399.5030    80.4780    22.8610    13.6830    10.9230    12.5320 
  233.8750     2.2920   -31.5030   400.7080    79.5110    22.8570    13.8170    10.9460    12.5940 
  234.0000     2.2920   -31.7630   402.1360    73.4160    22.8960    13.9910    10.9470    12.6350 
  234.1250     2.2900   -31.9580   403.1550    68.6080    22.9530    14.2280    10.9220    12.6440 
  234.2500     2.2880   -32.0950   403.4020    68.9530    22.9630    14.4230    10.8790    12.6130 
  234.3750     2.2860   -32.2550   402.7160    71.1740    22.9310    14.4760    10.8200    12.5400 
  234.5000     2.2850   -32.3420   401.0650    71.3160    22.9120    14.4940    10.7560    12.4410 
  234.6250     2.2830   -32.3830   398.5020    69.3480    22.9140    14.6820    10.7190    12.3730 
  234.7500     2.2830   -32.4310   395.6440    68.6470    22.8890    14.9360    10.7440    12.3900 
  234.8750     2.2870   -32.4140   393.1040    70.7490    22.8480    14.9490    10.8470    12.5130 
  235.0000     2.2930   -32.3360   391.4930    73.6910    22.8600    14.8750    11.0120    12.7200 
  235.1250     2.2970   -32.3250   391.6020    73.4010    22.8760    15.3100    11.1750    12.9330 
  235.2500     2.2990   -32.2750   393.4770    70.6210    22.8850    15.8020    11.2590    13.0510 
  235.3750     2.2990   -32.2160   397.0450    68.1380    22.8850    15.6600    11.2190    13.0060 
  235.5000     2.2930   -32.2200   401.8270    66.7220    22.8770    14.8760    11.0610    12.7960 
  235.6250     2.2740   -32.1550   406.8750    66.5530    22.8460    14.0920    10.8350    12.4920 
  235.7500     2.2520   -32.0860   411.1580    68.0130    22.7860    13.5950    10.6170    12.2210 
  235.8750     2.2400   -32.0360   414.2540    69.1350    22.7350    13.3250    10.4470    12.0490 
  236.0000     2.2460   -32.0010   416.2830    68.3550    22.7400    13.2960    10.3310    11.9800 
  236.1250     2.2590   -31.9820   417.6340    68.9630    22.8050    13.4350    10.2610    11.9610 
  236.2500     2.2640   -32.0100   418.7660    71.3540    22.8610    13.5350    10.2100    11.9100 
  236.3750     2.2580   -32.0920   419.7230    70.5320    22.8790    13.5100    10.1630    11.8060 
  236.5000     2.2450   -32.2080   420.3790    63.5580    22.8830    13.4010    10.1160    11.6710 
  236.6250     2.2280   -32.3480   420.4760    57.9360    22.9000    13.3160    10.0780    11.5620 
  236.7500     2.2120   -32.4430   419.9970    58.6190    22.9420    13.2920    10.0570    11.5180 
  236.8750     2.2070   -32.6060   418.9380    60.0640    22.9870    13.3530    10.0660    11.5490 
  237.0000     2.2210   -32.7570   417.3100    57.5480    23.0090    13.4950    10.1130    11.6420 
  237.1250     2.2450   -32.8210   414.9800    55.2390    23.0120    13.7310    10.2030    11.7760 
  237.2500     2.2590   -32.9280   412.0280    56.4930    23.0120    14.0150    10.3150    11.9120 
  237.3750     2.2530   -32.9840   408.5930    58.9530    23.0120    14.2700    10.4240    12.0160 
  237.5000     2.2340   -32.9340   405.0510    60.9170    23.0120    14.4100    10.4990    12.0630 
  237.6250     2.2220   -32.9060   402.1860    62.0590    23.0130    14.4960    10.5030    12.0310 
  237.7500     2.2190   -32.9460   400.5860    62.2370    23.0260    14.6360    10.4420    11.9490 
  237.8750     2.2180   -32.9130   400.5110    61.5980    23.0540    14.4590    10.3420    11.8500 
  238.0000     2.2220   -32.8180   401.7230    62.5970    23.0760    13.4070    10.2450    11.7700 
  238.1250     2.2440   -32.7710   403.5570    65.5120    23.0860    11.8420    10.1920    11.7490 
  238.2500     2.2740   -32.6960   405.1810    66.0420    23.0760    11.3810    10.1890    11.7870 
  238.3750     2.2860   -32.5710   406.3560    63.4150    23.0350    12.4670    10.2190    11.8700 
  238.5000     2.2720   -32.4460   407.2780    60.6710    22.9450    13.9870    10.2590    11.9690 
  238.6250     2.2560   -32.3090   408.4310    62.0360    22.9000    14.5240    10.2830    12.0360 
  238.7500     2.2530   -32.1470   410.1200    64.8090    22.8850    14.4300    10.2850    12.0430 
  238.8750     2.2540   -32.0170   412.4310    67.3140    22.8850    14.0510    10.2660    11.9850 
  239.0000     2.2470   -31.8970   415.2630    69.3440    22.8730    13.5440    10.2330    11.8850 
  239.1250     2.2330   -31.7490   418.1710    69.5980    22.8210    12.9730    10.2060    11.7960 
  239.2500     2.2290   -31.5800   420.3210    68.0780    22.7420    12.5940    10.2070    11.7730 
  239.3750     2.2430   -31.3920   420.9370    66.9040    22.6960    12.4920    10.2540    11.8470 
  239.5000     2.2670   -31.2380   419.5710    67.1130    22.6900    12.5240    10.3530    12.0170 
  239.6250     2.2860   -31.1080   415.8880    68.1900    22.6600    12.7660    10.5060    12.2680 
  239.7500     2.2980   -30.9300   410.4040    69.8710    22.6120    13.2610    10.6860    12.5510 
  239.8750     2.3100   -30.7560   403.2710    72.9330    22.6460    13.9880    10.8700    12.8200 
  240.0000     2.3210   -30.6950   394.9370    74.5040    22.8250    14.6060    11.0290    13.0310 
  240.1250     2.3230   -30.6430   386.9110    73.4680    22.9870    14.7790    11.1190    13.1210 
  240.2500     2.3210   -30.6070   381.3470    71.4600    23.0620    14.8230    11.1370    13.0850 
  240.3750     2.3210   -30.6940   379.7760    68.9560    23.0790    15.1920    11.0910    12.9350 
  240.5000     2.3190   -30.8050   382.4190    67.7170    23.0800    15.8480    11.0130    12.7210 
  240.6250     2.3070   -30.8830   388.2380    69.1680    23.0610    16.0790    10.9400    12.5260 
  240.7500     2.2920   -31.0250   394.5490    69.1950    23.0110    15.7620    10.9000    12.3970 
  240.8750     2.2810   -31.1890   399.7430    65.2260    22.9370    15.3360    10.9000    12.3500 
  241.0000     2.2780   -31.2440   402.9040    59.7380    22.8800    15.1000    10.9340    12.3720 
  241.1250     2.2800   -31.2410   403.2770    57.6640    22.8310    15.0450    10.9950    12.4250 
  241.2500     2.2840   -31.2350   401.3120    57.4360    22.7810    15.0210    11.0740    12.4740 
  241.3750     2.2910   -31.1330   397.3680    57.6470    22.7390    14.9630    11.1710    12.5190 
  241.5000     2.3030   -30.9270   392.1550    60.1660    22.6930    14.9630    11.2720    12.5700 
  241.6250     2.3180   -30.6860   386.9540    65.3480    22.6730    15.2030    11.3250    12.6050 
  241.7500     2.3320   -30.3900   383.2580    69.3800    22.6670    15.5880    11.2790    12.5730 
  241.8750     2.3430   -29.9850   382.1130    71.5370    22.6670    15.6620    11.0980    12.4300 
