~V
VERS. 2.00: Ver 2.00
~W
STRT.M 60.0000:
STOP.M 270.0000:
STEP.M 0.1250:
NULL. -999.2500:
UWI. DF32131:
~C
DEPT.M :
DEN.GM/CC :
GR.API :
CALI.CM :
RXO.OHMM :
RI. :
RML.OHMM :
SP.MV :
~A
# ...
  240.0000     2.6630    73.1040    23.8200    80.6120   100.3370   101.0260   -11.3050 
  240.1250     2.6530    70.5710    24.0460    75.6280    78.6920    74.1820   -11.2080 
  240.2500     2.6260    69.1780    24.2260    56.2430    54.8340    49.8010   -11.0980 
  240.3750     2.5860    70.0170    24.3830    34.8010    36.1210    32.7360   -10.9790 
  240.5000     2.5450    73.8010    24.4720    20.5540    23.9160    21.9610   -10.8720 
  240.6250     2.5040    79.9580    24.5010    13.5420    17.1080    15.8160   -10.7580 
  240.7500     2.4630    86.8590    24.5010    10.4520    12.9250    11.9800   -10.6370 
  240.8750     2.4220    90.8660    24.5010     9.1800    10.3120     9.6040   -10.5080 
  241.0000     2.3880    89.4090    24.5010     8.3640     8.7140     8.1860   -10.3970 
  241.1250     2.3700    84.0450    24.5010     7.4890     7.9230     7.5140   -10.3020 
  241.2500     2.3640    78.5760    24.5070     6.5760     7.6510     7.3210   -10.3260 
  241.3750     2.3670    75.5380    24.5230     6.1910     7.8160     7.5450   -10.4330 
  241.5000     2.3780    77.1660    24.5460     6.8740     8.3620     8.1520   -10.5670 
  241.6250     2.3940    84.6010    24.5560     8.7130     9.2650     9.1380   -10.7080 
  241.7500     2.4060    93.1540    24.5580    10.9690    10.3520    10.3300   -10.9390 
  241.8750     2.4100    95.6830    24.5580    12.4840    11.4800    11.5810   -11.1620 
  242.0000     2.4060    91.2080    24.5580    13.1010    12.4970    12.7400   -11.3910 
  242.1250     2.4040    88.3270    24.5510    13.4640    13.2360    13.6540   -11.6010 
  242.2500     2.4100    90.5080    24.5230    14.7080    13.6800    14.2990   -11.6840 
  242.3750     2.4270    94.2310    24.4840    15.7030    13.8320    14.6530   -11.7020 
  242.5000     2.4490    96.3880    24.4780    15.9310    13.7480    14.7320   -11.7080 
  242.6250     2.4590    97.5810    24.5470    15.4060    13.5390    14.6280   -11.7190 
  242.7500     2.4540    97.7050    24.5830    14.5030    13.3970    14.5760   -11.6530 
  242.8750     2.4440    97.6650    24.5930    13.7970    13.4560    14.7710   -11.6330 
  243.0000     2.4430    98.7790    24.5930    13.9990    13.8060    15.3490   -11.5740 
  243.1250     2.4550    99.0820    24.5930    15.7270    14.4780    16.3800   -11.5170 
  243.2500     2.4680    98.1130    24.5930    17.6900    15.2370    17.5480   -11.4670 
  243.3750     2.4750    99.4660    24.5930    18.2740    15.7350    18.3540   -11.3120 
  243.5000     2.4760   103.1010    24.5930    18.2530    15.5700    18.2040   -11.1220 
  243.6250     2.4740   102.6720    24.5870    19.3110    14.4050    16.6310   -10.8770 
  243.7500     2.4660    99.7790    24.5730    19.2770    12.6480    14.2850   -10.6340 
  243.8750     2.4420    98.9910    24.5570    15.9530    10.7530    11.8470   -10.4100 
  244.0000     2.3990    98.5660    24.5480    11.3070     9.1080     9.8270   -10.2200 
  244.1250     2.3590    92.7470    24.5470     8.4260     8.0110     8.5700   -10.0760 
  244.2500     2.3390    85.3220    24.5470     7.5400     7.4430     8.0040    -9.9660 
  244.3750     2.3360    80.8110    24.5470     7.5210     7.3940     8.0990    -9.9800 
  244.5000     2.3400    80.0130    24.5470     8.0040     7.8140     8.7810   -10.0790 
  244.6250     2.3480    84.0510    24.5470     9.2560     8.6090     9.9200   -10.2130 
  244.7500     2.3630    90.5320    24.5470    11.2260     9.4490    11.0570   -10.4360 
  244.8750     2.3820    93.5140    24.5470    13.4810    10.0060    11.7210   -10.6400 
  245.0000     2.3920    89.7610    24.5470    14.5060    10.0440    11.5920   -10.8360 
  245.1250     2.3790    85.7530    24.5470    12.5100     9.5410    10.7260   -11.0200 
  245.2500     2.3490    84.5450    24.5470     9.9210     8.8730     9.7360   -11.1710 
  245.3750     2.3200    82.3220    24.5470     8.2860     8.3000     8.9890   -11.2760 
  245.5000     2.3080    77.8880    24.5470     7.8770     7.9560     8.6350   -11.3660 
  245.6250     2.3100    75.3790    24.5470     8.2350     7.8610     8.6770   -11.4050 
  245.7500     2.3120    76.2510    24.5470     8.5070     7.8700     8.8620   -11.3390 
  245.8750     2.3090    79.1480    24.5470     8.3770     7.8640     8.9940   -11.2690 
  246.0000     2.3060    81.3960    24.5470     7.9520     7.7720     8.9590   -11.1710 
  246.1250     2.3130    81.7770    24.5470     7.4390     7.5980     8.7700   -11.0600 
  246.2500     2.3290    79.9620    24.5470     7.1880     7.4300     8.5850   -10.9670 
  246.3750     2.3460    77.1390    24.5470     7.2570     7.3350     8.5150   -10.9060 
  246.5000     2.3530    74.9930    24.5470     7.5670     7.3550     8.6100   -10.8360 
  246.6250     2.3510    75.8210    24.5470     8.0310     7.5020     8.8640   -10.8750 
  246.7500     2.3490    78.6190    24.5470     8.3890     7.7120     9.1740   -10.9970 
  246.8750     2.3460    83.0330    24.5430     8.6440     7.9400     9.4660   -11.1240 
  247.0000     2.3370    89.3280    24.5230     8.8030     8.1630     9.7170   -11.3300 
  247.1250     2.3210    95.0520    24.4710     8.8090     8.4110     9.9920   -11.4790 
  247.2500     2.3100    96.0530    24.4200     8.7860     8.7420    10.3990   -11.6410 
  247.3750     2.3110    92.4560    24.4000     9.0900     9.2080    11.0240   -11.8160 
  247.5000     2.3250    88.3460    24.3970     9.8490     9.8220    11.8890   -11.9280 
  247.6250     2.3480    87.5100    24.3850    10.9270    10.5120    12.8880   -11.9580 
  247.7500     2.3730    90.0130    24.3390    12.2380    11.0680    13.6960   -11.9760 
  247.8750     2.3860    93.3720    24.2520    14.0170    11.2950    13.9910   -12.0040 
  248.0000     2.3810    94.8920    24.1800    15.2700    11.0930    13.6190   -11.9640 
  248.1250     2.3630    92.5930    24.1720    14.1840    10.5130    12.6970   -11.9000 
  248.2500     2.3520    89.5750    24.2590    11.6240     9.8580    11.7230   -11.8570 
  248.3750     2.3530    88.9430    24.3550     9.6910     9.3300    11.0050   -11.8100 
  248.5000     2.3520    90.0230    24.3970     9.1280     9.0320    10.6790   -11.8240 
  248.6250     2.3390    89.8930    24.3970     9.5830     8.9790    10.7440   -11.8880 
  248.7500     2.3260    89.6000    24.4050    10.5120     9.0210    10.9410   -11.9000 
  248.8750     2.3220    90.4420    24.4380    11.3420     9.0360    11.0390   -11.9310 
  249.0000     2.3280    90.0380    24.5100    10.9960     8.9280    10.8830   -11.9950 
  249.1250     2.3310    86.6630    24.5460     9.4470     8.6780    10.4800   -12.0860 
  249.2500     2.3260    83.8530    24.5580     8.2230     8.4040    10.0490   -12.1750 
  249.3750     2.3180    82.3870    24.5580     8.0100     8.1910     9.7330   -12.2680 
  249.5000     2.3150    81.2860    24.5580     8.4630     8.0960     9.5980   -12.3300 
  249.6250     2.3210    80.0700    24.5580     9.0440     8.1510     9.6750   -12.4310 
  249.7500     2.3280    79.6640    24.5580     9.5840     8.3130     9.9000   -12.6230 
  249.8750     2.3300    81.2330    24.5580    10.0640     8.5510    10.2310   -12.7650 
  250.0000     2.3300    84.8480    24.5580    10.5680     8.8250    10.6160   -12.9220 
  250.1250     2.3390    87.5010    24.5550    10.9900     9.0810    10.9640   -13.1830 
  250.2500     2.3540    87.4770    24.5430    10.9480     9.2580    11.1680   -13.3950 
  250.3750     2.3640    87.5980    24.5180    10.4320     9.2860    11.1400   -13.5650 
  250.5000     2.3620    89.4490    24.4970     9.8350     9.1270    10.8520   -13.6720 
  250.6250     2.3510    91.8520    24.4900     9.3420     8.7870    10.3690   -13.6130 
  250.7500     2.3380    94.6780    24.4890     8.9070     8.3940     9.8820   -13.4340 
  250.8750     2.3270    98.0550    24.4890     8.4130     8.0500     9.5010   -13.1640 
  251.0000     2.3220    99.5740    24.4890     8.0750     7.7980     9.2490   -12.8180 
  251.1250     2.3280    95.2210    24.4890     8.1920     7.6200     9.0540   -12.4160 
