~V
VERS. 2.00: Ver 2.00
~W
STRT.M 63.0000:
STOP.M 272.0000:
STEP.M 0.1250:
NULL. -999.2500:
UWI. DF33040:
~C
DEPT.M :
SP.MV :
GR.API :
CALI.CM :
RXO.OHMM :
RI. :
RML.OHMM :
DEN.GM/CC :
~A
# ...
  243.0000   -14.6600    69.8670    24.2250    18.0000    16.0770    17.3280     2.2840 
  243.1250   -14.6540    67.6880    24.2240    18.7330    16.5840    17.8230     2.2870 
  243.2500   -14.6190    63.7840    24.2220    18.9020    17.1860    18.5220     2.2830 
  243.3750   -14.5650    62.6300    24.2200    18.7820    17.9180    19.4610     2.2760 
  243.5000   -14.4850    66.2170    24.2200    18.5900    18.7080    20.5010     2.2690 
  243.6250   -14.3810    68.9770    24.2220    18.7500    19.1770    21.1200     2.2720 
  243.7500   -14.2600    67.6350    24.2250    19.2050    18.8600    20.7740     2.2910 
  243.8750   -14.1110    66.5340    24.1840    18.7800    17.4890    19.1520     2.3180 
  244.0000   -13.9300    69.9990    24.0670    16.3390    15.2630    16.4990     2.3440 
  244.1250   -13.7560    76.5630    23.9650    12.6560    12.8460    13.6300     2.3540 
  244.2500   -13.5920    81.0850    23.9750     9.8300    10.8910    11.3670     2.3470 
  244.3750   -13.4390    82.6280    24.0590     8.3730     9.6540    10.0480     2.3310 
  244.5000   -13.3060    81.1810    24.1290     8.1360     9.2090     9.7740     2.3180 
  244.6250   -13.2090    76.0040    24.1660     9.4230     9.6970    10.6940     2.3200 
  244.7500   -13.1420    69.0570    24.1920    11.8480    10.9470    12.5060     2.3250 
  244.8750   -13.1130    65.9090    24.1840    14.5540    12.8120    14.9280     2.3210 
  245.0000   -13.1230    67.7590    24.1680    16.7570    14.9620    17.4830     2.3090 
  245.1250   -13.1580    68.1720    24.1970    18.3100    16.7850    19.4000     2.3040 
  245.2500   -13.2100    65.4420    24.2510    19.2590    17.8440    20.2900     2.3050 
  245.3750   -13.2660    63.9800    24.2980    19.2970    18.0470    20.1740     2.3030 
  245.5000   -13.3150    66.6190    24.3320    18.6690    17.6150    19.4130     2.2900 
  245.6250   -13.3630    68.8260    24.3620    17.9890    16.9030    18.5040     2.2750 
  245.7500   -13.4110    67.8730    24.3760    17.3420    16.2910    17.8700     2.2680 
  245.8750   -13.4720    65.9300    24.3740    16.7680    15.9930    17.7580     2.2720 
  246.0000   -13.5540    65.1370    24.3700    16.7830    16.1560    18.3170     2.2790 
  246.1250   -13.6450    66.3140    24.3690    17.9430    16.8920    19.6210     2.2790 
  246.2500   -13.7350    67.9090    24.3710    19.7280    17.9280    21.2150     2.2690 
  246.3750   -13.8290    68.5080    24.3720    21.3490    18.8490    22.4800     2.2590 
  246.5000   -13.9170    67.4990    24.3700    22.0250    19.1490    22.7360     2.2580 
  246.6250   -13.9780    66.2870    24.3680    20.8360    18.4450    21.5800     2.2670 
  246.7500   -14.0210    69.5670    24.3650    18.1390    17.2340    19.8660     2.2750 
  246.8750   -14.0430    75.8740    24.3490    15.0180    16.0780    18.4230     2.2860 
  247.0000   -14.0280    78.2050    24.3090    13.1230    15.3830    17.7600     2.3070 
  247.1250   -13.9960    73.9330    24.2570    14.3440    15.3780    18.0730     2.3410 
  247.2500   -13.9660    70.2830    24.2390    18.3090    15.8760    18.9890     2.3750 
  247.3750   -13.9420    69.8870    24.2530    22.6950    16.7400    20.2560     2.3940 
  247.5000   -13.9420    69.6540    24.2460    23.9720    17.8610    21.7330     2.3920 
  247.6250   -13.9720    69.5350    24.1980    21.6280    19.2700    23.5260     2.3810 
  247.7500   -14.0230    71.0160    24.1480    21.5170    21.0040    25.7490     2.3850 
  247.8750   -14.1000    72.2860    24.0970    27.9920    23.0520    28.3570     2.4150 
  248.0000   -14.2240    72.2160    24.0570    38.0110    25.1800    30.9580     2.4560 
  248.1250   -14.3850    72.4950    24.0740    40.1850    26.8200    32.7490     2.4820 
  248.2500   -14.5530    72.9380    24.0990    33.6850    27.6860    33.4940     2.4790 
  248.3750   -14.7270    71.5870    24.0880    26.3600    27.8240    33.4200     2.4520 
  248.5000   -14.8990    70.1130    24.0550    23.9570    27.4610    32.8960     2.4230 
  248.6250   -15.0550    71.1050    24.0080    27.4290    26.6500    31.9020     2.4200 
  248.7500   -15.1830    72.6110    23.9130    31.9280    25.3320    30.1720     2.4390 
  248.8750   -15.2820    71.4810    23.8080    31.8400    23.4150    27.5430     2.4580 
  249.0000   -15.3470    68.5140    23.7910    25.9680    21.0850    24.3590     2.4570 
  249.1250   -15.3670    63.7590    23.8590    19.7800    18.8820    21.5190     2.4390 
  249.2500   -15.3490    58.0830    23.9110    17.3430    17.3310    19.7580     2.4150 
  249.3750   -15.2830    54.8070    23.9190    17.3490    16.7660    19.4690     2.3870 
  249.5000   -15.1420    57.1160    23.8980    17.5310    17.3350    20.7160     2.3630 
  249.6250   -14.9260    61.4420    23.8670    17.8240    18.9100    23.1050     2.3650 
  249.7500   -14.6510    59.8250    23.8270    21.7410    20.2930    24.8970     2.4070 
  249.8750   -14.3030    52.8400    23.7930    29.8280    20.0340    24.1560     2.4850 
  250.0000   -13.8830    47.4050    23.7840    33.0530    17.4270    20.2420     2.5620 
  250.1250   -13.4310    50.2740    23.7900    23.8820    13.4520    14.9230     2.5800 
  250.2500   -12.9920    57.1110    23.7880    12.3200     9.9360    10.5720     2.5340 
  250.3750   -12.5820    61.6430    23.7830     6.3590     7.4530     7.7420     2.4630 
  250.5000   -12.2430    63.0520    23.7910     4.9080     5.9630     6.2400     2.4080 
  250.6250   -11.9930    62.7180    23.8020     5.1690     5.3310     5.8050     2.3850 
  250.7500   -11.8180    61.7340    23.7880     5.4200     5.1820     5.9020     2.3770 
  250.8750   -11.7330    61.0850    23.7710     5.4530     5.3110     6.2310     2.3800 
  251.0000   -11.7260    61.6780    23.7850     5.3930     5.5360     6.5480     2.3850 
  251.1250   -11.7540    61.9060    23.7930     5.3660     5.7260     6.7220     2.3830 
  251.2500   -11.7860    60.4670    23.6990     5.4070     5.8680     6.8150     2.3760 
  251.3750   -11.8210    59.2220    23.5200     5.5130     5.9930     6.9120     2.3790 
  251.5000   -11.8500    59.1110    23.3900     5.6860     6.1350     7.0670     2.4060 
  251.6250   -11.8610    58.1740    23.4190     5.8850     6.3050     7.2950     2.4610 
  251.7500   -11.8690    57.1550    23.4730     6.0010     6.4690     7.5370     2.5160 
  251.8750   -11.8590    57.9590    23.4240     5.9890     6.5880     7.7310     2.5420 
  252.0000   -11.8240    60.7050    23.2780     5.9330     6.6300     7.8340     2.5260 
  252.1250   -11.7880    61.5860    23.1330     5.9610     6.5770     7.8260     2.4830 
  252.2500   -11.7560    59.6060    23.0500     6.0290     6.4680     7.7530     2.4500 
  252.3750   -11.7080    56.4640    23.0790     6.0550     6.3400     7.6650     2.4310 
  252.5000   -11.6490    54.9730    23.2390     6.0320     6.2250     7.6040     2.4160 
  252.6250   -11.5920    56.0130    23.4380     5.9990     6.1470     7.5950     2.4010 
  252.7500   -11.5110    57.3970    23.5390     5.9590     6.0980     7.6230     2.3920 
  252.8750   -11.4230    58.0580    23.5320     5.9120     6.0740     7.6750     2.3900 
  253.0000   -11.3460    59.3080    23.4800     5.8920     6.0720     7.7420     2.3930 
  253.1250   -11.2700    61.6740    23.4350     5.9100     6.0910     7.8150     2.3960 
  253.2500   -11.1920    62.7370    23.4110     5.9120     6.1240     7.8870     2.3970 
  253.3750   -11.1340    62.1700    23.4040     5.9000     6.1630     7.9510     2.3900 
  253.5000   -11.0900    62.0440    23.3960     5.9410     6.1980     7.9940     2.3770 
  253.6250   -11.0590    63.6460    23.3780     6.0700     6.2070     7.9980     2.3670 
  253.7500   -11.0690    63.2500    23.3560     6.1890     6.1850     7.9670     2.3620 
  253.8750   -11.1130    62.0380    23.3300     6.2380     6.1360     7.9130     2.3570 
  254.0000   -11.1710    63.2780    23.3030     6.2630     6.0810     7.8630     2.3510 
  254.1250   -11.2360    66.1660    23.3030     6.3720     6.0490     7.8570     2.3550 
