~V
VERS. 2.00: Ver 2.00
~W
STRT.M 55.0000:
STOP.M 272.0000:
STEP.M 0.1250:
NULL. -999.2500:
UWI. DF33042:
~C
DEPT.M :
SP.MV :
GR.API :
RML.OHMM :
RI. :
RXO.OHMM :
CALI.CM :
DEN.GM/CC :
~A
# ...
  178.7500   -30.5790    69.3410    99.8450    86.7720    67.7760    24.4250     2.2550 
  178.8750   -30.5510    66.6750   100.3830    86.9410    72.1590    24.4150     2.2550 
  179.0000   -30.5370    64.3200   102.7760    88.7180    72.8310    24.4180     2.2550 
  179.1250   -30.5380    63.8120   106.4220    91.6780    74.6650    24.4350     2.2530 
  179.2500   -30.5530    63.0650   110.3140    94.9810    80.1820    24.4680     2.2510 
  179.3750   -30.5780    63.4640   113.7860    98.0390    86.1560    24.5140     2.2460 
  179.5000   -30.5810    65.1770   116.2500   100.2990    99.5970    24.5420     2.2390 
  179.6250   -30.5410    65.0230   116.8990   101.0120   100.2170    24.5480     2.2310 
  179.7500   -30.4880    63.4560   115.8140   100.1880    93.2240    24.5480     2.2240 
  179.8750   -30.4300    62.6200   113.3940    98.0970    83.6450    24.5480     2.2190 
  180.0000   -30.3750    63.0770   110.4500    95.3590    78.4640    24.5560     2.2150 
  180.1250   -30.2670    64.0880   108.0350    92.8020    73.8560    24.5800     2.2150 
  180.2500   -30.1650    65.7260   106.6430    90.9590    75.4740    24.6140     2.2180 
  180.3750   -30.0680    67.5730   106.2300    89.9520    79.6160    24.6390     2.2220 
  180.5000   -29.9550    67.5910   106.3580    89.5840    85.5890    24.6680     2.2290 
  180.6250   -29.8440    65.1900   106.4680    89.5500    85.8370    24.6810     2.2350 
  180.7500   -29.7330    62.9120   106.3660    89.6240    82.0190    24.6850     2.2400 
  180.8750   -29.6180    62.0970   106.2990    89.9280    81.1840    24.6850     2.2440 
  181.0000   -29.4750    63.8050   106.8090    90.8240    81.5110    24.6850     2.2470 
  181.1250   -29.3680    65.1360   108.8320    93.0720    83.7910    24.6850     2.2500 
  181.2500   -29.2340    64.2780   112.5320    96.8860    86.0490    24.6850     2.2520 
  181.3750   -29.0870    63.1220   117.4880   102.0790    91.6660    24.6850     2.2520 
  181.5000   -28.9570    63.2480   122.3380   107.6840    97.6750    24.6850     2.2490 
  181.6250   -28.8220    64.6110   124.0670   111.2990   107.3980    24.6850     2.2430 
  181.7500   -28.6830    65.5010   120.4190   110.6420   112.9450    24.6850     2.2370 
  181.8750   -28.5170    64.8490   110.2880   104.1810   115.0930    24.6850     2.2330 
  182.0000   -28.3480    62.2710    94.8080    92.1330   115.3570    24.6850     2.2340 
  182.1250   -28.1930    61.3410    77.3560    76.6970   110.8900    24.6850     2.2440 
  182.2500   -28.0770    64.2170    61.9080    61.9430    88.0240    24.6850     2.2580 
  182.3750   -28.0260    67.8140    50.1020    50.0700    57.2970    24.6900     2.2760 
  182.5000   -28.0080    70.1670    42.1870    41.8390    37.6180    24.6990     2.2960 
  182.6250   -28.1150    72.7270    38.2320    37.4680    35.8050    24.6930     2.3180 
  182.7500   -28.3290    73.6920    37.0930    35.7760    40.5020    24.6150     2.3390 
  182.8750   -28.7120    71.9940    38.4080    36.3780    44.7610    24.4590     2.3560 
  183.0000   -29.2540    68.3400    41.9240    39.0590    43.9210    24.2690     2.3640 
  183.1250   -29.9210    64.6340    47.7370    43.9670    43.6590    24.0690     2.3600 
  183.2500   -30.6950    61.1850    55.3150    50.6230    50.4580    24.0180     2.3480 
  183.3750   -31.5380    59.2080    64.5400    58.9210    67.7300    24.1280     2.3300 
  183.5000   -32.4540    60.3920    75.4400    68.8520    80.0370    24.3100     2.3100 
  183.6250   -33.3150    63.3780    88.7350    80.9200    74.3820    24.4250     2.2870 
  183.7500   -34.1390    64.0140   104.6960    95.0790    73.1560    24.4540     2.2610 
  183.8750   -34.8350    60.7760   123.5260   111.1460    91.3630    24.4840     2.2340 
  184.0000   -35.4210    56.5890   144.4110   128.0720   120.2910    24.5580     2.2050 
  184.1250   -35.8600    55.5290   164.6220   143.2770   153.4740    24.6450     2.1820 
  184.2500   -36.1540    56.1660   180.6980   154.4580   176.8140    24.6850     2.1700 
  184.3750   -36.2940    56.5010   190.4380   160.4760   179.2890    24.7140     2.1690 
  184.5000   -36.2530    56.8280   194.0010   161.9460   161.9330    24.7630     2.1750 
  184.6250   -36.1260    57.8900   193.8780   160.9430   142.8590    24.8280     2.1820 
  184.7500   -35.8780    58.5060   194.0660   160.4010   135.9400    24.8670     2.1860 
  184.8750   -35.5700    58.6670   196.0530   161.4940   144.3660    24.8350     2.1900 
  185.0000   -35.1860    58.6330   199.4720   164.0570   155.0050    24.6930     2.1960 
  185.1250   -34.7530    58.6190   201.8710   166.4120   150.4460    24.5910     2.2050 
  185.2500   -34.2710    58.9040   200.1850   166.1300   139.1750    24.5490     2.2130 
  185.3750   -33.8030    59.7060   192.1640   161.2850   143.0760    24.5320     2.2150 
  185.5000   -33.3440    61.1330   177.4510   151.1740   162.8960    24.4750     2.2100 
  185.6250   -32.8810    60.8580   158.1290   136.6490   171.6410    24.3770     2.2030 
  185.7500   -32.4110    58.6420   139.3330   121.4760   141.2870    24.2080     2.2000 
  185.8750   -31.9690    56.7590   124.2770   108.4180    97.9140    23.9140     2.2070 
  186.0000   -31.5330    56.4750   114.3560    99.1400    69.2160    23.4530     2.2200 
  186.1250   -31.1590    56.9390   109.7330    94.3740    59.5830    23.0660     2.2370 
  186.2500   -30.8380    57.9250   107.7420    92.1680    59.6940    22.9070     2.2510 
  186.3750   -30.5570    59.4990   106.4420    90.9100    62.6270    22.8750     2.2600 
  186.5000   -30.3260    60.2200   104.3610    89.2510    67.6130    22.9510     2.2650 
  186.6250   -30.1610    59.4340   100.7630    86.3510    67.2630    23.1760     2.2690 
  186.7500   -30.0450    60.6530    96.4680    82.6600    60.7880    23.4190     2.2730 
  186.8750   -29.9480    63.6960    92.4310    78.8640    55.7610    23.5570     2.2770 
  187.0000   -29.9000    65.5860    89.3890    75.6010    55.7640    23.6020     2.2810 
  187.1250   -29.8220    65.2600    88.0060    73.5090    62.2330    23.6100     2.2820 
  187.2500   -29.7630    64.5780    88.4500    72.8980    65.2280    23.6020     2.2820 
  187.3750   -29.7080    63.8550    91.5000    74.5340    62.7120    23.5670     2.2810 
  187.5000   -29.6750    63.1190    98.5170    79.6030    61.7550    23.5370     2.2780 
  187.6250   -29.6240    62.8120   112.3970    90.4350    60.9490    23.6030     2.2690 
  187.7500   -29.5930    62.5970   133.3750   106.9670    73.5700    23.8360     2.2550 
  187.8750   -29.5820    61.4710   160.8030   128.3550   105.8670    24.1720     2.2380 
  188.0000   -29.5730    59.7110   191.8190   152.1200   148.6470    24.3870     2.2220 
  188.1250   -29.5760    57.9060   219.7730   173.6310   172.8810    24.4600     2.2090 
  188.2500   -29.5640    55.2640   237.5830   188.6780   171.0860    24.4600     2.2010 
  188.3750   -29.5390    52.7940   240.1910   194.2010   163.7510    24.4390     2.1980 
  188.5000   -29.5070    53.4260   225.2090   188.0990   155.4400    24.4230     2.1970 
  188.6250   -29.4660    56.0660   190.2080   166.8720   154.3740    24.4220     2.2000 
  188.7500   -29.4040    55.9870   143.5920   134.0090   177.2350    24.4150     2.2060 
  188.8750   -29.3230    53.2410    96.3850    95.3770   203.0640    24.4050     2.2140 
  189.0000   -29.2280    54.2200    58.9480    59.9940   176.3120    24.3870     2.2270 
  189.1250   -29.1270    61.2950    36.4280    36.3140    71.0880    24.3550     2.2430 
  189.2500   -29.0420    68.7720    22.9410    22.3870    25.4960    24.2750     2.2640 
  189.3750   -28.9710    74.6020    15.3220    15.0410    11.3930    24.0910     2.2900 
  189.5000   -28.8690    79.4620    12.1260    11.5180     8.5510    23.8460     2.3210 
  189.6250   -28.8110    82.5200    11.3840    10.3060     8.9360    23.5680     2.3520 
  189.7500   -28.7440    82.0730    11.6810    10.1420     9.1770    23.3710     2.3780 
  189.8750   -28.6870    81.3590    12.4710    10.5530     9.5310    23.2830     2.3940 
