~V
VERS. 2.00: Ver 2.00
~W
STRT.M 55.0000:
STOP.M 245.0000:
STEP.M 0.1250:
NULL. -999.2500:
UWI. DF33016:
~C
DEPT.M :
GR.API :
CALI.CM :
RXO.OHMM :
RI. :
RML.OHMM :
DEN.GM/CC :
SP.MV :
~A
# ...
  223.7500    68.0010    23.2620     8.6770     8.5650    10.4130     2.5220    -9.9490 
  223.8750    71.2100    23.5800     8.5690     8.8030    10.5440     2.5210    -9.9770 
  224.0000    72.6220    24.0760     8.6340     8.9610    10.7160     2.5180    -9.9830 
  224.1250    71.6010    24.1540     9.2830     9.0690    11.0140     2.5160   -10.0710 
  224.2500    71.3720    23.8390    10.5370     9.1900    11.3920     2.5110   -10.1290 
  224.3750    72.8630    23.4490    11.5450     9.3200    11.7680     2.4900   -10.1920 
  224.5000    74.1640    23.2590    11.8010     9.4270    12.0290     2.4600   -10.3060 
  224.6250    74.2460    23.3860    12.2380     9.4720    12.0010     2.4430   -10.3580 
  224.7500    75.7780    23.7660    13.3380     9.4320    11.6760     2.4570   -10.3850 
  224.8750    78.5870    24.1120    13.8410     9.3120    11.0540     2.4900   -10.4270 
  225.0000    80.1210    24.0930    13.0950     9.1460    10.2880     2.5130   -10.3980 
  225.1250    78.0670    23.6840    12.0150     9.0190     9.7880     2.5170   -10.3750 
  225.2500    75.3190    23.4470    11.4750     9.0360     9.8200     2.5100   -10.3950 
  225.3750    74.5430    23.4030    11.0840     9.2500    10.4070     2.5060   -10.3140 
  225.5000    74.5470    23.4640    10.9820     9.6570    11.3290     2.5100   -10.1960 
  225.6250    73.9930    23.5600    11.4670    10.1720    12.1890     2.5140   -10.1200 
  225.7500    72.9260    23.3790    12.1360    10.6150    12.7040     2.5170   -10.0040 
  225.8750    72.2280    23.4120    12.5790    10.8740    12.8420     2.5270    -9.8840 
  226.0000    72.1180    23.6620    12.8410    10.8820    12.8000     2.5490    -9.8240 
  226.1250    73.8910    23.7500    13.0120    10.6110    12.7380     2.5720    -9.7310 
  226.2500    77.8690    23.4430    12.8430    10.2190    12.6500     2.5870    -9.6050 
  226.3750    82.0920    23.2120    12.1960     9.8430    12.6010     2.5850    -9.5830 
  226.5000    82.9940    23.2570    11.3150     9.6040    12.6410     2.5670    -9.5500 
  226.6250    77.2700    23.5960    10.8840     9.5930    12.7400     2.5400    -9.5450 
  226.7500    70.9720    23.9720    11.8640     9.7580    12.7860     2.5170    -9.6020 
  226.8750    68.5910    24.1320    14.3420    10.0480    12.6650     2.5120    -9.6260 
  227.0000    69.7880    24.1620    16.9360    10.3900    12.3830     2.5220    -9.6530 
  227.1250    73.1520    24.1680    18.3780    10.7230    12.0750     2.5390    -9.7190 
  227.2500    77.3830    24.0960    18.4470    10.9980    11.9150     2.5610    -9.7750 
  227.3750    80.5830    23.9590    17.1210    11.1510    11.9970     2.5820    -9.7910 
  227.5000    80.7920    23.9790    14.5380    11.1560    12.2690     2.5910    -9.8790 
  227.6250    78.4480    24.1660    12.0520    11.0170    12.5700     2.5780    -9.9250 
  227.7500    76.5990    24.0760    10.1140    10.8220    12.6110     2.5450    -9.8880 
  227.8750    75.7740    23.6370     8.8130    10.6160    12.2800     2.5170    -9.9110 
  228.0000    75.2110    23.2750     8.0280    10.3950    11.6640     2.5160    -9.9100 
  228.1250    73.7920    23.1370     7.6850    10.1510    10.9260     2.5350    -9.8260 
  228.2500    74.0830    23.2090     7.5790     9.8930    10.2130     2.5480    -9.7780 
  228.3750    78.1260    23.3450     7.5470     9.6630     9.6400     2.5430    -9.7040 
  228.5000    81.4540    23.4810     7.5050     9.5240     9.3430     2.5380    -9.5990 
  228.6250    78.9230    23.5860     7.5990     9.5060     9.5140     2.5420    -9.5130 
  228.7500    73.9040    23.7550     7.9530     9.5520     9.9420     2.5380    -9.4220 
  228.8750    70.6220    23.5520     8.4210     9.5900    10.3290     2.5140    -9.3210 
  229.0000    70.6090    23.4120     8.7050     9.5670    10.3620     2.4930    -9.2200 
  229.1250    72.5600    23.4700     8.7350     9.4820    10.0160     2.4980    -9.1730 
  229.2500    73.7470    23.5130     8.7110     9.3800     9.7630     2.5250    -9.1290 
  229.3750    73.4240    23.3910     8.9350     9.3060     9.9330     2.5490    -9.1350 
  229.5000    73.7150    23.4230     9.7070     9.3030    10.5050     2.5590    -9.1110 
  229.6250    76.2730    23.5570    10.7380     9.4220    11.1950     2.5600    -9.0330 
  229.7500    77.3900    23.3030    11.1670     9.6770    11.7550     2.5590    -9.0160 
  229.8750    76.3040    23.2200    10.8940    10.0610    12.1770     2.5560    -8.9850 
  230.0000    76.4570    23.4640    10.6850    10.5300    12.4460     2.5560    -8.9820 
  230.1250    76.4370    23.7840    11.4010    10.9660    12.5560     2.5620    -8.9780 
  230.2500    73.6640    23.9210    12.2250    11.2290    12.5200     2.5700    -8.9310 
  230.3750    71.6950    23.8500    12.3550    11.2750    12.3720     2.5720    -8.8970 
  230.5000    71.4820    23.6410    11.8590    11.1670    12.2780     2.5710    -8.8670 
  230.6250    71.4820    23.1630    11.4990    11.0290    12.3900     2.5670    -8.9060 
  230.7500    71.4820    22.9570    11.4450    10.9410    12.6440     2.5550    -8.9210 
  230.8750    71.4820    22.9170    11.2570    10.8500    12.8710     2.5350    -8.9050 
  231.0000    71.4820    22.9130    10.7180    10.6430    12.8700     2.5210    -8.9280 
  231.1250    71.4820    22.8640     9.6410    10.1830    12.5140     2.5120    -8.9260 
  231.2500    71.4820    22.9130     8.1930     9.5450    11.9150     2.4940    -8.9640 
  231.3750    71.4820    23.1520     6.7580     8.8660    11.2470     2.4560    -9.0020 
  231.5000    71.4820    23.6270     5.7970     8.2970    10.6520     2.4220    -9.0130 
  231.6250    71.4820    23.6880     5.5240     7.9920    10.2060     2.4120    -9.0310 
  231.7500    71.4820    23.3980     5.7470     7.9420     9.9460     2.4210    -9.0590 
  231.8750    71.4820    23.1810     6.2300     8.1000     9.9380     2.4330    -9.0680 
  232.0000    71.4820    23.3630     6.6550     8.3750    10.2640     2.4470    -9.0620 
  232.1250    71.4820    23.4820     6.9050     8.6540    10.9570     2.4610    -9.0310 
  232.2500    71.4820    23.4150     7.1490     8.8710    11.7290     2.4690    -8.9890 
  232.3750    71.4820    23.0800     7.4430     9.0420    12.3090     2.4640    -8.9280 
  232.5000    71.4820    22.9970     7.8980     9.2290    12.5480     2.4590    -8.9340 
  232.6250    71.4820    23.3460     8.9520     9.5100    12.3280     2.4660    -8.9470 
  232.7500    71.4820    23.5870    10.6930     9.8750    11.8900     2.4850    -8.9820 
  232.8750    71.4820    23.6530    12.3490    10.2570    11.5440     2.5030    -9.0450 
  233.0000    71.4820    23.7140    13.2070    10.5360    11.4600     2.5160    -9.0860 
  233.1250    71.4820    23.8210    13.5080    10.5680    11.6190     2.5300    -9.1970 
  233.2500    71.4820    23.8180    13.4740    10.3600    11.7800     2.5400    -9.3000 
  233.3750    71.4820    23.4480    13.3140     9.9720    11.7730     2.5390    -9.4430 
  233.5000    71.4820    23.0980    13.0500     9.4980    11.4960     2.5300    -9.5740 
  233.6250    71.4820    23.1380    13.4040     9.0300    10.9300     2.5160    -9.6670 
  233.7500    71.4820    23.4300    13.2510     8.6260    10.3010     2.4930    -9.7690 
  233.8750    71.4820    23.7030    12.4680     8.3240     9.7470     2.4620    -9.8760 
  234.0000    71.4820    23.7390    11.4390     8.1550     9.3620     2.4420    -9.9340 
  234.1250    71.4820    23.5210    11.1710     8.1420     9.2860     2.4430    -9.9580 
  234.2500    71.4820    23.4630    11.3610     8.2260     9.4610     2.4600    -9.9710 
  234.3750    71.4820    23.3290    12.3130     8.3700     9.8020     2.4800    -9.9420 
  234.5000    71.4820    23.2960    14.5080     8.5400    10.2250     2.4920    -9.8730 
  234.6250    71.4820    23.6050    15.4530     8.6760    10.6140     2.4860    -9.7850 
  234.7500    71.4820    23.9070    14.3270     8.7380    10.8010     2.4570    -9.6960 
  234.8750    71.4820    23.8500    12.5570     8.7130    10.7270     2.4140    -9.5940 
