~V
VERS. 2.00: Ver 2.00
~W
STRT.M 55.0000:
STOP.M 252.0000:
STEP.M 0.1250:
NULL. -999.2500:
UWI. DF33023:
~C
DEPT.M :
GR.API :
CALI.CM :
RXO.OHMM :
RI. :
RML.OHMM :
DEN.GM/CC :
SP.MV :
~A
# ...
   88.7500    64.7910    23.1660     8.7500     6.4210     8.9800     2.1290   -33.1540 
   88.8750    65.5490    23.1700     8.5880     6.3610     8.9170     2.1230   -33.3290 
   89.0000    67.5940    23.1460     8.3850     6.2960     8.8110     2.1200   -33.4800 
   89.1250    69.3910    23.1310     8.1720     6.2320     8.6910     2.1280   -33.5610 
   89.2500    68.1530    23.1390     7.9670     6.1830     8.6060     2.1390   -33.5810 
   89.3750    64.7490    23.1540     7.8700     6.1650     8.5810     2.1500   -33.5490 
   89.5000    63.1320    23.1600     7.9620     6.1880     8.6300     2.1620   -33.4610 
   89.6250    65.8970    23.1670     8.0970     6.2620     8.7500     2.1740   -33.2960 
   89.7500    68.2870    23.1880     8.0940     6.3590     8.8900     2.1820   -33.0560 
   89.8750    68.0930    23.1990     8.0330     6.4470     8.9900     2.1840   -32.7310 
   90.0000    67.4150    23.1790     8.0300     6.4830     8.9860     2.1810   -32.3240 
   90.1250    69.9670    23.1370     7.9670     6.4130     8.7950     2.1820   -31.8210 
   90.2500    74.6720    23.1120     7.6560     6.2400     8.4470     2.1910   -31.2360 
   90.3750    79.5400    23.1270     7.1160     5.9820     7.9930     2.2070   -30.5810 
   90.5000    84.7050    23.1680     6.5170     5.6780     7.5070     2.2310   -29.8690 
   90.6250    90.6300    23.2140     6.0320     5.3770     7.0730     2.2590   -29.1300 
   90.7500    94.7030    23.2640     5.6420     5.1160     6.7280     2.2850   -28.3960 
   90.8750    95.8870    23.3170     5.3000     4.9090     6.4810     2.3050   -27.7160 
   91.0000    97.0410    23.3530     5.0680     4.7600     6.3240     2.3170   -27.1360 
   91.1250    98.0930    23.3490     5.0400     4.6770     6.2600     2.3180   -26.7380 
   91.2500    96.2010    23.3250     5.0530     4.6580     6.2870     2.3080   -26.5360 
   91.3750    90.9000    23.3070     4.9820     4.7180     6.4360     2.2830   -26.5220 
   91.5000    84.4900    23.2840     4.9630     4.8790     6.7470     2.2480   -26.7170 
   91.6250    79.2220    23.2210     5.3740     5.1630     7.2450     2.2120   -27.1410 
   91.7500    74.2300    23.1780     6.2150     5.5170     7.8110     2.1830   -27.7170 
   91.8750    69.4890    23.2500     7.1780     5.8710     8.2950     2.1620   -28.3850 
   92.0000    67.7810    23.4230     7.8410     6.1530     8.5810     2.1500   -29.0880 
   92.1250    67.7320    23.5090     7.9430     6.3480     8.7090     2.1420   -29.7580 
   92.2500    65.3810    23.4450     7.8510     6.5740     8.9620     2.1380   -30.3450 
   92.3750    60.8490    23.4000     8.5670     6.9500     9.5720     2.1480   -30.8370 
   92.5000    58.4260    23.5990    12.5850     7.5340    10.6160     2.1820   -31.2110 
   92.6250    60.3160    24.0730    23.2390     8.2640    11.9100     2.2440   -31.4360 
   92.7500    62.3870    24.5290    30.9540     8.8530    12.8740     2.3070   -31.5630 
   92.8750    63.2710    24.6980    27.1480     9.0170    12.9730     2.3380   -31.6380 
   93.0000    62.3500    24.4290    15.9100     8.6400    12.0850     2.3190   -31.6800 
   93.1250    62.5050    23.8690     9.3370     7.8730    10.6640     2.2620   -31.7080 
   93.2500    64.9130    23.3890     7.4190     7.1010     9.4310     2.2110   -31.7240 
   93.3750    67.1780    23.1150     7.2410     6.5140     8.6510     2.1860   -31.7430 
   93.5000    67.7950    23.0150     7.3850     6.1760     8.3280     2.1900   -31.7720 
   93.6250    68.1360    23.0800     7.6670     6.0750     8.3420     2.2160   -31.8200 
   93.7500    68.6430    23.1990     7.9820     6.0860     8.4530     2.2360   -31.8870 
   93.8750    67.2220    23.2200     8.1490     6.1410     8.5650     2.2310   -31.9580 
   94.0000    65.0800    23.1270     8.1580     6.2110     8.6650     2.2050   -32.0460 
   94.1250    65.9540    23.0920     8.0710     6.2930     8.7790     2.1810   -32.1460 
   94.2500    67.1430    23.1270     7.9450     6.3870     8.9180     2.1760   -32.2600 
   94.3750    66.1860    23.1330     7.9330     6.4840     9.0680     2.1860   -32.3790 
   94.5000    64.1940    23.0910     8.2580     6.5710     9.2010     2.2000   -32.4850 
   94.6250    63.2870    23.0650     8.9250     6.6190     9.2630     2.2030   -32.5590 
   94.7500    64.5540    23.0650     9.4830     6.6090     9.2290     2.1950   -32.6050 
   94.8750    66.9660    23.0770     9.6470     6.5340     9.0870     2.1840   -32.6060 
   95.0000    68.3680    23.1000     9.3550     6.4030     8.8550     2.1770   -32.5390 
   95.1250    68.5620    23.0390     8.5800     6.2350     8.5710     2.1810   -32.3860 
   95.2500    68.8210    22.8610     7.6730     6.0730     8.3170     2.1860   -32.1680 
   95.3750    68.5710    22.7080     7.0350     5.9690     8.1920     2.1820   -31.8910 
   95.5000    65.7030    22.7520     6.8340     5.9830     8.2980     2.1760   -31.5330 
   95.6250    63.1760    22.9840     6.9270     6.1760     8.7310     2.1970   -31.0970 
   95.7500    65.3330    23.2000     7.3910     6.4910     9.3530     2.2630   -30.6090 
   95.8750    68.6690    23.3970     8.5300     6.8210     9.9490     2.3600   -30.1100 
   96.0000    69.8710    23.6830     9.8560     7.0170    10.2260     2.4430   -29.6500 
   96.1250    70.1440    24.0410     9.7980     6.9100     9.8970     2.4510   -29.2980 
   96.2500    71.0970    24.2200     8.4200     6.5660     9.1790     2.3910   -29.0640 
   96.3750    71.9830    24.0900     7.0160     6.1260     8.3950     2.3020   -28.9320 
   96.5000    71.2490    23.7840     6.5130     5.7380     7.8210     2.2230   -28.9030 
   96.6250    69.7220    23.5520     6.7100     5.5160     7.6100     2.1810   -28.9750 
   96.7500    68.8500    23.4440     6.8390     5.4300     7.6240     2.1680   -29.1010 
   96.8750    68.3450    23.4040     6.7190     5.4160     7.6880     2.1680   -29.2480 
   97.0000    69.0690    23.4150     6.4600     5.3930     7.6390     2.1710   -29.4010 
   97.1250    72.3480    23.5190     6.1790     5.3130     7.4160     2.1810   -29.5290 
   97.2500    75.4630    23.7090     5.8970     5.2130     7.1560     2.2040   -29.6230 
   97.3750    75.5700    23.8850     5.6910     5.1420     6.9820     2.2280   -29.6910 
   97.5000    72.5630    23.9110     5.7250     5.1350     6.9630     2.2350   -29.7380 
   97.6250    69.4270    23.7800     6.0650     5.2050     7.1030     2.2180   -29.7380 
   97.7500    69.0020    23.6830     6.3770     5.3030     7.2900     2.1960   -29.6590 
   97.8750    72.7620    23.6960     6.3960     5.3730     7.4000     2.1860   -29.4750 
   98.0000    79.7920    23.7680     6.2070     5.3490     7.3200     2.1900   -29.1420 
   98.1250    84.5560    23.8170     6.1730     5.1610     6.9480     2.2030   -28.6080 
   98.2500    85.3450    23.8450     6.2030     4.8420     6.3750     2.2210   -27.9120 
   98.3750    84.4010    23.9340     5.8870     4.4560     5.7270     2.2440   -27.0930 
   98.5000    83.0180    24.1780     5.1180     4.0830     5.1540     2.2690   -26.2090 
   98.6250    83.2340    24.5430     4.3590     3.8250     4.8240     2.2810   -25.3480 
   98.7500    85.6940    24.8150     4.0470     3.7070     4.7520     2.2750   -24.6110 
   98.8750    88.6280    24.8420     4.2170     3.7260     4.9030     2.2550   -24.0650 
   99.0000    89.1150    24.5890     4.7240     3.8440     5.1740     2.2370   -23.7450 
   99.1250    84.9200    24.1980     5.2230     4.0000     5.4110     2.2400   -23.7030 
   99.2500    80.3520    23.9730     5.3310     4.1370     5.5340     2.2570   -23.8790 
   99.3750    78.2950    24.0410     5.0410     4.2580     5.5940     2.2730   -24.2300 
   99.5000    79.0240    24.2510     4.7490     4.4100     5.7320     2.2760   -24.7160 
   99.6250    77.7410    24.2490     5.0150     4.6800     6.1340     2.2600   -25.2800 
   99.7500    72.9250    23.9960     5.7530     5.0740     6.7890     2.2320   -25.7990 
   99.8750    68.7580    23.6950     6.5090     5.5300     7.5450     2.2030   -26.1910 
