~V
VERS. 2.00: Ver 2.00
~W
STRT.M 50.0000:
STOP.M 235.0000:
STEP.M 0.1250:
NULL. -999.2500:
UWI. DF33017:
~C
DEPT.M :
GR.API :
CALI.CM :
RXO.OHMM :
RI. :
RML.OHMM :
DEN.GM/CC :
SP.MV :
~A
# ...
  218.7500    79.3920    24.1970     7.7430     7.7060     8.7370     2.4440   -19.8370 
  218.8750    79.9220    24.2060     7.8540     7.6720     8.7020     2.4350   -19.8490 
  219.0000    79.6590    24.2420     7.7740     7.6540     8.6840     2.4360   -19.8740 
  219.1250    77.7920    24.3180     7.0590     7.6080     8.6350     2.4450   -19.9130 
  219.2500    77.1620    24.3860     6.2900     7.5170     8.5410     2.4490   -19.9650 
  219.3750    78.2900    24.4200     6.1170     7.3820     8.4000     2.4380   -20.0490 
  219.5000    78.7140    24.4460     6.5790     7.1930     8.2040     2.4170   -20.1300 
  219.6250    77.1690    24.4930     7.2700     6.9440     7.9440     2.4060   -20.2200 
  219.7500    75.7740    24.5020     7.6610     6.6820     7.6720     2.4030   -20.3370 
  219.8750    75.6220    24.4550     7.5200     6.4490     7.4300     2.3950   -20.3770 
  220.0000    76.1760    24.3320     6.9970     6.2620     7.2350     2.3780   -20.4230 
  220.1250    77.3150    24.2460     6.5560     6.1520     7.1200     2.3640   -20.4590 
  220.2500    78.2530    24.2370     6.5370     6.1400     7.1080     2.3590   -20.4960 
  220.3750    77.1620    24.2920     6.7140     6.2200     7.1920     2.3600   -20.5330 
  220.5000    74.6590    24.3190     6.8110     6.3470     7.3230     2.3660   -20.5390 
  220.6250    73.2160    24.3180     6.7160     6.4870     7.4690     2.3770   -20.5510 
  220.7500    73.3680    24.3080     6.5960     6.6360     7.6240     2.3890   -20.5230 
  220.8750    73.8220    24.3090     6.5860     6.7820     7.7760     2.3980   -20.5050 
  221.0000    74.6760    24.3300     6.6820     6.8890     7.8870     2.4030   -20.4840 
  221.1250    75.9210    24.3470     6.7450     6.8970     7.8960     2.4060   -20.4930 
  221.2500    76.7830    24.3240     6.7010     6.8160     7.8120     2.4090   -20.4620 
  221.3750    77.7870    24.3050     6.5550     6.6890     7.6800     2.4160   -20.4460 
  221.5000    78.6100    24.2920     6.3860     6.5870     7.5730     2.4240   -20.3920 
  221.6250    77.1700    24.3280     6.3080     6.5470     7.5320     2.4240   -20.3510 
  221.7500    73.7890    24.3420     6.2970     6.5040     7.4870     2.4190   -20.2730 
  221.8750    70.3910    24.3200     6.2870     6.4280     7.4080     2.4160   -20.1680 
  222.0000    68.5760    24.2590     6.2770     6.3670     7.3440     2.4220   -20.0870 
  222.1250    68.7080    24.2060     6.3370     6.4190     7.3980     2.4310   -19.9320 
  222.2500    70.2300    24.1080     6.4260     6.5620     7.5470     2.4300   -19.7580 
  222.3750    70.9800    24.0170     6.6020     6.7280     7.7200     2.4170   -19.6020 
  222.5000    69.8250    23.9990     7.0120     6.8810     7.8800     2.4080   -19.5020 
  222.6250    67.7300    24.0440     7.5960     7.0400     8.0450     2.4280   -19.3220 
  222.7500    66.5160    24.1570     8.1350     7.2090     8.2210     2.4660   -19.1480 
  222.8750    67.4640    24.2220     8.5940     7.3450     8.3620     2.4960   -18.9970 
  223.0000    70.3910    24.2730     9.0820     7.3950     8.4140     2.5100   -18.8120 
  223.1250    71.9570    24.3090     9.2940     7.3240     8.3400     2.5160   -18.6740 
  223.2500    70.7080    24.3150     9.0270     7.1800     8.1900     2.5190   -18.5620 
  223.3750    68.6830    24.3150     8.4460     7.0260     8.0310     2.5160   -18.4650 
  223.5000    67.8910    24.3140     7.8650     6.9360     7.9360     2.5050   -18.3670 
  223.6250    68.0130    24.3140     7.4830     6.9950     7.9980     2.5000   -18.2630 
  223.7500    68.9500    24.3080     7.5620     7.2160     8.2270     2.5030   -18.1930 
  223.8750    70.4130    24.2910     7.9500     7.5800     8.6060     2.5060   -18.1550 
  224.0000    70.6810    24.2700     8.2360     8.0040     9.0480     2.5040   -18.1170 
  224.1250    68.7450    24.2460     8.2780     8.3040     9.3590     2.5020   -18.0860 
  224.2500    66.9690    24.2280     8.0530     8.3760     9.4350     2.5090   -18.0350 
  224.3750    66.2720    24.2250     7.6440     8.2420     9.2950     2.5230   -17.9140 
  224.5000    67.1080    24.2310     7.3160     8.0020     9.0450     2.5390   -17.8120 
  224.6250    70.6620    24.2320     7.5660     7.7790     8.8140     2.5480   -17.7240 
  224.7500    74.1840    24.2200     8.5140     7.6640     8.6940     2.5450   -17.6110 
  224.8750    73.4570    24.2110     9.7000     7.6920     8.7230     2.5290   -17.5070 
  225.0000    69.3690    24.2070    10.3860     7.8380     8.8750     2.5090   -17.4280 
  225.1250    69.3680    24.2080    10.1260     8.0120     9.0550     2.4960   -17.3620 
  225.2500    69.3680    24.2110     9.6750     8.1000     9.1480     2.4940   -17.3000 
  225.3750    69.3680    24.2140     9.2800     8.0490     9.0940     2.4990   -17.2140 
  225.5000    69.3680    24.2240     9.0280     7.8880     8.9270     2.5090   -17.1350 
  225.6250    69.3680    24.2290     8.7930     7.7510     8.7840     2.5150   -17.1790 
  225.7500    69.3680    24.2310     8.5810     7.7250     8.7570     2.5110   -17.2420 
  225.8750    69.3680    24.2310     8.2840     7.7680     8.8020     2.5050   -17.3270 
  226.0000    69.3680    24.2310     7.8780     7.7890     8.8240     2.5080   -17.4340 
  226.1250    69.3680    24.2310     7.4920     7.7610     8.7950     2.5260   -17.5150 
  226.2500    69.3680    24.2310     7.3120     7.7470     8.7800     2.5380   -17.6200 
  226.3750    69.3680    24.2330     7.3380     7.7640     8.7980     2.5350   -17.7980 
  226.5000    69.3680    24.2430     7.5180     7.7850     8.8200     2.5200   -17.9160 
  226.6250    69.3680    24.2670     7.6310     7.7930     8.8290     2.5080   -18.0040 
  226.7500    69.3680    24.2880     7.6870     7.8240     8.8600     2.5050   -18.1470 
  226.8750    69.3680    24.2950     7.6180     7.8960     8.9350     2.4980   -18.2410 
  227.0000    69.3680    24.2810     7.5160     7.9880     9.0310     2.4770   -18.2760 
  227.1250    69.3680    24.2840     7.5950     8.0690     9.1150     2.4520   -18.3720 
  227.2500    69.3680    24.2720     7.9570     8.1820     9.2330     2.4450   -18.4130 
  227.3750    69.3680    24.2630     8.3360     8.3930     9.4520     2.4620   -18.3990 
  227.5000    69.3680    24.2030     8.5990     8.6840     9.7550     2.4880   -18.4460 
  227.6250    69.3680    24.1290     9.0430     8.8850     9.9640     2.5070   -18.4680 
  227.7500    69.3680    24.0820     9.3700     8.8840     9.9630     2.5230   -18.4280 
  227.8750    69.3680    24.1040     9.4180     8.7420     9.8160     2.5350   -18.3470 
  228.0000    69.3680    24.1270     9.3980     8.6010     9.6690     2.5360   -18.3060 
  228.1250    69.3680    24.1670     9.4830     8.5470     9.6120     2.5220   -18.2300 
  228.2500    69.3680    24.3180     9.6400     8.5410     9.6060     2.5060   -18.2150 
  228.3750    69.3680    24.4280     9.7620     8.5470     9.6120     2.4960   -18.2310 
  228.5000    69.3680    24.4030     9.9280     8.5500     9.6160     2.4840   -18.2450 
  228.6250    69.3680    24.3750    10.1860     8.5760     9.6420     2.4680   -18.2800 
  228.7500    69.3680    24.3570    10.4010     8.6340     9.7030     2.4570   -18.3490 
  228.8750    69.3680    24.2810    10.2980     8.6880     9.7590     2.4580   -18.4590 
  229.0000    69.3680    24.1420     9.8540     8.6840     9.7550     2.4670   -18.5500 
  229.1250    69.3680    24.0230     9.4290     8.6260     9.6940     2.4720   -18.6350 
  229.2500    69.3680    23.9730     9.2430     8.5750     9.6420     2.4750   -18.7270 
  229.3750    69.3680    23.9710     9.2270     8.5330     9.5980     2.4770   -18.8050 
  229.5000    69.3680    23.9840     9.3120     8.4790     9.5420     2.4790   -18.8190 
  229.6250    69.3680    23.9730     9.4470     8.4440     9.5060     2.4750   -18.8460 
  229.7500    69.3680    23.9790     9.5630     8.4590     9.5210     2.4590   -18.8790 
  229.8750    69.3680    23.9820     9.6520     8.5100     9.5740     2.4440   -18.8810 
