~V
VERS. 2.00: Ver 2.00
~W
STRT.M 50.0000:
STOP.M 235.0000:
STEP.M 0.1250:
NULL. -999.2500:
UWI. DF33017:
~C
DEPT.M :
GR.API :
CALI.CM :
RXO.OHMM :
RI. :
RML.OHMM :
DEN.GM/CC :
SP.MV :
~A
# ...
  196.2500    97.2570    24.9480     7.1020     6.4280     7.7760     2.4250   -23.6920 
  196.3750    97.2350    24.9580     7.6910     6.9150     8.2870     2.4130   -24.0260 
  196.5000    95.5190    24.9300     8.3680     7.3090     8.8860     2.4140   -24.3820 
  196.6250    91.4730    24.8410     9.0600     7.6640     9.4740     2.4220   -24.7220 
  196.7500    87.6940    24.7370     9.6980     8.0050     9.8640     2.4190   -25.0710 
  196.8750    85.5720    24.6630    10.1850     8.2420     9.9390     2.4090   -25.4160 
  197.0000    86.6020    24.6200    10.5570     8.3000     9.7790     2.4040   -25.7660 
  197.1250    90.4140    24.5670    10.6270     8.3140     9.7580     2.4080   -26.1660 
  197.2500    92.7400    24.4970    10.5070     8.7130    10.3730     2.4110   -26.5930 
  197.3750    93.3080    24.4370    11.0520    10.0450    12.1080     2.4040   -27.0520 
  197.5000    91.0980    24.3610    13.6020    13.0360    15.5120     2.3860   -27.5110 
  197.6250    86.8790    24.2190    22.6410    19.3560    21.9270     2.3470   -28.0280 
  197.7500    80.8540    24.1480    38.3820    30.0890    32.3620     2.2960   -28.5020 
  197.8750    73.5660    24.2640    58.1620    46.3640    48.3600     2.2580   -28.9490 
  198.0000    67.8710    24.4280    78.3350    67.6420    70.4600     2.2590   -29.3530 
  198.1250    67.2740    24.3220    96.6750    89.6910    94.8580     2.3080   -29.7090 
  198.2500    71.1470    24.2840   106.1930   106.9860   113.1460     2.3700   -29.9660 
  198.3750    75.3060    24.3140   106.9150   117.7930   123.7750     2.4130   -30.1510 
  198.5000    74.8610    24.3440   106.1120   122.9100   126.7830     2.4160   -30.2380 
  198.6250    71.5190    24.3130   108.3960   122.9460   125.9000     2.3740   -30.2270 
  198.7500    69.3320    24.4290   109.8030   119.7760   123.9630     2.3140   -30.1950 
  198.8750    69.7520    24.6910   107.7930   114.6890   121.3720     2.2590   -30.1220 
  199.0000    70.8810    24.7410   102.6630   109.0350   118.1740     2.2230   -30.0240 
  199.1250    70.9210    24.6220    94.5570   104.1200   114.6950     2.2180   -29.8560 
  199.2500    72.0520    24.4000    86.7980   100.6570   111.4620     2.2300   -29.6730 
  199.3750    74.7410    24.3080    84.2640    99.0510   105.2420     2.2460   -29.4400 
  199.5000    77.5910    24.3650    89.4420    99.1340   103.8500     2.2580   -29.1890 
  199.6250    77.6950    24.4140    97.9110    99.1680   103.8860     2.2650   -28.8760 
  199.7500    74.8220    24.4290    99.3280    96.0020   100.5920     2.2680   -28.5480 
  199.8750    71.4360    24.4870    93.4260    87.5740    91.8240     2.2650   -28.2020 
  200.0000    69.6370    24.6030    82.4210    74.5630    78.2890     2.2530   -27.8280 
  200.1250    69.8850    24.7740    67.2240    60.4960    63.6550     2.2380   -27.4730 
  200.2500    69.3420    24.6960    48.9610    48.9740    51.6680     2.2240   -27.1240 
  200.3750    67.2310    24.6230    35.4510    41.1320    43.5110     2.2150   -26.8020 
  200.5000    67.4390    24.5790    30.5440    36.6920    38.8910     2.2120   -26.5290 
  200.6250    71.6800    24.5590    30.4440    34.9990    37.1300     2.2210   -26.3170 
  200.7500    74.4700    24.5430    30.9290    34.5620    36.6760     2.2400   -26.1320 
  200.8750    72.9400    24.5240    30.9800    34.6140    36.7300     2.2580   -25.9890 
  201.0000    69.9040    24.4840    30.5770    34.7050    36.8250     2.2600   -25.8700 
  201.1250    69.4670    24.4070    29.8160    34.7920    36.9150     2.2470   -25.7740 
  201.2500    71.7060    24.3320    29.5920    35.0520    37.1860     2.2360   -25.6780 
  201.3750    73.7010    24.2790    30.5000    35.5070    37.6590     2.2320   -25.5730 
  201.5000    74.4150    24.2720    31.9520    35.9160    38.0850     2.2310   -25.4490 
  201.6250    73.7960    24.3300    32.2330    35.7850    37.9480     2.2280   -25.3380 
  201.7500    72.6200    24.4500    30.8860    35.0080    37.1400     2.2260   -25.2140 
  201.8750    72.5300    24.6220    29.4100    33.8440    35.9280     2.2230   -25.0770 
  202.0000    73.0320    24.6730    29.2330    32.7730    34.8150     2.2190   -24.9250 
  202.1250    72.7820    24.7940    29.2760    32.2480    34.2690     2.2160   -24.7540 
  202.2500    71.6220    24.8400    28.1710    32.1340    34.1500     2.2180   -24.6100 
  202.3750    72.3270    24.8590    27.1730    32.1180    34.1330     2.2220   -24.4900 
  202.5000    75.2260    24.8610    27.4310    31.8870    33.8930     2.2240   -24.4000 
  202.6250    75.2430    24.8720    27.7160    31.2580    33.2390     2.2260   -24.3090 
  202.7500    71.8650    24.8820    26.5340    30.3330    32.2760     2.2300   -24.2410 
  202.8750    69.9040    24.8960    25.1020    29.1050    30.9990     2.2320   -24.1930 
  203.0000    70.7400    24.9160    24.6730    27.4780    29.3060     2.2290   -24.1740 
  203.1250    73.2840    24.9460    23.9180    25.3960    27.1400     2.2280   -24.1410 
  203.2500    75.0870    24.9620    21.7280    23.2960    24.9560     2.2380   -24.1100 
  203.3750    76.0420    24.9670    19.7470    21.7500    23.3480     2.2600   -24.1030 
  203.5000    77.1460    24.9670    19.4620    21.2900    22.8690     2.2820   -24.1010 
  203.6250    77.0600    24.9680    21.5480    22.4590    24.0850     2.2950   -24.0980 
  203.7500    74.2010    24.9480    25.2750    24.9360    26.6620     2.3160   -24.1010 
  203.8750    67.8500    24.8550    32.6650    28.2530    30.1120     2.3650   -24.1040 
  204.0000    61.5050    24.6570    43.0290    31.6180    33.6130     2.4450   -24.1380 
  204.1250    60.4810    24.4920    47.6300    33.8690    35.9550     2.5240   -24.2400 
  204.2500    62.9000    24.4120    42.9460    34.6650    36.7830     2.5550   -24.3820 
  204.3750    66.3520    24.3670    35.5120    34.2370    36.3370     2.5180   -24.5010 
  204.5000    69.6050    24.3180    31.2320    33.1220    35.1780     2.4300   -24.6380 
  204.6250    73.2350    24.2280    29.6960    31.8340    33.8380     2.3400   -24.7800 
  204.7500    76.5180    24.1740    27.9010    30.7380    32.6980     2.2800   -24.9520 
  204.8750    76.4630    24.2980    26.1850    30.0600    31.9920     2.2540   -25.1380 
  205.0000    73.1910    24.3890    25.9190    30.0420    31.9730     2.2480   -25.3150 
  205.1250    70.5590    24.4270    27.4020    31.0600    33.0330     2.2490   -25.4550 
  205.2500    70.0510    24.4220    29.1880    32.9140    34.9610     2.2460   -25.5830 
  205.3750    70.6240    24.4260    30.7130    35.1780    37.3170     2.2400   -25.7340 
  205.5000    71.9920    24.4300    31.8780    37.2470    39.4690     2.2350   -25.8880 
  205.6250    73.7550    24.4520    32.8060    38.5880    40.8640     2.2330   -26.0560 
  205.7500    73.2860    24.4950    33.6560    39.4320    41.7430     2.2350   -26.1870 
  205.8750    71.2520    24.5350    34.2760    40.1930    42.5330     2.2400   -26.3180 
  206.0000    70.8440    24.5530    34.5480    41.1520    43.5320     2.2510   -26.4430 
  206.1250    71.6840    24.5340    34.7530    42.2220    44.6450     2.2650   -26.6050 
  206.2500    71.3390    24.4850    35.1680    43.0120    45.4660     2.2710   -26.7700 
  206.3750    70.1110    24.4300    35.5970    43.3140    45.7800     2.2620   -26.9390 
  206.5000    68.9180    24.4100    35.7810    43.2420    45.7060     2.2430   -27.1270 
  206.6250    68.4410    24.4210    35.6180    43.1790    45.6410     2.2290   -27.3190 
  206.7500    69.1260    24.4260    35.2910    43.3620    45.8310     2.2250   -27.5570 
  206.8750    70.0270    24.4270    34.7660    43.6630    46.1430     2.2310   -27.8080 
  207.0000    70.1620    24.4270    34.0980    43.7550    46.2400     2.2410   -28.1150 
  207.1250    69.8720    24.4270    33.7990    43.3060    45.7720     2.2460   -28.4200 
  207.2500    70.1160    24.4270    34.1300    42.5050    44.9390     2.2440   -28.7890 
  207.3750    70.3250    24.4270    34.6320    41.7020    44.1040     2.2390   -29.1990 
