~V
VERS. 2.00: Ver 2.00
~W
STRT.M 60.0000:
STOP.M 236.0000:
STEP.M 0.1250:
NULL. -999.2500:
UWI. DF33015:
~C
DEPT.M :
DEN.GM/CC :
GR.API :
RML.OHMM :
RI. :
RXO.OHMM :
CALI.CM :
SP.MV :
~A
# ...
  183.7500     2.4200    51.9140     7.8300     6.0060     6.1460    24.8430   -15.8710 
  183.8750     2.4360    55.5670     7.8140     6.0150     6.1940    24.8170   -16.2480 
  184.0000     2.4500    61.0290     7.8480     6.0530     6.1980    24.8030   -16.6890 
  184.1250     2.4510    66.1890     8.0030     6.1590     6.2590    24.7950   -17.3080 
  184.2500     2.4410    68.3290     8.2760     6.3370     6.4730    24.8440   -17.9550 
  184.3750     2.4240    70.0560     8.6290     6.5780     6.9730    24.9600   -18.6980 
  184.5000     2.4080    74.2530     8.9990     6.8510     7.7480    25.1300   -19.4050 
  184.6250     2.3960    78.2660     9.3050     7.1060     8.3740    25.3180   -20.1780 
  184.7500     2.3880    80.6780     9.5180     7.3040     8.5310    25.4330   -20.9490 
  184.8750     2.3810    82.6780     9.6520     7.4300     8.4340    25.4830   -21.7010 
  185.0000     2.3750    85.7170     9.7470     7.4960     8.4670    25.4900   -22.4260 
  185.1250     2.3730    88.1840     9.8400     7.5240     8.7010    25.4310   -23.0470 
  185.2500     2.3770    89.0350     9.9350     7.5410     8.9920    25.2720   -23.7320 
  185.3750     2.3820    88.5060     9.9990     7.5410     9.4050    25.0400   -24.2840 
  185.5000     2.3840    86.7300     9.9930     7.5030     9.8810    24.8420   -24.8860 
  185.6250     2.3760    85.4420     9.8800     7.4040     9.8130    24.7950   -25.4080 
  185.7500     2.3580    84.8130     9.7030     7.2690     9.0330    24.8520   -25.9290 
  185.8750     2.3400    83.8800     9.5300     7.1440     8.1850    24.9680   -26.4560 
  186.0000     2.3260    83.1910     9.4400     7.0880     8.0360    25.0490   -26.9610 
  186.1250     2.3250    82.8520     9.5470     7.1810     8.8910    24.9680   -27.4780 
  186.2500     2.3310    82.0170     9.8640     7.4320    10.2410    24.7110   -27.8520 
  186.3750     2.3420    81.3310    10.3760     7.8370    11.6870    24.4030   -28.2490 
  186.5000     2.3540    80.7470    11.0200     8.3660    12.9450    24.1590   -28.5050 
  186.6250     2.3650    80.3360    11.6950     8.9630    13.7850    24.0460   -28.6240 
  186.7500     2.3750    80.1830    12.2900     9.5320    14.4960    24.0120   -28.5330 
  186.8750     2.3850    79.0940    12.7290     9.9920    15.3170    24.0040   -28.2490 
  187.0000     2.3960    75.6410    12.9630    10.2750    15.8240    23.9910   -27.7540 
  187.1250     2.4080    73.3010    12.9290    10.2950    15.0490    23.9500   -27.0840 
  187.2500     2.4210    75.8440    12.6670    10.0890    13.8090    23.9090   -26.2680 
  187.3750     2.4360    79.4450    12.2140     9.6930    12.6860    23.9120   -25.3510 
  187.5000     2.4510    79.3440    11.6290     9.1640    11.5170    23.9930   -24.3550 
  187.6250     2.4590    80.3110    10.9790     8.5630    10.2100    24.1860   -23.3810 
  187.7500     2.4590    86.5120    10.3450     7.9690     9.1730    24.5020   -22.5210 
  187.8750     2.4480    92.8110     9.7800     7.4390     8.4670    24.8600   -21.7010 
  188.0000     2.4270    92.9310     9.3390     7.0310     7.7980    25.2000   -21.0650 
  188.1250     2.3930    88.0750     9.1220     6.8300     7.1960    25.4060   -20.4580 
  188.2500     2.3520    84.1060     9.1620     6.8490     7.1290    25.4790   -20.0730 
  188.3750     2.3120    83.0370     9.4770     7.0980     7.6000    25.5070   -19.7390 
  188.5000     2.2860    83.8310    10.0080     7.5420     8.2210    25.5700   -19.5150 
  188.6250     2.2870    83.3100    10.5880     8.0960     8.8110    25.6210   -19.2950 
  188.7500     2.3090    82.9150    10.9750     8.5820     9.5470    25.5010   -18.9470 
  188.8750     2.3410    82.7150    11.0010     8.8490    10.2600    25.3780   -18.5400 
  189.0000     2.3670    81.1300    10.6070     8.7950    10.3770    25.4430   -17.9090 
  189.1250     2.3780    76.9990     9.8480     8.3660     9.3920    25.5560   -17.1830 
  189.2500     2.3830    73.1750     8.9970     7.7330     7.9370    25.4840   -16.2160 
  189.3750     2.3870    70.3540     8.2390     7.0430     6.6320    25.2830   -15.1930 
  189.5000     2.3940    65.3880     7.6860     6.4270     5.7810    25.0520   -14.0890 
  189.6250     2.4020    59.5290     7.4000     6.0080     5.4170    24.8520   -13.0300 
  189.7500     2.4100    60.2330     7.2930     5.7920     5.2590    24.7600   -12.0960 
  189.8750     2.4200    67.5080     7.3120     5.7670     5.2150    24.7570   -11.3080 
  190.0000     2.4310    74.0270     7.4170     5.8880     5.3070    24.7920   -10.7070 
  190.1250     2.4410    73.7720     7.5910     6.0990     5.5670    24.8290   -10.3380 
  190.2500     2.4470    72.7350     7.7790     6.3140     5.8620    24.8750   -10.1370 
  190.3750     2.4480    73.8000     7.9260     6.4850     6.0470    24.9120   -10.0540 
  190.5000     2.4470    74.6800     7.9780     6.5830     6.1420    24.9430   -10.0790 
  190.6250     2.4430    75.3430     7.8840     6.5860     6.2570    24.9800   -10.1470 
  190.7500     2.4380    76.6800     7.6750     6.5120     6.3640    25.0150   -10.2950 
  190.8750     2.4320    76.6970     7.3840     6.3700     6.4130    25.0300   -10.4520 
  191.0000     2.4230    75.2380     7.0500     6.1780     6.4110    25.0230   -10.6890 
  191.1250     2.4140    75.2160     6.7390     5.9660     6.2650    24.9970   -10.8700 
  191.2500     2.4080    76.7820     6.5250     5.7900     6.0110    24.9620   -11.1990 
  191.3750     2.4060    77.1240     6.4730     5.7030     5.8660    24.9470   -11.5310 
  191.5000     2.4090    76.4550     6.6150     5.7540     6.0610    24.9440   -11.9770 
  191.6250     2.4160    77.1940     6.9650     5.9840     6.6970    24.9440   -12.4620 
  191.7500     2.4230    78.8350     7.4230     6.3390     7.4670    24.9440   -12.9260 
  191.8750     2.4270    80.2090     7.8920     6.7550     8.0390    24.9440   -13.4260 
  192.0000     2.4280    80.9000     8.2710     7.1470     8.2570    24.9330   -13.8510 
  192.1250     2.4240    81.8280     8.4660     7.4160     8.2840    24.7970   -14.3560 
  192.2500     2.4190    82.1420     8.5150     7.5450     8.3400    24.4510   -14.7360 
  192.3750     2.4130    80.6740     8.4900     7.5540     8.3640    24.0180   -15.1340 
  192.5000     2.4090    78.8090     8.4650     7.4970     8.2420    23.7800   -15.4190 
  192.6250     2.4090    77.9670     8.4850     7.4440     8.1020    23.7630   -15.6980 
  192.7500     2.4120    78.5640     8.5440     7.4560     8.2090    23.7340   -15.9680 
  192.8750     2.4190    81.2740     8.6600     7.5700     8.6950    23.8030   -16.2250 
  193.0000     2.4250    84.6720     8.9230     7.8280     9.6210    24.0960   -16.5180 
  193.1250     2.4270    84.1330     9.4700     8.3490    11.1030    24.5660   -16.8260 
  193.2500     2.4280    79.7440    10.3190     9.3080    12.8630    24.8960   -17.1430 
  193.3750     2.4290    77.1630    11.9870    11.1450    15.1700    25.0450   -17.4880 
  193.5000     2.4310    77.0140    15.1630    14.6720    20.6460    25.0470   -17.8850 
  193.6250     2.4270    72.4290    22.6190    21.6640    37.1860    24.9870   -18.3080 
  193.7500     2.4100    64.8160    34.8430    32.6410    69.2420    24.9120   -18.7850 
  193.8750     2.3730    60.3520    52.4030    47.4590    99.7060    24.8910   -19.2440 
  194.0000     2.3200    60.6490    73.7820    64.5420   104.9060    24.9690   -19.7400 
  194.1250     2.2710    60.5690    91.7170    80.3920   105.2660    25.1360   -20.0900 
  194.2500     2.2450    58.4780   104.1860    91.8900   105.6240    25.2550   -20.5000 
  194.3750     2.2500    58.1410   109.5520    97.8660   102.7360    25.3030   -20.8150 
  194.5000     2.2760    59.8310   108.8570    98.8990    99.3290    25.2710   -21.1010 
  194.6250     2.3010    60.7330   103.1180    95.4070    96.6060    25.1730   -21.3230 
  194.7500     2.3090    59.2830    93.9510    88.5830    96.5100    25.0960   -21.4550 
  194.8750     2.3020    58.0650    82.7730    79.2800    97.3410    25.0850   -21.5970 
