~V
VERS. 2.00: Ver 2.00
~W
STRT.M 60.0000:
STOP.M 233.0000:
STEP.M 0.1250:
NULL. -999.2500:
UWI. DF33019:
~C
DEPT.M :
GR.API :
RML.OHMM :
RI. :
RXO.OHMM :
CALI.CM :
DEN.GM/CC :
SP.MV :
~A
# ...
   82.5000    72.3820    20.0840    14.1430    26.5470    22.7130     2.5630   -27.4170 
   82.6250    67.7760    21.1150    15.4180    36.9410    22.7440     2.5800   -28.2530 
   82.7500    65.7540    19.1310    14.9120    38.1240    22.7600     2.5310   -28.9700 
   82.8750    64.3000    15.3280    13.0120    27.9870    22.7650     2.4360   -29.5780 
   83.0000    62.0840    11.6530    10.7080    15.7620    22.7650     2.3310   -30.0720 
   83.1250    61.0300     9.4030     8.9380    10.1900    22.7650     2.2500   -30.4110 
   83.2500    62.8610     8.3240     7.8560     8.5140    22.7240     2.1980   -30.6030 
   83.3750    65.7350     8.0520     7.3540     8.0990    22.6750     2.1730   -30.6490 
   83.5000    66.4650     8.2310     7.2420     7.9300    22.6670     2.1650   -30.6090 
   83.6250    64.4890     8.5590     7.3360     7.8440    22.6670     2.1660   -30.4290 
   83.7500    63.7420     8.8130     7.4490     7.8100    22.6670     2.1690   -30.2730 
   83.8750    66.0030     8.9310     7.5080     7.7890    22.6670     2.1730   -30.0950 
   84.0000    69.7620     8.9200     7.4890     7.7290    22.6670     2.1760   -29.8950 
   84.1250    70.5560     8.8070     7.3940     7.4960    22.6610     2.1780   -29.6870 
   84.2500    69.1790     8.6500     7.2590     7.2100    22.6260     2.1770   -29.4950 
   84.3750    68.9050     8.4790     7.1070     7.0360    22.5600     2.1730   -29.3490 
   84.5000    71.3640     8.3170     6.9570     6.9980    22.5330     2.1690   -29.1930 
   84.6250    74.9420     8.1950     6.8300     6.9860    22.5110     2.1670   -29.0800 
   84.7500    77.0740     8.1250     6.7360     6.9520    22.4740     2.1700   -28.9980 
   84.8750    76.3400     8.1160     6.6810     6.8760    22.4680     2.1770   -28.9430 
   85.0000    74.1210     8.1650     6.6660     6.7650    22.4670     2.1860   -28.9240 
   85.1250    74.6620     8.2550     6.6820     6.7170    22.4670     2.1910   -28.9030 
   85.2500    77.8460     8.3440     6.7040     6.7600    22.4670     2.1900   -28.9060 
   85.3750    78.2480     8.4080     6.7120     6.8940    22.4670     2.1850   -28.8730 
   85.5000    73.8370     8.4400     6.6920     6.9660    22.4730     2.1770   -28.8760 
   85.6250    69.7350     8.4610     6.6420     6.8290    22.5110     2.1690   -28.8920 
   85.7500    70.8780     8.5120     6.5820     6.6540    22.5950     2.1640   -28.9210 
   85.8750    77.1330     8.6130     6.5290     6.5480    22.6520     2.1620   -28.9690 
   86.0000    84.2920     8.7430     6.4840     6.5460    22.7230     2.1620   -29.0340 
   86.1250    87.1090     8.8090     6.4290     6.6380    22.7530     2.1610   -29.1350 
   86.2500    84.8870     8.7180     6.3350     6.6940    22.7930     2.1580   -29.2330 
   86.3750    81.1270     8.4270     6.1910     6.6930    22.8020     2.1500   -29.3670 
   86.5000    78.7780     8.0030     6.0250     6.7210    22.8110     2.1370   -29.4800 
   86.6250    77.4470     7.7570     5.9700     6.8570    22.8600     2.1200   -29.6280 
   86.7500    76.6810     8.1030     6.2200     6.9960    22.8810     2.1090   -29.7360 
   86.8750    76.5570     9.3780     6.9680     7.0700    22.9610     2.1140   -29.8130 
   87.0000    74.9430    11.6480     8.3020     7.8040    22.9770     2.1530   -29.8890 
   87.1250    70.3850    14.5240    10.1050    11.9360    23.0210     2.2400   -30.0000 
   87.2500    66.4790    16.9150    11.8000    22.3080    23.0950     2.3460   -30.1600 
   87.3750    64.9210    17.7960    12.7850    30.6630    23.0990     2.4320   -30.3390 
   87.5000    63.7300    16.6020    12.6100    27.0100    22.9210     2.4550   -30.5850 
   87.6250    64.3250    13.7230    11.2070    17.9120    22.6520     2.3980   -30.7920 
   87.7500    68.4410    10.8390     9.4350    11.9890    22.4830     2.3080   -31.0210 
   87.8750    72.1980     8.7860     7.8960     8.5390    22.4320     2.2240   -31.2360 
   88.0000    70.9700     7.7150     6.8670     7.2470    22.4190     2.1680   -31.4330 
   88.1250    65.9170     7.5090     6.4220     7.0920    22.3990     2.1460   -31.5730 
   88.2500    62.9080     7.7230     6.3300     7.1660    22.3720     2.1450   -31.6470 
   88.3750    62.5930     8.1130     6.4410     7.3070    22.3580     2.1530   -31.6470 
   88.5000    61.9290     8.5010     6.6270     7.4870    22.3550     2.1620   -31.5860 
   88.6250    60.2240     8.7550     6.7860     7.6910    22.3550     2.1650   -31.5290 
   88.7500    62.6080     8.8680     6.8770     7.8360    22.3550     2.1600   -31.4300 
   88.8750    68.4890     8.8660     6.9000     7.6890    22.3550     2.1480   -31.3450 
   89.0000    70.9100     8.7980     6.8750     7.2900    22.3620     2.1340   -31.2440 
   89.1250    65.6530     8.7220     6.8280     7.0120    22.3910     2.1210   -31.1580 
   89.2500    60.8750     8.6780     6.7870     6.9270    22.4440     2.1100   -31.0700 
   89.3750    61.7490     8.6740     6.7600     7.0870    22.5110     2.1030   -31.0410 
   89.5000    65.3650     8.7000     6.7490     7.3320    22.6140     2.0980   -31.0490 
   89.6250    68.0180     8.7380     6.7500     7.3570    22.7210     2.0960   -31.0030 
   89.7500    70.1960     8.7700     6.7570     7.2860    22.7490     2.0970   -31.0030 
   89.8750    71.1020     8.7910     6.7660     7.2060    22.7090     2.1010   -30.9940 
   90.0000    70.8320     8.8010     6.7710     7.1120    22.6690     2.1070   -30.9750 
   90.1250    70.3740     8.7980     6.7690     7.0770    22.6540     2.1120   -30.9370 
   90.2500    69.8160     8.7890     6.7590     7.0730    22.6430     2.1160   -30.9170 
   90.3750    67.7880     8.7790     6.7450     7.0790    22.6330     2.1200   -30.8880 
   90.5000    66.7940     8.7770     6.7350     7.0650    22.6280     2.1260   -30.7980 
   90.6250    69.5020     8.8090     6.7420     7.0910    22.6290     2.1360   -30.7800 
   90.7500    72.8190     8.8840     6.7760     7.1680    22.6410     2.1480   -30.7190 
   90.8750    74.0660     8.9990     6.8370     7.2250    22.6940     2.1590   -30.6670 
   91.0000    72.4490     9.1300     6.9150     7.3490    22.8350     2.1640   -30.5910 
   91.1250    68.2720     9.2300     6.9810     7.5600    23.1000     2.1580   -30.5300 
   91.2500    64.3020     9.2680     7.0120     7.7510    23.3750     2.1400   -30.4020 
   91.3750    63.9530     9.2460     6.9980     7.6340    23.5060     2.1160   -30.2370 
   91.5000    67.7760     9.1900     6.9510     7.1930    23.4110     2.0940   -30.0540 
   91.6250    71.3500     9.1400     6.9000     6.8610    23.1290     2.0890   -29.8460 
   91.7500    72.5400     9.1010     6.8670     6.7790    22.9660     2.1010   -29.5960 
   91.8750    70.3600     9.0380     6.8520     6.8560    22.9100     2.1270   -29.3090 
   92.0000    67.3390     8.9060     6.8350     6.9790    22.9020     2.1560   -28.9980 
   92.1250    67.3160     8.6840     6.7860     7.1570    22.9050     2.1730   -28.5930 
   92.2500    68.5240     8.4770     6.7260     7.2470    22.9190     2.1760   -28.1580 
   92.3750    67.2020     8.4460     6.7220     7.0770    22.9590     2.1690   -27.6730 
   92.5000    62.8000     8.7380     6.8530     6.8380    23.0410     2.1640   -27.1540 
   92.6250    60.6140     9.3960     7.1700     6.9990    23.2240     2.1790   -26.5880 
   92.7500    62.2970    10.1310     7.5580     7.9340    23.4400     2.2200   -26.0650 
   92.8750    65.0450    10.5970     7.8550    10.6340    23.6050     2.2820   -25.6100 
   93.0000    68.5040    10.4770     7.8880    15.6510    23.6670     2.3440   -25.2620 
   93.1250    75.8540     9.5840     7.5170    14.9710    23.6080     2.3780   -25.0300 
   93.2500    83.8280     8.3560     6.9060     9.0170    23.4990     2.3810   -24.9630 
   93.3750    87.4240     7.2590     6.2710     6.3420    23.4260     2.3650   -25.0340 
   93.5000    86.6140     6.6480     5.8220     5.7690    23.3470     2.3490   -25.2500 
   93.6250    85.4350     6.7460     5.7420     5.7470    23.2400     2.3460   -25.5980 
