~V
VERS. 2.00: Ver 2.00
~W
STRT.M 60.0000:
STOP.M 268.0000:
STEP.M 0.1250:
NULL. -999.2500:
UWI. DF33031:
~C
DEPT.M :
SP.MV :
GR.API :
CALI.CM :
RXO.OHMM :
RI. :
RML.OHMM :
DEN.GM/CC :
~A
# ...
  116.2500   -31.5920    74.3030    22.9170     9.3030     7.2550    10.0600     2.2080 
  116.3750   -31.3970    75.1580    22.9150     9.3440     7.1940    10.0760     2.2070 
  116.5000   -31.1650    76.8820    22.9210     9.1530     7.0520     9.9740     2.1940 
  116.6250   -30.8900    75.7690    22.9500     8.7850     6.8600     9.7590     2.1750 
  116.7500   -30.6590    74.1180    22.9700     8.4200     6.6580     9.4870     2.1620 
  116.8750   -30.4730    76.7410    22.9770     8.1780     6.4730     9.2030     2.1580 
  117.0000   -30.3660    82.7010    22.9770     8.0720     6.3280     8.9740     2.1570 
  117.1250   -30.3080    85.6340    22.9770     8.0150     6.2510     8.8990     2.1510 
  117.2500   -30.2410    84.0900    22.9770     8.0470     6.2480     8.9900     2.1430 
  117.3750   -30.1830    80.1200    22.9770     8.1140     6.3260     9.2230     2.1410 
  117.5000   -30.1280    78.1190    22.9770     8.1840     6.4870     9.5380     2.1460 
  117.6250   -30.0670    80.4660    22.9770     8.3170     6.7200     9.8450     2.1590 
  117.7500   -29.9690    82.3050    22.9770     8.5450     6.9540    10.0620     2.1760 
  117.8750   -29.8400    80.2990    22.9770     8.8000     7.1160    10.1460     2.1890 
  118.0000   -29.6520    77.8990    22.9770     8.9840     7.1470    10.0930     2.1870 
  118.1250   -29.3870    79.7030    22.9770     9.0200     7.0320     9.9260     2.1730 
  118.2500   -29.0700    80.9500    22.9770     8.9480     6.8930     9.7640     2.1650 
  118.3750   -28.6880    79.9640    22.9770     8.7940     6.8610     9.7480     2.1690 
  118.5000   -28.2130    79.3450    22.9770     8.6620     7.0230     9.9740     2.1820 
  118.6250   -27.6380    82.1500    23.0200     8.8390     7.3560    10.3980     2.2050 
  118.7500   -26.9500    85.1640    23.1270     9.5010     7.6370    10.7160     2.2460 
  118.8750   -26.2120    84.7490    23.2700    10.3570     7.6530    10.6200     2.2960 
  119.0000   -25.4980    81.2720    23.4180    10.3080     7.2860     9.9460     2.3350 
  119.1250   -24.8330    81.3940    23.5830     8.4800     6.5860     8.8380     2.3430 
  119.2500   -24.2140    88.0200    23.7240     6.3910     5.8460     7.7830     2.3280 
  119.3750   -23.6360    96.5140    23.8060     5.3150     5.2410     7.0330     2.3030 
  119.5000   -23.1250    99.7970    23.8340     5.2260     4.8350     6.6420     2.2790 
  119.6250   -22.7070    98.7110    23.8340     5.5150     4.6350     6.5540     2.2720 
  119.7500   -22.4210   100.6320    23.8590     5.5400     4.5270     6.5500     2.2850 
  119.8750   -22.2530   107.0650    23.9550     5.2350     4.4250     6.4810     2.3070 
  120.0000   -22.1310   113.8420    24.1450     4.8450     4.2830     6.2850     2.3210 
  120.1250   -22.0990   117.4000    24.2360     4.6470     4.1120     6.0120     2.3180 
  120.2500   -22.1280   117.2270    24.2650     4.5710     3.9730     5.7800     2.3100 
  120.3750   -22.2990   115.6190    24.2650     4.5960     3.9120     5.6530     2.3100 
  120.5000   -22.6070   114.5350    24.2470     4.7170     3.9630     5.6580     2.3210 
  120.6250   -23.0050   112.8090    24.1470     4.8950     4.1330     5.7950     2.3310 
  120.7500   -23.4390   107.8030    23.8630     5.1740     4.3570     6.0230     2.3220 
  120.8750   -23.8650    99.2610    23.3710     5.5820     4.6030     6.3360     2.2910 
  121.0000   -24.2230    90.6420    22.7930     6.0820     4.8700     6.7300     2.2590 
  121.1250   -24.4550    84.3890    22.5610     6.6430     5.2020     7.2220     2.2550 
  121.2500   -24.6320    79.7130    22.5790     7.4140     5.6080     7.7860     2.2730 
  121.3750   -24.7030    77.8070    22.7530     8.6290     6.0320     8.3530     2.2880 
  121.5000   -24.6500    76.9180    22.8910     9.3970     6.3550     8.7630     2.2880 
  121.6250   -24.4660    77.4200    22.9870     9.1300     6.4150     8.7570     2.2810 
  121.7500   -24.2200    79.6230    23.1190     8.1820     6.2390     8.3610     2.2780 
  121.8750   -23.9380    81.2090    23.2720     7.1770     5.9110     7.7250     2.2820 
  122.0000   -23.6680    80.9900    23.3540     6.2620     5.5290     7.0760     2.2870 
  122.1250   -23.4550    81.5060    23.3740     5.8110     5.1710     6.6220     2.2840 
  122.2500   -23.2440    84.5210    23.3980     5.6840     4.8600     6.3440     2.2720 
  122.3750   -23.0340    85.3300    23.4990     5.5920     4.6030     6.1570     2.2620 
  122.5000   -22.8690    82.5630    23.8040     5.3160     4.4100     5.9990     2.2650 
  122.6250   -22.8610    84.3550    24.3330     4.9290     4.3000     5.8990     2.2770 
  122.7500   -22.9390    89.9530    24.7920     4.7660     4.2610     5.9020     2.2830 
  122.8750   -23.0900    92.1520    24.7320     4.9280     4.2730     6.0040     2.2850 
  123.0000   -23.3140    87.2980    24.2540     5.2420     4.2920     6.1110     2.2910 
  123.1250   -23.5570    82.0360    23.9020     5.4520     4.2290     6.0350     2.3030 
  123.2500   -23.8850    81.8890    23.8460     5.3000     4.0630     5.7420     2.3160 
  123.3750   -24.2990    85.2650    23.9680     4.8400     3.8540     5.3600     2.3290 
  123.5000   -24.8150    89.9540    24.1080     4.4920     3.7340     5.1270     2.3440 
  123.6250   -25.4310    92.4850    24.1460     4.7490     3.9080     5.3490     2.3720 
  123.7500   -26.1260    90.7940    24.0950     5.5910     4.4300     6.0740     2.4110 
  123.8750   -26.8490    85.6320    23.9770     6.8670     5.2860     7.2600     2.4470 
  124.0000   -27.5660    80.4760    23.7730     8.7130     6.3430     8.6990     2.4550 
  124.1250   -28.3160    76.7390    23.5150    10.1150     7.2870     9.8960     2.4160 
  124.2500   -29.0450    72.7250    23.0650    10.2330     7.8410    10.4840     2.3600 
  124.3750   -29.7330    70.4590    22.5460     9.6370     7.9620    10.4800     2.3140 
  124.5000   -30.3290    74.3700    22.2570     9.3320     7.8050    10.1830     2.2930 
  124.6250   -30.7820    84.8180    22.2050     9.2510     7.5950     9.9130     2.2880 
  124.7500   -31.1100    92.0960    22.2180     8.9800     7.4720     9.7910     2.2760 
  124.8750   -31.3370    89.9950    22.2320     8.7340     7.4450     9.7950     2.2530 
  125.0000   -31.5000    81.8410    22.2440     8.8660     7.4610     9.8440     2.2340 
  125.1250   -31.5630    76.2390    22.2710     9.4080     7.4470     9.8220     2.2300 
  125.2500   -31.5890    74.5770    22.3180     9.6460     7.3710     9.6850     2.2310 
  125.3750   -31.5920    72.8960    22.3750     9.3480     7.2460     9.4660     2.2250 
  125.5000   -31.5550    69.9000    22.4520     8.8430     7.0930     9.2530     2.2100 
  125.6250   -31.4490    69.1770    22.5540     8.4790     6.9240     9.1180     2.1920 
  125.7500   -31.2870    71.5770    22.6010     8.3400     6.7440     9.0300     2.1810 
  125.8750   -31.1390    74.2320    22.6150     8.3380     6.5760     8.9420     2.1790 
  126.0000   -30.9640    73.9030    22.6170     8.3580     6.4800     8.8570     2.1850 
  126.1250   -30.8290    70.8510    22.6250     8.3380     6.5600     8.9020     2.1910 
  126.2500   -30.6710    69.5580    22.6510     8.3860     6.8400     9.2020     2.1960 
  126.3750   -30.5080    71.1270    22.6870     8.8620     7.3220     9.8210     2.2070 
  126.5000   -30.3540    72.2900    22.7080    10.0580     7.9430    10.6740     2.2300 
  126.6250   -30.2620    72.0330    22.7190    11.4020     8.5530    11.4880     2.2560 
  126.7500   -30.2040    73.9910    22.7330    11.6410     8.9890    12.0060     2.2790 
  126.8750   -30.1640    79.6380    22.7430    10.9130     9.1780    12.1500     2.3030 
  127.0000   -30.1580    85.8980    22.7430    10.2370     9.1430    11.9960     2.3230 
  127.1250   -30.0970    87.9770    22.7380    10.0460     8.9550    11.6830     2.3250 
  127.2500   -29.9940    86.1730    22.7280    10.0990     8.7260    11.3400     2.3060 
  127.3750   -29.8530    80.4460    22.7170    10.1360     8.4730    11.0030     2.2800 
