~V
VERS. 2.00: Ver 2.00
~W
STRT.M 63.0000:
STOP.M 272.0000:
STEP.M 0.1250:
NULL. -999.2500:
UWI. DF33040:
~C
DEPT.M :
SP.MV :
GR.API :
CALI.CM :
RXO.OHMM :
RI. :
RML.OHMM :
DEN.GM/CC :
~A
# ...
  153.0000   -14.0020    65.3550    24.8690    11.2450    11.2830    12.8690     2.5240 
  153.1250   -13.9000    64.8980    24.8310    10.9710    10.9280    12.5080     2.5320 
  153.2500   -13.8570    64.8460    24.8250    11.0220    10.7650    12.4140     2.5330 
  153.3750   -13.8820    63.9490    24.8220    11.2490    10.7940    12.5530     2.5250 
  153.5000   -13.9680    62.4130    24.8030    12.0000    10.9730    12.8460     2.5060 
  153.6250   -14.1230    61.9610    24.7510    13.6300    11.2390    13.1900     2.4760 
  153.7500   -14.3420    64.6360    24.6690    14.5980    11.4970    13.4860     2.4460 
  153.8750   -14.6120    68.4950    24.4960    13.6350    11.7080    13.6990     2.4320 
  154.0000   -14.9030    70.0400    24.1480    11.4720    11.8730    13.8500     2.4430 
  154.1250   -15.1920    68.0540    23.6750    10.1860    12.0310    14.0110     2.4670 
  154.2500   -15.4520    66.0570    23.3230     9.9690    12.2400    14.2790     2.4790 
  154.3750   -15.6730    65.0660    23.2080    10.1620    12.5460    14.7350     2.4770 
  154.5000   -15.8550    64.9280    23.2710    10.4420    12.9640    15.3990     2.4700 
  154.6250   -15.9830    64.4700    23.3670    10.8340    13.4310    16.1610     2.4700 
  154.7500   -16.0430    64.5860    23.3770    11.2080    13.7680    16.7310     2.4760 
  154.8750   -16.0390    65.1740    23.2960    11.6440    13.7980    16.8290     2.4820 
  155.0000   -16.0050    66.2210    23.2190    12.3170    13.4380    16.3440     2.4860 
  155.1250   -15.9650    66.3000    23.2610    12.6920    12.8120    15.5030     2.4820 
  155.2500   -15.9560    65.5630    23.3240    12.0180    12.3110    14.9330     2.4670 
  155.3750   -16.0010    65.4260    23.1980    10.7710    12.2800    15.1670     2.4400 
  155.5000   -16.1070    65.9650    22.8360    10.6200    13.0380    16.6480     2.3990 
  155.6250   -16.2950    67.4580    22.5090    14.0080    15.1460    20.0620     2.3450 
  155.7500   -16.5560    68.6080    22.5490    21.2990    18.7790    25.4630     2.2910 
  155.8750   -16.8830    68.2010    23.0140    31.6450    24.1330    32.9630     2.2500 
  156.0000   -17.2520    66.9830    23.6780    42.9100    31.0250    42.2310     2.2270 
  156.1250   -17.6340    67.5240    24.2280    51.9440    38.5660    52.0090     2.2160 
  156.2500   -17.9950    69.0020    24.5710    57.6000    45.1890    60.2400     2.2090 
  156.3750   -18.3040    68.1970    24.7560    60.4530    49.8120    65.5080     2.2030 
  156.5000   -18.5450    65.9070    24.8350    61.8230    51.8400    67.1220     2.1990 
  156.6250   -18.7080    65.1960    24.8220    61.3010    50.5650    64.2760     2.1980 
  156.7500   -18.7850    64.9440    24.7780    56.9320    46.6340    58.0360     2.2020 
  156.8750   -18.7780    64.7060    24.7100    48.0760    40.7970    49.6520     2.2110 
  157.0000   -18.7030    66.6100    24.5930    37.4700    34.2850    40.9060     2.2260 
  157.1250   -18.5740    70.2770    24.4580    29.0310    28.5630    33.6780     2.2410 
  157.2500   -18.4090    73.3140    24.3810    23.0320    24.2330    28.4460     2.2500 
  157.3750   -18.2240    75.1580    24.3450    19.1200    21.3240    25.0860     2.2480 
  157.5000   -18.0460    74.7200    24.3050    17.4030    19.5400    23.1190     2.2410 
  157.6250   -17.8720    71.4300    24.2850    17.7070    18.4870    21.9650     2.2480 
  157.7500   -17.7130    69.9210    24.3010    18.1050    17.5800    20.8740     2.2700 
  157.8750   -17.5700    72.4660    24.3220    17.1800    16.5500    19.5210     2.2930 
  158.0000   -17.4350    76.1450    24.3170    14.8740    15.3170    17.8630     2.3030 
  158.1250   -17.3040    77.9330    24.3160    12.5840    13.9440    16.0550     2.2990 
  158.2500   -17.1850    79.5000    24.3270    11.2720    12.5700    14.3000     2.2890 
  158.3750   -17.0800    82.3090    24.3290    10.6620    11.2770    12.7010     2.2760 
  158.5000   -16.9830    84.5120    24.3270    10.0230    10.1570    11.3580     2.2660 
  158.6250   -16.9010    84.0550    24.3280     8.9570     9.3690    10.4740     2.2620 
  158.7500   -16.8500    82.6500    24.3270     8.0290     8.9680    10.1200     2.2610 
  158.8750   -16.8370    81.7330    24.3270     7.9820     9.0130    10.3790     2.2660 
  159.0000   -16.8670    78.8890    24.3300     9.2720     9.5180    11.2480     2.2750 
  159.1250   -16.9470    73.8760    24.3450    11.5230    10.4430    12.5990     2.2810 
  159.2500   -17.0590    73.4880    24.3640    13.0910    11.4750    13.9570     2.2780 
  159.3750   -17.1970    78.9050    24.3740    13.1620    12.3040    14.9030     2.2720 
  159.5000   -17.3580    83.5040    24.3640    12.2550    12.6940    15.1930     2.2660 
  159.6250   -17.5400    84.0480    24.3430    11.5300    12.5870    14.8760     2.2560 
  159.7500   -17.7170    83.1290    24.3310    11.3120    12.2850    14.4270     2.2430 
  159.8750   -17.8750    81.7690    24.3290    11.3650    11.9870    14.1010     2.2380 
  160.0000   -17.9990    79.1240    24.3310    11.4210    11.7750    13.9640     2.2470 
  160.1250   -18.0860    76.1380    24.3310    11.3330    11.6340    13.9380     2.2600 
  160.2500   -18.1500    74.2220    24.3270    11.1590    11.4900    13.8880     2.2640 
  160.3750   -18.1890    74.2740    24.3020    10.9640    11.3100    13.7630     2.2650 
  160.5000   -18.2080    75.8070    24.2570    10.7600    11.1110    13.5930     2.2710 
  160.6250   -18.2070    78.2680    24.1760    10.5390    10.9660    13.4930     2.2810 
  160.7500   -18.2000    80.5940    24.0170    10.3830    10.9440    13.5640     2.2810 
  160.8750   -18.1890    81.1630    23.8470    10.4800    11.1000    13.8760     2.2700 
  161.0000   -18.1780    76.8460    23.8690    11.0580    11.4620    14.4600     2.2570 
  161.1250   -18.1660    70.6770    24.1750    12.0940    12.0480    15.3200     2.2520 
  161.2500   -18.1460    68.6800    24.4720    13.0750    12.7610    16.3090     2.2530 
  161.3750   -18.1130    70.5100    24.5870    13.7840    13.5050    17.3020     2.2570 
  161.5000   -18.0710    72.7350    24.5910    14.3180    14.1870    18.1830     2.2630 
  161.6250   -18.0170    73.2120    24.6120    14.6920    14.7000    18.8340     2.2680 
  161.7500   -17.9600    72.5000    24.6280    14.8790    15.0550    19.2930     2.2650 
  161.8750   -17.9130    70.0190    24.6140    15.0460    15.2920    19.6250     2.2520 
  162.0000   -17.8790    67.1510    24.6220    15.3120    15.4650    19.8980     2.2380 
  162.1250   -17.8620    66.4040    24.7500    15.5500    15.6090    20.1380     2.2360 
  162.2500   -17.8750    67.8630    24.9400    15.7300    15.7460    20.3440     2.2390 
  162.3750   -17.9290    70.1430    25.0390    15.9510    15.8910    20.5210     2.2400 
  162.5000   -18.0240    70.1460    24.9560    16.1860    16.0960    20.7680     2.2410 
  162.6250   -18.1680    67.2770    24.7800    16.4440    16.5780    21.4690     2.2450 
  162.7500   -18.3280    65.2710    24.6650    16.9530    17.5920    23.0340     2.2480 
  162.8750   -18.4850    65.0800    24.6010    18.3070    19.4210    25.8310     2.2460 
  163.0000   -18.6390    63.4210    24.4810    21.8390    22.2100    29.9390     2.2470 
  163.1250   -18.7700    60.5400    24.2550    30.3430    25.7120    34.7350     2.2560 
  163.2500   -18.8490    60.3260    24.0480    41.1880    28.6620    38.2700     2.2670 
  163.3750   -18.8350    63.3120    23.9440    45.2910    29.6980    38.6800     2.2700 
  163.5000   -18.7290    67.6530    23.9450    37.5990    28.2440    35.5850     2.2610 
  163.6250   -18.5590    72.0280    24.0150    25.3370    25.0120    30.5850     2.2500 
  163.7500   -18.3700    73.7770    24.1220    18.3500    21.7210    26.0390     2.2450 
  163.8750   -18.1720    71.3830    24.2170    16.2020    19.0990    22.7160     2.2450 
  164.0000   -17.9650    69.0650    24.2380    16.2000    17.3110    20.6210     2.2430 
  164.1250   -17.7830    71.3580    24.1780    16.0160    16.3300    19.5620     2.2370 
