~V
VERS. 2.00: Ver 2.00
~W
STRT.M 50.0000:
STOP.M 235.0000:
STEP.M 0.1250:
NULL. -999.2500:
UWI. DF33017:
~C
DEPT.M :
GR.API :
CALI.CM :
RXO.OHMM :
RI. :
RML.OHMM :
DEN.GM/CC :
SP.MV :
~A
# ...
  128.7500    57.6680    29.8310    25.0730    21.6030    21.3250     2.5730   -23.9670 
  128.8750    60.3110    29.7570    23.8770    18.3530    18.1020     2.5470   -24.2110 
  129.0000    65.7260    29.6240    19.7900    14.4080    14.3210     2.5110   -24.4180 
  129.1250    72.2780    29.3710    13.1090    11.0620    11.1750     2.4540   -24.5890 
  129.2500    78.5330    28.9960     8.3470     8.7420     8.9770     2.3890   -24.7350 
  129.3750    85.3380    28.6120     6.4360     7.3950     7.6340     2.3360   -24.8730 
  129.5000    91.7420    28.3920     6.3310     6.7710     6.9160     2.3040   -24.9730 
  129.6250    93.8940    28.3050     6.7390     6.5660     6.5820     2.2920   -25.0120 
  129.7500    93.1360    28.2840     6.5650     6.4250     6.3720     2.2960   -25.0440 
  129.8750    92.6310    28.2790     6.0570     6.2930     6.2760     2.3120   -25.0760 
  130.0000    91.2600    28.2790     5.8800     6.3390     6.4520     2.3290   -25.1440 
  130.1250    86.9850    28.2790     6.3090     6.9980     7.2490     2.3260   -25.2400 
  130.2500    82.3890    28.2720     7.7420     8.4880     8.7690     2.3100   -25.3700 
  130.3750    78.5880    28.2730    11.5180    10.8360    10.9830     2.3100   -25.5360 
  130.5000    74.3950    28.3050    18.8110    13.5350    13.4340     2.3540   -25.7480 
  130.6250    70.6060    28.4610    24.1460    15.0500    14.7720     2.4340   -25.9750 
  130.7500    69.9590    28.5410    21.4620    14.5300    14.2660     2.4830   -26.1960 
  130.8750    71.6410    28.5530    14.3270    12.5200    12.4440     2.4650   -26.4180 
  131.0000    73.7160    28.5510     9.6870    10.2390    10.4040     2.3930   -26.5840 
  131.1250    76.7870    28.5670     8.4350     8.6540     8.9360     2.3230   -26.6810 
  131.2500    81.5670    28.5900     8.0510     7.8390     8.0890     2.2850   -26.6600 
  131.3750    86.5570    28.6000     7.8130     7.6350     7.7910     2.2740   -26.5010 
  131.5000    89.0470    28.6010     7.6460     7.8270     7.9790     2.2750   -26.2300 
  131.6250    86.4910    28.6040     7.9380     8.3400     8.7420     2.2770   -25.8950 
  131.7500    80.7700    28.6270     9.4450     9.2130    10.0770     2.2860   -25.4980 
  131.8750    74.4560    28.6920    12.8260    10.6110    12.0130     2.3160   -25.0150 
  132.0000    71.3920    28.7860    17.0120    12.6120    14.4020     2.3770   -24.5040 
  132.1250    72.9130    28.8780    19.4280    15.0420    16.8060     2.4670   -24.0100 
  132.2500    72.5940    28.9490    19.9950    17.2940    18.7330     2.5490   -23.5770 
  132.3750    67.2520    28.9960    19.7090    18.9190    20.0190     2.6030   -23.2170 
  132.5000    59.6270    29.0140    19.5340    19.8250    20.8460     2.6250   -22.9180 
  132.6250    55.0610    29.0150    21.1930    20.3380    21.6440     2.6310   -22.6720 
  132.7500    54.3270    29.0150    23.7640    21.0200    22.7060     2.6320   -22.4750 
  132.8750    54.9540    29.0150    25.8110    22.1280    24.0500     2.6330   -22.3570 
  133.0000    54.7890    29.0150    26.6480    23.6200    25.5340     2.6330   -22.2890 
  133.1250    52.6500    29.0150    27.6350    24.9980    26.7470     2.6300   -22.2380 
  133.2500    49.7430    29.0150    28.8800    25.5820    27.2180     2.6270   -22.1890 
  133.3750    47.5800    29.0150    29.7940    25.0620    26.6880     2.6270   -22.1350 
  133.5000    48.1390    29.0150    28.9170    23.7230    25.3440     2.6330   -22.0820 
  133.6250    53.3380    29.0150    25.1620    22.3840    23.8190     2.6370   -22.0320 
  133.7500    60.9750    29.0150    21.0830    21.7580    22.8500     2.6300   -22.0000 
  133.8750    66.7730    29.0150    19.3640    22.0420    22.8010     2.6170   -21.9630 
  134.0000    67.3830    29.0150    21.2330    23.0220    23.6520     2.6050   -21.9420 
  134.1250    62.5650    29.0150    26.3630    24.0880    24.9230     2.6040   -21.9220 
  134.2500    59.0200    29.0150    30.5590    24.5710    25.7190     2.6050   -21.9200 
  134.3750    60.5830    29.0150    30.4090    24.2680    25.5340     2.6000   -21.9370 
  134.5000    64.9380    29.0150    26.7370    23.4750    24.4970     2.5840   -21.9720 
  134.6250    65.3110    29.0140    22.9450    22.7880    23.3330     2.5650   -22.0240 
  134.7500    62.6530    28.9990    21.2130    22.5140    22.7110     2.5520   -22.0640 
  134.8750    60.6170    28.9550    21.9320    22.6120    22.7860     2.5470   -22.1030 
  135.0000    60.8490    28.8920    24.0790    22.9130    23.3800     2.5520   -22.1250 
  135.1250    61.8650    28.8300    24.6040    23.2660    24.0880     2.5650   -22.1690 
  135.2500    61.8670    28.8040    23.8200    23.6130    24.5230     2.5770   -22.2160 
  135.3750    61.1920    28.7940    22.9810    23.9550    24.6130     2.5770   -22.2730 
  135.5000    61.1260    28.7830    22.9510    24.2450    24.5140     2.5660   -22.3200 
  135.6250    62.4380    28.7520    23.2300    24.3590    24.4940     2.5550   -22.3530 
  135.7500    63.0030    28.7190    23.7170    24.3410    24.7320     2.5450   -22.3720 
  135.8750    61.6200    28.6920    24.2460    24.3780    25.2840     2.5310   -22.3810 
  136.0000    60.0490    28.6630    24.6150    24.7080    26.0920     2.5130   -22.3690 
  136.1250    58.1820    28.6010    24.7330    25.4530    26.9530     2.5040   -22.3320 
  136.2500    58.0000    28.5390    25.2560    26.2660    27.5740     2.5110   -22.2950 
  136.3750    61.3640    28.4940    26.4180    26.6830    27.7270     2.5270   -22.2410 
  136.5000    67.2780    28.4850    26.2820    26.3410    27.2910     2.5360   -22.1670 
  136.6250    69.6190    28.5130    23.9410    25.2110    26.3180     2.5320   -22.0870 
  136.7500    68.9090    28.5540    21.9140    23.9370    25.2260     2.5340   -22.0030 
  136.8750    68.8680    28.5740    21.6170    23.0010    24.2900     2.5480   -21.9010 
  137.0000    70.6520    28.5780    21.9280    22.6040    23.6170     2.5600   -21.8140 
  137.1250    72.9230    28.5680    21.2680    22.5850    23.1340     2.5500   -21.7590 
  137.2500    75.9730    28.5400    20.4720    22.4190    22.6060     2.5290   -21.7040 
  137.3750    79.0090    28.5020    20.3470    21.7980    21.9080     2.5080   -21.6440 
  137.5000    80.6300    28.4700    19.8730    20.7450    21.0620     2.4940   -21.5940 
  137.6250    78.4240    28.4380    18.4950    19.6560    20.2450     2.4950   -21.5700 
  137.7500    74.7700    28.4010    17.3820    18.9480    19.6260     2.5090   -21.5480 
  137.8750    70.8270    28.3850    17.5190    18.7290    19.2900     2.5300   -21.5310 
  138.0000    67.5260    28.3740    18.5030    18.8530    19.2540     2.5470   -21.5210 
  138.1250    66.5060    28.3440    19.1130    19.0520    19.5170     2.5540   -21.4870 
  138.2500    68.3290    28.3010    18.7870    19.1640    19.9200     2.5560   -21.4690 
  138.3750    72.0080    28.2690    18.1020    19.2450    20.3330     2.5540   -21.4740 
  138.5000    75.5280    28.2380    17.7100    19.4320    20.6580     2.5460   -21.5090 
  138.6250    77.3320    28.2020    18.1110    19.7870    20.8600     2.5320   -21.5130 
  138.7500    75.8630    28.2420    18.5720    20.1300    21.0000     2.5190   -21.5270 
  138.8750    73.3300    28.3590    18.9280    20.2830    21.1170     2.5120   -21.5310 
  139.0000    72.5730    28.4470    18.9700    20.2210    21.2530     2.5100   -21.5150 
  139.1250    73.3110    28.4750    18.9360    20.1780    21.4830     2.5130   -21.4980 
  139.2500    73.0760    28.4750    19.2420    20.3990    21.7930     2.5160   -21.4570 
  139.3750    71.6050    28.4750    19.9080    20.8550    22.0890     2.5160   -21.3840 
  139.5000    70.7860    28.4750    20.5590    21.2680    22.2350     2.5110   -21.2770 
  139.6250    69.7390    28.4610    20.7600    21.2090    22.0810     2.5050   -21.1690 
  139.7500    68.1980    28.4290    20.3210    20.6840    21.6680     2.5030   -21.0240 
  139.8750    67.4800    28.3970    19.3280    19.9530    21.0860     2.5090   -20.8830 
