~V
VERS. 2.00: Ver 2.00
~W
STRT.M 60.0000:
STOP.M 268.0000:
STEP.M 0.1250:
NULL. -999.2500:
UWI. DF33031:
~C
DEPT.M :
SP.MV :
GR.API :
CALI.CM :
RXO.OHMM :
RI. :
RML.OHMM :
DEN.GM/CC :
~A
# ...
  195.0000   -17.0980    61.3810    24.1690     4.1590     3.9450     4.8620     2.3340 
  195.1250   -16.8850    62.9090    24.2750     3.6840     3.6440     4.5790     2.3110 
  195.2500   -16.7020    64.2870    24.2850     3.1580     3.3650     4.2850     2.2990 
  195.3750   -16.5420    63.1580    24.1860     2.9690     3.1480     4.0670     2.2980 
  195.5000   -16.3850    60.3350    23.9540     3.2350     3.0350     3.9780     2.3010 
  195.6250   -16.2530    61.6030    23.7730     3.5580     3.0920     4.0580     2.2930 
  195.7500   -16.1410    66.6000    23.6410     3.7150     3.3140     4.2760     2.2820 
  195.8750   -16.0640    70.1420    23.5860     3.9670     3.6600     4.6170     2.2800 
  196.0000   -16.0490    68.1400    23.5750     4.4140     4.0490     5.0570     2.2930 
  196.1250   -16.1060    61.9780    23.5770     4.8500     4.3950     5.5470     2.3080 
  196.2500   -16.1950    56.9760    23.5790     5.0960     4.6760     5.9960     2.3140 
  196.3750   -16.3360    54.5020    23.5790     5.1120     4.8760     6.3230     2.3120 
  196.5000   -16.5310    52.2800    23.5800     4.9930     4.9650     6.4820     2.3030 
  196.6250   -16.8180    48.7970    23.5760     4.9440     4.9320     6.4900     2.2810 
  196.7500   -17.1620    46.1030    23.5710     5.0130     4.8770     6.4900     2.2460 
  196.8750   -17.5710    47.1130    23.6080     5.1720     4.9010     6.5950     2.2050 
  197.0000   -18.0380    51.4870    23.7590     5.4010     5.0740     6.8820     2.1660 
  197.1250   -18.5780    56.6930    24.1160     5.8770     5.4200     7.4120     2.1390 
  197.2500   -19.1690    60.6670    24.4260     6.6610     5.8570     8.1030     2.1380 
  197.3750   -19.7930    64.1010    24.5890     7.5410     6.3180     8.8410     2.1810 
  197.5000   -20.4350    69.9920    24.6250     8.1540     6.7280     9.4520     2.2600 
  197.6250   -21.0590    79.6330    24.5080     8.1310     6.9620     9.7110     2.3330 
  197.7500   -21.6730    88.4770    24.2580     7.7050     6.9800     9.6500     2.3630 
  197.8750   -22.2560    93.2650    24.0390     7.1330     6.8270     9.4220     2.3550 
  198.0000   -22.7900    93.9290    24.0380     6.8230     6.6450     9.2420     2.3390 
  198.1250   -23.2530    93.2690    24.4850     7.1560     6.6120     9.3030     2.3370 
  198.2500   -23.6560    92.3570    25.4020     7.8070     6.7380     9.5630     2.3410 
  198.3750   -24.0310    89.9160    26.4960     8.2940     6.9310     9.9050     2.3380 
  198.5000   -24.3940    89.1230    26.9860     8.4050     7.0880    10.2020     2.3280 
  198.6250   -24.7780    93.3340    26.4840     8.1490     7.1660    10.3760     2.3240 
  198.7500   -25.1620    97.1550    25.4790     7.8330     7.2280    10.4870     2.3350 
  198.8750   -25.5420    97.0120    24.6420     7.9670     7.3110    10.6110     2.3560 
  199.0000   -25.9370    95.8290    24.2070     8.6920     7.3830    10.7750     2.3710 
  199.1250   -26.4020    98.7910    24.0800     9.5490     7.3690    10.9320     2.3690 
  199.2500   -26.9220   101.2210    24.0510     9.5820     7.2910    11.0280     2.3620 
  199.3750   -27.4880   100.5330    24.0470     9.1420     7.2350    11.0650     2.3600 
  199.5000   -28.0840    98.2330    24.0440     8.9090     7.2610    11.0860     2.3630 
  199.6250   -28.6500    97.3990    23.9770     9.2540     7.3580    11.1500     2.3640 
  199.7500   -29.1980    98.3830    23.7850    10.1020     7.4520    11.2780     2.3690 
  199.8750   -29.7180    99.2870    23.5170    10.8740     7.5280    11.4680     2.3800 
  200.0000   -30.1830   100.0770    23.3460    11.1680     7.6400    11.7060     2.3870 
  200.1250   -30.5170    99.4980    23.1420    11.3180     7.8710    12.0140     2.3840 
  200.2500   -30.7320    96.8700    22.7860    11.7470     8.1910    12.3950     2.3900 
  200.3750   -30.7960    92.7970    22.4620    12.2880     8.5000    12.8210     2.4170 
  200.5000   -30.7260    88.9950    22.3310    12.5040     8.6870    13.1970     2.4460 
  200.6250   -30.5000    86.9190    22.3340    12.0690     8.6610    13.3090     2.4420 
  200.7500   -30.2320    87.5360    22.3750    11.3410     8.4520    13.0550     2.4080 
  200.8750   -29.9450    90.7660    22.5870    10.7030     8.0830    12.4680     2.3690 
  201.0000   -29.6950    92.2800    23.2120    10.0540     7.6000    11.7240     2.3460 
  201.1250   -29.5470    90.1830    24.1720     9.0620     7.0910    11.0990     2.3370 
  201.2500   -29.5580    90.6890    24.9800     8.1400     6.7070    10.7640     2.3340 
  201.3750   -29.7560    95.3220    25.2280     7.8880     6.5840    10.7880     2.3390 
  201.5000   -30.1460    99.7740    24.9020     8.5230     6.7970    11.1610     2.3500 
  201.6250   -30.7840    98.9370    24.1070     9.8060     7.3340    11.8210     2.3600 
  201.7500   -31.5370    96.2390    23.2470    11.0730     7.9570    12.5620     2.3610 
  201.8750   -32.3640    94.3360    22.6260    12.1140     8.4850    13.2260     2.3560 
  202.0000   -33.1720    93.2990    22.2110    12.8680     8.8220    13.6950     2.3490 
  202.1250   -33.8990    91.7420    22.0810    13.4340     8.9750    13.8810     2.3430 
  202.2500   -34.4620    88.3210    22.0730    14.0200     9.0560    13.8380     2.3390 
  202.3750   -34.7960    83.7280    22.1050    14.6780     9.0900    13.5990     2.3420 
  202.5000   -34.8550    78.7250    22.1170    15.1570     9.0500    13.2280     2.3520 
  202.6250   -34.5370    75.1890    22.1160    15.3350     8.9820    12.9420     2.3630 
  202.7500   -33.8980    74.3670    22.1150    15.3470     9.0940    13.0510     2.3700 
  202.8750   -32.9290    76.3910    22.1150    15.4580     9.6030    13.8030     2.3800 
  203.0000   -31.6900    79.8860    22.1160    16.1320    10.6010    15.2420     2.4100 
  203.1250   -30.1290    80.8680    22.1190    18.6710    11.8500    16.9720     2.4600 
  203.2500   -28.4110    79.0560    22.1330    21.9730    12.6100    17.9040     2.4920 
  203.3750   -26.6190    75.6140    22.2150    21.6580    12.2620    17.0960     2.4800 
  203.5000   -24.8760    70.9240    22.4920    15.7440    10.7980    14.5930     2.4260 
  203.6250   -23.2880    66.4830    22.9990     9.4720     8.8970    11.5870     2.3670 
  203.7500   -21.9110    64.5410    23.4440     6.3770     7.3050     9.2330     2.3350 
  203.8750   -20.7580    64.6250    23.6610     5.4830     6.2040     7.7790     2.3340 
  204.0000   -19.8740    63.6070    23.7130     5.2370     5.5530     7.1100     2.3510 
  204.1250   -19.3110    62.7420    23.7230     5.1810     5.3040     7.0380     2.3640 
  204.2500   -18.9740    67.2080    23.7890     5.2410     5.3090     7.1920     2.3670 
  204.3750   -18.8200    77.3150    23.9530     5.3550     5.4880     7.3820     2.3650 
  204.5000   -18.7700    87.5920    24.1390     5.4840     5.7330     7.5190     2.3650 
  204.6250   -18.8260    93.3280    24.2570     5.6790     5.9150     7.5870     2.3670 
  204.7500   -18.9160    94.2360    24.3070     5.8860     5.9940     7.6010     2.3740 
  204.8750   -19.0610    92.1120    24.3210     6.0540     6.0100     7.5590     2.3870 
  205.0000   -19.2270    89.1710    24.3230     6.1670     6.0320     7.4900     2.4010 
  205.1250   -19.4180    88.0110    24.3230     6.2420     6.1140     7.4850     2.4060 
  205.2500   -19.6270    89.1910    24.3230     6.3780     6.2500     7.6370     2.4020 
  205.3750   -19.8680    91.4250    24.3230     6.6320     6.4620     8.0190     2.3940 
  205.5000   -20.1360    94.0190    24.3230     7.1650     6.8200     8.6610     2.3840 
  205.6250   -20.3690    95.0990    24.3230     8.1320     7.3970     9.5230     2.3730 
  205.7500   -20.6210    94.2600    24.3230     9.0610     8.0510    10.3570     2.3600 
  205.8750   -20.8640    91.9390    24.3230     9.6340     8.5650    10.9290     2.3490 
  206.0000   -21.1000    88.7010    24.3230     9.8780     8.7740    11.1280     2.3440 
  206.1250   -21.3270    85.8130    24.3230     9.6790     8.7100    11.0630     2.3480 
