~V
VERS. 2.00: Ver 2.00
~W
STRT.M 55.0000:
STOP.M 246.0000:
STEP.M 0.1250:
NULL. -999.2500:
UWI. DF33025:
~C
DEPT.M :
SP.MV :
GR.API :
CALI.CM :
RXO.OHMM :
RI. :
RML.OHMM :
DEN.GM/CC :
~A
# ...
  190.0000   -21.9480    84.4700    25.3610    81.6410    66.0390    69.0810     2.2620 
  190.1250   -21.7240    83.3480    25.3260    78.3520    65.0800    68.0730     2.2690 
  190.2500   -21.4840    80.9460    25.3270    75.4570    64.4980    67.4620     2.2850 
  190.3750   -21.2170    77.5810    25.3380    75.3810    64.0990    67.0430     2.3030 
  190.5000   -20.9170    73.7150    25.3170    70.6510    63.5120    66.4250     2.3140 
  190.6250   -20.5720    73.2280    25.2540    61.8000    62.5520    65.4170     2.3140 
  190.7500   -20.1820    74.8540    25.2070    53.5080    61.4250    64.2330     2.3080 
  190.8750   -19.7640    75.5670    25.1790    50.1370    60.3610    63.1150     2.3070 
  191.0000   -19.3190    74.7800    25.3150    51.1570    59.6790    62.3990     2.3210 
  191.1250   -18.8150    72.3510    25.6420    56.7470    59.8190    62.5460     2.3560 
  191.2500   -18.2660    70.8420    26.0220    62.7660    60.6630    63.4330     2.4050 
  191.3750   -17.6900    72.7290    26.0070    65.6020    61.8760    64.7070     2.4670 
  191.5000   -17.0920    76.4770    25.6090    68.6270    62.8890    65.7710     2.5430 
  191.6250   -16.4840    76.1880    25.2730    72.9020    62.6410    65.5110     2.6250 
  191.7500   -15.8720    72.8830    25.1190    74.2400    60.7110    63.4830     2.6880 
  191.8750   -15.2470    70.0180    25.0190    67.7510    57.3920    59.9960     2.7220 
  192.0000   -14.6280    69.4330    25.0380    57.5810    53.6150    56.0280     2.7280 
  192.1250   -14.0560    71.7260    25.0060    49.9570    50.3210    52.5670     2.7190 
  192.2500   -13.5300    76.0710    24.7700    46.6160    47.0600    49.1410     2.7100 
  192.3750   -13.0130    79.4640    24.4760    47.0460    42.2700    44.1090     2.7030 
  192.5000   -12.4750    78.2210    24.3950    48.7810    34.5870    36.0370     2.6970 
  192.6250   -11.9960    72.9970    24.5270    46.6830    24.8620    25.8200     2.6940 
  192.7500   -11.4710    67.3250    24.7900    37.0350    16.2430    16.7650     2.7070 
  192.8750   -10.9280    63.5780    25.0370    22.2290    10.0380    10.2450     2.7300 
  193.0000   -10.4010    62.7270    25.1950    10.1060     6.1360     6.1460     2.7340 
  193.1250    -9.8500    63.5450    25.1670     5.3100     4.0970     4.0040     2.6800 
  193.2500    -9.2780    64.7280    25.2120     3.7590     3.0640     2.9190     2.5910 
  193.3750    -8.8110    66.0210    25.2550     3.4290     2.7290     2.5050     2.5070 
  193.5000    -8.4360    66.6380    25.3210     3.9610     2.8910     2.6490     2.4580 
  193.6250    -8.0600    66.2510    25.3690     5.0850     3.4090     4.2560     2.4450 
  193.7500    -7.8020    68.2500    25.3340     5.8080     4.0270     5.0010     2.4410 
  193.8750    -7.7040    72.2110    25.2300     5.9920     4.5640     5.5320     2.4260 
  194.0000    -7.6370    73.2170    25.1060     5.9140     4.9030     5.7540     2.3960 
  194.1250    -7.6300    70.1530    25.0600     5.8710     5.0060     5.7030     2.3670 
  194.2500    -7.6950    69.1290    25.0410     5.8230     4.9970     5.5840     2.3560 
  194.3750    -7.7650    70.8130    25.0840     5.7460     4.9530     5.5130     2.3650 
  194.5000    -7.8140    71.3140    25.1700     5.6460     4.9200     5.5380     2.3840 
  194.6250    -7.8840    68.2110    25.2990     5.5930     4.9250     5.6620     2.3960 
  194.7500    -7.9820    64.7990    25.3010     5.7040     4.9600     5.8330     2.3950 
  194.8750    -8.0150    63.5370    25.2080     5.9340     5.0100     6.0190     2.3860 
  195.0000    -8.0340    62.9500    25.0950     6.1400     5.0610     6.1960     2.3770 
  195.1250    -8.1300    62.1660    25.0320     6.1880     5.1070     6.3490     2.3760 
  195.2500    -8.1980    61.0090    25.0120     6.2050     5.1460     6.4680     2.3800 
  195.3750    -8.2720    58.7110    25.0080     6.2730     5.1730     6.5500     2.3900 
  195.5000    -8.4240    54.1860    24.9760     6.3220     5.1830     6.5980     2.4020 
  195.6250    -8.5690    51.4210    24.9050     6.2540     5.1710     6.6190     2.4060 
  195.7500    -8.6560    52.0370    24.8770     6.1520     5.1420     6.6270     2.3990 
  195.8750    -8.7980    52.9310    24.8740     6.0670     5.0990     6.6270     2.3940 
  196.0000    -8.9850    52.0820    24.8580     5.9800     5.0510     6.6260     2.4020 
  196.1250    -9.1010    50.6330    24.9390     5.9210     5.0300     6.6500     2.4190 
  196.2500    -9.2020    50.7620    25.0850     5.8830     5.0530     6.7180     2.4270 
  196.3750    -9.3160    52.2580    25.0900     5.8830     5.1120     6.8390     2.4210 
  196.5000    -9.4120    53.3100    24.9880     5.9620     5.1830     6.9960     2.4070 
  196.6250    -9.4890    53.7780    24.8910     6.2150     5.2360     7.1410     2.3970 
  196.7500    -9.5650    55.7200    24.8550     6.4950     5.2550     7.2200     2.3920 
  196.8750    -9.6320    60.1240    24.8410     6.5700     5.2280     7.2080     2.3850 
  197.0000    -9.6440    63.6400    24.8320     6.3380     5.1490     7.1110     2.3760 
  197.1250    -9.6090    62.7570    24.7960     6.0160     5.0420     6.9710     2.3760 
  197.2500    -9.5860    60.3120    24.7270     5.8260     4.9610     6.8610     2.3900 
  197.3750    -9.5270    58.9230    24.6780     5.8070     4.9460     6.8330     2.4030 
  197.5000    -9.3820    59.2630    24.6680     5.8770     5.0100     6.9180     2.4050 
  197.6250    -9.2350    60.2150    24.8060     6.0370     5.1480     7.1250     2.4030 
  197.7500    -9.1160    61.5270    24.9550     6.3100     5.3170     7.3930     2.4100 
  197.8750    -9.0110    62.8900    25.0990     6.6190     5.4850     7.6650     2.4160 
  198.0000    -8.9240    62.2930    25.1740     6.8400     5.6190     7.8800     2.4090 
  198.1250    -8.8920    61.1740    25.1750     6.9110     5.6970     7.9940     2.3950 
  198.2500    -8.9270    61.6470    25.1700     6.8770     5.7320     8.0330     2.3890 
  198.3750    -8.9900    62.6360    25.1680     6.7640     5.7420     8.0380     2.3940 
  198.5000    -9.1320    62.9760    25.1110     6.6860     5.7420     8.0560     2.4030 
  198.6250    -9.4570    63.5940    24.9630     6.6890     5.7420     8.1150     2.4130 
  198.7500    -9.8580    63.3820    24.8420     6.6770     5.7440     8.1910     2.4210 
  198.8750   -10.2820    62.0310    24.7520     6.6210     5.7460     8.2570     2.4250 
  199.0000   -10.8700    62.5180    24.6890     6.5820     5.7460     8.3020     2.4250 
  199.1250   -11.6570    66.0560    24.6690     6.6350     5.7530     8.3570     2.4280 
  199.2500   -12.4960    69.8030    24.6660     6.7780     5.8000     8.4850     2.4330 
  199.3750   -13.4310    73.8670    24.6610     6.9870     5.9180     8.7400     2.4390 
  199.5000   -14.4940    80.1150    24.7830     7.2820     6.1100     9.1130     2.4440 
  199.6250   -15.5180    90.1730    25.1170     7.6780     6.3260     9.5100     2.4490 
  199.7500   -16.5070    99.9680    25.3920     8.3310     6.4930     9.7960     2.4480 
  199.8750   -17.5270   107.1800    25.2340     9.1170     6.5820     9.9130     2.4390 
  200.0000   -18.5380   111.1800    25.0840     9.4870     6.6100     9.8970     2.4200 
  200.1250   -19.4800   111.5770    24.9590     9.0970     6.6300     9.8950     2.3980 
  200.2500   -20.3650   107.8850    24.8650     8.8150     6.7170    10.0570     2.3830 
  200.3750   -21.1810   101.1150    24.7560     9.5100     6.9170    10.4310     2.3770 
  200.5000   -21.8870    95.0680    24.6520    10.9520     7.2200    10.9570     2.3770 
  200.6250   -22.4460    93.4490    24.4280    12.2950     7.5540    11.4760     2.3720 
  200.7500   -22.8410    93.3550    24.3420    13.0430     7.8200    11.8370     2.3610 
  200.8750   -23.0810    92.9470    24.4020    13.2400     7.9960    12.0070     2.3500 
  201.0000   -23.1250    92.0150    24.6640    13.1220     8.1450    12.0890     2.3440 
  201.1250   -22.8920    92.1690    25.0090    13.1290     8.3830    12.3020     2.3450 
