~V
VERS. 2.00: Ver 2.00
~W
STRT.M 55.0000:
STOP.M 272.0000:
STEP.M 0.1250:
NULL. -999.2500:
UWI. DF33042:
~C
DEPT.M :
SP.MV :
GR.API :
RML.OHMM :
RI. :
RXO.OHMM :
CALI.CM :
DEN.GM/CC :
~A
# ...
   66.2500   -31.6600    67.8130     8.7970     8.3560     8.0950    23.3490     2.2300 
   66.3750   -31.6580    71.6320     8.4200     7.9010     7.9560    23.3470     2.1810 
   66.5000   -31.6400    72.4570     8.1310     7.5250     7.8360    23.3470     2.1610 
   66.6250   -31.5850    70.2050     7.9430     7.3010     7.6510    23.3460     2.1630 
   66.7500   -31.4660    70.4340     7.8180     7.1950     7.4090    23.3390     2.1710 
   66.8750   -31.2700    74.1140     7.7600     7.1630     7.2340    23.3230     2.1790 
   67.0000   -31.0490    77.9930     7.7820     7.1690     7.1190    23.3080     2.1850 
   67.1250   -30.8460    80.0830     7.9010     7.1920     7.2300    23.2970     2.1900 
   67.2500   -30.6590    80.1780     8.0840     7.2260     7.5000    23.2910     2.1960 
   67.3750   -30.4760    76.3780     8.3010     7.2750     7.6680    23.2890     2.2030 
   67.5000   -30.3240    71.4800     8.5180     7.3440     7.7330    23.2890     2.2090 
   67.6250   -30.2650    71.4210     8.7060     7.4410     7.7100    23.2900     2.2100 
   67.7500   -30.2940    75.0510     8.8750     7.5550     7.9220    23.3040     2.2070 
   67.8750   -30.3920    77.7590     9.0500     7.6710     8.2410    23.3420     2.1980 
   68.0000   -30.5330    75.4680     9.2500     7.7720     8.5750    23.3920     2.1870 
   68.1250   -30.6890    70.4630     9.4670     7.8410     8.8320    23.4200     2.1760 
   68.2500   -30.8600    66.9840     9.6560     7.8800     8.9620    23.4430     2.1670 
   68.3750   -31.0310    66.1680     9.7840     7.8970     9.0980    23.4840     2.1620 
   68.5000   -31.1690    67.2640     9.8430     7.9010     9.3170    23.5300     2.1620 
   68.6250   -31.2670    68.3340     9.8450     7.9010     9.5130    23.5490     2.1670 
   68.7500   -31.3100    68.9990     9.8270     7.9030     9.5940    23.5610     2.1770 
   68.8750   -31.3260    68.8170     9.8080     7.9130     9.5570    23.5900     2.1880 
   69.0000   -31.3470    67.0610     9.8040     7.9420     9.5140    23.6500     2.1980 
   69.1250   -31.3800    63.3960     9.8280     8.0070     9.5820    23.6790     2.2000 
   69.2500   -31.4300    59.1680     9.8920     8.1120     9.5910    23.6730     2.1930 
   69.3750   -31.5090    56.8640    10.0030     8.2540     9.6970    23.6100     2.1800 
   69.5000   -31.5620    59.6880    10.1580     8.4150     9.9430    23.4590     2.1710 
   69.6250   -31.5120    66.0750    10.3280     8.5530    10.0320    23.2510     2.1780 
   69.7500   -31.4160    68.9750    10.4570     8.6260    10.8460    23.1060     2.2010 
   69.8750   -31.2930    66.9770    10.4960     8.6120    13.5330    23.0880     2.2340 
   70.0000   -31.0940    63.6010    10.4130     8.5080    17.5740    23.1870     2.2600 
   70.1250   -30.8710    63.9980    10.1960     8.3250    15.0420    23.2360     2.2620 
   70.2500   -30.6340    65.7630     9.9070     8.1120    11.6850    23.2410     2.2440 
   70.3750   -30.3780    67.7750     9.5910     7.9020    10.7390    23.2260     2.2160 
   70.5000   -30.1550    69.2420     9.2980     7.7200     9.4880    23.2070     2.1870 
   70.6250   -30.0010    68.7500     9.0870     7.5860     8.6900    23.1700     2.1660 
   70.7500   -29.8540    66.9240     8.9700     7.5000     8.3170    23.1390     2.1520 
   70.8750   -29.6690    64.1350     8.9440     7.4570     8.1960    23.0820     2.1450 
   71.0000   -29.5030    61.4390     8.9900     7.4460     8.0550    22.9840     2.1430 
   71.1250   -29.2690    61.3700     9.0730     7.4520     7.9020    22.8400     2.1460 
   71.2500   -28.9730    64.9600     9.1340     7.4540     7.8750    22.7160     2.1540 
   71.3750   -28.6960    68.8340     9.1470     7.4470     7.8540    22.5900     2.1640 
   71.5000   -28.4730    68.8440     9.1380     7.4350     7.8420    22.4300     2.1730 
   71.6250   -28.2660    66.5590     9.1970     7.4450     7.8410    22.2630     2.1800 
   71.7500   -28.1260    65.2190     9.3750     7.4960     7.9010    22.1620     2.1850 
   71.8750   -28.0870    64.2050     9.6510     7.5870     7.9240    22.1300     2.1910 
   72.0000   -28.0660    62.7490     9.9200     7.6980     8.0430    22.1330     2.1980 
   72.1250   -28.0750    63.3180    10.0210     7.7860     8.3920    22.1810     2.2040 
   72.2500   -28.1270    65.6190     9.9290     7.8170     8.4860    22.3140     2.2050 
   72.3750   -28.1610    66.6190     9.7070     7.7810     8.2050    22.5290     2.2020 
   72.5000   -28.1400    66.5860     9.4650     7.6920     7.9860    22.7560     2.1950 
   72.6250   -28.1390    67.2560     9.3200     7.5860     8.0390    22.9100     2.1860 
   72.7500   -28.0920    68.8620     9.2830     7.5000     8.1190    22.9630     2.1790 
   72.8750   -27.9490    68.9400     9.3110     7.4490     8.0020    22.9210     2.1740 
   73.0000   -27.7750    66.2530     9.3500     7.4310     7.9800    22.8420     2.1740 
   73.1250   -27.6140    64.3980     9.3580     7.4350     8.2050    22.7920     2.1800 
   73.2500   -27.5380    65.4720     9.3460     7.4450     8.2390    22.7760     2.1900 
   73.3750   -27.5490    66.7430     9.3370     7.4530     8.2660    22.7780     2.2020 
   73.5000   -27.5940    66.3780     9.3470     7.4540     8.3520    22.8030     2.2110 
   73.6250   -27.5710    67.7290     9.3600     7.4400     8.6190    22.8380     2.2140 
   73.7500   -27.6340    70.9220     9.3520     7.4150     8.9560    22.8550     2.2120 
   73.8750   -27.7840    71.5810     9.3320     7.3990     9.3090    22.8020     2.2070 
   74.0000   -27.9430    69.7850     9.3580     7.4220     9.1820    22.6520     2.2010 
   74.1250   -28.1770    69.7700     9.5210     7.5220     8.4580    22.3650     2.1950 
   74.2500   -28.3280    70.5390     9.8290     7.6900     7.7490    22.1270     2.1910 
   74.3750   -28.4340    70.3260    10.2190     7.8850     7.6450    22.0090     2.1860 
   74.5000   -28.5180    68.7160    10.5490     8.0430     7.7970    21.9750     2.1800 
   74.6250   -28.6540    66.5260    10.5880     8.0740     7.8790    21.9800     2.1720 
   74.7500   -28.6960    64.1850    10.2920     7.9640     7.9130    22.0550     2.1650 
   74.8750   -28.6680    63.0150     9.7440     7.7420     7.9930    22.2470     2.1580 
   75.0000   -28.6230    63.3300     9.1210     7.4710     8.1580    22.4230     2.1520 
   75.1250   -28.4770    64.3750     8.6350     7.2300     8.2750    22.5190     2.1480 
   75.2500   -28.2790    65.7340     8.3490     7.0560     8.4140    22.5580     2.1450 
   75.3750   -27.9800    65.7800     8.2380     6.9510     8.5890    22.5950     2.1440 
   75.5000   -27.6110    65.1820     8.2340     6.9040     8.6520    22.6710     2.1470 
   75.6250   -27.1520    67.5200     8.2830     6.9070     8.2880    22.8290     2.1530 
   75.7500   -26.6540    72.0050     8.3390     6.9370     7.9980    22.9710     2.1570 
   75.8750   -26.1090    75.2010     8.3770     6.9700     8.0410    23.0630     2.1590 
   76.0000   -25.5130    74.1100     8.3580     6.9630     8.2180    23.1240     2.1600 
   76.1250   -24.8540    70.0770     8.2140     6.8460     8.4320    23.1700     2.1670 
   76.2500   -24.1890    68.3640     7.9580     6.6210     8.5250    23.2610     2.1850 
   76.3750   -23.5520    72.5720     7.6460     6.3290     8.4650    23.4500     2.2170 
   76.5000   -22.9930    81.1220     7.3740     6.0470     7.7630    23.7540     2.2610 
   76.6250   -22.5760    89.4780     7.2660     5.8730     6.7700    24.0840     2.3040 
   76.7500   -22.2560    93.7530     7.3210     5.8220     6.4960    24.2790     2.3320 
   76.8750   -22.0500    92.9100     7.4810     5.8690     7.4100    24.2780     2.3380 
   77.0000   -21.9570    88.0110     7.6410     5.9520     7.5460    24.1610     2.3250 
   77.1250   -21.9880    82.9840     7.6810     5.9940     7.7310    24.1190     2.3080 
   77.2500   -22.1290    83.5460     7.5830     5.9610     7.2060    24.1930     2.2990 
   77.3750   -22.3750    88.5980     7.3900     5.8640     6.5900    24.3010     2.3030 
