~V
VERS. 2.00: Ver 2.00
~W
STRT.M 55.0000:
STOP.M 252.0000:
STEP.M 0.1250:
NULL. -999.2500:
UWI. DF33023:
~C
DEPT.M :
GR.API :
CALI.CM :
RXO.OHMM :
RI. :
RML.OHMM :
DEN.GM/CC :
SP.MV :
~A
# ...
   77.5000    61.7610    24.2870    11.5190     7.5180    10.6780     2.0900   -31.6360 
   77.6250    63.1770    24.1250    17.9780     7.7660    11.0550     2.0590   -31.6700 
   77.7500    64.2990    24.0010    21.5090     7.8480    11.1310     2.0430   -31.6600 
   77.8750    63.3200    23.8740    18.8280     7.7660    10.9420     2.0420   -31.6210 
   78.0000    61.0000    23.7870    13.7210     7.5720    10.6160     2.0480   -31.5580 
   78.1250    60.4210    23.8500    11.4840     7.3330    10.2860     2.0590   -31.4980 
   78.2500    63.1720    23.9550    10.3430     7.0940     9.9940     2.0750   -31.4380 
   78.3750    66.9210    23.9290     8.7820     6.8680     9.7170     2.0980   -31.3750 
   78.5000    69.6040    23.7500     7.2670     6.6500     9.4230     2.1230   -31.3330 
   78.6250    71.3420    23.5200     6.8250     6.4420     9.1210     2.1400   -31.3340 
   78.7500    72.1030    23.3150     7.0630     6.2620     8.8760     2.1450   -31.3770 
   78.8750    72.3160    23.1500     7.5040     6.1360     8.7430     2.1420   -31.4560 
   79.0000    71.6790    23.0450     7.8620     6.0720     8.7260     2.1380   -31.5680 
   79.1250    68.9230    23.0200     8.0060     6.0610     8.7800     2.1420   -31.6830 
   79.2500    64.3040    23.0200     8.0010     6.0640     8.8320     2.1530   -31.8040 
   79.3750    61.1140    23.0220     7.9400     6.0690     8.8640     2.1690   -31.9320 
   79.5000    60.2660    23.0220     7.9320     6.0710     8.8820     2.1800   -32.0460 
   79.6250    59.5550    23.0190     8.0090     6.0800     8.9130     2.1790   -32.1030 
   79.7500    59.0910    23.0140     8.0520     6.1000     8.9710     2.1750   -32.1090 
   79.8750    60.4430    23.0100     8.0190     6.1320     9.0560     2.1780   -32.0750 
   80.0000    63.0080    23.0070     7.9670     6.1700     9.1510     2.1840   -32.0070 
   80.1250    63.8800    23.0060     7.9590     6.1950     9.2150     2.1820   -31.9340 
   80.2500    62.6730    23.0110     7.9330     6.1880     9.2100     2.1740   -31.8580 
   80.3750    61.8020    23.0150     7.8290     6.1390     9.1140     2.1680   -31.7790 
   80.5000    63.1500    22.9970     7.6460     6.0480     8.9250     2.1620   -31.7090 
   80.6250    66.6510    22.9400     7.4380     5.9240     8.6710     2.1500   -31.6720 
   80.7500    69.6550    22.8730     7.2700     5.7960     8.4160     2.1370   -31.6680 
   80.8750    70.5290    22.8180     7.1580     5.6860     8.2090     2.1350   -31.6850 
   81.0000    68.9620    22.7810     7.1030     5.6090     8.0770     2.1450   -31.7190 
   81.1250    67.0210    22.7660     7.1230     5.5780     8.0320     2.1520   -31.7700 
   81.2500    67.3280    22.7690     7.2040     5.5810     8.0340     2.1530   -31.8310 
   81.3750    68.2520    22.7740     7.3130     5.6050     8.0490     2.1570   -31.8850 
   81.5000    67.0360    22.7610     7.4020     5.6390     8.0560     2.1670   -31.9090 
   81.6250    63.1900    22.7350     7.4220     5.6740     8.0510     2.1740   -31.8730 
   81.7500    58.7250    22.7160     7.4060     5.7110     8.0440     2.1700   -31.7550 
   81.8750    56.7150    22.7110     7.4230     5.7440     8.0290     2.1580   -31.5280 
   82.0000    58.5220    22.7350     7.4980     5.7580     7.9720     2.1450   -31.1530 
   82.1250    64.8330    22.8390     7.4920     5.7070     7.7990     2.1400   -30.5280 
   82.2500    72.7060    23.0500     7.2020     5.5720     7.4930     2.1480   -29.6810 
   82.3750    81.6260    23.4100     6.5450     5.3510     7.0700     2.1730   -28.6370 
   82.5000    91.8180    23.9220     5.6780     5.0700     6.5900     2.2150   -27.4150 
   82.6250    99.0860    24.4910     4.9830     4.7790     6.1500     2.2600   -26.0790 
   82.7500   100.6470    24.9160     4.6300     4.5260     5.8110     2.2920   -24.7230 
   82.8750    99.7000    25.1270     4.5050     4.3280     5.5860     2.3160   -23.4120 
   83.0000   100.6560    25.2220     4.4210     4.1790     5.4460     2.3370   -22.1980 
   83.1250   103.1780    25.3490     4.3080     4.0620     5.3300     2.3520   -21.1620 
   83.2500   101.5920    25.4560     4.2180     3.9490     5.1680     2.3520   -20.3190 
   83.3750    97.2540    25.4200     4.1560     3.8270     4.9220     2.3420   -19.6850 
   83.5000    95.6140    25.2910     4.1100     3.7050     4.6250     2.3290   -19.2850 
   83.6250    97.4570    25.2240     4.1260     3.6690     4.4790     2.3190   -19.1490 
   83.7500    96.4090    25.1730     4.2090     3.8390     4.7440     2.3200   -19.2210 
   83.8750    90.8920    25.0420     4.7810     4.3770     5.6980     2.3490   -19.4800 
   84.0000    85.2630    24.8820     7.4590     5.4710     7.6050     2.4110   -19.9380 
   84.1250    82.4960    24.7990    16.7830     7.4180    10.7970     2.4790   -20.6740 
   84.2500    79.3640    24.7500    31.8220     9.9570    14.6410     2.5130   -21.5830 
   84.3750    75.8010    24.6760    41.1140    12.2750    17.5980     2.4970   -22.5800 
   84.5000    74.3960    24.5430    35.1220    13.0980    17.7110     2.4350   -23.6080 
   84.6250    75.8040    24.2260    20.2410    11.7470    14.7260     2.3370   -24.5550 
   84.7500    77.4920    23.7720    10.7730     9.6600    11.3410     2.2430   -25.3480 
   84.8750    78.2750    23.3640     6.8390     7.7930     8.8070     2.1900   -25.9430 
   85.0000    79.7810    23.1740     5.6390     6.4790     7.2950     2.1960   -26.2920 
   85.1250    83.8720    23.2980     5.3770     5.7280     6.5950     2.2350   -26.3200 
   85.2500    88.7920    23.6120     5.1240     5.2710     6.2160     2.2600   -26.1430 
   85.3750    91.3570    23.9550     4.8980     4.9800     5.9480     2.2600   -25.8490 
   85.5000    90.2250    24.1310     4.8750     4.8170     5.7750     2.2510   -25.5070 
   85.6250    88.3550    24.0750     5.0310     4.8950     5.9490     2.2660   -25.2190 
   85.7500    87.1540    24.0890     5.2280     5.3160     6.6920     2.3240   -25.0430 
   85.8750    84.5530    24.3410     6.0100     6.1800     8.1760     2.4180   -25.0280 
   86.0000    78.4300    24.6660     8.9380     7.5080    10.4130     2.5100   -25.2330 
   86.1250    72.5720    24.7480    15.8900     9.0890    12.9950     2.5340   -25.6910 
   86.2500    70.4740    24.6140    21.5400    10.2710    14.7390     2.4760   -26.3190 
   86.3750    71.0270    24.3370    20.3040    10.4970    14.6900     2.3650   -27.0680 
   86.5000    71.1180    23.9130    13.8940     9.7470    13.0300     2.2490   -27.8730 
   86.6250    69.9070    23.4800     9.6490     8.5650    10.9870     2.1790   -28.6640 
   86.7500    70.7200    23.2810     8.3390     7.5730     9.5350     2.1580   -29.3960 
   86.8750    72.5380    23.2990     8.1290     6.9520     8.8250     2.1650   -30.0400 
   87.0000    72.1260    23.3320     8.1120     6.6860     8.7010     2.1740   -30.5770 
   87.1250    67.0590    23.2740     8.1570     6.6850     8.9170     2.1730   -30.9860 
   87.2500    61.5780    23.2040     8.2680     6.7710     9.1710     2.1690   -31.2890 
   87.3750    61.4120    23.1800     8.4140     6.8630     9.3530     2.1680   -31.5020 
   87.5000    67.1650    23.1740     8.5710     6.9260     9.4420     2.1720   -31.6460 
   87.6250    73.6060    23.1220     8.6940     6.9480     9.4550     2.1750   -31.7600 
   87.7500    73.9300    23.0500     8.7510     6.9390     9.4300     2.1730   -31.8750 
   87.8750    68.4690    23.0050     8.7560     6.9060     9.3790     2.1680   -32.0010 
   88.0000    63.0120    23.0030     8.7340     6.8510     9.3040     2.1600   -32.1240 
   88.1250    62.1110    23.0120     8.6830     6.7790     9.2120     2.1500   -32.2620 
   88.2500    63.8700    23.0180     8.6410     6.6990     9.1230     2.1380   -32.4170 
   88.3750    65.3390    23.0380     8.6570     6.6190     9.0550     2.1280   -32.5860 
   88.5000    65.4050    23.0780     8.7400     6.5450     9.0180     2.1260   -32.7730 
   88.6250    64.7100    23.1290     8.8020     6.4800     9.0030     2.1300   -32.9630 
