~V
VERS. 2.00: Ver 2.00
~W
STRT.M 60.0000:
STOP.M 268.0000:
STEP.M 0.1250:
NULL. -999.2500:
UWI. DF33031:
~C
DEPT.M :
SP.MV :
GR.API :
CALI.CM :
RXO.OHMM :
RI. :
RML.OHMM :
DEN.GM/CC :
~A
# ...
   71.2500   -36.1270    78.2310    22.3790     9.1950     6.7320    10.1030     2.2260 
   71.3750   -36.2000    71.2570    22.3790     9.7210     7.0970    10.4670     2.2540 
   71.5000   -36.2280    66.0420    22.3790     9.9320     7.3050    10.6320     2.2620 
   71.6250   -36.1990    67.8170    22.4040     9.7200     7.2650    10.5070     2.2420 
   71.7500   -36.1330    71.2150    22.4700     9.4420     7.0670    10.2180     2.2170 
   71.8750   -36.0490    72.0710    22.5550     9.3630     6.8150     9.8960     2.2060 
   72.0000   -36.0020    70.8680    22.6010     9.3920     6.6020     9.6380     2.2110 
   72.1250   -35.9460    71.3310    22.6090     9.3090     6.4870     9.5010     2.2180 
   72.2500   -35.9110    71.7650    22.6120     9.1160     6.4430     9.4510     2.2140 
   72.3750   -35.8940    71.8290    22.6260     8.9460     6.4280     9.4470     2.1980 
   72.5000   -35.8620    74.1510    22.6600     8.8300     6.4170     9.4460     2.1770 
   72.6250   -35.8210    77.1390    22.6880     8.7490     6.3980     9.4340     2.1570 
   72.7500   -35.7400    74.6240    22.7000     8.7020     6.3790     9.4300     2.1440 
   72.8750   -35.5810    67.8330    22.7010     8.7450     6.3620     9.4540     2.1430 
   73.0000   -35.3430    64.1260    22.7060     8.8300     6.3400     9.5060     2.1510 
   73.1250   -35.0780    65.7990    22.7270     8.8090     6.3040     9.5380     2.1610 
   73.2500   -34.8220    69.1460    22.7610     8.6110     6.2370     9.4740     2.1700 
   73.3750   -34.5750    72.1270    22.7850     8.2630     6.1370     9.2850     2.1840 
   73.5000   -34.4160    72.9070    22.7930     7.7420     6.0210     9.0200     2.2120 
   73.6250   -34.4040    72.6160    22.7930     7.2710     5.9200     8.8030     2.2500 
   73.7500   -34.4990    75.9010    22.7960     6.8960     5.8700     8.7370     2.2800 
   73.8750   -34.6890    82.0900    22.8080     6.7700     5.8940     8.8440     2.2810 
   74.0000   -34.9710    85.2890    22.8310     7.0600     5.9860     9.0550     2.2500 
   74.1250   -35.3360    83.1770    22.8600     7.7820     6.1100     9.2240     2.1980 
   74.2500   -35.6850    78.2180    22.9090     8.5210     6.1890     9.2580     2.1540 
   74.3750   -36.0070    71.5030    22.9620     8.8710     6.1780     9.1650     2.1290 
   74.5000   -36.2650    65.5600    22.9880     8.8580     6.0690     9.0220     2.1220 
   74.6250   -36.3930    64.0040    22.9890     8.7220     5.9110     8.9290     2.1210 
   74.7500   -36.3770    64.3720    22.9890     8.7210     5.7990     8.9180     2.1210 
   74.8750   -36.2200    63.7570    22.9890     8.8030     5.7860     8.9690     2.1260 
   75.0000   -35.8990    63.2820    22.9890     8.8170     5.8730     9.0500     2.1330 
   75.1250   -35.4030    64.3150    22.9890     8.7080     6.0190     9.1350     2.1380 
   75.2500   -34.8220    65.0000    22.9890     8.7120     6.1370     9.1900     2.1390 
   75.3750   -34.1910    65.4210    22.9890     8.8720     6.1720     9.1800     2.1420 
   75.5000   -33.5320    67.4690    22.9890     9.0210     6.1060     9.0700     2.1550 
   75.6250   -32.8580    70.7600    22.9890     8.8250     5.9540     8.8370     2.1810 
   75.7500   -32.2050    73.1320    22.9890     8.2580     5.8020     8.5560     2.2120 
   75.8750   -31.5660    74.9560    22.9900     7.6540     5.7130     8.3300     2.2300 
   76.0000   -30.9820    76.8790    23.0240     7.3620     5.7310     8.2650     2.2260 
   76.1250   -30.4480    78.8480    23.1410     7.3760     5.9030     8.4820     2.2030 
   76.2500   -29.9450    79.9140    23.3400     7.6840     6.1890     8.9210     2.1840 
   76.3750   -29.4000    78.5950    23.5370     8.3450     6.5050     9.4290     2.1840 
   76.5000   -28.7680    75.8040    23.6990     8.9880     6.7070     9.7410     2.2070 
   76.6250   -28.0710    75.9080    23.7830     8.9750     6.5930     9.5140     2.2450 
   76.7500   -27.3890    81.2590    23.8440     8.0500     6.1700     8.8050     2.2850 
   76.8750   -26.8080    92.3820    23.9060     6.5600     5.5500     7.8530     2.3190 
   77.0000   -26.3400   106.6730    23.9700     5.2560     4.9130     6.9790     2.3450 
   77.1250   -26.0240   117.1210    23.9770     4.8390     4.4510     6.4810     2.3610 
   77.2500   -25.8520   118.5240    23.9460     4.8550     4.2040     6.3290     2.3720 
   77.3750   -25.8900   112.8600    23.8800     5.1020     4.1610     6.4040     2.3790 
   77.5000   -26.1630   105.7210    23.7600     5.5090     4.2870     6.5750     2.3780 
   77.6250   -26.6590   101.1190    23.5470     5.8690     4.5710     6.8150     2.3740 
   77.7500   -27.2670   100.0660    23.3190     5.9280     4.9920     7.2280     2.3790 
   77.8750   -27.9530   101.8080    23.1220     6.1650     5.5900     7.9760     2.3980 
   78.0000   -28.6760   102.6970    23.0180     7.5840     6.4080     9.1560     2.4170 
   78.1250   -29.4070    95.4570    22.9850    11.3890     7.4230    10.6610     2.4030 
   78.2500   -30.0880    83.3050    22.9520    14.4920     8.3610    11.9410     2.3480 
   78.3750   -30.6560    72.8790    22.8640    14.0780     8.9060    12.4610     2.2700 
   78.5000   -31.1160    68.6250    22.7540    11.2720     8.8930    12.0620     2.1990 
   78.6250   -31.4700    69.5160    22.7050     9.8770     8.4150    11.0860     2.1650 
   78.7500   -31.7540    71.5340    22.6960     9.3750     7.8720    10.1960     2.1600 
   78.8750   -31.9590    73.1510    22.7000     9.1780     7.4850     9.6760     2.1660 
   79.0000   -32.1040    72.1970    22.7010     9.1480     7.3310     9.5770     2.1700 
   79.1250   -32.1680    68.7220    22.7010     9.2380     7.3900     9.8380     2.1690 
   79.2500   -32.1930    66.5870    22.7010     9.2400     7.5360    10.2460     2.1680 
   79.3750   -32.2310    67.0560    22.7150     9.1840     7.6810    10.6550     2.1710 
   79.5000   -32.2690    68.4870    22.7910     9.2710     7.7380    10.9070     2.1790 
   79.6250   -32.3470    68.1410    22.9970     9.4690     7.5970    10.7920     2.1920 
   79.7500   -32.3850    68.2910    23.2010     9.2460     7.2660    10.3200     2.1980 
   79.8750   -32.4050    72.1070    23.3000     8.5130     6.8440     9.6590     2.1910 
   80.0000   -32.4280    77.1360    23.3210     7.9200     6.5310     9.1630     2.1760 
   80.1250   -32.4580    79.3020    23.3300     8.2110     6.7010     9.4330     2.1890 
   80.2500   -32.5340    78.6480    23.3530     9.2650     7.5910    10.7970     2.2520 
   80.3750   -32.6660    75.3250    23.3790    11.3440     9.3970    13.5220     2.3550 
   80.5000   -32.8180    68.4500    23.3910    16.8530    12.0820    17.5280     2.4620 
   80.6250   -32.9350    62.8420    23.3840    27.9800    14.8050    21.3860     2.5080 
   80.7500   -33.1080    63.7810    23.3180    34.3550    15.9380    22.4360     2.4760 
   80.8750   -33.2890    67.3240    23.1340    29.1300    14.8470    19.9380     2.3910 
   81.0000   -33.4650    68.3530    22.8850    18.2660    12.4650    15.8780     2.2970 
   81.1250   -33.6640    67.9880    22.7700    12.5120    10.2150    12.6370     2.2390 
   81.2500   -33.8700    68.6350    22.7300    10.6270     8.6710    10.7150     2.2180 
   81.3750   -34.0760    67.8360    22.7180    10.1830     7.8300     9.8970     2.2170 
   81.5000   -34.3130    64.2570    22.7130    10.1910     7.5260     9.8020     2.2140 
   81.6250   -34.5500    60.6290    22.7180    10.2480     7.5780    10.0480     2.1950 
   81.7500   -34.7490    59.8400    22.7300    10.2140     7.7250    10.2680     2.1700 
   81.8750   -34.8740    62.1820    22.7400    10.1390     7.8620    10.3750     2.1560 
   82.0000   -34.9290    65.9280    22.7370    10.1730     7.9730    10.4210     2.1610 
   82.1250   -34.9620    68.1000    22.7260    10.3460     8.0850    10.4950     2.1800 
   82.2500   -34.9710    69.0420    22.7270    10.5270     8.2050    10.6240     2.2010 
   82.3750   -34.9760    68.5320    22.7270    10.6500     8.2940    10.7880     2.2210 
