~V
VERS. 2.00: Ver 2.00
~W
STRT.M 60.0000:
STOP.M 268.0000:
STEP.M 0.1250:
NULL. -999.2500:
UWI. DF33031:
~C
DEPT.M :
SP.MV :
GR.API :
CALI.CM :
RXO.OHMM :
RI. :
RML.OHMM :
DEN.GM/CC :
~A
# ...
   82.5000   -34.9350    67.2580    22.7330    10.7140     8.3000    10.9260     2.2370 
   82.6250   -34.8600    67.1220    22.7300    10.6190     8.1600    10.9250     2.2430 
   82.7500   -34.7880    68.2680    22.7320    10.4050     7.8800    10.7090     2.2370 
   82.8750   -34.7580    68.0830    22.7250    10.1670     7.4800    10.2330     2.2240 
   83.0000   -34.7760    65.5850    22.7240     9.9900     7.0420     9.5840     2.2100 
   83.1250   -34.7290    63.6860    22.7310     9.8460     6.7880     9.1310     2.2050 
   83.2500   -34.6720    65.0400    22.7360     9.7160     6.9490     9.2930     2.2170 
   83.3750   -34.6160    68.5770    22.8000    10.0550     7.7230    10.3990     2.2560 
   83.5000   -34.6110    71.2740    23.0060    11.9840     9.2270    12.6570     2.3260 
   83.6250   -34.6590    69.9940    23.3600    19.8610    11.4280    16.0190     2.4060 
   83.7500   -34.7270    65.5300    23.6340    32.1490    13.4850    19.0650     2.4490 
   83.8750   -34.8050    61.0250    23.5400    36.6270    14.2780    19.8740     2.4190 
   84.0000   -34.8190    59.2250    22.9130    27.1380    13.2520    17.7040     2.3270 
   84.1250   -34.7640    61.1900    22.3390    14.4960    11.0620    14.0920     2.2240 
   84.2500   -34.5600    63.7450    22.0770     9.1140     9.0040    11.0960     2.1630 
   84.3750   -34.1770    64.2260    22.0250     7.5510     7.5390     9.2380     2.1470 
   84.5000   -33.6480    62.8770    22.0230     7.1700     6.7410     8.4380     2.1580 
   84.6250   -32.9860    62.8520    22.0230     7.1420     6.5810     8.5090     2.1780 
   84.7500   -32.2260    66.9540    22.0280     7.3460     6.7790     9.0020     2.2190 
   84.8750   -31.4530    73.5930    22.0820     8.0490     7.1650     9.6610     2.2880 
   85.0000   -30.7750    80.6610    22.3020     9.0230     7.5690    10.2430     2.3670 
   85.1250   -30.3120    86.4700    22.7740     9.4970     7.7880    10.4890     2.4210 
   85.2500   -30.0940    90.4660    23.2220     9.1950     7.7370    10.3570     2.4360 
   85.3750   -30.1370    90.8360    23.3760     8.5720     7.4180     9.9070     2.4170 
   85.5000   -30.3900    87.7770    23.2560     7.9590     6.9410     9.2990     2.3840 
   85.6250   -30.8230    86.6030    23.0200     7.4490     6.5160     8.7770     2.3610 
   85.7500   -31.4580    86.7290    22.9190     7.1040     6.2850     8.4950     2.3440 
   85.8750   -32.2200    84.7270    22.8600     7.0790     6.2850     8.4990     2.3180 
   86.0000   -33.0070    80.6670    22.7470     7.5060     6.4850     8.7710     2.2810 
   86.1250   -33.7240    78.6540    22.5220     8.5220     6.8420     9.2910     2.2530 
   86.2500   -34.3060    78.3960    22.4040     9.6750     7.2860     9.9490     2.2420 
   86.3750   -34.7560    76.2200    22.3700    10.4450     7.7890    10.6730     2.2430 
   86.5000   -35.0990    72.8870    22.3680    10.7480     8.3290    11.3910     2.2480 
   86.6250   -35.3710    72.8360    22.3680    10.7510     8.8310    11.9720     2.2570 
   86.7500   -35.5330    73.4470    22.3680    10.6480     9.1830    12.3020     2.2590 
   86.8750   -35.5980    71.3620    22.3680    10.4900     9.3010    12.3040     2.2470 
   87.0000   -35.6420    66.9980    22.3680    10.3730     9.1850    12.0100     2.2240 
   87.1250   -35.6870    64.3490    22.3680    10.3880     8.9100    11.5730     2.2120 
   87.2500   -35.7760    65.5770    22.3680    10.5750     8.6420    11.2130     2.2200 
   87.3750   -35.8850    68.4800    22.3680    10.9530     8.4670    11.0260     2.2350 
   87.5000   -35.9470    70.2020    22.3680    11.4000     8.4030    11.0060     2.2380 
   87.6250   -35.9400    68.3700    22.3680    11.4940     8.3790    11.0200     2.2210 
   87.7500   -35.8650    65.1370    22.3680    11.0870     8.2740    10.9050     2.2000 
   87.8750   -35.6850    62.4410    22.3680    10.4840     8.0420    10.6320     2.1890 
   88.0000   -35.3860    61.5080    22.3680    10.0060     7.7140    10.2950     2.1960 
   88.1250   -35.0220    63.5350    22.3690     9.7650     7.3780    10.0180     2.2110 
   88.2500   -34.6330    66.4930    22.3710     9.7380     7.0830     9.7740     2.2170 
   88.3750   -34.1890    70.1060    22.3740     9.8650     6.8070     9.4510     2.2090 
   88.5000   -33.7640    73.4410    22.3900     9.9660     6.5510     9.0290     2.1970 
   88.6250   -33.3720    76.9240    22.4350     9.6530     6.4610     8.7920     2.2050 
   88.7500   -33.0410    80.1470    22.5400     8.9120     6.7280     9.1210     2.2490 
   88.8750   -32.8420    82.3130    22.7760     8.4430     7.5270    10.3260     2.3340 
   89.0000   -32.7810    84.3010    23.1570    10.0870     8.9550    12.5650     2.4380 
   89.1250   -32.8730    85.0920    23.3940    16.5860    10.8910    15.6210     2.5050 
   89.2500   -33.0160    82.0890    23.3930    20.7840    12.5020    18.0480     2.5000 
   89.3750   -33.2150    74.6320    23.1450    18.2970    12.8890    18.3180     2.4200 
   89.5000   -33.4520    68.2920    22.7310    12.7140    11.8570    16.2820     2.3040 
   89.6250   -33.6980    69.0920    22.5380    10.2540    10.1530    13.4750     2.2140 
   89.7500   -33.8890    70.9710    22.4830     9.5770     8.7250    11.3760     2.1690 
   89.8750   -34.0110    71.4940    22.4830     9.4790     7.8440    10.2650     2.1560 
   90.0000   -34.0870    72.3490    22.4830     9.5360     7.4800     9.9540     2.1540 
   90.1250   -34.0400    73.3700    22.4830     9.5810     7.4890    10.1110     2.1540 
   90.2500   -33.9620    72.7000    22.4850     9.5740     7.6290    10.3420     2.1540 
   90.3750   -33.8930    71.5770    22.4900     9.5760     7.7980    10.5160     2.1510 
   90.5000   -33.8250    71.6690    22.4930     9.6960     7.9510    10.6210     2.1450 
   90.6250   -33.7890    71.9260    22.4960    10.1210     8.0580    10.6720     2.1370 
   90.7500   -33.8210    71.7330    22.5160    10.6580     8.1030    10.6850     2.1300 
   90.8750   -33.8630    70.7270    22.5680    10.8370     8.0800    10.6620     2.1270 
   91.0000   -33.8370    68.7900    22.6390    10.4770     8.0090    10.6180     2.1290 
   91.1250   -33.7890    68.2600    22.6710     9.9120     7.9290    10.5880     2.1430 
   91.2500   -33.7180    71.2550    22.6780     9.6090     7.8610    10.5970     2.1610 
   91.3750   -33.6050    75.5040    22.6780     9.5270     7.7960    10.6340     2.1800 
   91.5000   -33.4520    78.0490    22.6780     9.4960     7.7150    10.6600     2.1940 
   91.6250   -33.2710    79.7110    22.6780     9.3550     7.6140    10.6120     2.1960 
   91.7500   -33.0500    81.7960    22.6780     9.1830     7.4990    10.4890     2.1840 
   91.8750   -32.8100    82.6880    22.6780     9.1500     7.3890    10.3280     2.1640 
   92.0000   -32.5500    79.4410    22.6780     9.2870     7.2970    10.1820     2.1450 
   92.1250   -32.2520    72.9390    22.6810     9.4670     7.2130    10.0870     2.1400 
   92.2500   -31.9150    68.3130    22.7040     9.5450     7.1160    10.0080     2.1450 
   92.3750   -31.5600    68.9450    22.7690     9.4120     6.9800     9.8870     2.1570 
   92.5000   -31.1950    74.9930    22.8860     8.9670     6.7960     9.6710     2.1720 
   92.6250   -30.7410    80.7260    23.0570     8.5040     6.5680     9.3510     2.1890 
   92.7500   -30.2900    83.9530    23.2160     8.0440     6.3360     9.0180     2.2080 
   92.8750   -29.8750    86.3950    23.2790     7.5740     6.1440     8.7570     2.2260 
   93.0000   -29.4870    90.2300    23.2760     7.1540     6.0240     8.6260     2.2360 
   93.1250   -29.1670    95.0760    23.2120     6.9880     6.0050     8.6450     2.2340 
   93.2500   -28.9350    97.0480    23.0980     6.9150     6.0450     8.7190     2.2270 
   93.3750   -28.7540    95.1140    23.0090     6.8370     6.0910     8.7560     2.2240 
   93.5000   -28.6090    90.1500    22.9770     6.7730     6.0840     8.6970     2.2270 
   93.6250   -28.6380    86.5820    22.9540     6.7790     5.9780     8.5410     2.2320 
