~V
VERS. 2.00: Ver 2.00
~W
STRT.M 55.0000:
STOP.M 246.0000:
STEP.M 0.1250:
NULL. -999.2500:
UWI. DF33025:
~C
DEPT.M :
SP.MV :
GR.API :
CALI.CM :
RXO.OHMM :
RI. :
RML.OHMM :
DEN.GM/CC :
~A
# ...
  122.5000   -21.2340    82.0360    24.8850     8.7230     6.2860     7.9760     2.1870 
  122.6250   -20.8300    81.6370    24.9020     9.2080     6.8040     8.6610     2.2060 
  122.7500   -20.4780    80.9870    24.9300    10.6900     7.7580     9.8950     2.2460 
  122.8750   -20.1990    78.3040    24.9570    12.9370     9.0610    11.5840     2.3060 
  123.0000   -20.0020    73.5550    24.9500    15.0920    10.4520    13.3880     2.3740 
  123.1250   -19.9210    69.0260    25.0100    15.9900    11.4050    14.5320     2.4310 
  123.2500   -19.9040    65.2960    24.8700    15.8170    11.6170    14.5510     2.4560 
  123.3750   -19.9290    63.1380    24.6290    14.9050    11.1070    13.5200     2.4450 
  123.5000   -19.9960    63.0480    24.5580    13.5540    10.1550    11.9700     2.4040 
  123.6250   -20.0720    66.0760    24.6590    11.9770     9.1210    10.5330     2.3500 
  123.7500   -20.1060    72.2670    24.7230    10.7240     8.2970     9.5470     2.2970 
  123.8750   -20.0160    79.2810    24.7410    10.0860     7.8340     9.1160     2.2530 
  124.0000   -19.7700    82.8760    24.7620    10.0750     7.7930     9.2300     2.2230 
  124.1250   -19.3280    80.4090    24.8140    10.5980     8.1710     9.8480     2.2030 
  124.2500   -18.7480    74.6840    24.8590    11.5890     8.7300    10.6810     2.1920 
  124.3750   -18.0640    70.0310    24.8940    12.5900     9.2680    11.4490     2.1970 
  124.5000   -17.2870    68.8890    24.9360    12.5560     9.6330    11.8940     2.2260 
  124.6250   -16.5140    70.1610    24.9430    11.4000     9.7790    11.8990     2.2860 
  124.7500   -15.7500    70.8570    24.8260    10.7080     9.8530    11.7540     2.3550 
  124.8750   -15.0410    70.0890    24.7030    10.6730     9.9810    11.7320     2.4050 
  125.0000   -14.4140    69.1350    24.8310    10.8130    10.2540    12.0150     2.4160 
  125.1250   -13.8810    70.7640    25.0010    11.1980    10.7620    12.6870     2.3990 
  125.2500   -13.4050    72.9350    25.1270    12.1780    11.4210    13.5280     2.3900 
  125.3750   -12.9980    71.6730    25.0950    13.5110    12.0800    14.2800     2.4060 
  125.5000   -12.6760    66.3160    24.9130    14.4750    12.5610    14.7160     2.4400 
  125.6250   -12.3830    62.4980    24.8300    14.4040    12.7460    14.7310     2.4680 
  125.7500   -12.1240    63.5560    24.7840    14.0360    12.7740    14.5570     2.4810 
  125.8750   -11.9150    65.6450    24.7370    13.8330    12.7880    14.4040     2.4920 
  126.0000   -11.7360    66.1950    24.6610    13.7320    12.8890    14.4170     2.5150 
  126.1250   -11.5950    65.2290    24.6890    13.4360    13.1220    14.6750     2.5490 
  126.2500   -11.4860    64.0020    24.7030    13.0860    13.4440    15.0790     2.5750 
  126.3750   -11.4100    61.7490    24.6800    13.1830    13.8200    15.5390     2.5850 
  126.5000   -11.3520    58.8120    24.6140    13.5770    14.2000    15.9720     2.5780 
  126.6250   -11.3190    57.2080    24.6120    14.5230    14.4650    16.2810     2.5690 
  126.7500   -11.3120    58.2470    24.6530    15.3640    14.5130    16.3790     2.5690 
  126.8750   -11.3200    61.2130    24.7180    15.6840    14.3010    16.1860     2.5760 
  127.0000   -11.3340    63.3420    24.7550    15.3340    13.9150    15.7420     2.5830 
  127.1250   -11.3660    64.4030    24.7540    14.4170    13.5740    15.2640     2.5840 
  127.2500   -11.4160    65.9420    24.7590    13.3180    13.4950    15.0750     2.5850 
  127.3750   -11.4530    67.1020    24.7830    12.8780    13.8560    15.4420     2.5870 
  127.5000   -11.4800    65.2690    24.8510    14.2020    14.8140    16.5660     2.5910 
  127.6250   -11.5180    61.3330    24.9030    18.1280    16.5960    18.6740     2.5960 
  127.7500   -11.5590    58.1370    24.9470    22.2990    19.0280    21.5030     2.6100 
  127.8750   -11.5960    57.5680    24.9910    24.4130    21.8400    24.7070     2.6390 
  128.0000   -11.6330    58.3110    25.0270    25.1350    24.5760    27.7310     2.6740 
  128.1250   -11.6940    58.9280    25.0390    27.1510    26.5590    29.7260     2.6910 
  128.2500   -11.7420    57.3540    24.9660    30.5770    27.5550    30.4630     2.6850 
  128.3750   -11.8190    53.2320    24.9570    32.9230    27.5640    30.0450     2.6620 
  128.5000   -11.9070    50.6380    25.0000    31.9800    26.7830    28.8310     2.6350 
  128.6250   -11.9990    53.8180    24.9780    27.6310    25.5300    27.2700     2.6090 
  128.7500   -12.0870    59.4830    25.0200    24.0180    24.2880    25.8410     2.5780 
  128.8750   -12.1710    62.0610    25.1050    22.2800    23.3200    24.7820     2.5440 
  129.0000   -12.2430    59.5540    24.9570    21.9720    22.7320    24.1830     2.5200 
  129.1250   -12.2990    56.3300    24.8840    22.3620    22.5370    24.0250     2.5170 
  129.2500   -12.3650    55.6040    24.8670    22.4230    22.5480    24.0490     2.5230 
  129.3750   -12.4260    57.1290    24.8730    21.9140    22.6390    24.0690     2.5230 
  129.5000   -12.4870    58.6200    24.8400    21.1460    22.7120    23.9800     2.5070 
  129.6250   -12.5320    58.1690    24.7680    20.4680    22.6940    23.7580     2.4790 
  129.7500   -12.5780    57.5750    24.7280    20.3410    22.5850    23.4700     2.4590 
  129.8750   -12.6240    57.9470    24.7760    20.9610    22.3970    23.1460     2.4580 
  130.0000   -12.6880    58.8210    24.9450    21.8660    22.1400    22.7850     2.4710 
  130.1250   -12.7230    58.4760    25.2580    22.2000    21.8160    22.3750     2.4850 
  130.2500   -12.7610    57.1250    25.3600    21.2980    21.4730    21.9500     2.4930 
  130.3750   -12.7760    57.3570    25.3590    20.0150    21.1880    21.5820     2.4950 
  130.5000   -12.7920    59.3740    25.3310    19.2940    21.0630    21.3910     2.4930 
  130.6250   -12.8010    61.0790    25.4520    19.6090    21.2450    21.5810     2.4930 
  130.7500   -12.8130    60.9040    25.6800    20.1110    21.7260    22.1650     2.5060 
  130.8750   -12.8300    60.0190    25.7480    20.7150    22.4330    23.0440     2.5330 
  131.0000   -12.8280    59.8040    25.5870    21.9460    23.1120    23.8960     2.5610 
  131.1250   -12.8410    58.2970    25.4490    24.3890    23.1990    24.0590     2.5690 
  131.2500   -12.8160    55.5080    25.3640    25.8090    22.4820    23.3060     2.5590 
  131.3750   -12.7870    54.8980    25.3270    24.6360    21.1710    21.8940     2.5380 
  131.5000   -12.7490    58.5080    25.3130    21.5400    19.7710    20.4060     2.5160 
  131.6250   -12.7250    62.6090    25.2940    18.7470    18.8840    19.5420     2.5100 
  131.7500   -12.6880    63.2950    25.2580    18.3020    18.7100    19.5220     2.5250 
  131.8750   -12.6330    60.9810    25.2080    20.4860    19.2420    20.3240     2.5540 
  132.0000   -12.5840    57.2460    25.1420    23.4850    20.3150    21.7110     2.5850 
  132.1250   -12.5310    53.7940    25.1140    24.0810    21.7110    23.3360     2.6010 
  132.2500   -12.5080    53.6010    25.1390    23.5410    23.1470    24.8520     2.6000 
  132.3750   -12.5170    56.4000    25.2210    23.8250    24.4440    26.1170     2.5920 
  132.5000   -12.5540    57.3520    25.3050    26.0070    25.4520    27.0620     2.5910 
  132.6250   -12.5770    55.1840    25.2980    29.2190    25.9270    27.4870     2.5990 
  132.7500   -12.6060    54.7650    25.2390    30.5290    25.7730    27.2450     2.6040 
  132.8750   -12.6440    57.0710    25.1240    27.8670    24.9620    26.2650     2.5910 
  133.0000   -12.7000    59.8700    24.9740    22.9980    23.7470    24.8500     2.5600 
  133.1250   -12.7460    61.0320    24.7470    19.3770    22.6690    23.6710     2.5290 
  133.2500   -12.7920    60.7160    24.5450    18.6150    22.1540    23.2210     2.5180 
  133.3750   -12.8240    59.0530    24.5890    19.5920    22.3700    23.6690     2.5350 
  133.5000   -12.8400    56.9990    24.7730    21.8220    23.2750    24.9080     2.5690 
  133.6250   -12.8920    56.1790    24.8080    25.1450    24.5860    26.5370     2.6010 
