~V
VERS. 2.00: Ver 2.00
~W
STRT.M 55.0000:
STOP.M 272.0000:
STEP.M 0.1250:
NULL. -999.2500:
UWI. DF33042:
~C
DEPT.M :
SP.MV :
GR.API :
RML.OHMM :
RI. :
RXO.OHMM :
CALI.CM :
DEN.GM/CC :
~A
# ...
  190.0000   -28.6080    83.4590    13.3010    11.1600     9.6450    23.2570     2.3980 
  190.1250   -28.5610    85.9210    13.7740    11.6240     9.6170    23.2510     2.3950 
  190.2500   -28.4890    87.7160    13.8280    11.8090     9.5120    23.2520     2.3910 
  190.3750   -28.4090    88.8420    13.5480    11.7210     9.4980    23.2580     2.3900 
  190.5000   -28.3530    89.8970    13.0880    11.4450     9.4220    23.2700     2.3900 
  190.6250   -28.2890    89.5220    12.6310    11.1070     9.2290    23.2930     2.3880 
  190.7500   -28.2470    88.5360    12.3420    10.8570     9.3890    23.3090     2.3840 
  190.8750   -28.1950    87.9810    12.3450    10.8060     9.6820    23.3080     2.3780 
  191.0000   -28.1710    87.7430    12.7180    11.0320     9.8860    23.2900     2.3710 
  191.1250   -28.1150    87.5980    13.5150    11.5940    10.1040    23.2570     2.3650 
  191.2500   -28.0620    85.4280    14.5440    12.3570    11.0690    23.2320     2.3590 
  191.3750   -27.9810    81.1460    15.5900    13.1580    13.1260    23.2160     2.3520 
  191.5000   -27.8550    77.9750    16.4120    13.7900    14.9440    23.2280     2.3440 
  191.6250   -27.6600    78.0240    16.7370    13.9940    14.8360    23.2800     2.3390 
  191.7500   -27.4100    79.7430    16.5860    13.7600    13.8600    23.3050     2.3360 
  191.8750   -27.1280    81.5970    16.0350    13.1490    12.5650    23.2970     2.3350 
  192.0000   -26.8310    82.5990    15.1990    12.2790    11.6510    23.2750     2.3360 
  192.1250   -26.5470    82.5910    14.1540    11.2650    11.2510    23.3150     2.3380 
  192.2500   -26.3220    84.1050    13.0260    10.2420    10.2250    23.4510     2.3420 
  192.3750   -26.1700    87.9410    11.9600     9.3230     8.1170    23.7040     2.3450 
  192.5000   -26.1420    93.0710    11.2140     8.6710     6.5800    24.0950     2.3480 
  192.6250   -26.1920    95.2990    11.4600     8.7360     6.3910    24.3600     2.3430 
  192.7500   -26.3750    92.6910    13.3410     9.9880     6.9370    24.2300     2.3290 
  192.8750   -26.6450    86.9650    17.5060    12.9880     8.2350    23.8010     2.3050 
  193.0000   -26.9800    81.1270    24.1090    18.0020    11.9740    23.6260     2.2760 
  193.1250   -27.3340    74.5000    32.3050    24.6150    23.6810    23.9340     2.2510 
  193.2500   -27.6640    67.3990    39.4530    30.8060    42.3820    24.1910     2.2350 
  193.3750   -27.9440    64.2310    42.9590    34.4760    49.3590    24.3000     2.2310 
  193.5000   -28.1290    66.1520    41.3960    34.2380    39.5320    24.2930     2.2380 
  193.6250   -28.2540    68.1400    36.2120    30.6040    28.6010    24.2290     2.2550 
  193.7500   -28.3000    67.9600    31.8940    27.0280    17.1360    24.2340     2.2740 
  193.8750   -28.2960    66.7610    30.8280    25.9160    13.3870    24.4080     2.2860 
  194.0000   -28.2160    65.4160    34.7330    29.1530    18.9040    24.6580     2.2870 
  194.1250   -28.0600    63.2320    46.8360    39.7280    46.7850    24.8280     2.2710 
  194.2500   -27.8320    60.4100    66.6550    57.3550    99.9680    24.9340     2.2450 
  194.3750   -27.5530    58.2700    91.4780    79.9780   150.5690    24.9200     2.2130 
  194.5000   -27.2460    57.4810   114.6420   102.2200   167.8620    24.8010     2.1860 
  194.6250   -26.9160    58.2520   123.6250   113.8500   162.2100    24.6050     2.1810 
  194.7500   -26.5300    57.6080   113.2000   109.8760   151.2100    24.4340     2.2120 
  194.8750   -26.0980    53.7340    87.6540    91.3120   143.9850    24.2220     2.2850 
  195.0000   -25.6490    49.9900    59.1460    65.6970   146.5200    23.9850     2.3890 
  195.1250   -25.2020    50.4650    38.4790    43.2110   109.4180    23.8480     2.4900 
  195.2500   -24.7730    52.2440    24.9730    27.6460    46.9640    23.8000     2.5510 
  195.3750   -24.3820    51.8600    16.7210    18.2490    18.4810    23.7910     2.5620 
  195.5000   -23.9900    50.0400    12.6090    13.0690    10.2970    23.7840     2.5350 
  195.6250   -23.6620    50.3050    10.8940    10.6810     8.6990    23.7680     2.4940 
  195.7500   -23.3220    49.7660    10.2900     9.6240     8.4390    23.7460     2.4620 
  195.8750   -23.0230    48.4130    10.3790     9.4040     8.4980    23.7320     2.4400 
  196.0000   -22.7220    48.0080    10.8260     9.6680     8.7580    23.7330     2.4290 
  196.1250   -22.4520    48.8640    11.3490    10.1130     9.0050    23.7490     2.4260 
  196.2500   -22.1360    49.2470    11.7800    10.5010    10.3470    23.7720     2.4270 
  196.3750   -21.7980    47.9790    12.1120    10.7760    12.2770    23.7980     2.4280 
  196.5000   -21.4660    45.6390    12.4080    10.9730    12.9580    23.8930     2.4260 
  196.6250   -21.1140    44.4700    12.7340    11.1500    10.8040    24.1480     2.4220 
  196.7500   -20.8250    45.1200    13.0590    11.3030     9.8140    24.4380     2.4210 
  196.8750   -20.5510    45.9410    13.2510    11.3460    10.3580    24.5960     2.4310 
  197.0000   -20.3440    45.5770    13.1450    11.1580    12.2640    24.6440     2.4550 
  197.1250   -20.1690    45.2690    12.5990    10.6410    12.4790    24.6200     2.4810 
  197.2500   -20.0580    45.3410    11.8270     9.9540    11.0790    24.5770     2.4900 
  197.3750   -19.9830    45.9550    11.1290     9.3180     9.1710    24.5690     2.4710 
  197.5000   -19.9300    48.1230    10.8110     8.9630     8.2350    24.5950     2.4310 
  197.6250   -19.9020    51.4040    11.1230     9.0940     8.6160    24.6080     2.3970 
  197.7500   -19.8790    52.6070    11.8840     9.5940    10.4720    24.6060     2.3880 
  197.8750   -19.8660    52.7300    12.8280    10.2730    13.1430    24.6020     2.4060 
  198.0000   -19.8340    53.3650    13.6210    10.8810    13.8850    24.6100     2.4380 
  198.1250   -19.8080    53.6460    13.8830    11.1180    13.8810    24.6510     2.4650 
  198.2500   -19.7980    51.9790    13.6100    10.9480    13.3180    24.6700     2.4780 
  198.3750   -19.7920    49.9090    12.9530    10.4550    12.3580    24.6750     2.4790 
  198.5000   -19.8350    50.7670    12.1560     9.8000    11.8350    24.6750     2.4770 
  198.6250   -19.9060    56.6840    11.4600     9.1530    11.4370    24.7060     2.4760 
  198.7500   -20.0370    66.2800    10.9740     8.6130     9.3470    24.7780     2.4730 
  198.8750   -20.1960    77.5410    10.7370     8.2160     8.2320    24.8530     2.4640 
  199.0000   -20.3800    85.8190    10.7400     7.9780     8.3580    24.8950     2.4460 
  199.1250   -20.5760    88.2480    10.9550     7.9220     9.0180    24.8630     2.4200 
  199.2500   -20.7620    86.5620    11.2700     8.0200     9.5160    24.7360     2.3920 
  199.3750   -20.9390    82.8110    11.6280     8.2670     9.9330    24.5750     2.3710 
  199.5000   -21.0460    78.8540    12.0230     8.6630    10.3900    24.4480     2.3660 
  199.6250   -21.1120    75.3700    12.5450     9.2350    10.8610    24.2290     2.3840 
  199.7500   -21.0840    74.0060    13.2990     9.9660    11.9070    23.9290     2.4150 
  199.8750   -21.0140    73.8000    14.3420    10.8390    12.9970    23.7370     2.4460 
  200.0000   -20.9010    74.7010    15.5900    11.7790    13.1770    23.7560     2.4640 
  200.1250   -20.7480    75.5210    16.7190    12.5900    12.5400    23.9940     2.4650 
  200.2500   -20.5880    73.9050    17.3060    13.0470    14.9340    24.2390     2.4560 
  200.3750   -20.4190    70.7740    17.0150    12.9460    18.2360    24.3340     2.4460 
  200.5000   -20.2740    68.8750    15.7530    12.2020    19.2800    24.3000     2.4360 
  200.6250   -20.0910    71.3200    13.7520    10.8870    15.3990    24.1880     2.4250 
  200.7500   -19.9210    77.3620    11.7380     9.4460    11.8640    24.0610     2.4140 
  200.8750   -19.7360    83.5480    10.1930     8.2320     9.3230    23.9580     2.4070 
  201.0000   -19.5670    86.7570     9.3780     7.4950     7.7820    23.9210     2.4090 
  201.1250   -19.4040    86.6440     9.4690     7.4460     7.3080    24.0040     2.4240 
