~V
VERS. 2.00: Ver 2.00
~W
STRT.M 55.0000:
STOP.M 246.0000:
STEP.M 0.1250:
NULL. -999.2500:
UWI. DF33025:
~C
DEPT.M :
SP.MV :
GR.API :
CALI.CM :
RXO.OHMM :
RI. :
RML.OHMM :
DEN.GM/CC :
~A
# ...
  223.7500   -21.6920    96.5650    24.7780     9.1370     7.7500     9.3530     2.4000 
  223.8750   -21.8820    97.5420    24.5990    10.2490     8.5110    10.2800     2.3850 
  224.0000   -22.0820    96.9440    24.4700    12.3700     9.5840    11.5900     2.3680 
  224.1250   -22.3140    92.1930    24.4980    15.0690    10.9690    13.2560     2.3540 
  224.2500   -22.4390    86.8620    24.5900    17.4070    12.4710    15.0040     2.3450 
  224.3750   -22.3900    84.7540    24.6330    19.1640    13.8610    16.5480     2.3410 
  224.5000   -22.2470    85.8130    24.6160    20.6380    14.8960    17.6180     2.3410 
  224.6250   -22.0640    84.5810    24.6370    20.8190    15.3370    17.9560     2.3430 
  224.7500   -21.7980    81.1320    24.7610    19.6730    15.3060    17.7310     2.3490 
  224.8750   -21.4740    79.6540    24.8430    18.3100    14.9400    17.1480     2.3550 
  225.0000   -21.0330    81.1250    24.8090    17.4980    14.4030    16.4450     2.3550 
  225.1250   -20.4720    83.0650    24.6720    16.7510    13.8760    15.8640     2.3470 
  225.2500   -19.9410    84.0990    24.6660    15.8640    13.5020    15.5170     2.3440 
  225.3750   -19.4420    85.1130    24.8080    15.1720    13.3140    15.4030     2.3490 
  225.5000   -18.8860    85.9260    25.0300    14.9800    13.2430    15.4220     2.3530 
  225.6250   -18.2300    86.0460    25.2120    15.1370    13.1420    15.3800     2.3460 
  225.7500   -17.5770    85.9300    25.3730    14.9610    12.9140    15.1420     2.3340 
  225.8750   -16.9240    86.4270    25.3650    14.2610    12.5710    14.7020     2.3280 
  226.0000   -16.3240    87.0700    25.3190    13.3190    12.2040    14.1920     2.3310 
  226.1250   -15.7700    87.7090    25.3170    12.6680    11.9660    13.8650     2.3360 
  226.2500   -15.1430    87.5680    25.3180    12.6200    11.9630    13.8780     2.3420 
  226.3750   -14.4800    84.9060    25.3280    13.3270    12.2570    14.2770     2.3520 
  226.5000   -13.8840    80.8040    25.3360    14.7340    12.8260    14.9790     2.3740 
  226.6250   -13.4440    80.0860    25.3630    16.2380    13.5220    15.7620     2.4100 
  226.7500   -13.0940    83.0680    25.3900    17.1520    14.0980    16.3660     2.4490 
  226.8750   -12.7840    84.1390    25.4090    17.2620    14.4520    16.7250     2.4810 
  227.0000   -12.4870    80.9690    25.4270    16.7790    14.6470    16.9410     2.4930 
  227.1250   -12.2240    77.2640    25.4350    16.5940    14.8530    17.1930     2.4790 
  227.2500   -12.0900    75.4320    25.4370    17.3330    15.1500    17.5410     2.4600 
  227.3750   -12.0700    75.6110    25.4230    18.8340    15.4470    17.8860     2.4500 
  227.5000   -12.0900    78.1630    25.3800    19.6650    15.5630    18.0290     2.4490 
  227.6250   -12.1020    81.3040    25.2900    18.4000    15.3170    17.7470     2.4420 
  227.7500   -12.1020    81.7090    25.2440    16.7720    14.8650    17.2050     2.4190 
  227.8750   -12.0890    79.5880    25.2310    15.9030    14.4440    16.6960     2.3830 
  228.0000   -12.0410    78.0430    25.2300    15.8060    14.2560    16.4940     2.3480 
  228.1250   -11.9880    79.3060    25.2300    16.4350    14.4110    16.8080     2.3340 
  228.2500   -11.9710    82.7190    25.2300    18.3110    14.7860    17.4850     2.3460 
  228.3750   -11.9360    86.2190    25.2380    20.7590    15.2490    18.2740     2.3770 
  228.5000   -11.8280    87.6350    25.2300    21.5750    15.6570    18.8450     2.4090 
  228.6250   -11.6370    85.0530    25.2160    20.7530    15.8950    18.9140     2.4200 
  228.7500   -11.4100    80.5620    25.1930    20.8990    16.0340    18.6910     2.4080 
  228.8750   -11.1780    77.4640    25.2680    21.6800    16.2300    18.5210     2.3830 
  229.0000   -10.9740    78.8490    25.3510    21.5960    16.6940    18.7690     2.3640 
  229.1250   -10.7760    83.6890    25.4160    21.5340    17.7360    19.8410     2.3830 
  229.2500   -10.4770    86.5740    25.4790    23.4250    19.3040    21.6370     2.4380 
  229.3750   -10.1140    85.0490    25.5070    26.2450    21.0530    23.7280     2.5050 
  229.5000    -9.7660    80.3210    25.4790    28.3830    22.2160    25.1170     2.5440 
  229.6250    -9.4140    76.2080    25.3460    26.2000    21.5240    24.1080     2.5160 
  229.7500    -9.0490    76.2130    25.2470    21.0220    19.0530    20.8860     2.4600 
  229.8750    -8.6760    79.7150    25.1710    14.9570    15.6370    16.6960     2.4240 
  230.0000    -8.2900    82.7940    25.1180    10.7620    12.2940    12.8620     2.4230 
  230.1250    -7.8890    84.3910    25.1190     8.5620     9.7490    10.2120     2.4300 
  230.2500    -7.5150    85.7990    25.2160     7.3630     8.0120     8.6030     2.4250 
  230.3750    -7.1740    85.3260    25.5330     6.6580     7.0100     7.8530     2.4220 
  230.5000    -6.8500    81.0300    25.8110     6.5890     6.6230     7.7410     2.4290 
  230.6250    -6.5480    75.1670    25.8850     7.4070     6.7310     8.0610     2.4330 
  230.7500    -6.2770    72.8460    25.7890     8.9800     7.0190     8.4700     2.4230 
  230.8750    -6.0330    73.3850    25.4890    10.2990     7.2930     8.7680     2.4170 
  231.0000    -5.8010    73.9160    25.0850    10.6290     7.4590     8.8840     2.4280 
  231.1250    -5.5750    74.8040    24.9150     9.4370     7.5300     8.8740     2.4460 
  231.2500    -5.3440    76.0580    25.0190     8.5350     7.5850     8.8620     2.4510 
  231.3750    -5.1390    77.2460    25.3250     7.9530     7.6320     8.8800     2.4430 
  231.5000    -4.9410    76.0030    25.5880     7.7590     7.6470     8.9150     2.4330 
  231.6250    -4.7960    73.8950    25.5080     7.8000     7.6010     8.9220     2.4270 
  231.7500    -4.6790    74.0450    25.1460     7.8460     7.4990     8.8700     2.4200 
  231.8750    -4.5660    75.3650    24.9330     7.8460     7.3430     8.7540     2.4090 
  232.0000    -4.4840    75.4810    25.0360     7.7930     7.1470     8.6060     2.3980 
  232.1250    -4.4560    73.1060    25.4590     7.4470     6.9580     8.4850     2.3940 
  232.2500    -4.4680    71.9090    25.8100     7.0370     6.8240     8.4390     2.4000 
  232.3750    -4.4800    74.0990    25.8730     6.8140     6.7660     8.4890     2.4100 
  232.5000    -4.5080    76.7600    25.6580     6.9230     6.7710     8.6200     2.4190 
  232.6250    -4.5220    74.6250    25.1280     7.2470     6.8130     8.7780     2.4210 
  232.7500    -4.5350    71.1150    24.8690     7.5310     6.8680     8.9020     2.4190 
  232.8750    -4.5630    70.8510    24.7790     7.5640     6.9360     8.9790     2.4150 
  233.0000    -4.5750    73.2720    24.7270     7.3400     7.0100     9.0370     2.4130 
  233.1250    -4.5580    73.8530    24.7120     7.0450     7.0840     9.1470     2.4160 
  233.2500    -4.5480    72.5030    24.6900     6.8050     7.1680     9.3390     2.4220 
  233.3750    -4.5730    71.3450    24.6840     6.6760     7.2760     9.5860     2.4320 
  233.5000    -4.6050    71.1060    24.6730     6.7600     7.3910     9.8120     2.4460 
  233.6250    -4.6280    70.9560    24.6540     7.2130     7.4470     9.9040     2.4640 
  233.7500    -4.6850    70.1190    24.6450     7.8410     7.4010     9.8360     2.4820 
  233.8750    -4.7230    68.1880    24.6380     8.2280     7.2580     9.6330     2.4910 
  234.0000    -4.7460    67.0630    24.6210     8.1200     7.0690     9.3740     2.4820 
  234.1250    -4.8220    68.4200    24.5790     8.0000     6.9000     9.1670     2.4560 
  234.2500    -4.8650    68.8600    24.5480     7.9900     6.7760     9.0600     2.4330 
  234.3750    -4.8390    68.9420    24.5370     7.8120     6.7010     9.0440     2.4220 
  234.5000    -4.8430    70.7330    24.6060     7.3940     6.6700     9.0750     2.4190 
  234.6250    -4.9090    72.9870    24.6910     7.1600     6.6580     9.0820     2.4090 
  234.7500    -4.9040    73.3720    24.7140     7.1400     6.6190     9.0300     2.3970 
  234.8750    -4.8770    71.6910    24.6520     7.0810     6.5340     8.9300     2.3930 
