~V
VERS. 2.00: Ver 2.00
~W
STRT.M 55.0000:
STOP.M 272.0000:
STEP.M 0.1250:
NULL. -999.2500:
UWI. DF33042:
~C
DEPT.M :
SP.MV :
GR.API :
RML.OHMM :
RI. :
RXO.OHMM :
CALI.CM :
DEN.GM/CC :
~A
# ...
  111.2500   -20.5080    86.3540     6.8220     5.6880     6.3710    23.7590     2.2400 
  111.3750   -20.8680    81.7910     7.6890     6.2160     6.5650    23.6600     2.2180 
  111.5000   -21.1650    81.0910     8.4390     6.7240     7.1090    23.5100     2.1960 
  111.6250   -21.3790    79.8060     8.7950     7.0610     7.6670    23.4280     2.1840 
  111.7500   -21.5130    75.6440     8.6920     7.1320     8.0430    23.4050     2.1870 
  111.8750   -21.6070    72.2540     8.1750     6.9030     8.0230    23.4410     2.2060 
  112.0000   -21.7280    75.7350     7.4440     6.4530     7.7770    23.5230     2.2390 
  112.1250   -21.8620    85.8790     6.8660     6.0000     6.9280    23.7030     2.2840 
  112.2500   -22.0580    94.6330     6.6990     5.7780     5.9050    23.8860     2.3390 
  112.3750   -22.3360    97.1590     7.0200     5.9010     5.7260    23.9340     2.3950 
  112.5000   -22.7180    93.5170     7.7340     6.3550     7.6320    23.7430     2.4350 
  112.6250   -23.2060    85.7030     8.5670     7.0060    11.9580    23.5340     2.4350 
  112.7500   -23.7620    78.4020     9.1260     7.5700    14.3770    23.3420     2.3950 
  112.8750   -24.3730    76.5210     9.1900     7.8460    11.5140    23.2460     2.3290 
  113.0000   -24.9530    79.5890     8.7960     7.7650     8.9550    23.2330     2.2540 
  113.1250   -25.4630    83.0190     8.2570     7.4250     8.4280    23.2680     2.1920 
  113.2500   -25.8660    83.7690     7.9250     7.0950     8.2300    23.2810     2.1480 
  113.3750   -26.1870    82.1950     7.8970     6.9220     8.1720    23.2650     2.1260 
  113.5000   -26.4130    79.1640     8.0970     6.9450     8.1220    23.2360     2.1240 
  113.6250   -26.5570    74.6650     8.3520     7.1270     8.1240    23.2230     2.1380 
  113.7500   -26.6300    71.0370     8.5140     7.3460     8.2940    23.2150     2.1550 
  113.8750   -26.6260    68.7820     8.5450     7.5260     8.5250    23.2100     2.1660 
  114.0000   -26.6040    67.4430     8.4720     7.6200     8.6500    23.2070     2.1670 
  114.1250   -26.5810    68.0810     8.3680     7.6050     8.5270    23.2090     2.1610 
  114.2500   -26.5860    69.6350     8.3250     7.5280     8.4160    23.2100     2.1540 
  114.3750   -26.6050    70.9870     8.3920     7.4420     8.2590    23.2110     2.1500 
  114.5000   -26.6290    71.9130     8.5770     7.4010     8.0650    23.2110     2.1510 
  114.6250   -26.6490    72.5700     8.8540     7.4490     8.1420    23.2120     2.1560 
  114.7500   -26.6790    71.9140     9.1340     7.5670     8.3970    23.2220     2.1610 
  114.8750   -26.7220    71.0810     9.3530     7.7130     8.7310    23.2460     2.1670 
  115.0000   -26.7830    71.7700     9.4770     7.8360     9.0460    23.2630     2.1720 
  115.1250   -26.8480    71.6860     9.4920     7.8760     9.1350    23.2690     2.1770 
  115.2500   -26.8910    68.8740     9.4390     7.8290     9.0300    23.2690     2.1800 
  115.3750   -26.9150    68.2550     9.3410     7.7200     8.8120    23.2690     2.1810 
  115.5000   -26.9490    72.2080     9.2220     7.5900     8.6310    23.2690     2.1790 
  115.6250   -26.9420    74.8380     9.1120     7.4980     8.5730    23.2690     2.1730 
  115.7500   -26.9560    73.8740     9.0360     7.4690     8.5980    23.2690     2.1670 
  115.8750   -26.9610    71.6600     9.0130     7.5080     8.7000    23.2690     2.1620 
  116.0000   -26.9510    69.8820     9.0400     7.6010     8.8460    23.2690     2.1610 
  116.1250   -26.9310    67.9250     9.0950     7.7150     9.0370    23.2790     2.1630 
  116.2500   -26.9030    66.2600     9.1340     7.8060     9.2010    23.2940     2.1640 
  116.3750   -26.8650    66.4170     9.1300     7.8470     9.1850    23.2690     2.1620 
  116.5000   -26.8060    68.3950     9.0780     7.8280     8.9590    23.1540     2.1570 
  116.6250   -26.8000    71.6160     8.9740     7.7540     8.7250    23.0250     2.1530 
  116.7500   -26.7940    74.2820     8.8320     7.6570     8.7300    22.9680     2.1540 
  116.8750   -26.8390    74.5210     8.6670     7.5620     8.7970    22.9750     2.1610 
  117.0000   -26.8860    73.8040     8.5170     7.4910     8.7470    22.9980     2.1730 
  117.1250   -26.9450    75.7630     8.4610     7.4700     8.6780    23.0250     2.1850 
  117.2500   -27.0120    78.4250     8.5300     7.4990     8.6310    23.0620     2.1920 
  117.3750   -27.0930    78.3630     8.7080     7.5690     8.7100    23.0900     2.1940 
  117.5000   -27.1930    75.5940     8.9350     7.6600     8.9430    23.0820     2.1890 
  117.6250   -27.2400    72.7210     9.1300     7.7430     8.9550    23.0780     2.1820 
  117.7500   -27.2790    69.7740     9.2560     7.7970     9.0680    23.0790     2.1770 
  117.8750   -27.2760    68.2040     9.3180     7.8190     9.1500    23.0780     2.1740 
  118.0000   -27.2730    69.9560     9.3490     7.8200     8.7640    23.0700     2.1750 
  118.1250   -27.3060    72.2050     9.3910     7.8220     8.4920    23.0660     2.1770 
  118.2500   -27.3500    69.7320     9.4640     7.8360     8.4280    23.0640     2.1780 
  118.3750   -27.4000    66.0120     9.5680     7.8610     8.5360    23.0640     2.1780 
  118.5000   -27.4330    65.8080     9.6740     7.8880     8.8150    23.0640     2.1750 
  118.6250   -27.5060    68.4590     9.7280     7.9070     9.1870    23.0760     2.1720 
  118.7500   -27.5470    68.6830     9.7130     7.9150     9.3300    23.1030     2.1700 
  118.8750   -27.5750    65.0700     9.6420     7.9200     9.2270    23.1300     2.1700 
  119.0000   -27.5630    62.4760     9.5520     7.9330     9.1830    23.1420     2.1710 
  119.1250   -27.4990    64.4250     9.5030     7.9700     9.2430    23.1360     2.1720 
  119.2500   -27.4050    67.0570     9.5320     8.0360     9.2500    23.1210     2.1740 
  119.3750   -27.2700    65.6860     9.6520     8.1360     9.2400    23.0990     2.1750 
  119.5000   -27.1370    61.0470     9.8440     8.2630     9.1790    23.0760     2.1780 
  119.6250   -26.9300    59.0150    10.0370     8.3980     8.8820    23.0670     2.1820 
  119.7500   -26.7500    59.8860    10.1330     8.5010     8.6950    23.0640     2.1840 
  119.8750   -26.5660    61.3960    10.0500     8.5280     8.6930    23.0640     2.1830 
  120.0000   -26.3940    61.6710     9.7480     8.4390     8.7410    23.0570     2.1800 
  120.1250   -26.1880    61.5040     9.2220     8.2010     8.7820    23.0500     2.1760 
  120.2500   -25.9790    62.4340     8.6130     7.8660     8.6510    23.0710     2.1760 
  120.3750   -25.7890    64.7240     8.0500     7.4910     8.1200    23.1380     2.1800 
  120.5000   -25.5960    68.6360     7.6410     7.1350     7.3170    23.1850     2.1840 
  120.6250   -25.4770    72.5600     7.4590     6.8450     6.9100    23.1940     2.1860 
  120.7500   -25.3250    73.0730     7.4120     6.6180     7.0230    23.1910     2.1860 
  120.8750   -25.2000    69.1580     7.3970     6.4370     6.9930    23.1920     2.1870 
  121.0000   -25.0960    65.6370     7.3200     6.2850     6.7970    23.1980     2.1890 
  121.1250   -25.0400    67.4150     7.1420     6.1650     6.6180    23.1990     2.1940 
  121.2500   -24.9960    70.0380     6.9390     6.0880     6.5060    23.1890     2.1980 
  121.3750   -24.9850    71.2220     6.8010     6.0800     6.6190    23.1690     2.1990 
  121.5000   -24.9390    73.2090     6.7980     6.1630     6.9730    23.1620     2.1960 
  121.6250   -24.8940    77.2420     6.9880     6.3630     7.3520    23.1900     2.1890 
  121.7500   -24.8390    76.4630     7.3150     6.6450     7.6410    23.2290     2.1810 
  121.8750   -24.7660    70.3160     7.7080     6.9620     7.9460    23.2580     2.1720 
  122.0000   -24.6410    64.9210     8.0540     7.2430     8.0990    23.2690     2.1630 
  122.1250   -24.5120    64.5610     8.1500     7.3590     7.9910    23.2810     2.1550 
  122.2500   -24.3310    65.8310     7.9210     7.2380     7.7670    23.3190     2.1530 
  122.3750   -24.0810    67.5950     7.3470     6.8460     7.4120    23.3840     2.1600 
