~V
VERS. 2.00: Ver 2.00
~W
STRT.M 60.0000:
STOP.M 236.0000:
STEP.M 0.1250:
NULL. -999.2500:
UWI. DF33015:
~C
DEPT.M :
DEN.GM/CC :
GR.API :
RML.OHMM :
RI. :
RXO.OHMM :
CALI.CM :
SP.MV :
~A
# ...
  228.7500     2.5140    65.1100    15.0230    13.2820    49.1930    24.1880   -13.3500 
  228.8750     2.5440    65.1100    14.6170    12.8750    45.6290    24.1370   -13.2740 
  229.0000     2.5520    65.1100    14.1290    12.3160    33.2750    24.2230   -13.2340 
  229.1250     2.5320    65.1100    13.6590    11.7410    20.9800    24.5070   -13.2580 
  229.2500     2.5010    65.1100    13.2440    11.2500    13.2230    24.3980   -13.2550 
  229.3750     2.4740    65.1100    12.8940    10.8820     9.1990    24.3550   -13.2710 
  229.5000     2.4590    65.1100    12.6240    10.6470     7.5580    24.4850   -13.2890 
  229.6250     2.4580    65.1100    12.4870    10.5450     7.3210    24.6110   -13.3160 
  229.7500     2.4620    65.1100    12.4840    10.5210     7.2120    24.5360   -13.3530 
  229.8750     2.4660    65.1100    12.5740    10.5420     7.1420    24.4100   -13.3580 
  230.0000     2.4680    65.1100    12.6790    10.5780     7.3100    24.4000   -13.3440 
  230.1250     2.4700    65.1100    12.7310    10.6090     7.9860    24.5630   -13.2920 
  230.2500     2.4700    65.1100    12.7620    10.6290     8.6490    24.7930   -13.2710 
  230.3750     2.4650    65.1100    12.8490    10.6420     8.4750    25.1010   -13.2720 
  230.5000     2.4540    65.1100    13.0430    10.6520     7.5910    25.4770   -13.3010 
  230.6250     2.4450    65.1100    13.2890    10.6590     7.1920    25.4780   -13.3520 
  230.7500     2.4470    65.1100    13.4380    10.6580     7.7890    25.0300   -13.3440 
  230.8750     2.4620    65.1100    13.4060    10.6450     9.4720    24.5060   -13.4140 
  231.0000     2.4900    65.1100    13.2090    10.6220    12.2000    24.2770   -13.5390 
  231.1250     2.5170    65.1100    12.9500    10.5980    13.9360    24.2780   -13.6520 
  231.2500     2.5310    65.1100    12.7490    10.5810    13.3630    24.2600   -13.7320 
  231.3750     2.5220    65.1100    12.6440    10.5730    12.4230    24.2120   -13.7280 
  231.5000     2.4880    65.1100    12.6150    10.5710    11.7910    24.1760   -13.7220 
  231.6250     2.4330    65.1100    12.6150    10.5710     9.6860    24.1630   -13.7510 
  231.7500     2.3700    65.1100    12.6150    10.5710     6.6770    24.1630   -13.8470 
  231.8750     2.3150    65.1100    12.6150    10.5710     4.5990    24.1630   -13.8890 
  232.0000     2.2790    65.1100    12.6150    10.5710     3.8300    24.1630   -13.8690 
  232.1250     2.2760    65.1100    12.6150    10.5710     4.1250    24.1610   -13.8780 
  232.2500     2.2960    65.1100    12.6150    10.5710     5.0820    24.1460   -13.8600 
  232.3750     2.3310    65.1100    12.6150    10.5710     6.1830    24.1100   -13.9190 
  232.5000     2.3690    65.1100    12.6150    10.5710     6.9980    24.0850   -13.9660 
  232.6250     2.4000    65.1100    12.6150    10.5710     7.6830    24.0910   -13.9700 
  232.7500     2.4250    65.1100    12.6150    10.5710     8.1210    24.1220   -13.9270 
  232.8750     2.4450    65.1100    12.6150    10.5710     7.8950    24.1510   -13.9210 
  233.0000     2.4590    65.1100    12.6150    10.5710     7.1530    24.1530   -13.8810 
  233.1250     2.4580    65.1100    12.6150    10.5710     6.5110    24.1260   -13.8810 
  233.2500     2.4380    65.1100    12.6150    10.5710     5.9650    24.0900   -13.8810 
  233.3750     2.4020    65.1100    12.6150    10.5710     5.2150    24.0760   -13.8810 
  233.5000     2.3590    65.1100    12.6150    10.5710     4.4520    24.0850  -999.2500 
  233.6250     2.3250    65.1100    12.6150    10.5710     4.4790    24.1870  -999.2500 
  233.7500     2.3070    65.1100    12.6150    10.5710     5.3420    24.3810  -999.2500 
  233.8750     2.2920    65.1100    12.6150    10.5710     6.2810    24.4280  -999.2500 
  234.0000     2.2570    65.1100    12.6150    10.5710     6.3240    23.7570  -999.2500 
  234.1250     2.1780    65.1100    12.6150    10.5710     5.5050    22.0410  -999.2500 
  234.2500     2.0710    65.1100    12.6150    10.5710     4.7460    19.9120  -999.2500 
  234.3750     2.0250    65.1100    12.6150    10.5710     4.2990    18.6460  -999.2500 
  234.5000     1.8750    65.1100    12.6150    10.5710     4.0900    18.2740  -999.2500 
  234.6250     1.8240    65.1100    12.6150    10.5710     4.0460    18.2740  -999.2500 
  234.7500     1.7980    65.1100    12.6150    10.5710     4.0530    18.2740  -999.2500 
  234.8750     1.7890    65.1100    12.6150    10.5710     4.0560    18.2740  -999.2500 
  235.0000     1.7850    65.1100    12.6150    10.5710     4.0560    18.2740  -999.2500 
  235.1250     1.7820    65.1100    12.6150    10.5710     4.0570    18.2740  -999.2500 
  235.2500     1.7770    65.1100    12.6150    10.5710     4.0560    18.2740  -999.2500 
  235.3750     1.7730    65.1100    12.6150    10.5710     4.0560    18.2740  -999.2500 
  235.5000     1.7700    65.1100    12.6150    10.5710     4.0550    18.2740  -999.2500 
  235.6250     1.7690    65.1100    12.6150    10.5710     4.0550    18.2740  -999.2500 
  235.7500     1.7690    65.1100    12.6150    10.5710     4.0550    18.2730  -999.2500 
  235.8750     1.7700    65.1100    12.6150    10.5710     4.0560    18.2710  -999.2500 
  236.0000     1.7640    65.1100    12.6150    10.5710     4.0570    18.2670  -999.2500 
