~V
VERS. 2.00: Ver 2.00
~W
STRT.M 55.0000:
STOP.M 246.0000:
STEP.M 0.1250:
NULL. -999.2500:
UWI. DF33025:
~C
DEPT.M :
SP.MV :
GR.API :
CALI.CM :
RXO.OHMM :
RI. :
RML.OHMM :
DEN.GM/CC :
~A
   55.0000    53.2160    47.7530    25.3570     1.1460     0.1170     8.2040  -999.2500 
   55.1250    52.8690    48.1600    25.3570     1.1540     0.1320     8.0530  -999.2500 
   55.2500    52.3720    48.7110    25.3570     1.1720     0.1380     7.9210  -999.2500 
   55.3750    51.7970    47.5840    25.3570     1.1890     0.1350     7.8250  -999.2500 
   55.5000    51.2460    46.3740    25.3570     1.1940     0.1250     7.7740     2.0050 
   55.6250    50.8370    47.5960    25.3570     1.1860     0.1130     7.7530     2.0050 
   55.7500    50.6000    48.5430    25.3570     1.1760     0.1110     7.7130     2.0210 
   55.8750    50.5770    48.5630    25.3570     1.1790     0.1230     7.6110     2.0520 
   56.0000    50.7460    48.6930    25.3570     1.1960     0.1340     7.4400     2.0940 
   56.1250    51.0140    49.7020    25.3570     1.2150     0.1290     7.2410     2.1360 
   56.2500    51.3560    49.1390    25.3570     1.2270     0.1230     7.0770     2.1610 
   56.3750    51.7660    47.0720    25.3570     1.2400     0.1220     6.9810     2.1710 
   56.5000    52.1860    46.5920    25.3460     1.2540     0.1240     6.9600     2.1730 
   56.6250    52.6770    47.5370    25.2890     1.2530     0.1240     6.9850     2.1610 
   56.7500    53.2130    48.0320    25.1600     1.2640     0.1210     6.9840     2.1270 
   56.8750    53.7230    47.6660    24.9940     1.3120     0.1080     6.9070     2.0780 
   57.0000    54.1620    47.2950    24.8550     1.3910     0.0930     6.7430     2.0360 
   57.1250    54.6030    46.5100    24.8670     1.4490     0.0960     6.5180     2.0240 
   57.2500    55.0040    45.0550    25.0490     1.4480     0.1160     6.3120     2.0440 
   57.3750    55.3360    45.5880    25.2660     1.4160     0.1380     6.1900     2.0900 
   57.5000    55.6630    47.9390    25.3720     1.3920     0.1510     6.1800     2.1530 
   57.6250    55.9110    48.9930    25.3800     1.3920     0.1540     6.2720     2.2130 
   57.7500    56.1260    50.4900    25.3800     1.4010     0.1490     6.3900     2.2530 
   57.8750    56.3870    54.3340    25.3800     1.4170     0.1390     6.4640     2.2720 
   58.0000    56.7360    57.6620    25.3800     1.4390     0.1310     6.4320     2.2720 
   58.1250    57.2320    55.8530    25.3800     1.4510     0.1250     6.2570     2.2430 
   58.2500    57.8490    53.2660    25.3800     1.4560     0.1160     6.0120     2.1790 
   58.3750    58.5450    52.3210    25.3780     1.4680     0.1020     5.7680     2.1100 
   58.5000    59.2490    51.9200    25.3670     1.4950     0.0880     5.5690     2.1020 
   58.6250    59.9420    51.4060    25.2680     1.5460     0.0770     5.4230     2.2150 
   58.7500    60.6000    51.8030    24.9830     1.6450     0.0700     5.2870     2.3840 
   58.8750    61.2000    52.2710    24.5370     1.8320     0.0690     5.1220     2.5330 
   59.0000    61.7140    51.5040    24.1910     2.1160     0.0760     4.9100     2.6200 
   59.1250    61.9850    50.1370    24.1360     2.4300     0.0890     4.6660     2.6440 
   59.2500    62.0830    52.3470    24.2360     2.7110     0.0970     4.4360     2.6310 
   59.3750    62.0750    56.9890    24.4070     2.9870     0.0990     4.2380     2.5910 
   59.5000    61.9880    59.0040    24.5220     3.2370     0.0980     4.0580     2.5340 
   59.6250    61.7440    57.5730    24.5820     3.2410     0.0990     3.8820     2.4710 
   59.7500    61.3200    58.6200    24.6550     3.0470     0.1010     3.7390     2.4100 
   59.8750    60.7040    61.8020    24.7260     2.7990     0.1050     3.6820     2.3560 
   60.0000    59.8960    62.6000    24.7580     2.5690     0.1130     3.7660     2.3120 
   60.1250    58.9260    59.8910    24.7850     2.3070     0.1180     4.0720     2.2700 
   60.2500    57.7880    58.9880    24.8450     2.0580     0.1180     4.5580     2.2130 
   60.3750    56.4360    61.3060    24.9050     1.8770     0.1200     5.0570     2.1340 
   60.5000    54.8390    65.2970    24.9310     1.7500     0.1220     5.0710     2.0450 
   60.6250    52.8890    67.8140    24.9310     1.6210     0.1090     3.8670     1.9650 
   60.7500    50.5480    68.0470    24.9310     1.4840     0.0810     2.2500     1.9120 
   60.8750    47.6990    67.4480    24.9310     1.3520     0.0460     1.0450     1.8960 
   61.0000    44.1820    66.5870    24.9310     1.2300     0.0130     0.3880     1.9040 
   61.1250    39.6200    64.6150    24.9260     1.1830    -0.0120     0.1450     1.9160 
   61.2500    34.0930    64.2150    24.8490     1.3960    -0.0080     0.1290     1.9540 
   61.3750    27.7110    68.8850    24.5780     2.1990     0.0630     0.3260     2.0560 
   61.5000    20.8440    79.6730    24.0690     3.6680     0.2550     0.7980     2.2100 
   61.6250    14.0160    93.0940    23.6710     5.1130     0.6970     1.8080     2.3220 
   61.7500     7.5520   102.1730    23.5050     6.0260     1.4400     3.4300     2.3400 
   61.8750     1.6230   103.8790    23.4750     6.7790     2.4240     5.2300     2.2950 
   62.0000    -3.5750   100.5420    23.4500     7.6560     3.4030     6.1450     2.2440 
   62.1250    -7.5530   101.4400    23.4530     8.1240     4.0560     5.8380     2.2310 
   62.2500   -10.4000   107.1150    23.6350     7.6470     4.4080     5.3320     2.2450 
   62.3750   -12.2370   110.8180    23.9800     6.5700     4.5720     4.9970     2.2630 
   62.5000   -13.4020   110.2190    24.2330     5.7480     4.6490     4.8550     2.2650 
   62.6250   -14.2710   110.4530    24.0080     5.7180     4.7350     4.8910     2.2490 
   62.7500   -15.0730   113.1880    23.5970     5.9260     4.9240     5.0730     2.2350 
   62.8750   -15.8480   113.4490    23.2970     6.0610     5.2620     5.4090     2.2380 
   63.0000   -16.5740   110.2040    23.2070     6.2500     5.7300     5.8920     2.2530 
   63.1250   -17.2540   106.9900    23.2070     6.9490     6.2130     6.4530     2.2610 
   63.2500   -17.8790   102.5050    23.1890     8.2080     6.5390     6.9080     2.2550 
   63.3750   -18.4220    97.5010    23.1510     9.0890     6.5810     7.0560     2.2390 
   63.5000   -18.9220    95.9480    23.1380     8.5960     6.2940     6.7450     2.2270 
   63.6250   -19.3660   101.8260    23.1800     7.0920     5.7210     5.9920     2.2360 
   63.7500   -19.6910   109.6420    23.2910     6.1170     5.0920     5.1950     2.2640 
   63.8750   -19.9610   114.5150    23.3420     5.7300     4.6220     4.6640     2.2920 
   64.0000   -20.2580   117.4000    23.3710     5.6610     4.5090     4.5900     2.3060 
   64.1250   -20.6990   118.4030    23.5560     5.9950     5.0110     5.2080     2.3260 
   64.2500   -21.3290   115.0170    23.8680     7.9510     6.1400     6.5820     2.3810 
   64.3750   -22.1870   104.8610    24.0710    13.1580     7.8420     8.7920     2.4620 
   64.5000   -23.2230    91.0790    24.0370    19.3400     9.7330    11.3960     2.5310 
   64.6250   -24.3470    80.8610    23.7250    19.5590    10.7750    12.5020     2.5310 
   64.7500   -25.5710    75.3150    23.3800    14.8120    10.5280    11.4960     2.4680 
   64.8750   -26.8510    73.3520    23.1990    10.7180     9.5040     9.7380     2.3720 
   65.0000   -28.1450    74.4590    23.2500     9.2280     8.5570     8.5160     2.2780 
   65.1250   -29.3070    79.6330    23.4900     9.2280     8.3590     8.4080     2.2220 
   65.2500   -30.3170    84.1500    23.4470    10.3240     8.9300     9.2800     2.2210 
   65.3750   -31.1710    83.6810    23.3620    13.5130    10.0900    10.9950     2.2790 
   65.5000   -31.7990    78.9370    23.3260    17.9690    11.3350    12.9540     2.3730 
   65.6250   -32.2220    75.7040    23.2170    17.7880    11.7590    13.6220     2.4360 
   65.7500   -32.5770    75.8230    22.8920    13.8400    11.1750    12.6750     2.4240 
   65.8750   -32.8730    77.3710    22.5230    10.3130    10.0020    11.0340     2.3510 
   66.0000   -33.0860    80.4770    22.3240     9.0490     8.7970     9.5980     2.2650 
   66.1250   -33.2430    86.1380    22.4060     9.0940     7.9460     8.7760     2.2130 
