~V
VERS. 2.00: Ver 2.00
~W
STRT.M 60.0000:
STOP.M 268.0000:
STEP.M 0.1250:
NULL. -999.2500:
UWI. DF33031:
~C
DEPT.M :
SP.MV :
GR.API :
CALI.CM :
RXO.OHMM :
RI. :
RML.OHMM :
DEN.GM/CC :
~A
# ...
  262.5000    -6.7220    74.3830    23.7590    11.5670    16.8930    17.4130     2.5790 
  262.6250    -6.7040    74.3830    23.7590    11.5880    16.9190    17.3990     2.5820 
  262.7500    -6.6610    74.3830    23.7590    11.5530    16.9120    17.3830     2.5830 
  262.8750    -6.6280    74.3830    23.7560    11.2820    16.8830    17.3630     2.5820 
  263.0000    -6.6000    74.3830    23.7510    11.0080    16.8330    17.3440     2.5780 
  263.1250    -6.5300    74.3830    23.7490    11.3890    16.7700    17.3400     2.5660 
  263.2500    -6.4360    74.3830    23.7490    13.2950    16.7030    17.3520     2.5480 
  263.3750    -6.3590    74.3830    23.7520    17.6050    16.6440    17.3710     2.5360 
  263.5000    -6.3810    74.3830    23.7500    22.9590    16.6330    17.3760     2.5410 
  263.6250    -6.3780    74.3830    23.7490    25.9750    16.6330    17.3760     2.5550 
  263.7500    -6.4450    74.3830    23.7480    26.7110    16.6330    17.3760     2.5610 
  263.8750    -6.5160    74.3830    23.7480    26.8570    16.6330    17.3760     2.5590 
  264.0000    -6.6430    74.3830    23.7480    26.9160    16.6330    17.3760     2.5650 
  264.1250    -6.8120    74.3830    23.7480    27.6640    16.6330    17.3760     2.5850 
  264.2500    -6.9450    74.3830    23.7480    28.8390    16.6330    17.3760     2.5990 
  264.3750    -7.0960    74.3830    23.7480    28.0550    16.6330    17.3760     2.5960 
  264.5000    -7.1740    74.3830    23.7480    23.6400    16.6330    17.3760     2.5800 
  264.6250    -7.2410    74.3830    23.7480    18.3730    16.6330    17.3760     2.5640 
  264.7500    -7.2650    74.3830    23.7480    14.4630    16.6330    17.3760     2.5580 
  264.8750    -7.2940    74.3830    23.7480    12.7090    16.6330    17.3760     2.5630 
  265.0000    -7.3020    74.3830    23.7480    12.0880    16.6330    17.3760     2.5740 
  265.1250    -7.2590    74.3830    23.7450    11.9040    16.6330    17.3760     2.5810 
  265.2500    -7.2410    74.3830    23.7290    11.7600    16.6330    17.3760     2.5820 
  265.3750    -7.2590    74.3830    23.6900    11.5180    16.6330    17.3760     2.5820 
  265.5000    -7.3260    74.3830    23.6570    11.3500    16.6330    17.3760     2.5890 
  265.6250    -7.3520    74.3830    23.6450    11.6150    16.6330    17.3760     2.6000 
  265.7500    -7.3660    74.3830    23.6440    12.0270    16.6330    17.3760     2.6030 
  265.8750    -7.3930    74.3830    23.6280    11.9500    16.6330    17.3760     2.5960 
  266.0000    -7.4180    74.3830    23.5720    11.3310    16.6330    17.3760     2.5950 
  266.1250    -7.4510    74.3830    23.4250    10.6010    16.6330    17.3760     2.5480 
  266.2500    -7.4480    74.3830    23.1650     9.6850    16.6330    17.3760     2.3730 
  266.3750    -7.4400    74.3830    22.3650     8.1720    16.6330    17.3760     2.0900 
  266.5000    -7.4480    74.3830    20.4970     6.4540    16.6330    17.3760     1.8440 
  266.6250    -7.4360    74.3830    17.3020     5.4230    16.6330    17.3760     1.7850 
  266.7500    -7.4420    74.3830    15.0590     5.0890    16.6330    17.3760     1.8290 
  266.8750    -7.4440    74.3830    14.2160     5.0240    16.6330    17.3760     1.8760 
  267.0000    -7.4120    74.3830    14.0990     5.0210    16.6330    17.3760     1.8880 
  267.1250    -7.4340    74.3830    14.0990     5.0210    16.6330    17.3760     1.8790 
  267.2500    -7.5030    74.3830    14.0990     5.0200    16.6330    17.3760     1.8730 
  267.3750    -7.5030    74.3830    14.0990     5.0190    16.6330    17.3760     1.8720 
  267.5000    -7.5030    74.3830    14.0990     5.0190    16.6330    17.3760     1.8750 
  267.6250  -999.2500    74.3830    14.0990     5.0210    16.6330    17.3760     1.8840 
  267.7500  -999.2500    74.3830    14.0990     5.0220    16.6330    17.3760     1.8920 
  267.8750  -999.2500    74.3830    14.0960     5.0200    16.6330    17.3760     1.8890 
  268.0000  -999.2500    74.3830    14.0910     5.0170    16.6330    17.3760     1.8810 
