~V
VERS. 2.00: Ver 2.00
~W
STRT.M 55.0000:
STOP.M 272.0000:
STEP.M 0.1250:
NULL. -999.2500:
UWI. DF33042:
~C
DEPT.M :
SP.MV :
GR.API :
RML.OHMM :
RI. :
RXO.OHMM :
CALI.CM :
DEN.GM/CC :
~A
# ...
   77.5000   -22.7030    91.2080     7.1920     5.7490     6.1660    24.3040     2.3140 
   77.6250   -23.0650    88.0460     7.1280     5.6980     6.1030    24.1870     2.3220 
   77.7500   -23.5030    84.8770     7.2750     5.7640     6.3130    24.0910     2.3220 
   77.8750   -23.9920    84.2310     7.6660     5.9760     6.5130    24.0480     2.3160 
   78.0000   -24.5540    82.4030     8.2690     6.3270     6.6520    24.0400     2.3070 
   78.1250   -25.1490    77.0630     8.9740     6.7720     8.3740    24.0740     2.2980 
   78.2500   -25.7540    74.0080     9.5810     7.2030    11.0900    24.1300     2.2850 
   78.3750   -26.3360    73.7950     9.9460     7.5360    11.9590    24.1520     2.2660 
   78.5000   -26.8440    71.5540    10.0190     7.7240     9.8950    24.1270     2.2410 
   78.6250   -27.2690    65.4350     9.8760     7.7800     8.7590    24.1220     2.2170 
   78.7500   -27.5740    61.0190     9.7660     7.8180     8.7310    24.1690     2.1970 
   78.8750   -27.7930    60.6880     9.8610     7.9240     8.8170    24.2610     2.1790 
   79.0000   -27.9260    61.5540    10.2220     8.1410     8.7620    24.3970     2.1580 
   79.1250   -27.9750    60.8950    10.7790     8.4510     8.4110    24.6640     2.1340 
   79.2500   -27.9720    59.7560    11.2770     8.7460     8.1660    24.9020     2.1080 
   79.3750   -27.9370    58.4790    11.5080     8.9270     8.1660    25.0070     2.0860 
   79.5000   -27.8780    58.1280    11.3580     8.9220     8.3170    24.9560     2.0730 
   79.6250   -27.8210    60.5150    10.8230     8.6860     8.4100    24.6310     2.0750 
   79.7500   -27.7840    63.2840    10.1520     8.3170     8.3460    24.0850     2.0900 
   79.8750   -27.7710    65.2240     9.5370     7.9090     7.9980    23.5560     2.1150 
   80.0000   -27.7510    66.8670     9.1070     7.5590     7.6370    23.1870     2.1440 
   80.1250   -27.8160    68.2490     8.9540     7.3500     7.4330    22.9640     2.1710 
   80.2500   -27.8740    69.4620     9.0200     7.2700     7.2600    22.8400     2.1930 
   80.3750   -27.9420    70.3550     9.2530     7.2880     7.3260    22.7850     2.2120 
   80.5000   -27.9970    69.8580     9.5790     7.3550     7.8020    22.7660     2.2250 
   80.6250   -28.0520    68.1130     9.8820     7.4210     8.3180    22.7740     2.2290 
   80.7500   -28.1100    68.0470    10.0750     7.4600     8.5200    22.8040     2.2250 
   80.8750   -28.1870    69.2860    10.1310     7.4720     8.4310    22.8400     2.2140 
   81.0000   -28.2970    69.6560    10.0780     7.4660     8.3210    22.8600     2.2030 
   81.1250   -28.3910    68.2100     9.9490     7.4390     8.4020    22.8620     2.1960 
   81.2500   -28.5050    66.5720     9.7610     7.3780     8.5710    22.8570     2.1940 
   81.3750   -28.5970    65.2110     9.4950     7.2620     8.7030    22.8490     2.1920 
   81.5000   -28.6950    63.8290     9.1530     7.0800     8.6500    22.8320     2.1870 
   81.6250   -28.7220    61.8600     8.8010     6.8440     8.2340    22.8130     2.1790 
   81.7500   -28.7080    61.2450     8.5540     6.6140     7.7790    22.8030     2.1720 
   81.8750   -28.6310    62.4240     8.4810     6.4430     7.4840    22.8030     2.1670 
   82.0000   -28.4890    63.1910     8.5900     6.3660     7.4390    22.8100     2.1660 
   82.1250   -28.2850    61.8240     8.8290     6.4060     7.6570    22.8280     2.1650 
   82.2500   -28.0500    60.4790     9.0730     6.5170     8.1770    22.8420     2.1640 
   82.3750   -27.8110    59.3450     9.2400     6.6540     8.4920    22.8520     2.1630 
   82.5000   -27.5690    56.6440     9.2940     6.7770     8.5260    22.8630     2.1640 
   82.6250   -27.3620    54.2660     9.2490     6.8550     8.5340    22.8660     2.1680 
   82.7500   -27.1670    57.1750     9.1910     6.8990     8.5410    22.8550     2.1730 
   82.8750   -26.9810    63.6390     9.1740     6.9300     8.5200    22.8330     2.1770 
   83.0000   -26.8070    68.7490     9.2210     6.9720     8.5380    22.8280     2.1800 
   83.1250   -26.6230    68.4810     9.3140     7.0320     8.4430    22.8520     2.1800 
   83.2500   -26.4330    64.9940     9.3910     7.0820     8.4120    22.8650     2.1830 
   83.3750   -26.2380    62.5510     9.3960     7.0870     8.4280    22.8690     2.1900 
   83.5000   -25.9910    64.4320     9.2920     7.0150     8.4560    22.8690     2.2020 
   83.6250   -25.7580    68.1140     9.0510     6.8550     8.2850    22.8690     2.2120 
   83.7500   -25.4730    69.7210     8.7310     6.6540     7.9130    22.8690     2.2160 
   83.8750   -25.1780    70.4560     8.4020     6.4660     7.8300    22.8750     2.2090 
   84.0000   -24.8200    71.5440     8.1460     6.3460     8.0470    22.8800     2.1920 
   84.1250   -24.3860    70.3400     8.0770     6.3580     8.2080    22.8720     2.1710 
   84.2500   -23.8290    65.5870     8.2210     6.4940     8.1560    22.8270     2.1560 
   84.3750   -23.1310    60.7880     8.5490     6.7260     8.1120    22.8030     2.1550 
   84.5000   -22.3440    58.7390     8.9400     6.9860     8.1720    22.8160     2.1740 
   84.6250   -21.4410    60.3260     9.1440     7.1410     8.4210    22.8950     2.2140 
   84.7500   -20.5190    66.6340     9.0010     7.0950     9.5960    23.0540     2.2630 
   84.8750   -19.5660    77.4730     8.4850     6.8040    11.3090    23.2810     2.3040 
   85.0000   -18.6830    90.0400     7.7250     6.3060    12.6150    23.5740     2.3290 
   85.1250   -17.9110    97.4520     6.9700     5.7160     7.9410    23.8920     2.3340 
   85.2500   -17.2980    98.9840     6.4130     5.1990     5.9960    24.0840     2.3300 
   85.3750   -16.8730    97.8190     6.0970     4.8370     5.3570    24.1600     2.3240 
   85.5000   -16.6460    95.9210     5.9850     4.6530     5.1820    24.1790     2.3200 
   85.6250   -16.6140    95.6990     6.0410     4.6500     5.1270    24.1860     2.3200 
   85.7500   -16.6920    98.8330     6.1960     4.7590     5.2030    24.1500     2.3220 
   85.8750   -16.8660   101.5820     6.4260     4.9520     5.3340    24.0680     2.3250 
   86.0000   -17.1110    98.8670     6.7040     5.2070     5.4090    23.9270     2.3240 
   86.1250   -17.3630    90.3260     6.9950     5.5100     5.5190    23.8040     2.3110 
   86.2500   -17.6210    82.6550     7.2570     5.8190     5.8580    23.7020     2.2890 
   86.3750   -17.8880    79.2090     7.4700     6.0960     6.3850    23.6530     2.2650 
   86.5000   -18.1680    80.4310     7.6290     6.3050     6.3980    23.6630     2.2440 
   86.6250   -18.4280    81.7290     7.7380     6.4150     6.4540    23.7330     2.2320 
   86.7500   -18.7420    79.0500     7.8250     6.4490     6.4600    23.8560     2.2280 
   86.8750   -19.0620    76.7540     7.9140     6.4280     6.4870    23.9410     2.2300 
   87.0000   -19.3470    80.3960     8.0080     6.3690     6.4300    23.9030     2.2340 
   87.1250   -19.6220    86.6130     8.0300     6.2560     6.3620    23.7670     2.2400 
   87.2500   -19.8910    88.2930     7.8530     6.0670     6.6480    23.6860     2.2420 
   87.3750   -20.1550    84.9160     7.3780     5.7780     7.0230    23.7900     2.2360 
   87.5000   -20.3860    80.7000     6.6460     5.4110     7.0750    24.0600     2.2210 
   87.6250   -20.6840    81.1760     6.0050     5.1130     6.4010    24.2960     2.2110 
   87.7500   -21.0030    84.6090     5.9850     5.1210     5.9680    24.4010     2.2270 
   87.8750   -21.4280    86.6880     6.9910     5.6800     5.8790    24.4210     2.2830 
   88.0000   -21.9440    82.8950     9.1320     6.9390     7.9840    24.3930     2.3790 
   88.1250   -22.6200    73.6330    12.0940     8.8710    18.6710    24.3530     2.4840 
   88.2500   -23.3850    65.6610    14.7760    10.8760    42.8430    24.2650     2.5450 
   88.3750   -24.2090    61.9990    16.1130    12.2830    55.6090    24.0200     2.5300 
   88.5000   -25.0520    61.5860    15.4300    12.5080    38.1390    23.5110     2.4500 
   88.6250   -25.7980    61.6280    13.0360    11.3590    21.6320    22.7850     2.3460 
