~V
VERS. 2.00: Ver 2.00
~W
STRT.M 55.0000:
STOP.M 252.0000:
STEP.M 0.1250:
NULL. -999.2500:
UWI. DF33023:
~C
DEPT.M :
GR.API :
CALI.CM :
RXO.OHMM :
RI. :
RML.OHMM :
DEN.GM/CC :
SP.MV :
~A
# ...
  111.2500    69.5970    23.6670     7.4270     6.6640     7.9740     2.2450   -25.1750 
  111.3750    67.1070    23.6250     7.6640     6.5640     7.8990     2.2350   -25.1140 
  111.5000    66.9180    23.7640     9.3270     7.0160     8.7830     2.2790   -25.0580 
  111.6250    68.0610    24.0760    14.0790     8.2330    10.8460     2.3820   -25.0100 
  111.7500    67.8850    24.4620    20.8810     9.9470    13.5520     2.4990   -24.9800 
  111.8750    66.4630    24.7500    26.3140    11.6130    15.9060     2.5720   -25.0080 
  112.0000    66.2480    24.8400    26.5850    12.4070    16.5230     2.5610   -25.1210 
  112.1250    66.2220    24.6970    20.8460    11.6640    14.6710     2.4640   -25.3630 
  112.2500    65.6100    24.3400    14.2100    10.1350    12.0110     2.3450   -25.7260 
  112.3750    66.4710    23.8530     9.8550     8.5470     9.7100     2.2430   -26.1780 
  112.5000    68.9480    23.4550     8.1480     7.3120     8.1980     2.1780   -26.6730 
  112.6250    71.5460    23.3220     7.8950     6.5920     7.5230     2.1570   -27.1600 
  112.7500    72.8610    23.3410     7.8630     6.2250     7.3280     2.1580   -27.5850 
  112.8750    72.5230    23.3960     7.8290     6.0940     7.3950     2.1670   -27.9010 
  113.0000    70.9390    23.4140     7.7330     6.0830     7.5380     2.1730   -28.1030 
  113.1250    70.8390    23.3700     7.5980     6.1070     7.6330     2.1720   -28.1920 
  113.2500    72.4060    23.3120     7.5710     6.1250     7.6690     2.1660   -28.2030 
  113.3750    71.5010    23.2730     7.6640     6.1370     7.6660     2.1570   -28.1630 
  113.5000    68.5160    23.2540     7.7380     6.1440     7.6480     2.1450   -28.0930 
  113.6250    69.1450    23.2560     7.6840     6.1550     7.6400     2.1340   -28.0230 
  113.7500    71.5950    23.2790     7.6250     6.1730     7.6620     2.1320   -27.9780 
  113.8750    72.8950    23.3230     7.6490     6.2020     7.7220     2.1470   -27.9590 
  114.0000    71.9390    23.3790     7.7400     6.2400     7.8140     2.1710   -27.9610 
  114.1250    70.0700    23.4140     7.8690     6.2790     7.9120     2.1850   -27.9820 
  114.2500    66.9990    23.4020     7.9810     6.3040     7.9810     2.1860   -28.0170 
  114.3750    64.0320    23.3670     8.0140     6.3030     7.9970     2.1820   -28.0670 
  114.5000    62.3440    23.3470     7.9730     6.2730     7.9630     2.1820   -28.1270 
  114.6250    61.3070    23.3500     7.9460     6.2210     7.9010     2.1810   -28.1780 
  114.7500    61.0550    23.3750     7.9650     6.1630     7.8470     2.1720   -28.2100 
  114.8750    61.4980    23.4240     7.9780     6.1100     7.8180     2.1580   -28.2270 
  115.0000    64.0090    23.4850     7.9370     6.0670     7.8170     2.1490   -28.2150 
  115.1250    69.6210    23.5290     7.8480     6.0440     7.8430     2.1550   -28.1610 
  115.2500    72.9750    23.5500     7.7930     6.0370     7.8830     2.1710   -28.0810 
  115.3750    71.8760    23.5560     7.8590     6.0440     7.9270     2.1880   -27.9860 
  115.5000    67.6090    23.5510     8.0560     6.0550     7.9540     2.1990   -27.8780 
  115.6250    65.1160    23.5520     8.2400     6.0580     7.9410     2.1950   -27.7490 
  115.7500    65.5750    23.5410     8.2750     6.0590     7.9180     2.1830   -27.6120 
  115.8750    68.1330    23.4080     8.1840     6.0820     7.9390     2.1720   -27.4720 
  116.0000    72.6480    23.0970     8.0930     6.1510     8.0590     2.1690   -27.3460 
  116.1250    75.2980    22.8470     8.4620     6.2830     8.3110     2.1780   -27.2450 
  116.2500    75.2570    22.9270     9.6370     6.4400     8.6180     2.2040   -27.1560 
  116.3750    73.5600    23.2660    11.0920     6.5660     8.8650     2.2390   -27.0740 
  116.5000    72.6380    23.5810    11.5190     6.5970     8.9260     2.2630   -27.0190 
  116.6250    71.9890    23.6920    10.3150     6.4700     8.6940     2.2550   -27.0120 
  116.7500    69.1340    23.7250     8.9220     6.2270     8.2550     2.2310   -27.0320 
  116.8750    66.9170    23.7490     8.1300     5.9160     7.7020     2.2070   -27.0660 
  117.0000    67.3880    23.7570     7.8110     5.5960     7.1450     2.1890   -27.1070 
  117.1250    68.2620    23.7250     7.6630     5.3800     6.7880     2.1780   -27.1470 
  117.2500    67.2170    23.6790     7.5780     5.3750     6.8060     2.1760   -27.1680 
  117.3750    65.8980    23.6330     7.6620     5.6690     7.3320     2.1960   -27.1560 
  117.5000    66.2300    23.6180     8.5790     6.3050     8.4080     2.2560   -27.0930 
  117.6250    66.3430    23.8100    12.1350     7.2600     9.9380     2.3610   -26.9460 
  117.7500    65.3030    24.2270    17.0440     8.2120    11.3280     2.4580   -26.7190 
  117.8750    64.7100    24.6380    18.8930     8.7400    11.8410     2.4820   -26.4010 
  118.0000    65.8520    24.6900    15.4580     8.5130    11.0290     2.4080   -25.9700 
  118.1250    68.6580    24.2580    10.3650     7.5380     9.1920     2.2940   -25.3410 
  118.2500    72.8040    23.7610     7.6440     6.3640     7.3350     2.2270   -24.5230 
  118.3750    79.5220    23.6020     6.5160     5.3130     5.8960     2.2230   -23.5450 
  118.5000    88.3370    23.9850     5.5750     4.5310     4.9770     2.2460   -22.4570 
  118.6250    94.1530    24.7880     4.5970     4.0790     4.5580     2.2510   -21.3180 
  118.7500    94.5740    25.7050     3.9870     3.8510     4.4200     2.2370   -20.2120 
  118.8750    91.3350    26.5550     3.8580     3.7860     4.4510     2.2200   -19.1890 
  119.0000    88.1270    26.9530     4.2150     3.8290     4.5620     2.2030   -18.2940 
  119.1250    87.7700    26.3420     4.8400     3.9230     4.6610     2.1840   -17.6190 
  119.2500    88.9390    25.2320     5.0950     4.0110     4.6970     2.1850   -17.1790 
  119.3750    90.0940    24.4770     4.7600     4.0810     4.6920     2.2170   -16.9430 
  119.5000    88.8410    24.6560     4.2870     4.1560     4.7140     2.2630   -16.8640 
  119.6250    84.6090    25.4130     4.3860     4.2760     4.8490     2.2940   -16.9300 
  119.7500    80.2980    25.6870     4.9070     4.4440     5.0870     2.3070   -17.0400 
  119.8750    77.2410    25.2520     5.4220     4.6290     5.3660     2.3130   -17.1130 
  120.0000    76.1460    24.6100     5.6430     4.7740     5.5850     2.3170   -17.1080 
  120.1250    79.8490    24.4360     5.4370     4.7950     5.6100     2.3190   -17.0030 
  120.2500    87.2900    24.7510     4.9690     4.6820     5.4340     2.3160   -16.7880 
  120.3750    93.7170    25.3450     4.4980     4.4580     5.1000     2.3090   -16.5010 
  120.5000    95.4540    25.8420     4.2470     4.1680     4.6780     2.3070   -16.1760 
  120.6250    93.8990    25.9470     4.1940     3.8650     4.2460     2.3210   -15.8470 
  120.7500    91.9060    25.9510     4.1020     3.6170     3.9100     2.3430   -15.5760 
  120.8750    88.9110    25.9410     3.9550     3.4960     3.7940     2.3630   -15.4400 
  121.0000    83.4060    25.7090     3.9500     3.5860     4.0350     2.3740   -15.4880 
  121.1250    77.4260    25.2710     4.7200     4.0100     4.8280     2.3850   -15.8080 
  121.2500    74.0360    24.9690     6.9030     4.7510     6.1230     2.4030   -16.3910 
  121.3750    71.1200    24.8040    10.4700     5.7490     7.7750     2.4090   -17.1970 
  121.5000    66.7760    24.6190    13.4690     6.7940     9.3660     2.3780   -18.1570 
  121.6250    62.0820    24.2650    13.0050     7.4490    10.0870     2.3050   -19.2200 
  121.7500    60.0390    23.7610    10.5750     7.5390     9.7960     2.2330   -20.3070 
  121.8750    61.6710    23.2660     8.7340     7.1940     8.9200     2.1890   -21.3570 
  122.0000    64.9550    23.0060     8.2160     6.7060     8.0340     2.1780   -22.3250 
  122.1250    65.5450    23.0330     8.2180     6.3360     7.5290     2.1880   -23.1320 
  122.2500    63.3890    23.1110     8.1610     6.1430     7.3670     2.2000   -23.7690 
  122.3750    62.0570    23.1650     8.0970     6.0890     7.4200     2.2040   -24.2380 
