~V
VERS. 2.00: Ver 2.00
~W
STRT.M 60.0000:
STOP.M 235.0000:
STEP.M 0.1250:
NULL. -999.2500:
UWI. DF33014:
~C
DEPT.M :
SP.MV :
GR.API :
RML.OHMM :
RI. :
RXO.OHMM :
CALI.CM :
DEN.GM/CC :
~A
# ...
   71.2500   -28.2210    60.2470     8.4930     6.9550     7.9520    23.8180     2.2110 
   71.3750   -28.0990    62.5470     8.2720     6.8050     7.4060    23.8730     2.2220 
   71.5000   -28.0650    66.2230     8.2160     6.7260     6.9100    23.9250     2.2300 
   71.6250   -28.2100    65.7630     8.5520     6.8750     7.2580    23.9570     2.2350 
   71.7500   -28.4190    65.4910     9.2030     7.2460     9.0910    23.9790     2.2320 
   71.8750   -28.6600    67.5660     9.9590     7.7520    11.8310    23.9800     2.2200 
   72.0000   -28.9560    66.7750    10.5110     8.2250    12.9480    23.8940     2.2010 
   72.1250   -29.3270    58.7520    10.4840     8.4230    10.9900    23.8240     2.1780 
   72.2500   -29.7220    53.1510     9.9340     8.2890     9.1210    23.7540     2.1570 
   72.3750   -30.1810    55.4500     9.1180     7.8970     8.5280    23.6890     2.1430 
   72.5000   -30.7010    61.1900     8.3770     7.4170     8.9440    23.6680     2.1350 
   72.6250   -31.1710    61.9270     7.9810     7.0450     9.5760    23.6900     2.1330 
   72.7500   -31.4820    59.1620     7.8610     6.8350     9.5410    23.6840     2.1350 
   72.8750   -31.6930    57.5520     7.8810     6.7510     8.8030    23.6500     2.1390 
   73.0000   -31.8540    58.4750     7.8870     6.7130     8.0480    23.6280     2.1410 
   73.1250   -31.9080    58.3280     7.7650     6.6450     7.7650    23.6390     2.1410 
   73.2500   -31.8760    56.5670     7.5470     6.5340     7.7050    23.6720     2.1410 
   73.3750   -31.8340    55.5680     7.3090     6.4120     7.8330    23.7050     2.1450 
   73.5000   -31.7440    55.4470     7.1440     6.3320     8.1770    23.7300     2.1560 
   73.6250   -31.5380    54.5290     7.1680     6.3680     8.5750    23.7600     2.1730 
   73.7500   -31.4330    52.3180     7.4060     6.5390     8.8030    23.7990     2.1890 
   73.8750   -31.2630    51.0420     7.8500     6.8400     8.7210    23.8260     2.1980 
   74.0000   -30.9870    52.6260     8.4240     7.2230     8.3780    23.8670     2.1970 
   74.1250   -30.6850    55.4040     8.9570     7.5740     8.0430    23.9710     2.1880 
   74.2500   -30.4440    56.0270     9.2690     7.7710     7.8820    24.0660     2.1780 
   74.3750   -30.1570    54.4660     9.2560     7.7350     7.8040    24.0790     2.1710 
   74.5000   -29.8330    54.4310     8.9250     7.4600     7.7310    23.9360     2.1650 
   74.6250   -29.5310    57.5390     8.4010     7.0120     7.6780    23.8650     2.1550 
   74.7500   -29.0850    57.8820     7.9010     6.5500     7.6020    23.8820     2.1360 
   74.8750   -28.6950    54.0730     7.5380     6.1790     7.5570    23.9740     2.1150 
   75.0000   -28.1970    49.4990     7.3600     5.9620     7.7090    24.0790     2.1050 
   75.1250   -27.6160    49.0820     7.3970     5.9630     8.7570    24.1510     2.1290 
   75.2500   -27.0340    51.6000     7.6330     6.1740    13.0010    24.1750     2.1930 
   75.3750   -26.3290    54.8890     8.1510     6.6370    22.7500    24.1890     2.2930 
   75.5000   -25.5970    57.3410     9.1020     7.4320    31.3610    24.2240     2.4060 
   75.6250   -24.8610    58.1980    10.7110     8.7000    26.2200    24.3560     2.5040 
   75.7500   -24.1590    59.3720    12.7900    10.3220    22.6210    24.5470     2.5710 
   75.8750   -23.5400    61.4010    14.9410    12.0560    28.5800    24.7190     2.6030 
   76.0000   -23.0390    62.4330    16.5130    13.4780    40.9210    24.7920     2.5970 
   76.1250   -22.7800    61.9090    16.5280    13.8990    38.9280    24.7730     2.5400 
   76.2500   -22.6790    62.4290    14.9750    13.1810    25.8490    24.6850     2.4490 
   76.3750   -22.8020    63.9990    12.4060    11.5450    14.7010    24.5310     2.3460 
   76.5000   -23.1670    64.1130     9.7450     9.5430     8.8880    24.3190     2.2560 
   76.6250   -23.6090    63.0180     7.8500     7.8280     7.4320    24.1000     2.2000 
   76.7500   -24.1710    62.5600     6.7970     6.6580     7.4720    23.8990     2.1710 
   76.8750   -24.6500    61.9340     6.4440     6.0340     7.7170    23.7640     2.1620 
   77.0000   -25.1260    60.1750     6.5670     5.8390     7.6840    23.7160     2.1620 
   77.1250   -25.4860    58.9650     6.9330     5.9320     7.4080    23.7170     2.1630 
   77.2500   -25.6260    59.5900     7.2720     6.0920     7.0140    23.7420     2.1620 
   77.3750   -25.6790    60.6170     7.4440     6.2030     6.7290    23.8080     2.1580 
   77.5000   -25.5100    61.1740     7.4020     6.2050     6.6430    23.8810     2.1530 
   77.6250   -25.3120    62.4800     7.1870     6.0970     6.5570    23.8800     2.1480 
   77.7500   -24.9850    65.3210     6.9660     5.9660     6.3640    23.8190     2.1460 
   77.8750   -24.6860    68.9440     6.8770     5.8980     6.3370    23.7560     2.1490 
   78.0000   -24.3560    71.9350     7.0140     5.9610     7.2280    23.7430     2.1580 
   78.1250   -24.0460    71.6560     7.4130     6.1970    10.0980    23.7960     2.1690 
   78.2500   -23.8710    67.5440     7.9140     6.5250    13.1560    23.8480     2.1790 
   78.3750   -23.6630    62.6350     8.3440     6.8420    13.0870    23.7900     2.1830 
   78.5000   -23.5560    60.1600     8.5410     7.0400    10.4550    23.6480     2.1790 
   78.6250   -23.3760    60.9150     8.3950     7.0150     8.4280    23.5920     2.1710 
   78.7500   -23.2170    62.2220     8.0580     6.8230     7.3620    23.6050     2.1660 
   78.8750   -22.9900    63.4500     7.6980     6.5520     6.7570    23.6210     2.1670 
   79.0000   -22.6400    63.3910     7.4350     6.2880     6.4620    23.6230     2.1760 
   79.1250   -22.1930    64.2700     7.2940     6.0770     6.5260    23.6230     2.1930 
   79.2500   -21.5350    68.1380     7.1620     5.8840     6.6050    23.6240     2.2150 
   79.3750   -20.7310    74.0780     6.9460     5.6620     6.2860    23.6420     2.2380 
   79.5000   -19.8260    79.1390     6.6200     5.3880     5.4130    23.7240     2.2620 
   79.6250   -18.8920    82.6970     6.2740     5.1020     4.4200    23.9490     2.2830 
   79.7500   -18.0680    84.5310     6.0850     4.9020     3.8330    24.2200     2.2970 
   79.8750   -17.3630    83.4960     6.1820     4.8770     3.8440    24.4350     2.3010 
   80.0000   -16.8960    81.2290     6.6090     5.0710     4.5180    24.5180     2.2910 
   80.1250   -16.6540    78.3160     7.3150     5.4850     5.6280    24.4740     2.2670 
   80.2500   -16.6310    72.8010     8.0540     5.9750     6.4600    24.3780     2.2410 
   80.3750   -16.8780    66.3420     8.6110     6.4060     6.6800    24.2890     2.2200 
   80.5000   -17.1710    62.7370     8.8350     6.6640     6.6020    24.2150     2.2070 
   80.6250   -17.6450    61.8950     8.6880     6.6860     6.6620    24.1680     2.2010 
   80.7500   -18.0520    61.9490     8.4030     6.5760     6.7760    24.1190     2.1950 
   80.8750   -18.4280    64.1520     8.1420     6.4320     6.8160    24.0680     2.1870 
   81.0000   -18.6780    67.4160     7.9800     6.3150     6.7710    24.0180     2.1810 
   81.1250   -18.7910    67.9840     7.8940     6.2380     6.5570    24.0130     2.1850 
   81.2500   -18.8520    67.4550     7.7950     6.1650     6.2900    24.0360     2.1990 
   81.3750   -18.7890    67.3340     7.6550     6.0750     6.1210    24.0370     2.2180 
   81.5000   -18.8300    66.9130     7.5080     5.9800     6.1100    23.9440     2.2350 
   81.6250   -18.8320    66.3120     7.4530     5.9370     6.2210    23.7360     2.2450 
   81.7500   -18.9090    65.9350     7.5570     5.9910     6.4290    23.5760     2.2460 
   81.8750   -19.0510    65.9680     7.8390     6.1670     6.8210    23.4940     2.2420 
   82.0000   -19.2200    65.5460     8.2570     6.4490     7.4490    23.4440     2.2320 
   82.1250   -19.4550    65.1120     8.7010     6.7790     8.1870    23.4020     2.2200 
   82.2500   -19.6750    63.1870     9.0380     7.0560     8.6430    23.3660     2.2100 
   82.3750   -19.9180    61.0850     9.1930     7.2150     8.4770    23.3600     2.2040 
