~V
VERS. 2.00: Ver 2.00
~W
STRT.M 55.0000:
STOP.M 245.0000:
STEP.M 0.1250:
NULL. -999.2500:
UWI. DF33016:
~C
DEPT.M :
GR.API :
CALI.CM :
RXO.OHMM :
RI. :
RML.OHMM :
DEN.GM/CC :
SP.MV :
~A
# ...
  178.7500    66.4840    24.5920   111.0720   152.8360   164.5920     2.2350   -30.5250 
  178.8750    65.5650    24.8370   135.4120   173.6950   187.1520     2.2320   -29.9570 
  179.0000    64.9700    24.8390   170.1090   201.3670   217.0830     2.2140   -29.3870 
  179.1250    64.0200    24.7570   195.6070   231.9720   250.1840     2.1900   -28.7920 
  179.2500    63.2980    24.6650   199.9240   259.3920   279.8420     2.1680   -28.3590 
  179.3750    63.9120    24.6810   200.1790   279.5150   301.6070     2.1570   -27.9400 
  179.5000    63.8500    24.7310   211.3710   290.5600   313.5530     2.1610   -27.4780 
  179.6250    61.0120    24.6580   228.0470   292.7260   315.8960     2.1830   -27.1060 
  179.7500    57.3890    24.4500   229.9290   290.9970   314.0260     2.2220   -26.7610 
  179.8750    53.7380    24.2480   211.1630   289.0960   311.9710     2.2800   -26.3480 
  180.0000    51.6580    24.0380   191.6880   291.0850   314.1210     2.3520   -25.9160 
  180.1250    53.0110    24.0430   193.5330   304.7390   328.8900     2.4350   -25.6090 
  180.2500    54.5660    23.7900   222.1170   334.4280   361.0020     2.5290   -25.2210 
  180.3750    52.6760    23.7020   262.7230   376.1270   406.1030     2.6240   -24.7630 
  180.5000    50.2730    23.8550   290.1430   398.5140   430.3170     2.7020   -24.3180 
  180.6250    53.4500    23.9810   289.4300   327.1880   353.1710     2.7470   -23.7930 
  180.7500    56.7640    23.8600   272.3950   199.8990   215.4950     2.7550   -23.1470 
  180.8750    56.0980    23.6930   215.9880    97.5840   104.8310     2.7370   -22.4680 
  181.0000    54.5130    23.8540   121.0930    42.3430    45.0830     2.7120   -21.8230 
  181.1250    55.4990    23.7940    41.6500    20.5800    21.5070     2.6780   -21.0380 
  181.2500    56.4850    24.0260    14.0660    11.3130    11.5290     2.6250   -20.2310 
  181.3750    55.9050    24.3250     6.6140     7.5190     7.8600     2.5500   -19.5700 
  181.5000    55.9160    24.2330     5.2140     6.0090     6.3880     2.4810   -19.0110 
  181.6250    56.8920    24.0110     5.5610     5.6870     6.0100     2.4390   -18.5300 
  181.7500    57.9780    23.8630     6.1350     5.8870     6.1690     2.4290   -18.1900 
  181.8750    58.8120    23.9650     6.5230     6.2940     6.5640     2.4410   -17.9690 
  182.0000    58.2980    24.2890     6.5040     6.6330     6.9340     2.4600   -17.8400 
  182.1250    56.1360    24.1890     6.0320     6.6980     7.0670     2.4810   -17.8270 
  182.2500    54.2010    23.8480     5.5540     6.5540     6.9930     2.4930   -17.8760 
  182.3750    53.9240    23.7790     5.2520     6.3070     6.7990     2.4850   -17.9430 
  182.5000    55.3510    23.9750     5.1570     6.0460     6.5980     2.4650   -17.9490 
  182.6250    55.1360    24.1140     5.2200     5.8260     6.5370     2.4510   -17.9660 
  182.7500    53.2420    23.8910     5.3270     5.6460     6.6160     2.4420   -18.0260 
  182.8750    52.6340    23.6600     5.3310     5.5070     6.7890     2.4270   -18.1130 
  183.0000    54.0440    23.4570     5.2030     5.4280     6.9900     2.4120   -18.1990 
  183.1250    53.6490    23.4130     5.1010     5.4150     7.1410     2.4080   -18.2700 
  183.2500    52.1970    23.4920     5.1280     5.4380     7.2130     2.4170   -18.3890 
  183.3750    54.4040    23.5880     5.2840     5.4680     7.2090     2.4220   -18.5260 
  183.5000    60.1070    23.6600     5.4660     5.4730     7.1780     2.4090   -18.6510 
  183.6250    61.9140    23.6970     5.4930     5.4430     7.1660     2.3690   -18.6800 
  183.7500    60.2800    23.7520     5.3800     5.4040     7.1810     2.3130   -18.6780 
  183.8750    58.9250    24.2070     5.2610     5.3750     7.2160     2.2710   -18.6680 
  184.0000    59.0250    24.7200     5.3600     5.3590     7.2400     2.2630   -18.6200 
  184.1250    59.7280    24.6610     5.6250     5.3490     7.2240     2.2860   -18.5560 
  184.2500    60.3440    24.1570     5.7730     5.3410     7.1650     2.3230   -18.5140 
  184.3750    61.3550    23.7700     5.6780     5.3240     7.0670     2.3570   -18.4480 
  184.5000    60.9500    23.6780     5.4390     5.2980     6.9520     2.3780   -18.3820 
  184.6250    58.8570    23.8900     5.2360     5.2920     6.8670     2.3850   -18.4680 
  184.7500    59.3910    23.7670     5.1340     5.3410     6.8870     2.3840   -18.6660 
  184.8750    65.0680    23.6830     5.1970     5.4700     7.0710     2.3840   -18.8740 
  185.0000    74.3010    23.6030     5.4550     5.6820     7.4190     2.3980   -19.1140 
  185.1250    80.3880    23.6600     5.8480     5.9540     7.8610     2.4230   -19.4900 
  185.2500    83.0780    23.8820     6.2510     6.1930     8.2520     2.4370   -19.8280 
  185.3750    85.3290    23.9240     6.4790     6.3260     8.4880     2.4320   -20.0660 
  185.5000    88.1490    23.5720     6.4070     6.3320     8.5260     2.4260   -20.2670 
  185.6250    89.5950    23.3760     6.0790     6.2160     8.3890     2.4270   -20.3650 
  185.7500    87.2120    23.3470     5.7580     6.0670     8.2030     2.4310   -20.3380 
  185.8750    81.2130    23.4420     5.6430     5.9510     8.0610     2.4320   -20.2960 
  186.0000    74.5970    23.3780     5.7160     5.9030     8.0250     2.4370   -20.3040 
  186.1250    70.2960    23.4950     5.8870     5.9460     8.1200     2.4510   -20.2600 
  186.2500    68.5600    23.4000     6.0310     6.0360     8.2850     2.4660   -20.2800 
  186.3750    69.4880    23.2370     6.1350     6.1520     8.4770     2.4750   -20.4600 
  186.5000    73.5790    23.2050     6.2890     6.2890     8.6870     2.4720   -20.7250 
  186.6250    81.8820    23.3810     6.5020     6.4440     8.9450     2.4590   -21.1110 
  186.7500    90.4070    23.5090     6.7330     6.6180     9.2670     2.4370   -21.6340 
  186.8750    95.7580    23.7500     7.0730     6.7950     9.6250     2.4110   -22.1660 
  187.0000    99.2970    24.2590     7.6820     6.9280     9.9320     2.3820   -22.6590 
  187.1250   105.4070    24.5040     8.2030     6.9480    10.0380     2.3580   -23.2300 
  187.2500   111.8910    24.3560     8.2510     6.8330     9.9160     2.3480   -23.7600 
  187.3750   112.8600    23.9630     7.9130     6.6070     9.6190     2.3470   -24.2160 
  187.5000   108.9540    23.8030     7.4540     6.3470     9.2770     2.3330   -24.7450 
  187.6250   105.1830    23.9820     7.2560     6.1590     9.0700     2.3000   -25.3350 
  187.7500   101.7920    24.3100     7.4480     6.1150     9.0760     2.2680   -25.8820 
  187.8750    98.3010    24.4960     8.0070     6.2400     9.3090     2.2580   -26.5080 
  188.0000    95.8670    24.4960     8.8980     6.5200     9.7360     2.2670   -27.2340 
  188.1250    95.5960    23.7600     9.7760     6.9580    10.3250     2.2850   -27.9560 
  188.2500    96.2100    22.9870    10.3980     7.5010    11.0290     2.3070   -28.6370 
  188.3750    95.9540    22.5710    11.0130     8.1320    11.8590     2.3290   -29.3030 
  188.5000    93.4430    22.5750    11.8520     8.8210    12.8220     2.3490   -29.8810 
  188.6250    89.8780    22.6260    13.1980     9.4930    13.8690     2.3650   -30.1970 
  188.7500    86.6160    22.6370    14.4920    10.0430    14.7820     2.3750   -30.3660 
  188.8750    82.3250    22.6540    15.5120    10.3200    15.2700     2.3850   -30.3800 
  189.0000    78.6260    22.6860    15.7590    10.1830    15.0800     2.4050   -30.1250 
  189.1250    78.6270    22.6990    14.9460     9.5470    14.0860     2.4370   -29.6480 
  189.2500    83.2830    22.7070    13.2040     8.6230    12.6790     2.4710   -29.1190 
  189.3750    92.3270    22.7220    10.6950     7.6180    11.1980     2.4860   -28.4610 
  189.5000   101.8830    22.8510     8.4280     6.7260     9.9220     2.4730   -27.7460 
  189.6250   105.4520    23.1120     7.4100     6.1180     9.0960     2.4350   -27.1040 
  189.7500   102.8690    23.6090     7.1120     5.8110     8.7140     2.3890   -26.4380 
  189.8750    99.2330    24.1560     7.1170     5.8110     8.7680     2.3620   -25.7760 
