~V
VERS. 2.00: Ver 2.00
~W
STRT.M 55.0000:
STOP.M 245.0000:
STEP.M 0.1250:
NULL. -999.2500:
UWI. DF33016:
~C
DEPT.M :
GR.API :
CALI.CM :
RXO.OHMM :
RI. :
RML.OHMM :
DEN.GM/CC :
SP.MV :
~A
# ...
   88.7500    74.2030    23.3240     8.1980     6.9740    10.0790     2.1920   -29.5710 
   88.8750    71.7220    23.3240     8.0490     6.7930     9.9460     2.1950   -29.5530 
   89.0000    72.1350    23.3250     8.0110     6.6940     9.9240     2.2140   -29.5500 
   89.1250    73.3060    23.3300     8.0450     6.6860     9.9800     2.2340   -29.5640 
   89.2500    72.4850    23.3540     8.1740     6.7280    10.0570     2.2370   -29.6110 
   89.3750    71.4560    23.4730     8.3170     6.7970    10.1360     2.2170   -29.6720 
   89.5000    72.3080    23.7470     8.4230     6.8710    10.2130     2.1910   -29.7510 
   89.6250    74.1140    24.1400     8.5040     6.9480    10.3050     2.1750   -29.8170 
   89.7500    75.5850    24.2980     8.5710     7.0270    10.4130     2.1770   -29.8760 
   89.8750    75.8170    24.3090     8.6070     7.1090    10.5210     2.1910   -29.9040 
   90.0000    73.4560    24.2680     8.6270     7.1820    10.6050     2.2030   -29.9040 
   90.1250    71.9980    24.2490     8.7020     7.2330    10.6470     2.2030   -29.9040 
   90.2500    73.7790    24.2450     8.9390     7.2580    10.6550     2.1930   -29.8610 
   90.3750    75.5420    24.2480     9.2330     7.2490    10.6360     2.1870   -29.8320 
   90.5000    75.4770    24.2460     9.3990     7.2090    10.5890     2.1910   -29.7640 
   90.6250    74.2960    24.2450     9.3470     7.1400    10.5030     2.2000   -29.6890 
   90.7500    72.9040    24.2440     9.2010     7.0550    10.3820     2.2090   -29.5680 
   90.8750    70.8420    24.2440     9.0150     6.9530    10.2390     2.2140   -29.4660 
   91.0000    69.0440    24.2440     8.7790     6.8360    10.0980     2.2090   -29.3490 
   91.1250    69.0260    24.2440     8.5580     6.7150     9.9880     2.1920   -29.2390 
   91.2500    68.7870    24.2440     8.3690     6.6040     9.9090     2.1670   -29.1350 
   91.3750    68.2450    24.2440     8.2210     6.5170     9.8440     2.1490   -29.0180 
   91.5000    67.6890    24.2460     8.1130     6.4480     9.7730     2.1480   -28.9220 
   91.6250    66.8410    24.2550     8.0610     6.3980     9.6830     2.1590   -28.7980 
   91.7500    66.4930    24.2720     8.0390     6.3710     9.5870     2.1680   -28.6930 
   91.8750    65.8460    24.2900     8.0160     6.3660     9.5030     2.1670   -28.5650 
   92.0000    65.4390    24.2990     7.9870     6.3880     9.4490     2.1620   -28.4280 
   92.1250    67.0560    24.3030     7.9410     6.4310     9.4530     2.1600   -28.2570 
   92.2500    70.2290    24.3070     7.9020     6.4890     9.5260     2.1660   -28.0460 
   92.3750    73.1870    24.3110     7.9230     6.5610     9.6670     2.1740   -27.8220 
   92.5000    73.1430    24.3130     8.0430     6.6310     9.8400     2.1750   -27.5430 
   92.6250    70.4750    24.3150     8.2590     6.6560     9.9140     2.1660   -27.2980 
   92.7500    68.4370    24.3240     8.5480     6.5660     9.7620     2.1580   -27.0490 
   92.8750    68.9330    24.3460     8.8020     6.3240     9.3250     2.1600   -26.8230 
   93.0000    70.8650    24.3990     8.6490     5.9640     8.6850     2.1680   -26.6280 
   93.1250    72.5170    24.3610     7.8350     5.5890     8.0570     2.1780   -26.4940 
   93.2500    75.7590    24.1360     6.7980     5.3270     7.6430     2.1940   -26.4270 
   93.3750    81.0640    23.8610     6.2000     5.2280     7.5360     2.2240   -26.4330 
   93.5000    84.7950    23.7830     6.3120     5.2910     7.7300     2.2550   -26.4940 
   93.6250    82.7190    23.9210     7.1220     5.4780     8.1390     2.2750   -26.6080 
   93.7500    77.2370    24.1360     8.0680     5.6870     8.5570     2.2760   -26.7260 
   93.8750    72.9180    24.1750     8.4420     5.8670     8.8410     2.2600   -26.8750 
   94.0000    70.3280    24.0440     7.9900     5.9800     8.9300     2.2380   -26.9820 
   94.1250    69.2450    24.2630     7.2590     6.0010     8.8460     2.2140   -27.0660 
   94.2500    71.0120    24.4650     7.0860     5.9680     8.7240     2.1900   -27.1190 
   94.3750    76.0900    24.4790     7.1000     5.9100     8.6430     2.1720   -27.1270 
   94.5000    80.8540    24.2520     7.0410     5.8720     8.6380     2.1650   -27.1100 
   94.6250    80.0030    23.8080     6.9210     5.8930     8.7110     2.1690   -27.0800 
   94.7500    76.5830    23.8240     7.0060     5.9680     8.8300     2.1800   -27.0760 
   94.8750    73.2890    24.1930     7.3360     6.0790     8.9690     2.1880   -27.0550 
   95.0000    70.0540    24.4710     7.7580     6.1770     9.0900     2.1920   -27.0790 
   95.1250    68.1050    24.5440     7.9840     6.2280     9.1510     2.1900   -27.0980 
   95.2500    68.2390    24.5380     7.9620     6.2450     9.1580     2.1840   -27.1190 
   95.3750    69.4450    24.4440     7.8260     6.2450     9.1340     2.1760   -27.1630 
   95.5000    70.5080    24.1770     7.7430     6.2520     9.1040     2.1720   -27.2320 
   95.6250    72.1220    23.7020     7.8740     6.2570     9.0920     2.1840   -27.3110 
   95.7500    75.3950    23.4650     8.0530     6.2490     9.0940     2.2180   -27.3880 
   95.8750    78.9570    23.3730     8.1020     6.2170     9.0890     2.2620   -27.5000 
   96.0000    80.3380    23.3260     8.0190     6.1580     9.0650     2.2880   -27.5860 
   96.1250    78.2220    23.3070     7.9940     6.1110     9.0330     2.2830   -27.7180 
   96.2500    74.9990    23.3010     8.0620     6.0930     9.0230     2.2550   -27.8540 
   96.3750    72.0200    23.3010     8.1180     6.1110     9.0490     2.2250   -27.9400 
   96.5000    69.1370    23.3020     8.1030     6.1560     9.1090     2.2050   -28.0250 
   96.6250    68.3910    23.3040     8.1040     6.1920     9.1650     2.1960   -28.0250 
   96.7500    69.7480    23.3230     8.3170     6.1980     9.1630     2.1930   -28.0430 
   96.8750    70.2310    23.4410     8.9610     6.1560     9.0730     2.1920   -28.0070 
   97.0000    69.6180    23.7320     9.8040     6.0770     8.9190     2.1910   -28.0010 
   97.1250    70.4740    24.1350     9.5680     5.9890     8.7640     2.1940   -27.9790 
   97.2500    71.8060    24.3040     8.5160     5.9220     8.6740     2.1990   -27.9180 
   97.3750    71.9890    24.3390     7.5630     5.9090     8.6820     2.2040   -27.9080 
   97.5000    72.4590    24.3400     7.2800     5.9670     8.7940     2.2090   -27.9270 
   97.6250    72.2930    24.3330     7.6140     6.0960     8.9880     2.2100   -28.0100 
   97.7500    69.6140    24.2920     7.9970     6.2460     9.1970     2.2050   -28.0620 
   97.8750    66.2330    24.1980     8.2050     6.3710     9.3730     2.1940   -28.1040 
   98.0000    64.9150    24.1130     8.2690     6.4530     9.4860     2.1840   -28.1530 
   98.1250    65.4320    24.0910     8.3530     6.4830     9.5190     2.1790   -28.1470 
   98.2500    65.9290    24.1050     8.5030     6.4870     9.5030     2.1800   -28.1710 
   98.3750    66.9510    24.1220     8.7220     6.4850     9.4690     2.1820   -28.1450 
   98.5000    68.2900    24.1280     9.0260     6.4930     9.4480     2.1820   -28.0740 
   98.6250    67.5470    24.1260     9.2880     6.5250     9.4480     2.1780   -27.9240 
   98.7500    64.4710    24.1300     9.0250     6.5660     9.4570     2.1770   -27.7750 
   98.8750    61.8350    24.1270     8.3360     6.6010     9.4630     2.1870   -27.6160 
   99.0000    63.1770    24.0990     7.7020     6.6050     9.4540     2.2050   -27.4090 
   99.1250    66.0790    24.0110     7.4370     6.5610     9.4230     2.2230   -27.2030 
   99.2500    66.8720    24.0320     7.4360     6.5110     9.4070     2.2300   -26.9300 
   99.3750    65.6810    24.0950     7.4940     6.4830     9.4450     2.2210   -26.6530 
   99.5000    64.8550    24.1290     7.6970     6.4800     9.5290     2.2040   -26.3540 
   99.6250    67.8610    24.1190     8.6290     6.4320     9.5580     2.1890   -26.0270 
   99.7500    74.0110    24.0970    10.0190     6.2650     9.3860     2.1910   -25.6430 
   99.8750    80.4550    24.0810    10.2190     5.9420     8.9090     2.2200   -25.2820 
