~V
VERS. 2.00: Ver 2.00
~W
STRT.M 63.0000:
STOP.M 272.0000:
STEP.M 0.1250:
NULL. -999.2500:
UWI. DF33040:
~C
DEPT.M :
SP.MV :
GR.API :
CALI.CM :
RXO.OHMM :
RI. :
RML.OHMM :
DEN.GM/CC :
~A
# ...
   74.2500   -26.0800    62.6070    22.9330     6.9730     5.7740     8.4790     2.1530 
   74.3750   -25.9230    60.4890    22.8860     6.9620     5.8820     8.7190     2.1470 
   74.5000   -25.7750    60.0350    22.9390     7.7620     6.2970     9.5850     2.1460 
   74.6250   -25.6550    57.9550    23.1470    12.9000     7.1030    11.1510     2.1700 
   74.7500   -25.5570    56.5430    23.4490    26.1960     8.0940    12.9320     2.2090 
   74.8750   -25.4910    57.6930    23.7340    40.3890     8.9270    14.2060     2.2360 
   75.0000   -25.4800    60.7980    23.8480    39.6410     9.1760    14.2110     2.2340 
   75.1250   -25.5550    65.2360    23.5740    22.9120     8.5810    12.7340     2.2150 
   75.2500   -25.6910    69.9740    23.0420    11.0450     7.6150    10.8820     2.2020 
   75.3750   -25.8790    73.4300    22.5470     7.1530     6.6780     9.3890     2.1960 
   75.5000   -26.1080    73.8060    22.3030     6.4540     6.0000     8.5480     2.1900 
   75.6250   -26.3770    71.7560    22.2780     6.5110     5.6800     8.3830     2.1820 
   75.7500   -26.6520    69.6010    22.2810     6.5640     5.5840     8.5180     2.1780 
   75.8750   -26.9110    68.6810    22.2950     6.6370     5.5900     8.6600     2.1830 
   76.0000   -27.1280    69.7160    22.3370     6.7350     5.5960     8.6140     2.1930 
   76.1250   -27.2690    71.5520    22.4080     6.8070     5.5710     8.3960     2.2020 
   76.2500   -27.3290    72.6800    22.4740     6.8560     5.6030     8.3140     2.2000 
   76.3750   -27.3180    74.5420    22.5300     6.9610     5.8090     8.6440     2.1890 
   76.5000   -27.2260    76.2940    22.6890     7.7090     6.2760     9.5330     2.1810 
   76.6250   -27.0440    76.1450    23.0570    11.6330     7.0300    10.9470     2.2010 
   76.7500   -26.8380    74.5790    23.5570    20.0500     7.8370    12.3420     2.2430 
   76.8750   -26.6450    72.5260    23.9700    27.0350     8.3790    13.0560     2.2750 
   77.0000   -26.4750    69.4940    23.9660    24.6880     8.3670    12.6260     2.2720 
   77.1250   -26.3350    66.0070    23.3460    14.8050     7.7430    11.2090     2.2340 
   77.2500   -26.2190    65.3510    22.5540     8.3890     6.9280     9.7260     2.1940 
   77.3750   -26.1150    67.6060    22.0180     6.2020     6.2040     8.6450     2.1710 
   77.5000   -26.0220    69.5550    21.8260     5.8340     5.7150     8.1030     2.1590 
   77.6250   -25.9420    70.1300    21.7870     5.9230     5.5310     8.0700     2.1440 
   77.7500   -25.8540    71.7090    21.7760     5.9930     5.5360     8.2460     2.1250 
   77.8750   -25.7360    75.6970    21.7860     6.0490     5.6280     8.4290     2.1120 
   78.0000   -25.5870    78.7270    21.8130     6.1610     5.7390     8.5430     2.1120 
   78.1250   -25.3950    78.3060    21.8330     6.3000     5.8940     8.7080     2.1310 
   78.2500   -25.1700    77.1770    21.8320     6.3870     6.1600     9.0950     2.1720 
   78.3750   -24.9140    77.0850    21.8800     6.6800     6.5870     9.7870     2.2460 
   78.5000   -24.6220    77.0930    22.1460     7.7930     7.1620    10.7360     2.3440 
   78.6250   -24.2750    75.8440    22.7280     9.8700     7.7400    11.6240     2.4150 
   78.7500   -23.8620    75.9690    23.3150    11.1430     8.0390    11.9250     2.4150 
   78.8750   -23.3780    79.1690    23.5930    10.4270     7.8370    11.3030     2.3570 
   79.0000   -22.8030    85.3220    23.5410     8.4320     7.1300     9.8970     2.2970 
   79.1250   -22.1350    93.0450    23.5870     6.7520     6.1520     8.2480     2.2930 
   79.2500   -21.4510   102.4900    24.0160     5.5740     5.2430     6.8740     2.3250 
   79.3750   -20.8020   111.7150    24.6450     4.7020     4.5580     5.9490     2.3560 
   79.5000   -20.2450   114.7450    25.0810     4.2250     4.1500     5.4820     2.3670 
   79.6250   -19.8600   110.1990    25.1960     4.1620     4.0410     5.4580     2.3650 
   79.7500   -19.6620   105.2020    25.2540     4.3270     4.1360     5.7210     2.3620 
   79.8750   -19.6630   100.4510    25.2450     4.8730     4.3780     6.1800     2.3540 
   80.0000   -19.9080    93.5610    25.0120     5.8210     4.7000     6.7060     2.3340 
   80.1250   -20.4410    85.6180    24.4930     6.4650     5.0110     7.1170     2.3020 
   80.2500   -21.1440    80.4500    23.9550     6.3660     5.2560     7.3610     2.2670 
   80.3750   -21.9450    77.2560    23.6080     5.9380     5.4380     7.5050     2.2350 
   80.5000   -22.7980    73.5730    23.4820     5.8130     5.6080     7.6860     2.2080 
   80.6250   -23.6310    69.8810    23.4460     6.1140     5.8380     8.0480     2.1890 
   80.7500   -24.3930    66.5730    23.3530     6.4900     6.1470     8.5780     2.1760 
   80.8750   -25.0630    64.1930    23.2520     6.8350     6.4940     9.1700     2.1670 
   81.0000   -25.6120    64.4730    23.2360     7.1690     6.7890     9.6440     2.1620 
   81.1250   -26.0080    68.9590    23.3260     7.3610     6.8960     9.7760     2.1620 
   81.2500   -26.2910    74.6830    23.4180     7.2680     6.8100     9.5970     2.1640 
   81.3750   -26.4910    77.1160    23.4480     6.9380     6.5930     9.2410     2.1680 
   81.5000   -26.6240    74.6560    23.4200     6.6350     6.3560     8.9040     2.1680 
   81.6250   -26.6980    69.1640    23.3900     6.6220     6.2470     8.8450     2.1550 
   81.7500   -26.7370    64.3730    23.3770     6.8280     6.3550     9.2050     2.1310 
   81.8750   -26.7580    62.8680    23.3690     7.0680     6.7440    10.0870     2.1180 
   82.0000   -26.7650    62.8480    23.3730     7.1650     7.4330    11.4980     2.1520 
   82.1250   -26.7580    60.1800    23.4170     7.0160     8.3640    13.2710     2.2540 
   82.2500   -26.7400    56.9120    23.4480     6.7420     9.2540    14.8090     2.3770 
   82.3750   -26.7120    56.7810    23.3710     6.4880     9.7920    15.4830     2.4560 
   82.5000   -26.6710    59.8180    23.1790     6.3500     9.7550    14.9520     2.4500 
   82.6250   -26.6390    63.1620    23.0140     6.3390     9.1230    13.4230     2.3650 
   82.7500   -26.6480    66.1970    22.9780     6.3830     8.2930    11.7720     2.2710 
   82.8750   -26.7140    67.2750    23.0340     6.4500     7.5270    10.4660     2.2100 
   83.0000   -26.8290    66.2450    23.0830     6.5110     6.9720     9.6680     2.1830 
   83.1250   -26.9840    64.3070    23.0670     6.5240     6.6910     9.3800     2.1700 
   83.2500   -27.1620    62.8850    23.0060     6.5170     6.5950     9.3550     2.1520 
   83.3750   -27.3340    63.6710    22.9340     6.5630     6.6100     9.4460     2.1350 
   83.5000   -27.4870    66.0490    22.8840     6.6870     6.6720     9.5520     2.1290 
   83.6250   -27.6200    67.9530    22.8960     6.8510     6.7310     9.6140     2.1330 
   83.7500   -27.7110    68.1900    22.9620     7.0360     6.7660     9.6330     2.1370 
   83.8750   -27.7440    67.4710    23.0260     7.2570     6.7710     9.6160     2.1400 
   84.0000   -27.7430    66.5310    23.0150     7.4610     6.7480     9.5690     2.1450 
   84.1250   -27.7200    64.3850    22.9420     7.5250     6.7010     9.5020     2.1540 
   84.2500   -27.6900    62.9470    22.9020     7.4620     6.6440     9.4390     2.1610 
   84.3750   -27.6690    62.5500    22.9120     7.3540     6.5840     9.3930     2.1640 
   84.5000   -27.6530    61.4290    22.9170     7.2770     6.5250     9.3670     2.1640 
   84.6250   -27.6200    59.8370    22.8790     7.2930     6.4680     9.3570     2.1640 
   84.7500   -27.5890    61.2000    22.8510     7.3530     6.4120     9.3480     2.1700 
   84.8750   -27.5680    66.6980    22.8770     7.3440     6.3600     9.3350     2.1820 
   85.0000   -27.5380    72.2060    22.9460     7.2140     6.3170     9.3240     2.1970 
   85.1250   -27.5190    72.4320    23.0150     7.0990     6.3020     9.3450     2.2100 
   85.2500   -27.5080    69.6220    23.0640     7.1480     6.3300     9.4380     2.2170 
   85.3750   -27.5010    67.2680    23.1050     7.3190     6.4350     9.6710     2.2160 
