~V
VERS. 2.00: Ver 2.00
~W
STRT.M 55.0000:
STOP.M 245.0000:
STEP.M 0.1250:
NULL. -999.2500:
UWI. DF33016:
~C
DEPT.M :
GR.API :
CALI.CM :
RXO.OHMM :
RI. :
RML.OHMM :
DEN.GM/CC :
SP.MV :
~A
# ...
  100.0000    83.2980    24.0860     8.6430     5.4890     8.1580     2.2530   -24.9140 
  100.1250    82.1570    24.1110     6.8190     5.0490     7.3770     2.2730   -24.6260 
  100.2500    83.6910    24.1220     6.0130     4.7990     6.8980     2.2760   -24.4260 
  100.3750    89.2030    24.1300     6.1520     4.8710     6.9380     2.2830   -24.2990 
  100.5000    94.4820    24.1410     7.3100     5.3450     7.5980     2.3160   -24.2490 
  100.6250    94.1060    24.1920     9.1600     6.2480     8.9230     2.3810   -24.3970 
  100.7500    90.1240    24.1570    11.5190     7.3220    10.5040     2.4640   -24.6640 
  100.8750    85.4220    23.9350    13.9630     8.2240    11.7540     2.5270   -24.9720 
  101.0000    80.3010    23.7450    14.4270     8.6100    12.0780     2.5290   -25.2980 
  101.1250    75.4330    23.7230    11.6280     8.3550    11.3550     2.4600   -25.5970 
  101.2500    73.0160    23.5620     9.3050     7.8430    10.3810     2.3480   -25.8630 
  101.3750    74.0510    23.4610     8.4700     7.3560     9.6290     2.2560   -26.0680 
  101.5000    76.9880    23.4390     8.4650     7.0370     9.2760     2.2100   -26.1710 
  101.6250    79.2580    23.4390     8.7430     6.9100     9.3130     2.1920   -26.1710 
  101.7500    79.5820    23.4480     8.9880     6.8570     9.4500     2.1740   -26.0730 
  101.8750    78.9660    23.4990     8.9020     6.7590     9.4430     2.1630   -25.9200 
  102.0000    79.0870    23.6320     8.4040     6.5310     9.1530     2.1830   -25.7860 
  102.1250    78.4140    23.7370     7.9330     6.1640     8.6020     2.2270   -25.5870 
  102.2500    79.1580    23.6780     7.7060     5.7540     7.9970     2.2630   -25.4630 
  102.3750    82.6500    23.5890     7.1180     5.4050     7.4860     2.2690   -25.3620 
  102.5000    87.9110    23.6630     6.1710     5.2140     7.1870     2.2620   -25.3470 
  102.6250    90.4660    23.7980     6.1090     5.2770     7.2360     2.2520   -25.3380 
  102.7500    88.5100    23.7700     6.6550     5.5960     7.6380     2.2290   -25.3200 
  102.8750    83.2800    23.6730     7.3700     6.1720     8.3990     2.1920   -25.3200 
  103.0000    77.4120    23.6370     8.0380     6.9400     9.4320     2.1620   -25.2370 
  103.1250    75.2240    23.6790     9.0160     7.6870    10.4130     2.1620   -25.1400 
  103.2500    75.7070    23.7120    10.5490     8.0880    10.8640     2.1950   -24.9900 
  103.3750    75.1520    23.7500    11.5240     7.9410    10.5020     2.2490   -24.7720 
  103.5000    75.1870    23.8190    10.4560     7.2980     9.4480     2.2960   -24.4870 
  103.6250    81.0100    23.9900     7.7620     6.4210     8.1700     2.3190   -24.2660 
  103.7500    89.7340    24.1620     5.8710     5.6390     7.1420     2.3210   -24.1210 
  103.8750    96.3560    24.1900     5.2970     5.0830     6.5180     2.3120   -23.9440 
  104.0000    98.5470    24.3600     5.3870     4.7780     6.2910     2.2980   -23.8590 
  104.1250    97.7230    24.5140     5.5660     4.7300     6.3930     2.2810   -23.9290 
  104.2500    96.1330    24.3700     5.7110     4.8240     6.6140     2.2650   -24.0450 
  104.3750    94.6310    24.2740     5.8750     4.9860     6.8340     2.2560   -24.2340 
  104.5000    92.5280    24.6360     6.0190     5.1640     7.0030     2.2520   -24.5300 
  104.6250    89.1650    24.8940     5.9850     5.3210     7.1280     2.2550   -24.7870 
  104.7500    87.4670    24.9790     5.8640     5.4420     7.2350     2.2630   -25.0700 
  104.8750    90.2890    24.9150     5.8970     5.5280     7.3190     2.2700   -25.4070 
  105.0000    95.2670    24.7290     6.0660     5.5850     7.3660     2.2680   -25.7620 
  105.1250    94.8650    24.4650     6.1140     5.6270     7.3840     2.2580   -26.0990 
  105.2500    89.9050    24.5490     6.1820     5.6790     7.4240     2.2430   -26.3810 
  105.3750    85.8180    24.8030     6.4500     5.7560     7.5180     2.2270   -26.6770 
  105.5000    85.2790    24.9650     6.8560     5.8650     7.6670     2.2110   -26.9700 
  105.6250    85.9650    24.9160     7.2080     6.0060     7.8530     2.2040   -27.2120 
  105.7500    86.5420    24.6960     7.6430     6.1590     8.0340     2.2080   -27.3810 
  105.8750    87.8660    24.3830     7.9610     6.3010     8.1830     2.2110   -27.5830 
  106.0000    87.8170    24.0320     7.9540     6.4090     8.2810     2.2030   -27.7510 
  106.1250    83.5640    23.8510     7.7150     6.4460     8.3180     2.1910   -27.7790 
  106.2500    78.2680    23.7450     7.4030     6.4310     8.3190     2.1820   -27.8240 
  106.3750    74.0660    23.6840     7.1720     6.4080     8.3300     2.1820   -27.7900 
  106.5000    72.8960    23.6570     7.1430     6.4170     8.4030     2.1850   -27.7020 
  106.6250    73.7430    23.6570     7.2400     6.4820     8.5740     2.1910   -27.6130 
  106.7500    76.2150    23.6580     7.3260     6.5540     8.7660     2.2070   -27.5490 
  106.8750    78.5930    23.6600     7.3360     6.5800     8.8880     2.2450   -27.4670 
  107.0000    77.4490    23.6690     7.2990     6.5260     8.8530     2.2950   -27.3720 
  107.1250    72.4810    23.6600     7.3100     6.3650     8.6020     2.3310   -27.3910 
  107.2500    69.6590    23.6120     7.3770     6.1980     8.2980     2.3280   -27.3810 
  107.3750    72.5850    23.6010     7.4970     6.1640     8.1830     2.2830   -27.4040 
  107.5000    77.9380    23.7570     7.6620     6.4020     8.4890     2.2420   -27.4460 
  107.6250    79.5300    24.1930     8.1160     7.0790     9.4480     2.2390   -27.4870 
  107.7500    78.3900    24.4180     9.4520     8.0710    10.9000     2.2840   -27.5610 
  107.8750    75.5740    24.4750    12.4380     9.1270    12.4720     2.3650   -27.6090 
  108.0000    71.1860    24.3430    15.9510     9.8380    13.4710     2.4360   -27.6410 
  108.1250    67.6880    23.9150    15.9800     9.7360    13.1020     2.4530   -27.6620 
  108.2500    68.5400    23.7140    12.7270     9.0580    11.8580     2.3990   -27.6990 
  108.3750    72.2860    23.7360     9.5820     8.1690    10.4480     2.2970   -27.7630 
  108.5000    75.8060    23.7950     8.1910     7.3870     9.3660     2.2070   -27.7870 
  108.6250    78.6340    23.8050     7.8210     6.9160     8.8470     2.1570   -27.8740 
  108.7500    79.8570    23.7970     7.8160     6.7040     8.7230     2.1480   -27.9120 
  108.8750    78.4050    23.7760     7.8640     6.6860     8.8320     2.1660   -27.9500 
  109.0000    76.7830    23.7240     7.7560     6.7780     9.0330     2.1810   -28.0560 
  109.1250    78.7400    23.6660     7.6150     6.9340     9.2570     2.1870   -28.1100 
  109.2500    81.1890    23.6120     7.7840     7.1070     9.4810     2.1910   -28.2050 
  109.3750    80.7400    23.5900     8.2880     7.2500     9.6660     2.2080   -28.2630 
  109.5000    78.2080    23.5740     8.8540     7.3240     9.7510     2.2340   -28.2930 
  109.6250    75.1330    23.5380     8.9140     7.2770     9.6740     2.2510   -28.3150 
  109.7500    72.9580    23.4950     8.6070     7.1530     9.5030     2.2440   -28.3210 
  109.8750    72.1890    23.4770     8.2750     7.0100     9.3210     2.2160   -28.2630 
  110.0000    71.8510    23.4760     8.1350     6.9030     9.2170     2.1910   -28.1590 
  110.1250    71.9860    23.4770     8.2200     6.9040     9.2800     2.1830   -28.0920 
  110.2500    73.5200    23.4730     8.4090     6.9900     9.4720     2.1900   -27.9430 
  110.3750    75.2470    23.4650     8.5510     7.1180     9.7060     2.2010   -27.7930 
  110.5000    75.2520    23.4490     8.5920     7.2250     9.8800     2.2100   -27.7140 
  110.6250    73.5560    23.4410     8.6010     7.2380     9.8950     2.2190   -27.5840 
  110.7500    73.0670    23.4390     8.5500     7.1600     9.7620     2.2260   -27.4460 
  110.8750    74.4820    23.4390     8.4610     7.0080     9.5290     2.2210   -27.3800 
  111.0000    77.2890    23.4390     8.3370     6.8300     9.2700     2.2020   -27.3050 
  111.1250    81.5140    23.4390     8.2320     6.6740     9.0500     2.1740   -27.1410 
