~V
VERS. 2.00: Ver 2.00
~W
STRT.M 60.0000:
STOP.M 233.0000:
STEP.M 0.1250:
NULL. -999.2500:
UWI. DF33019:
~C
DEPT.M :
GR.API :
RML.OHMM :
RI. :
RXO.OHMM :
CALI.CM :
DEN.GM/CC :
SP.MV :
~A
   60.0000    60.6360     2.3080     0.1980    -0.0760    24.1350     2.1910     7.8740 
   60.1250    59.3650     0.1460     0.0920    -0.2530    24.0470     2.3360     5.8880 
   60.2500    61.4650    -0.9540     0.0240    -0.7010    23.9940     2.4750     3.2960 
   60.3750    69.2250    -1.4960    -0.0050    -0.8630    24.0020     2.5640     0.2590 
   60.5000    78.2370    -1.2630     0.0900    -0.4850    24.0340     2.5890    -3.0820 
   60.6250    81.9540     0.5420     0.5600     0.8480    24.0040     2.5720    -6.7060 
   60.7500    80.6920     4.2440     1.5540     5.0850    23.9290     2.5520   -10.4770 
   60.8750    76.3970     9.3820     3.0980    14.6720    23.8790     2.5380   -14.2560 
   61.0000    71.5890    14.7840     4.9670    24.8890    23.8650     2.5210   -17.8280 
   61.1250    68.9410    17.0340     6.5130    20.3780    23.8490     2.4800   -20.7890 
   61.2500    68.2150    14.5990     7.1980    11.6560    23.8280     2.4140   -23.0860 
   61.3750    69.2700    10.6180     7.0960     7.7270    23.8260     2.3450   -24.9180 
   61.5000    73.4460     8.3140     6.7230     6.4250    23.8620     2.2920   -26.5070 
   61.6250    80.4580     7.6990     6.5250     5.8190    23.8820     2.2670   -27.8530 
   61.7500    84.5120     7.8980     6.5770     5.6010    23.8220     2.2590   -28.9950 
   61.8750    82.3720     8.5320     6.8070     5.9430    23.6960     2.2530   -29.9350 
   62.0000    76.1240     9.2560     7.0850     6.5470    23.5950     2.2440   -30.6460 
   62.1250    71.3010     9.6810     7.2520     6.8880    23.5440     2.2310   -31.1630 
   62.2500    70.0800     9.6720     7.2500     7.0200    23.5330     2.2170   -31.6070 
   62.3750    70.5410     9.3020     7.1090     6.9760    23.5440     2.2010   -32.0010 
   62.5000    71.3880     8.8240     6.9320     6.6890    23.5750     2.1790   -32.2750 
   62.6250    72.3400     8.6830     6.9220     6.3040    23.5820     2.1510   -32.3820 
   62.7500    71.6440     9.1480     7.2150     6.2670    23.5720     2.1240   -32.4280 
   62.8750    69.3420    10.2740     7.8540     6.6670    23.5470     2.1160   -32.4600 
   63.0000    67.3260    11.8450     8.7400     7.6260    23.4860     2.1430   -32.4830 
   63.1250    65.4160    13.2730     9.5900    10.1200    23.3550     2.2150   -32.6000 
   63.2500    62.9250    13.9000    10.0660    13.6990    23.3100     2.3000   -32.8430 
   63.3750    61.5210    13.4130     9.9780    14.3070    23.4520     2.3560   -33.1080 
   63.5000    62.9140    12.0960     9.3670    10.4390    23.7290     2.3520   -33.3680 
   63.6250    64.7960    10.7440     8.5070     8.1070    23.9600     2.2880   -33.6330 
   63.7500    64.9630     9.8840     7.7690     7.2840    24.0280     2.2130   -33.8960 
   63.8750    64.6810     9.5330     7.2930     7.1940    23.9560     2.1580   -34.2040 
   64.0000    63.8180     9.5110     7.0740     7.3000    23.8510     2.1320   -34.5760 
   64.1250    63.8450     9.5930     7.0310     7.4090    23.8380     2.1300   -34.9620 
   64.2500    64.9700     9.6210     7.0320     7.3660    23.9240     2.1340   -35.3270 
   64.3750    65.1860     9.5990     7.0360     7.0860    24.0790     2.1360   -35.6920 
   64.5000    63.5870     9.5960     7.0470     6.8600    24.1960     2.1350   -36.0720 
   64.6250    61.1420     9.6540     7.0850     6.9890    24.2380     2.1360   -36.3840 
   64.7500    59.9950     9.7130     7.1330     7.1440    24.1680     2.1380   -36.6120 
   64.8750    60.1110     9.6910     7.1590     7.1440    23.9890     2.1380   -36.7710 
   65.0000    60.3780     9.5400     7.1320     6.9660    23.7840     2.1330   -36.8650 
   65.1250    61.8600     9.2790     7.0340     6.8630    23.6630     2.1220   -36.8790 
   65.2500    64.2970     9.0200     6.9020     6.9050    23.6070     2.1100   -36.8470 
   65.3750    66.4860     8.8410     6.7690     6.9340    23.5800     2.1020   -36.7550 
   65.5000    66.5200     8.7600     6.6600     6.9250    23.5530     2.1020   -36.5840 
   65.6250    64.5400     8.7260     6.5800     6.8920    23.5680     2.1110   -36.4170 
   65.7500    63.1300     8.6440     6.5080     6.9380    23.6360     2.1270   -36.2210 
   65.8750    64.4070     8.4800     6.4350     7.1190    23.7420     2.1470   -35.9340 
   66.0000    68.8530     8.2660     6.3680     7.4060    23.8270     2.1700   -35.6080 
   66.1250    74.4200     8.1200     6.3510     7.4060    23.8560     2.1900   -35.3010 
   66.2500    77.5250     8.1340     6.4180     7.2210    23.8620     2.2050   -34.9880 
   66.3750    78.5080     8.3290     6.5840     6.9840    23.8430     2.2100   -34.6760 
   66.5000    78.4110     8.6440     6.8310     7.1030    23.7440     2.2030   -34.3630 
   66.6250    74.8400     8.9260     7.0930     7.3870    23.6030     2.1890   -34.0800 
   66.7500    70.9690     9.0190     7.2760     7.9850    23.4480     2.1730   -33.8230 
   66.8750    70.4940     8.8490     7.3190     8.1940    23.3470     2.1610   -33.5560 
   67.0000    71.6060     8.4420     7.2020     7.9270    23.3120     2.1540   -33.3250 
   67.1250    69.8630     7.9150     6.9480     7.4080    23.3140     2.1530   -33.0980 
   67.2500    68.9810     7.4320     6.6540     6.9790    23.3260     2.1540   -32.8920 
   67.3750    72.3500     7.0680     6.3810     6.7840    23.3480     2.1580   -32.7270 
   67.5000    75.4060     6.8430     6.1670     6.5200    23.3530     2.1640   -32.5740 
   67.6250    74.4750     6.7620     6.0310     6.2380    23.3290     2.1690   -32.4430 
   67.7500    73.2600     6.7720     5.9490     6.0770    23.3150     2.1730   -32.3580 
   67.8750    74.3560     6.8460     5.9060     6.0020    23.3120     2.1740   -32.3590 
   68.0000    75.5090     6.9640     5.8870     6.1480    23.3060     2.1740   -32.4280 
   68.1250    73.2390     7.1070     5.8890     6.2640    23.2880     2.1760   -32.5070 
   68.2500    72.1200     7.2520     5.9030     6.3380    23.2650     2.1820   -32.6080 
   68.3750    73.1610     7.3820     5.9260     6.3880    23.2550     2.1920   -32.7180 
   68.5000    74.2510     7.4850     5.9560     6.5170    23.2530     2.2020   -32.8060 
   68.6250    71.4060     7.5610     5.9940     6.7740    23.2530     2.2060   -32.8540 
   68.7500    67.9450     7.6500     6.0500     6.9700    23.2530     2.2030   -32.8670 
   68.8750    68.0280     7.7980     6.1400     7.0710    23.2530     2.1930   -32.8220 
   69.0000    69.1590     8.0350     6.2770     7.0940    23.2530     2.1810   -32.6840 
   69.1250    67.2360     8.3480     6.4540     7.2690    23.2650     2.1720   -32.5450 
   69.2500    65.4050     8.6260     6.6210     8.4900    23.2860     2.1660   -32.3730 
   69.3750    67.1140     8.7570     6.7220    11.8710    23.2880     2.1630   -32.1410 
   69.5000    71.4170     8.6540     6.7110    14.9720    23.2370     2.1600   -31.9340 
   69.6250    72.0790     8.2960     6.5570    11.7250    23.1100     2.1570   -31.8010 
   69.7500    69.4940     7.8510     6.3290     8.8620    22.9250     2.1560   -31.6990 
   69.8750    67.6050     7.4760     6.1010     7.6190    22.7440     2.1570   -31.6420 
   70.0000    68.1360     7.2800     5.9370     6.9550    22.6490     2.1570   -31.6040 
   70.1250    70.8970     7.3150     5.8910     6.6250    22.6280     2.1570   -31.4470 
   70.2500    74.6270     7.4790     5.9350     6.6890    22.6280     2.1580   -31.2900 
   70.3750    76.3660     7.6790     6.0290     6.9870    22.6280     2.1620   -31.1600 
   70.5000    74.3790     7.8350     6.1310     7.1760    22.6280     2.1720   -31.0300 
   70.6250    71.4010     7.8900     6.1990     7.1690    22.6290     2.1840   -30.7590 
   70.7500    70.6500     7.8690     6.2280     7.1440    22.6310     2.1930   -30.4350 
   70.8750    70.3670     7.8090     6.2240     6.9720    22.6290     2.1940   -30.0610 
   71.0000    68.8740     7.7600     6.2080     6.6280    22.5970     2.1860   -29.6810 
   71.1250    67.5200     7.7810     6.2070     6.3970    22.5010     2.1720   -29.3440 
