~V
VERS. 2.00: Ver 2.00
~W
STRT.M 55.0000:
STOP.M 252.0000:
STEP.M 0.1250:
NULL. -999.2500:
UWI. DF33023:
~C
DEPT.M :
GR.API :
CALI.CM :
RXO.OHMM :
RI. :
RML.OHMM :
DEN.GM/CC :
SP.MV :
~A
# ...
  235.0000    70.0730    24.6970     7.0960     7.6240     9.3830     2.3180   -11.8230 
  235.1250    68.7860    24.7040     6.3660     7.6770     9.4880     2.3310   -11.8210 
  235.2500    69.8130    24.7170     5.9190     7.7300     9.6040     2.3680   -11.8010 
  235.3750    72.2080    24.7260     6.1210     7.7760     9.7190     2.4090   -11.7710 
  235.5000    73.7180    24.7210     6.7450     7.8110     9.8200     2.4400   -11.7500 
  235.6250    72.6620    24.7190     7.2990     7.8250     9.8870     2.4610   -11.7400 
  235.7500    70.1670    24.7250     7.5450     7.8150     9.9100     2.4800   -11.7450 
  235.8750    67.3960    24.7190     7.5680     7.7800     9.8900     2.4930   -11.7610 
  236.0000    65.4130    24.6870     7.5510     7.7260     9.8380     2.4900   -11.7890 
  236.1250    65.9410    24.6660     7.5700     7.6780     9.7940     2.4630   -11.8340 
  236.2500    68.5440    24.6800     7.6250     7.6740     9.8210     2.4290   -11.8940 
  236.3750    72.4270    24.6800     7.8200     7.7580     9.9900     2.4140   -11.9570 
  236.5000    74.1760    24.6220     8.4840     7.9670    10.3570     2.4320   -12.0080 
  236.6250    72.9710    24.5410    10.5770     8.3230    10.9440     2.4620   -12.0620 
  236.7500    71.5740    24.5020    14.1100     8.7470    11.6100     2.4800   -12.1060 
  236.8750    71.3780    24.4990    17.2240     9.1340    12.1730     2.4870   -12.1460 
  237.0000    71.9230    24.5010    17.4720     9.3680    12.4490     2.4950   -12.1790 
  237.1250    72.3330    24.5100    14.9350     9.3510    12.3070     2.4990   -12.1790 
  237.2500    72.7240    24.5380    12.8280     9.1580    11.9280     2.4920   -12.1770 
  237.3750    72.8940    24.5820    12.0070     8.8820    11.4930     2.4820   -12.1670 
  237.5000    72.0960    24.6230    11.7360     8.6030    11.1340     2.4800   -12.1600 
  237.6250    69.4670    24.6400    11.3170     8.3640    10.8950     2.4850   -12.1330 
  237.7500    67.0630    24.6460    10.8810     8.1450    10.6830     2.4840   -12.0890 
  237.8750    67.2900    24.6780    10.8430     7.9170    10.4130     2.4720   -12.0230 
  238.0000    69.3300    24.7420    11.2800     7.6650    10.0610     2.4490   -11.9450 
  238.1250    70.2140    24.7470    11.2130     7.4120     9.6860     2.4250   -11.8580 
  238.2500    70.2840    24.6720    10.1320     7.2010     9.3910     2.4150   -11.7670 
  238.3750    70.6210    24.5650     8.8460     7.0630     9.2310     2.4200   -11.6790 
  238.5000    70.7060    24.4460     8.4390     7.0060     9.2030     2.4320   -11.5990 
  238.6250    71.5440    24.1770     9.2260     7.0100     9.2490     2.4420   -11.5470 
  238.7500    72.8110    23.7540    10.6050     7.0220     9.2790     2.4490   -11.5160 
  238.8750    72.8630    23.3960    12.0850     7.0140     9.2520     2.4460   -11.4990 
  239.0000    70.6480    23.3590    12.9700     6.9780     9.1730     2.4350   -11.4960 
  239.1250    68.8590    23.5820    12.7640     6.9270     9.0870     2.4380   -11.5220 
  239.2500    68.8600    23.6320    12.1590     6.8950     9.0530     2.4700   -11.5550 
  239.3750    68.9060    23.3820    11.6010     6.8980     9.0990     2.5210   -11.6020 
  239.5000    68.1020    23.0540    10.9950     6.9360     9.2120     2.5750   -11.6520 
  239.6250    67.4530    23.0860    10.1240     6.9920     9.3450     2.6140   -11.6830 
  239.7500    69.6210    23.5230     9.2100     7.0340     9.4350     2.6290   -11.7210 
  239.8750    73.5960    24.1130     8.5010     7.0420     9.4510     2.6190   -11.7730 
  240.0000    74.4090    24.5280     8.1050     7.0120     9.3940     2.5910   -11.8280 
  240.1250    74.4090    24.6260     8.0440     6.9470     9.2790     2.5640   -11.8820 
  240.2500    74.4090    24.6510     8.3030     6.8660     9.1440     2.5480   -11.9300 
  240.3750    74.4090    24.6990     8.8740     6.7810     9.0090     2.5380   -11.9720 
  240.5000    74.4090    24.7400     9.4570     6.7000     8.8880     2.5270   -12.0040 
  240.6250    74.4090    24.7390     9.3830     6.6300     8.8050     2.5170   -12.0450 
  240.7500    74.4090    24.7220     8.6590     6.5740     8.7610     2.5150   -12.0770 
  240.8750    74.4090    24.7120     7.7520     6.5280     8.7470     2.5250   -12.0980 
  241.0000    74.4090    24.7150     7.0980     6.4850     8.7350     2.5450   -12.1060 
  241.1250    74.4090    24.7750     6.7610     6.4310     8.6860     2.5600   -12.1130 
  241.2500    74.4090    24.8640     6.5140     6.3570     8.5770     2.5530   -12.1210 
  241.3750    74.4090    24.8880     6.2990     6.2580     8.4100     2.5250   -12.1210 
  241.5000    74.4090    24.8020     6.1100     6.1420     8.2100     2.4910   -12.1210 
  241.6250    74.4090    24.6860     5.9030     6.0350     8.0340     2.4680   -12.1090 
  241.7500    74.4090    24.6510     5.6240     5.9580     7.9180     2.4550   -12.0960 
  241.8750    74.4090    24.6840     5.3400     5.9180     7.8660     2.4430   -12.0840 
  242.0000    74.4090    24.7140     5.2240     5.9080     7.8600     2.4290   -12.0770 
  242.1250    74.4090    24.7230     5.3730     5.9160     7.8690     2.4140   -12.0690 
  242.2500    74.4090    24.7140     5.5540     5.9250     7.8670     2.3950   -12.0570 
  242.3750    74.4090    24.6910     5.6060     5.9310     7.8540     2.3720   -12.0450 
  242.5000    74.4090    24.6620     5.5580     5.9350     7.8380     2.3570   -12.0380 
  242.6250    74.4090    24.6450     5.5450     5.9360     7.8290     2.3620   -12.0180 
  242.7500    74.4090    24.6420     5.5480     5.9360     7.8270     2.3750   -11.9940 
  242.8750    74.4090    24.6430     5.5030     5.9360     7.8310     2.3840   -11.9660 
  243.0000    74.4090    24.6430     5.4670     5.9350     7.8360     2.3930   -11.9350 
  243.1250    74.4090    24.6430     5.6220     5.9360     7.8380     2.4200   -11.8930 
  243.2500    74.4090    24.6450     5.9060     5.9360     7.8340     2.4500   -11.8550 
  243.3750    74.4090    24.6400     6.0440     5.9370     7.8280     2.4630   -11.8320 
  243.5000    74.4090    24.6100     5.8450     5.9360     7.8240     2.4580   -11.8130 
  243.6250    74.4090    24.5550     5.7530     5.9360     7.8250     2.4560   -11.8110 
  243.7500    74.4090    24.5030     6.5360     5.9350     7.8280     2.4620   -11.8280 
  243.8750    74.4090    24.4650     8.3880     5.9350     7.8290     2.4690   -11.8670 
  244.0000    74.4090    24.4340    10.4640     5.9350     7.8280     2.4710   -11.9160 
  244.1250    74.4090    24.4140    11.5910     5.9360     7.8250     2.4720   -11.9740 
  244.2500    74.4090    24.4030    13.2670     5.9370     7.8230     2.4790   -12.0450 
  244.3750    74.4090    24.3900    18.3700     5.9370     7.8230     2.4990   -12.0980 
  244.5000    74.4090    24.3790    26.4220     5.9370     7.8240     2.5310   -12.1350 
  244.6250    74.4090    24.3910    29.8160     5.9360     7.8280     2.5580   -12.1600 
  244.7500    74.4090    24.4530    26.5700     5.9350     7.8320     2.5650   -12.1890 
  244.8750    74.4090    24.5500    21.5440     5.9340     7.8340     2.5510   -12.1890 
  245.0000    74.4090    24.6170    18.2500     5.9330     7.8320     2.5260   -12.1910 
  245.1250    74.4090    24.5950    15.2550     5.9330     7.8260     2.5100   -12.1940 
  245.2500    74.4090    24.5370    11.9300     5.9340     7.8170     2.5090   -12.1990 
  245.3750    74.4090    24.5070     9.3530     5.9360     7.8060     2.5140   -12.2100 
  245.5000    74.4090    24.5120     7.8630     5.9380     7.7960     2.5090   -12.2180 
  245.6250    74.4090    24.5310     6.9680     5.9400     7.7880     2.4890   -12.2230 
  245.7500    74.4090    24.5460     6.3230     5.9410     7.7830     2.4620   -12.2230 
  245.8750    74.4090    24.5390     6.0050     5.9410     7.7820     2.4270  -999.2500 
  246.0000    74.4090    24.5090     5.9910     5.9400     7.7820     2.3870  -999.2500 
  246.1250    74.4090    24.4680     6.1470     5.9400     7.7820     2.3510  -999.2500 
