~V
VERS. 2.00: Ver 2.00
~W
STRT.M 55.0000:
STOP.M 272.0000:
STEP.M 0.1250:
NULL. -999.2500:
UWI. DF33042:
~C
DEPT.M :
SP.MV :
GR.API :
RML.OHMM :
RI. :
RXO.OHMM :
CALI.CM :
DEN.GM/CC :
~A
# ...
  122.5000   -23.8310    70.0600     6.5710     6.2230     7.1110    23.4760     2.1800 
  122.6250   -23.6070    72.5230     5.7630     5.4870     6.6900    23.8480     2.2090 
  122.7500   -23.4870    76.5040     5.1950     4.8190     5.8820    24.5910     2.2400 
  122.8750   -23.4900    82.1580     4.9340     4.3350     5.0120    25.4380     2.2680 
  123.0000   -23.6490    84.2450     4.8350     4.0950     4.5950    25.7740     2.2870 
  123.1250   -23.9060    79.0080     5.0330     4.1360     4.8130    25.2450     2.2920 
  123.2500   -24.3060    74.0850     5.4360     4.3640     5.5670    24.3530     2.2840 
  123.3750   -24.8390    75.2650     5.9650     4.7100     6.3150    23.8830     2.2630 
  123.5000   -25.4940    80.4890     6.5550     5.1040     6.5620    23.7810     2.2340 
  123.6250   -26.2010    82.3090     7.1240     5.4970     6.1330    23.6810     2.2070 
  123.7500   -26.8830    78.2530     7.6150     5.8790     6.2240    23.3560     2.1870 
  123.8750   -27.4690    70.3780     7.9730     6.2580     7.0650    22.9560     2.1760 
  124.0000   -27.9550    63.7810     8.2220     6.6290     7.8650    22.7190     2.1720 
  124.1250   -28.3750    62.4870     8.3250     6.9550     8.1960    22.6650     2.1700 
  124.2500   -28.7090    63.9840     8.3980     7.2020     8.3270    22.6700     2.1690 
  124.3750   -28.9610    64.5590     8.5340     7.3590     8.5550    22.6950     2.1720 
  124.5000   -29.1340    62.3660     8.6590     7.4450     8.6350    22.7150     2.1780 
  124.6250   -29.2000    60.9980     8.6900     7.4940     8.4480    22.7240     2.1880 
  124.7500   -29.2390    63.1560     8.6790     7.5310     8.1870    22.7360     2.1990 
  124.8750   -29.2680    65.5690     8.6330     7.5420     8.0500    22.7630     2.2100 
  125.0000   -29.3190    65.5430     8.5530     7.5020     8.0500    22.7840     2.2200 
  125.1250   -29.3690    64.7590     8.4480     7.3940     7.8970    22.7800     2.2280 
  125.2500   -29.4350    66.1560     8.3440     7.2510     7.7640    22.7600     2.2310 
  125.3750   -29.5240    67.7130     8.2460     7.1210     7.4770    22.7500     2.2280 
  125.5000   -29.6010    67.6420     8.1860     7.0500     7.2740    22.7780     2.2190 
  125.6250   -29.7170    65.3000     8.2350     7.0840     7.4750    22.8130     2.2050 
  125.7500   -29.7780    61.7720     8.4420     7.1980     7.9740    22.8400     2.1920 
  125.8750   -29.8120    58.6740     8.8200     7.3590     8.4360    22.8510     2.1820 
  126.0000   -29.7730    58.3860     9.3760     7.5240     8.5920    22.8460     2.1770 
  126.1250   -29.6850    60.2740     9.9210     7.6480     8.5740    22.8300     2.1730 
  126.2500   -29.5080    61.2040    10.2410     7.7210     8.5630    22.8160     2.1690 
  126.3750   -29.2440    60.9810    10.1560     7.7500     8.6580    22.8320     2.1640 
  126.5000   -28.9200    61.3290     9.9720     7.7580     8.8720    22.8800     2.1640 
  126.6250   -28.5100    62.4110     9.8190     7.7810     9.0640    22.8880     2.1780 
  126.7500   -28.0690    63.9010     9.8240     7.8580     9.0910    22.8520     2.2050 
  126.8750   -27.6010    65.7900    10.0520     8.0160     9.0390    22.8280     2.2440 
  127.0000   -27.1330    66.1860    10.4990     8.2670     9.1670    22.9410     2.2910 
  127.1250   -26.6600    62.2240    11.0790     8.6000     9.8290    23.2470     2.3400 
  127.2500   -26.2670    57.5240    11.6100     8.9480    10.6740    23.5250     2.3840 
  127.3750   -25.9470    54.4860    11.9650     9.2510    11.3430    23.6530     2.4180 
  127.5000   -25.6880    51.0730    12.0960     9.4720    11.8290    23.6690     2.4390 
  127.6250   -25.4910    45.7190    12.0730     9.6200    11.0900    23.6490     2.4430 
  127.7500   -25.3620    43.2510    12.0890     9.7850    10.4070    23.6770     2.4390 
  127.8750   -25.3150    46.5590    12.2510    10.0390    10.3960    23.7870     2.4350 
  128.0000   -25.4020    51.0920    12.5250    10.4030    10.9450    23.9930     2.4370 
  128.1250   -25.5860    51.8420    12.8150    10.8020    12.2440    24.2820     2.4430 
  128.2500   -25.8420    50.9920    12.9310    11.0730    13.8920    24.4140     2.4470 
  128.3750   -26.1260    51.8450    12.8370    11.0780    14.3180    24.2770     2.4410 
  128.5000   -26.4590    55.1650    12.4410    10.7590    13.0210    23.8210     2.4210 
  128.6250   -26.8150    59.3180    12.0810    10.1520    11.1490    23.4170     2.3860 
  128.7500   -27.1830    62.2850    11.7970     9.4800     9.8620    23.1370     2.3420 
  128.8750   -27.4870    63.4540    11.3970     8.8950     9.0750    22.9660     2.2960 
  129.0000   -27.6810    63.7320    11.0150     8.4880     8.8370    22.8250     2.2560 
  129.1250   -27.7750    64.6540    10.9540     8.3010     8.8830    22.7060     2.2300 
  129.2500   -27.7550    65.2290    11.0650     8.2540     8.9020    22.5760     2.2160 
  129.3750   -27.6630    64.8460    11.2360     8.2840     8.9100    22.4890     2.2100 
  129.5000   -27.4690    65.6090    11.3690     8.3310     8.9390    22.4590     2.2090 
  129.6250   -27.1990    68.0460    11.3760     8.3400     8.9210    22.4710     2.2060 
  129.7500   -26.8380    68.4760    11.2590     8.2930     8.9700    22.5080     2.2020 
  129.8750   -26.4580    68.1490    11.0770     8.2060     9.1500    22.5480     2.1950 
  130.0000   -26.0480    69.8660    10.9470     8.1240     9.3650    22.5360     2.1860 
  130.1250   -25.5660    70.8900    11.0430     8.1420     9.5360    22.4370     2.1790 
  130.2500   -25.0360    69.1830    11.4050     8.3100     9.6610    22.3170     2.1840 
  130.3750   -24.4690    67.3420    11.9810     8.6270     9.8870    22.2670     2.2120 
  130.5000   -23.8650    67.2620    12.6190     9.0300    10.6180    22.3010     2.2670 
  130.6250   -23.2680    64.3290    13.0910     9.4000    13.2900    22.4530     2.3440 
  130.7500   -22.7270    59.4280    13.3330     9.6670    16.9820    22.7450     2.4200 
  130.8750   -22.2040    59.2250    13.4640     9.8650    17.3940    23.2450     2.4790 
  131.0000   -21.7050    63.9670    13.7590    10.1310    13.5790    23.8630     2.5180 
  131.1250   -21.2970    67.6250    14.6140    10.7150    11.5690    24.2720     2.5460 
  131.2500   -20.9800    66.7820    16.0330    11.6880    13.5210    24.3990     2.5720 
  131.3750   -20.7270    63.4940    17.7990    12.9840    17.5640    24.3910     2.5940 
  131.5000   -20.5650    59.9970    19.4890    14.3700    20.4060    24.3700     2.6080 
  131.6250   -20.4470    55.7970    20.4860    15.4190    19.6420    24.3670     2.6100 
  131.7500   -20.3610    51.9970    20.6400    15.9010    17.3650    24.3790     2.6070 
  131.8750   -20.3130    50.1350    20.1590    15.8400    15.9220    24.3970     2.6040 
  132.0000   -20.3100    49.6400    19.5060    15.4970    15.8940    24.3990     2.6000 
  132.1250   -20.3240    50.3970    19.1610    15.2310    14.4830    24.4190     2.5940 
  132.2500   -20.3230    53.3100    19.2030    15.2010    14.5200    24.4310     2.5860 
  132.3750   -20.3270    56.2000    19.5020    15.3620    15.5410    24.4460     2.5740 
  132.5000   -20.3300    54.9560    19.8300    15.5680    17.3200    24.4660     2.5540 
  132.6250   -20.3640    50.0440    19.8990    15.6180    17.3760    24.4630     2.5270 
  132.7500   -20.3820    48.5130    19.6330    15.4530    15.4600    24.4510     2.4960 
  132.8750   -20.4190    51.3310    19.1340    15.1360    13.7950    24.4550     2.4700 
  133.0000   -20.4410    54.0640    18.6530    14.8240    13.2610    24.4620     2.4580 
  133.1250   -20.4660    53.7360    18.5340    14.7370    13.6130    24.4550     2.4650 
  133.2500   -20.5150    52.5200    18.8530    14.9370    13.4810    24.4310     2.4890 
  133.3750   -20.5870    52.5930    19.5300    15.3900    14.3860    24.3620     2.5200 
  133.5000   -20.6870    54.0340    20.3350    15.9740    16.0580    24.2260     2.5500 
  133.6250   -20.7890    55.7420    20.9280    16.4920    17.2990    24.1560     2.5690 
