~V
VERS. 2.00: Ver 2.00
~W
STRT.M 60.0000:
STOP.M 233.0000:
STEP.M 0.1250:
NULL. -999.2500:
UWI. DF33019:
~C
DEPT.M :
GR.API :
RML.OHMM :
RI. :
RXO.OHMM :
CALI.CM :
DEN.GM/CC :
SP.MV :
~A
# ...
  127.5000    56.2970    29.0710    25.4920    22.0570    23.7030     2.5070   -10.4550 
  127.6250    57.3850    29.0200    25.4350    22.9180    23.5850     2.5080   -10.4400 
  127.7500    58.5990    28.9280    25.3750    22.6600    23.5530     2.5000   -10.4430 
  127.8750    60.0510    28.7910    25.2940    21.8530    23.5480     2.4870   -10.4190 
  128.0000    60.5340    28.6190    25.1820    21.3590    23.5160     2.4800   -10.4190 
  128.1250    58.4340    28.4300    25.0390    20.8030    23.4880     2.4900   -10.3760 
  128.2500    55.5030    28.2470    24.8880    20.1750    23.5000     2.5090   -10.3550 
  128.3750    53.6030    28.0960    24.7560    19.8560    23.6000     2.5230   -10.3380 
  128.5000    53.2570    28.0110    24.6730    19.1680    23.7730     2.5230   -10.3390 
  128.6250    54.4560    28.0370    24.6780    19.0010    23.8710     2.5100   -10.3180 
  128.7500    56.1310    28.1470    24.7590    19.8810    23.8890     2.5000   -10.3090 
  128.8750    57.6360    28.2740    24.8760    22.4910    23.8750     2.5000   -10.2860 
  129.0000    58.6270    28.3220    24.9570    24.5930    23.8300     2.5140   -10.2480 
  129.1250    58.9680    28.2060    24.9240    23.7940    23.7710     2.5330   -10.2550 
  129.2500    58.0870    28.0060    24.8110    21.4220    23.7260     2.5470   -10.2420 
  129.3750    55.2450    27.8590    24.7160    20.4780    23.7130     2.5500   -10.2370 
  129.5000    50.9800    27.9150    24.7630    19.7270    23.7110     2.5420   -10.1930 
  129.6250    50.0650    28.3050    25.0820    20.7720    23.7090     2.5280   -10.1710 
  129.7500    52.6670    28.9170    25.6070    22.3670    23.7070     2.5150   -10.1230 
  129.8750    55.3020    29.5890    26.2070    24.5330    23.7100     2.5060   -10.1060 
  130.0000    56.1280    30.1270    26.7140    23.5320    23.7060     2.5010   -10.0890 
  130.1250    56.8140    30.3490    26.9570    23.1810    23.7040     2.5000   -10.0720 
  130.2500    56.4850    30.3190    26.9660    23.9960    23.7030     2.5010   -10.0710 
  130.3750    53.8390    30.1960    26.8580    23.8430    23.7080     2.5000   -10.0780 
  130.5000    52.1190    30.2050    26.8090    23.0550    23.7230     2.4940   -10.1200 
  130.6250    55.1800    30.5670    27.0250    22.9160    23.7440     2.4860   -10.1960 
  130.7500    58.9800    31.1660    27.4670    23.0280    23.7330     2.4850   -10.2870 
  130.8750    59.8530    31.7380    27.9710    23.6670    23.7180     2.4960   -10.4060 
  131.0000    58.0670    31.9580    28.2980    25.0540    23.7230     2.5200   -10.5590 
  131.1250    55.6550    31.5020    28.1850    28.1830    23.7550     2.5450   -10.7130 
  131.2500    54.9100    30.5550    27.7120    26.9200    23.7720     2.5590   -10.8890 
  131.3750    55.8710    29.4840    27.1230    23.6270    23.7820     2.5560   -11.0460 
  131.5000    57.0500    28.7600    26.7840    21.9040    23.7930     2.5400   -11.2370 
  131.6250    56.1180    28.8950    27.1380    23.8390    23.7930     2.5250   -11.3770 
  131.7500    53.4050    29.7980    28.1630    25.3080    23.7800     2.5180   -11.5720 
  131.8750    51.3520    31.1200    29.5970    26.6490    23.7670     2.5200   -11.7450 
  132.0000    51.3170    32.2050    30.8840    30.3520    23.7500     2.5280   -11.9020 
  132.1250    53.5850    31.9630    31.0140    31.4980    23.7200     2.5350   -12.0620 
  132.2500    55.3500    29.9580    29.4840    29.7020    23.7060     2.5340   -12.2160 
  132.3750    55.8140    26.2650    26.2510    29.1390    23.7030     2.5220   -12.4070 
  132.5000    57.2810    21.5720    21.8750    26.7990    23.6870     2.4970   -12.5610 
  132.6250    63.0830    16.9750    17.3640    19.3350    23.6290     2.4610   -12.7780 
  132.7500    71.8670    13.2460    13.5660    12.0130    23.5360     2.4190   -12.9550 
  132.8750    80.0180    10.6410    10.7840     7.7330    23.4680     2.3760   -13.1270 
  133.0000    83.6490     9.1840     9.0680     6.4000    23.4400     2.3330   -13.2930 
  133.1250    82.7200     9.0290     8.5570     6.3740    23.4360     2.2990   -13.4430 
  133.2500    81.3880     9.9340     9.0360     6.5670    23.4670     2.2790   -13.5740 
  133.3750    81.0100    11.7270    10.3940     7.2240    23.5480     2.2790   -13.6920 
  133.5000    78.5190    14.0180    12.3370     9.7820    23.6510     2.2990   -13.7820 
  133.6250    71.2080    16.0380    14.2550    16.9710    23.7070     2.3360   -13.8550 
  133.7500    65.3490    17.0630    15.4430    23.8350    23.7430     2.3720   -13.9740 
  133.8750    66.5240    16.8070    15.5370    22.8960    23.7630     2.3940   -14.1200 
  134.0000    74.2950    15.6140    14.7000    17.7360    23.7710     2.3990   -14.2760 
  134.1250    79.1710    14.4530    13.6490    12.4870    23.7610     2.3920   -14.4200 
  134.2500    75.9270    14.1850    13.1870    10.4680    23.7430     2.3900   -14.5350 
  134.3750    68.5090    15.1020    13.6520    12.9610    23.7400     2.4040   -14.6060 
  134.5000    62.9340    17.0780    15.0450    16.1160    23.8040     2.4350   -14.6850 
  134.6250    60.7770    19.7160    17.1410    17.6510    23.9580     2.4740   -14.7350 
  134.7500    58.4800    22.2900    19.3360    19.8410    24.1420     2.5060   -14.7490 
  134.8750    55.7490    24.3590    21.2090    21.7010    24.2310     2.5230   -14.7670 
  135.0000    51.9650    25.7740    22.5540    22.5140    24.2490     2.5250   -14.8320 
  135.1250    48.5550    26.6920    23.4080    21.5230    24.2490     2.5180   -14.9260 
  135.2500    48.5160    27.4850    24.0840    21.2190    24.2490     2.5120   -15.0540 
  135.3750    51.4730    28.1810    24.6480    22.0530    24.2490     2.5130   -15.2140 
  135.5000    53.9500    28.5800    24.9840    23.8310    24.2490     2.5230   -15.3690 
  135.6250    52.8270    28.3180    24.8180    24.3260    24.2510     2.5350   -15.4600 
  135.7500    51.4540    27.4250    24.1430    22.6550    24.2630     2.5420   -15.5490 
  135.8750    52.6130    26.1330    23.0980    20.4900    24.2870     2.5380   -15.5730 
  136.0000    57.6320    24.8620    21.9840    18.4660    24.2940     2.5260   -15.5030 
  136.1250    63.5770    24.1310    21.2100    16.3420    24.2880     2.5100   -15.3950 
  136.2500    65.6280    23.9950    20.8840    15.4470    24.3220     2.4960   -15.2740 
  136.3750    64.0740    24.2450    20.8940    16.1070    24.3980     2.4840   -15.1580 
  136.5000    61.9850    24.4750    20.9560    17.9690    24.4510     2.4750   -15.0510 
  136.6250    60.3690    24.1460    20.6560    20.8000    24.4640     2.4690   -14.9930 
  136.7500    59.0800    23.1490    19.8570    20.9250    24.4640     2.4670   -14.9050 
  136.8750    57.9330    21.6930    18.6640    18.1640    24.4640     2.4650   -14.8120 
  137.0000    55.9820    20.2360    17.3830    14.7970    24.4710     2.4620   -14.7580 
  137.1250    53.8940    19.3840    16.4610    13.2200    24.4810     2.4550   -14.7370 
  137.2500    53.3160    19.3110    16.0900    12.6290    24.4850     2.4480   -14.7370 
  137.3750    54.1790    19.9760    16.2880    13.2810    24.4670     2.4430   -14.7410 
  137.5000    54.7750    21.1590    16.9300    14.8690    24.4480     2.4440   -14.7580 
  137.6250    54.1870    22.5200    17.7960    17.4180    24.4280     2.4510   -14.8130 
  137.7500    53.4050    23.6870    18.5880    18.0190    24.4260     2.4630   -14.8770 
  137.8750    52.9490    24.5040    19.1560    17.8820    24.4240     2.4800   -14.9730 
  138.0000    52.2670    24.9990    19.4850    17.8220    24.4450     2.4990   -15.0820 
  138.1250    50.8440    25.3660    19.6810    17.9240    24.4580     2.5130   -15.1580 
  138.2500    50.1380    25.8670    19.9350    17.9360    24.4640     2.5200   -15.2220 
  138.3750    51.9640    26.6190    20.3410    17.2750    24.4570     2.5210   -15.2500 
  138.5000    54.9210    27.6030    20.9020    18.0210    24.4370     2.5200   -15.2830 
  138.6250    56.2540    28.6410    21.5220    21.4900    24.4020     2.5220   -15.2300 
