~V
VERS. 2.00: Ver 2.00
~W
STRT.M 60.0000:
STOP.M 268.0000:
STEP.M 0.1250:
NULL. -999.2500:
UWI. DF33031:
~C
DEPT.M :
SP.MV :
GR.API :
CALI.CM :
RXO.OHMM :
RI. :
RML.OHMM :
DEN.GM/CC :
~A
# ...
  105.0000   -26.2300    89.5980    24.1790     5.7570     5.1260     7.0880     2.2600 
  105.1250   -26.5780    89.9880    24.1250     5.7590     5.0080     7.0300     2.2430 
  105.2500   -27.0200    89.3520    23.9370     5.8260     4.9850     7.0650     2.2370 
  105.3750   -27.5130    88.5840    23.5420     6.0490     5.0310     7.1590     2.2330 
  105.5000   -28.0540    88.7420    23.0030     6.3700     5.1320     7.3060     2.2340 
  105.6250   -28.5690    89.5820    22.5830     6.5840     5.2860     7.5270     2.2420 
  105.7500   -29.0090    89.6920    22.3840     6.7050     5.4820     7.8240     2.2510 
  105.8750   -29.3430    87.7100    22.3220     6.9500     5.7120     8.2030     2.2500 
  106.0000   -29.5540    82.9700    22.3090     7.5190     5.9590     8.6370     2.2330 
  106.1250   -29.6380    78.0750    22.2780     8.0970     6.1790     9.0360     2.2060 
  106.2500   -29.6670    74.1410    22.2070     8.4450     6.3100     9.2810     2.1870 
  106.3750   -29.6920    71.3820    22.1380     8.5500     6.3000     9.2840     2.1840 
  106.5000   -29.6520    71.2890    22.0960     8.4390     6.1330     9.0460     2.2000 
  106.6250   -29.6140    74.6020    22.0080     8.1280     5.8510     8.6870     2.2230 
  106.7500   -29.5880    78.4060    21.8140     7.9290     5.5850     8.4040     2.2410 
  106.8750   -29.6310    80.6740    21.5840     8.0290     5.4310     8.2870     2.2460 
  107.0000   -29.7310    81.0040    21.4290     8.3540     5.4410     8.3550     2.2370 
  107.1250   -29.8790    79.6710    21.3860     8.7300     5.6370     8.6150     2.2130 
  107.2500   -30.0330    76.4030    21.3790     9.1390     5.9570     9.0150     2.1890 
  107.3750   -30.1780    71.7820    21.3840     9.4560     6.3710     9.5380     2.1740 
  107.5000   -30.3110    68.5350    21.4630    10.3580     6.8440    10.1690     2.1740 
  107.6250   -30.3920    69.2660    21.7640    14.2360     7.3330    10.8520     2.1830 
  107.7500   -30.4090    70.2840    22.2600    21.1240     7.7680    11.4350     2.1950 
  107.8750   -30.3340    69.6960    22.6810    25.0250     8.0700    11.7550     2.2020 
  108.0000   -30.2070    70.0520    22.8780    21.0290     8.1700    11.7170     2.2020 
  108.1250   -30.0090    73.9720    22.9120    13.9750     8.0330    11.3450     2.1950 
  108.2500   -29.7530    75.3750    22.9030    10.1040     7.7630    10.8960     2.1860 
  108.3750   -29.4000    71.0050    22.8940     8.9930     7.4490    10.5270     2.1790 
  108.5000   -28.9750    65.4220    22.8910     8.7740     7.1600    10.2770     2.1750 
  108.6250   -28.4400    66.4900    22.9180     8.6720     6.9210    10.0300     2.1790 
  108.7500   -27.8430    72.0810    22.9590     8.5280     6.6690     9.6330     2.1980 
  108.8750   -27.2200    77.5460    23.0310     8.2260     6.3530     9.0490     2.2350 
  109.0000   -26.5840    80.0680    23.1580     7.6700     5.9890     8.4030     2.2750 
  109.1250   -25.9650    80.8370    23.2350     6.8740     5.7150     8.0000     2.2870 
  109.2500   -25.3300    84.5490    23.2620     6.4520     5.6500     8.0070     2.2700 
  109.3750   -24.6960    89.2570    23.2660     6.6750     5.8300     8.4200     2.2510 
  109.5000   -24.0580    88.2850    23.2810     7.5560     6.1720     9.0500     2.2600 
  109.6250   -23.4800    82.0080    23.3700     8.9300     6.4340     9.4420     2.3100 
  109.7500   -22.9630    79.7760    23.5920     9.5790     6.3980     9.2310     2.3590 
  109.8750   -22.5060    84.3600    23.9290     8.3160     6.0230     8.4190     2.3690 
  110.0000   -22.1250    91.5280    24.2480     5.9590     5.4550     7.3840     2.3310 
  110.1250   -21.8650    97.1190    24.3350     5.0250     4.9330     6.6140     2.2800 
  110.2500   -21.7070   100.0270    24.2460     5.0060     4.5900     6.2350     2.2560 
  110.3750   -21.6720   100.8060    24.0630     5.2980     4.4570     6.1860     2.2610 
  110.5000   -21.7710   102.3100    24.0050     5.4600     4.4960     6.3330     2.2710 
  110.6250   -21.9490   104.0200    24.1370     5.4540     4.6290     6.5150     2.2710 
  110.7500   -22.1520   103.1390    24.2970     5.3640     4.7470     6.6260     2.2730 
  110.8750   -22.3780   101.4930    24.3610     5.1580     4.8110     6.6640     2.2840 
  111.0000   -22.6070   102.0330    24.3690     5.0020     4.8140     6.6550     2.2960 
  111.1250   -22.7930   102.8550    24.3690     5.2110     4.7540     6.5680     2.2920 
  111.2500   -23.0090   101.7480    24.3720     5.4380     4.6570     6.3740     2.2790 
  111.3750   -23.2710   101.2210    24.3780     5.3700     4.5520     6.1020     2.2670 
  111.5000   -23.6190   104.2430    24.3850     5.0600     4.4750     5.8620     2.2610 
  111.6250   -24.0610   109.5860    24.3870     4.8490     4.4920     5.8180     2.2540 
  111.7500   -24.5650   113.1040    24.3730     5.0020     4.6280     6.0220     2.2430 
  111.8750   -25.0540   112.4460    24.2550     5.5810     4.8980     6.4700     2.2270 
  112.0000   -25.4800   106.0940    23.9500     6.3570     5.2860     7.0740     2.2120 
  112.1250   -25.8210    95.3300    23.5720     6.7500     5.7020     7.6400     2.2150 
  112.2500   -26.1480    87.6080    23.4130     6.7420     5.9970     7.9900     2.2310 
  112.3750   -26.4240    87.1100    23.3800     6.6830     6.0640     8.0560     2.2440 
  112.5000   -26.5960    89.7280    23.3800     6.6640     5.8830     7.8650     2.2480 
  112.6250   -26.6950    89.9500    23.4000     6.5950     5.5060     7.4590     2.2500 
  112.7500   -26.7760    88.6790    23.4750     6.3680     5.0680     6.9260     2.2560 
  112.8750   -26.8930    89.5720    23.6080     6.0610     4.6650     6.3550     2.2650 
  113.0000   -27.0660    92.8950    23.7240     5.8100     4.4070     5.9240     2.2790 
  113.1250   -27.3600    95.3500    23.7640     5.6790     4.5120     5.9980     2.3070 
  113.2500   -27.6910    94.7190    23.7710     6.2940     5.1190     6.8200     2.3560 
  113.3750   -28.1000    91.8840    23.7870     8.5680     6.3960     8.6400     2.4280 
  113.5000   -28.6270    87.0590    23.8340    14.0410     8.4370    11.6010     2.5080 
  113.6250   -29.2680    79.8870    23.9130    19.9530    10.9890    15.2690     2.5520 
  113.7500   -29.9510    74.1570    23.8830    21.2310    12.8790    17.7040     2.5280 
  113.8750   -30.6480    72.2150    23.6660    17.4880    13.1130    17.3330     2.4410 
  114.0000   -31.3230    72.0810    23.2810    12.9990    11.8130    14.7530     2.3270 
  114.1250   -31.9010    71.6960    22.9470    10.5100    10.0190    12.0250     2.2360 
  114.2500   -32.3730    72.4900    22.8190     9.6740     8.5670    10.2210     2.1820 
  114.3750   -32.7200    73.7890    22.7960     9.5590     7.6180     9.3440     2.1600 
  114.5000   -32.9460    74.0010    22.8000     9.5460     7.1260     9.1470     2.1530 
  114.6250   -33.0480    74.0580    22.7990     9.3150     7.0160     9.3580     2.1580 
  114.7500   -33.0680    73.3420    22.7960     9.0120     7.0830     9.6350     2.1720 
  114.8750   -33.0240    71.8820    22.7960     8.8630     7.1980     9.8230     2.1870 
  115.0000   -32.9460    71.3430    22.8010     8.9420     7.2620     9.8770     2.1860 
  115.1250   -32.8450    71.7950    22.8020     8.9930     7.2050     9.8170     2.1660 
  115.2500   -32.7390    72.2430    22.7970     8.9200     7.0780     9.7090     2.1510 
  115.3750   -32.6590    72.4640    22.7930     8.8540     6.9430     9.5870     2.1560 
  115.5000   -32.5920    72.0100    22.7970     8.8610     6.8500     9.4770     2.1730 
  115.6250   -32.5080    72.5880    22.8310     8.8340     6.8360     9.4180     2.1790 
  115.7500   -32.3730    75.5860    22.8500     8.7600     6.8900     9.4370     2.1780 
  115.8750   -32.1780    78.7970    22.8670     8.7370     7.0010     9.5500     2.1800 
  116.0000   -31.9580    78.8670    22.8910     8.8430     7.1320     9.7390     2.1890 
  116.1250   -31.7550    75.9160    22.9100     9.0840     7.2280     9.9330     2.2000 
