~V
VERS. 2.00: Ver 2.00
~W
STRT.M 60.0000:
STOP.M 233.0000:
STEP.M 0.1250:
NULL. -999.2500:
UWI. DF33019:
~C
DEPT.M :
GR.API :
RML.OHMM :
RI. :
RXO.OHMM :
CALI.CM :
DEN.GM/CC :
SP.MV :
~A
# ...
  138.7500    56.9180    29.4450    22.0270    23.5800    24.3790     2.5250   -15.2100 
  138.8750    56.8810    29.7920    22.2850    23.5050    24.3620     2.5280   -15.1530 
  139.0000    56.8770    29.5780    22.2290    23.1350    24.3720     2.5270   -15.0940 
  139.1250    57.5780    28.8180    21.8700    23.5990    24.3810     2.5250   -15.0050 
  139.2500    58.3520    27.8490    21.4080    23.5340    24.3860     2.5250   -14.9140 
  139.3750    59.0320    26.9480    21.0120    21.5860    24.3860     2.5240   -14.8220 
  139.5000    59.5050    26.3450    20.8190    20.8030    24.3860     2.5210   -14.7220 
  139.6250    58.3880    26.1820    20.9150    22.5550    24.3860     2.5190   -14.6190 
  139.7500    56.3400    26.1970    21.1260    23.2560    24.3880     2.5220   -14.5080 
  139.8750    56.4110    26.0170    21.1670    22.3990    24.4030     2.5340   -14.4060 
  140.0000    58.7620    25.0840    20.6440    22.3670    24.4410     2.5530   -14.2760 
  140.1250    59.9940    22.7060    19.0220    22.4020    24.4930     2.5720   -14.1750 
  140.2500    59.5820    19.1110    16.4350    21.0580    24.5240     2.5800   -14.0750 
  140.3750    61.0010    14.9070    13.2860    18.2340    24.5460     2.5730   -13.9830 
  140.5000    67.3770    10.7180    10.1720    13.5670    24.5460     2.5490   -13.8610 
  140.6250    77.4470     7.5110     7.7010     8.5870    24.5340     2.5070   -13.7950 
  140.7500    85.9450     5.5340     5.9600     5.1910    24.4890     2.4570   -13.7270 
  140.8750    89.2220     4.8850     4.8820     4.0700    24.4170     2.4050   -13.6810 
  141.0000    86.9820     4.6650     4.3230     3.9080    24.3910     2.3590   -13.6350 
  141.1250    83.5130     4.7280     4.1570     3.9070    24.3840     2.3270   -13.6030 
  141.2500    83.2690     4.8800     4.1700     3.9220    24.3450     2.3100   -13.5560 
  141.3750    86.7620     5.0260     4.2550     3.9740    24.3220     2.3030   -13.5410 
  141.5000    89.9200     5.1200     4.3390     4.0400    24.3180     2.3020   -13.6050 
  141.6250    89.7520     5.1510     4.3840     4.0820    24.3310     2.3000   -13.6440 
  141.7500    86.6530     5.1490     4.3940     4.0870    24.3470     2.2960   -13.6930 
  141.8750    82.5690     5.1300     4.3760     4.0580    24.3280     2.2920   -13.7280 
  142.0000    80.5170     5.1080     4.3440     4.0360    24.2810     2.2940   -13.7820 
  142.1250    82.3780     5.0950     4.3080     4.0390    24.2550     2.3030   -13.7980 
  142.2500    84.4750     5.0970     4.2750     4.0680    24.2490     2.3160   -13.8550 
  142.3750    84.5250     5.1130     4.2500     4.1120    24.2490     2.3290   -13.8470 
  142.5000    84.2870     5.1390     4.2340     4.1400    24.2490     2.3400   -13.8000 
  142.6250    87.9130     5.1730     4.2290     4.1290    24.2490     2.3480   -13.6990 
  142.7500    92.6480     5.2060     4.2320     4.1540    24.2490     2.3570   -13.6110 
  142.8750    93.5210     5.2350     4.2400     4.1400    24.2550     2.3670   -13.5040 
  143.0000    88.9900     5.2500     4.2440     4.1140    24.2900     2.3780   -13.4090 
  143.1250    83.2630     5.2450     4.2390     4.1240    24.3680     2.3830   -13.3420 
  143.2500    80.7220     5.2270     4.2280     4.2010    24.4250     2.3800   -13.2870 
  143.3750    81.7400     5.2110     4.2190     4.2710    24.4140     2.3670   -13.2600 
  143.5000    84.3440     5.2140     4.2230     4.3010    24.3910     2.3480   -13.2450 
  143.6250    85.3090     5.2550     4.2520     4.2820    24.3860     2.3280   -13.2580 
  143.7500    83.8700     5.3330     4.3010     4.2580    24.3860     2.3110   -13.2420 
  143.8750    84.1180     5.4430     4.3630     4.3220    24.3860     2.2980   -13.2610 
  144.0000    88.9050     5.5740     4.4260     4.3940    24.3860     2.2870   -13.2690 
  144.1250    93.6190     5.7100     4.4760     4.4010    24.3860     2.2810   -13.3250 
  144.2500    93.1370     5.8300     4.5020     4.3310    24.3860     2.2780   -13.3580 
  144.3750    89.5040     5.9100     4.4960     4.3050    24.3860     2.2750   -13.4260 
  144.5000    87.1310     5.9250     4.4520     4.3920    24.3860     2.2730   -13.4890 
  144.6250    87.6370     5.8600     4.3790     4.5000    24.3860     2.2730   -13.6000 
  144.7500    87.1800     5.7940     4.3380     4.5820    24.3860     2.2750   -13.7150 
  144.8750    85.0630     5.7810     4.3570     4.6770    24.3860     2.2800   -13.8200 
  145.0000    84.0930     5.8310     4.5190     4.7980    24.3860     2.2860   -13.9710 
  145.1250    85.6720     6.0130     4.8240     5.1110    24.3880     2.2910   -14.1020 
  145.2500    85.7060     6.6320     5.4570     6.2730    24.4080     2.2940   -14.2460 
  145.3750    84.8900     8.2750     6.5810     7.0020    24.4220     2.2940   -14.3710 
  145.5000    79.6370    11.1820     8.4270    10.0920    24.4790     2.2910   -14.5140 
  145.6250    71.4660    16.8020    11.7250    15.7230    24.5560     2.2800   -14.5920 
  145.7500    64.7180    23.0660    15.4500    22.4840    24.6010     2.2620   -14.6450 
  145.8750    61.6040    27.3980    18.5940    28.7790    24.6340     2.2390   -14.6900 
  146.0000    62.0450    27.9920    19.9890    32.5790    24.6280     2.2170   -14.6970 
  146.1250    63.2010    24.4530    18.6140    31.9660    24.5790     2.2010   -14.6270 
  146.2500    63.2710    19.4140    15.7100    25.7830    24.5300     2.1960   -14.5200 
  146.3750    63.9610    15.2450    12.7690    16.5800    24.5020     2.2020   -14.3860 
  146.5000    67.9620    13.0900    10.8830     9.1060    24.4770     2.2150   -14.2090 
  146.6250    72.0160    13.4500    10.7740     7.9170    24.4720     2.2280   -14.0460 
  146.7500    71.6480    15.6120    12.1370    10.9210    24.4920     2.2320   -13.8850 
  146.8750    67.2440    18.8360    14.5110    18.9190    24.5200     2.2260   -13.7480 
  147.0000    62.5490    21.9300    17.0380    27.7910    24.5390     2.2120   -13.5990 
  147.1250    61.5560    23.0030    18.2860    30.9420    24.5220     2.1990   -13.5010 
  147.2500    64.3100    21.4450    17.5810    27.0440    24.4550     2.1950   -13.4280 
  147.3750    69.4210    18.0070    15.2040    18.4260    24.3570     2.2020   -13.3770 
  147.5000    75.8190    14.3870    12.2650    10.0450    24.2790     2.2170   -13.3610 
  147.6250    81.4940    11.9930     9.9560     7.5750    24.2540     2.2330   -13.3820 
  147.7500    83.5590    10.7640     8.5260     6.8970    24.2420     2.2460   -13.4550 
  147.8750    82.4260    10.4280     7.8690     6.7100    24.2150     2.2540   -13.5010 
  148.0000    80.3740    10.7050     7.8020     6.7080    24.1600     2.2580   -13.5440 
  148.1250    79.4190    11.4350     8.2130     7.3690    24.1150     2.2620   -13.5920 
  148.2500    78.0430    12.4870     8.9440     9.0540    24.0780     2.2690   -13.6290 
  148.3750    76.6190    13.9450    10.0090    11.4210    24.0490     2.2800   -13.7390 
  148.5000    76.2240    15.9220    11.4540    11.2480    24.0360     2.2950   -13.8490 
  148.6250    75.4590    18.4060    13.2760    11.4050    24.0350     2.3120   -13.9860 
  148.7500    73.2160    20.8520    15.1250    15.2610    24.0350     2.3240   -14.0780 
  148.8750    69.4670    22.5580    16.5350    22.2560    24.0370     2.3290   -14.1830 
  149.0000    66.2090    22.8590    17.0310    27.0880    24.0480     2.3250   -14.2940 
  149.1250    66.7610    21.3680    16.2390    24.2990    24.0710     2.3150   -14.3910 
  149.2500    70.6440    19.1010    14.7230    18.0380    24.0990     2.3030   -14.4740 
  149.3750    75.4280    17.0440    13.1220    12.3960    24.1110     2.2890   -14.4760 
  149.5000    77.3860    15.8330    11.9590    10.4500    24.1130     2.2750   -14.4470 
  149.6250    75.5490    15.7170    11.5510    10.7060    24.1130     2.2640   -14.4130 
  149.7500    72.3420    16.2660    11.6990    11.6520    24.1130     2.2580   -14.4100 
  149.8750    70.6840    17.1330    12.1970    12.7840    24.1130     2.2580   -14.3890 
