~V
VERS. 2.00: Ver 2.00
~W
STRT.M 63.0000:
STOP.M 272.0000:
STEP.M 0.1250:
NULL. -999.2500:
UWI. DF33040:
~C
DEPT.M :
SP.MV :
GR.API :
CALI.CM :
RXO.OHMM :
RI. :
RML.OHMM :
DEN.GM/CC :
~A
# ...
  209.2500   -19.5250    80.7590    24.1980     8.0190     7.3950     9.8200     2.3900 
  209.3750   -19.8440    80.9170    24.2220     8.3040     7.7170    10.4420     2.3890 
  209.5000   -20.0830    82.0540    24.2330     9.0470     8.1030    11.1000     2.3840 
  209.6250   -20.2310    83.4410    24.2360     9.7450     8.6430    11.9500     2.3750 
  209.7500   -20.3070    81.8770    24.2530    10.1510     9.3980    13.1340     2.3630 
  209.8750   -20.3150    78.2430    24.2820    11.1490    10.3910    14.6850     2.3450 
  210.0000   -20.2830    77.4910    24.3030    13.9070    11.5450    16.4300     2.3240 
  210.1250   -20.2300    80.0760    24.2910    17.7870    12.6320    17.8760     2.3060 
  210.2500   -20.1830    82.0040    24.2740    19.5580    13.4460    18.7330     2.2970 
  210.3750   -20.1620    82.7200    24.3000    18.0610    13.9960    19.1570     2.3000 
  210.5000   -20.1940    82.6520    24.3660    15.4780    14.5430    19.7350     2.3110 
  210.6250   -20.3080    81.5400    24.3950    15.5940    15.6710    21.4730     2.3230 
  210.7500   -20.5010    78.0970    24.3480    19.3560    17.8760    24.9510     2.3260 
  210.8750   -20.7740    73.0810    24.2660    26.5710    21.7040    30.7200     2.3220 
  211.0000   -21.1160    68.6930    24.1990    36.5800    27.6110    39.1820     2.3140 
  211.1250   -21.5120    67.0570    24.1530    48.0780    35.9310    50.6410     2.3070 
  211.2500   -21.9420    67.3490    24.1260    58.9240    45.4680    63.5470     2.2980 
  211.3750   -22.3820    67.3990    24.1370    69.1380    55.0410    76.2580     2.2840 
  211.5000   -22.7900    66.4370    24.1780    79.8500    63.6970    87.3280     2.2720 
  211.6250   -23.1370    65.9020    24.1970    89.1650    70.6310    95.5330     2.2630 
  211.7500   -23.4130    65.7590    24.1910    94.2200    75.8020   101.0770     2.2490 
  211.8750   -23.6100    65.5690    24.1890    94.5980    79.0760   104.1060     2.2300 
  212.0000   -23.7290    65.3980    24.1990    90.8200    80.5080   105.1310     2.2130 
  212.1250   -23.7790    65.1070    24.1910    84.1970    80.4550   105.2020     2.2040 
  212.2500   -23.7760    64.2070    24.1700    79.0770    80.0940   105.4970     2.2010 
  212.3750   -23.7250    62.9470    24.1560    78.0110    80.0670   106.1600     2.2020 
  212.5000   -23.6440    62.0020    24.1550    80.4730    80.5220   106.7650     2.2020 
  212.6250   -23.5350    61.8350    24.1680    84.1090    81.1790   106.6260     2.1990 
  212.7500   -23.4150    62.3770    24.1770    85.8400    81.6660   105.7990     2.1970 
  212.8750   -23.2930    63.7120    24.1610    83.5820    82.0030   104.8830     2.1970 
  213.0000   -23.1780    64.4910    24.1250    78.2420    82.5550   104.7440     2.2020 
  213.1250   -23.0810    62.1810    24.0840    75.3070    83.9320   105.9880     2.2100 
  213.2500   -23.0160    59.2940    24.0370    78.4900    86.0820   107.9740     2.2180 
  213.3750   -22.9890    59.6400    23.9830    85.9260    88.5280   109.9820     2.2230 
  213.5000   -22.9990    62.9860    23.9460    91.2280    90.5060   111.2210     2.2240 
  213.6250   -23.0450    64.0860    23.9280    88.0600    91.0820   110.7840     2.2210 
  213.7500   -23.1210    61.7950    23.8850    80.3570    90.3050   108.8170     2.2140 
  213.8750   -23.2450    60.2700    23.7850    73.6740    88.5600   105.7920     2.2050 
  214.0000   -23.3960    61.6230    23.6590    70.5260    86.3850   102.3360     2.1940 
  214.1250   -23.5590    62.8720    23.5830    69.6350    84.2210    99.0010     2.1780 
  214.2500   -23.7010    62.5430    23.5590    67.1910    82.2290    96.0690     2.1640 
  214.3750   -23.8080    61.8650    23.5310    61.8900    80.4100    93.6170     2.1610 
  214.5000   -23.8870    62.5100    23.4620    55.5960    78.8210    91.7300     2.1740 
  214.6250   -23.9490    63.4380    23.3930    51.2650    77.7520    90.7500     2.1930 
  214.7500   -24.0000    63.3340    23.3300    47.9160    77.3410    90.6440     2.2040 
  214.8750   -24.0450    61.6790    23.2560    43.4410    77.5760    91.2190     2.2110 
  215.0000   -24.0750    58.7530    23.0320    37.4090    78.2540    92.1050     2.2280 
  215.1250   -24.0970    57.5860    22.5310    31.5430    79.0830    92.9510     2.2600 
  215.2500   -24.1220    59.1140    21.9870    28.0970    79.8800    93.7200     2.2900 
  215.3750   -24.1370    61.2620    21.6880    29.4360    80.8160    94.7130     2.3000 
  215.5000   -24.1480    62.0310    21.8090    38.0310    82.3750    96.5020     2.2850 
  215.6250   -24.1590    61.8630    22.3430    54.8210    85.4940   100.2000     2.2500 
  215.7500   -24.1710    62.1420    22.9820    73.7610    90.4850   106.2240     2.2080 
  215.8750   -24.1700    62.1850    23.4590    88.0720    97.3620   114.7280     2.1670 
  216.0000   -24.1780    60.5710    23.6450    91.5210   105.5780   125.1510     2.1430 
  216.1250   -24.2010    56.1000    23.6620    84.9610   113.9130   135.9080     2.1620 
  216.2500   -24.2440    52.5630    23.7530    81.8130   121.0340   145.0680     2.2080 
  216.3750   -24.3220    53.6390    23.8760    89.2070   126.3320   151.7170     2.2470 
  216.5000   -24.4340    58.3410    23.9160   103.0140   129.9750   156.0290     2.2560 
  216.6250   -24.5620    61.4630    23.8930   113.1040   132.5890   158.6980     2.2350 
  216.7500   -24.6920    60.9770    23.9380   119.0310   134.9300   160.6330     2.2110 
  216.8750   -24.8190    60.0320    24.0480   125.0820   136.9680   161.9050     2.1980 
  217.0000   -24.9120    59.2800    24.0980   132.3580   138.1970   162.2520     2.1960 
  217.1250   -24.9390    57.1710    24.0790   135.8980   137.7060   160.8700     2.2000 
  217.2500   -24.9030    57.0150    24.0690   132.8620   135.4540   157.5520     2.2020 
  217.3750   -24.8010    59.6950    24.0720   124.3650   131.4140   151.8550     2.2030 
  217.5000   -24.6220    62.1030    24.0830   115.1140   125.4310   143.2230     2.2040 
  217.6250   -24.3770    60.4990    24.0870   109.6930   116.8320   130.9630     2.2040 
  217.7500   -24.0670    58.6570    24.0860   104.3600   106.0200   116.3350     2.2040 
  217.8750   -23.6850    58.6300    24.0790    92.7520    93.7280   100.7940     2.2100 
  218.0000   -23.2680    58.1840    24.0600    74.8680    81.3070    86.0870     2.2200 
  218.1250   -22.8550    58.4290    24.0420    58.7310    70.5870    74.1280     2.2270 
  218.2500   -22.4520    61.5900    24.0460    48.8530    62.2350    65.1750     2.2260 
  218.3750   -22.0630    64.3850    24.0680    44.8840    56.3910    59.1330     2.2160 
  218.5000   -21.7010    64.3090    24.0840    45.1960    52.8590    55.5980     2.2020 
  218.6250   -21.3600    64.2660    24.0750    46.8550    51.4650    54.2840     2.1890 
  218.7500   -21.0690    64.5250    24.0640    47.2080    51.3090    54.2370     2.1820 
  218.8750   -20.8450    62.8310    24.0660    46.8460    51.9210    54.9430     2.1810 
  219.0000   -20.6760    60.0610    24.0720    47.4980    52.9190    55.9290     2.1820 
  219.1250   -20.5470    60.4370    24.0760    48.9250    53.9560    56.6750     2.1810 
  219.2500   -20.4540    63.2010    24.0870    49.3460    54.7890    56.9040     2.1810 
  219.3750   -20.4060    66.3660    24.1020    48.6080    55.3260    56.6320     2.1840 
  219.5000   -20.3940    71.4720    24.1020    47.6170    55.5420    56.0670     2.1920 
  219.6250   -20.4360    75.8390    24.0860    47.1090    55.4450    55.5580     2.1980 
  219.7500   -20.4900    73.9100    24.0750    46.8730    55.1830    55.3280     2.2020 
  219.8750   -20.5420    66.1340    24.0710    46.4840    54.7430    55.2530     2.2050 
  220.0000   -20.6080    58.9250    24.0520    45.7940    53.9380    54.9200     2.2060 
  220.1250   -20.6900    58.6490    24.0050    44.8600    52.4120    53.7050     2.2100 
  220.2500   -20.7770    62.7950    23.9570    43.1900    50.2630    51.6600     2.2190 
  220.3750   -20.8630    66.0720    23.9340    40.2610    47.8150    49.1720     2.2350 
