~V
VERS. 2.00: Ver 2.00
~W
STRT.M 60.0000:
STOP.M 235.0000:
STEP.M 0.1250:
NULL. -999.2500:
UWI. DF33014:
~C
DEPT.M :
SP.MV :
GR.API :
RML.OHMM :
RI. :
RXO.OHMM :
CALI.CM :
DEN.GM/CC :
~A
# ...
  195.0000   -18.4990    58.5340   199.8040   175.7090   107.2170    23.5970     2.2030 
  195.1250   -18.6130    62.4020   202.6030   180.2290   103.9960    23.7800     2.1880 
  195.2500   -18.8100    63.1230   201.5720   181.9220   108.0490    23.8970     2.1810 
  195.3750   -19.0110    60.8630   195.7550   179.7430   112.1480    23.9710     2.1810 
  195.5000   -19.2060    59.0340   187.4900   173.3380   112.6460    24.0040     2.1870 
  195.6250   -19.3920    57.8640   176.2720   162.7860   110.5800    24.0150     2.1960 
  195.7500   -19.5450    56.4630   166.8490   150.2660   110.0300    24.0200     2.2050 
  195.8750   -19.7340    57.3160   159.0710   137.6330   110.0880    24.0230     2.2100 
  196.0000   -19.8530    59.4040   146.8650   126.6770   105.4370    24.0230     2.2110 
  196.1250   -20.0010    57.7760   137.6920   119.2640    97.6050    24.0070     2.2090 
  196.2500   -20.1000    55.5730   132.9110   115.2580    95.3570    24.0160     2.2040 
  196.3750   -20.2220    58.5600   131.5970   114.1080    98.1410    24.0530     2.1980 
  196.5000   -20.3230    64.0620   132.0750   114.6320    96.3150    24.0980     2.1910 
  196.6250   -20.4190    64.4560   131.9500   115.1200    85.7490    24.1990     2.1830 
  196.7500   -20.4110    62.1830   129.5950   114.2010    76.9200    24.3360     2.1760 
  196.8750   -20.4540    61.8360   124.8370   111.4850    75.1090    24.3310     2.1750 
  197.0000   -20.4750    62.8030   118.8450   107.5020    79.0040    24.0830     2.1810 
  197.1250   -20.4840    61.3270   113.8970   103.7390    83.7790    23.8040     2.1930 
  197.2500   -20.5790    58.8810   111.4540   101.6570    88.5280    23.6640     2.2050 
  197.3750   -20.6140    58.7310   111.8670   101.9190    95.1820    23.6130     2.2130 
  197.5000   -20.7130    60.3470   114.6700   104.4190   103.9810    23.5710     2.2140 
  197.6250   -20.8130    61.6390   118.9550   108.5360   109.9890    23.5520     2.2090 
  197.7500   -20.9660    60.9880   123.1880   112.8540   111.1720    23.5450     2.2030 
  197.8750   -21.0910    59.1880   126.2620   116.3420   110.4540    23.5450     2.1980 
  198.0000   -21.1700    58.1810   127.2520   118.1400   108.2720    23.5450     2.1950 
  198.1250   -21.3440    59.9380   124.9760   117.1620   106.5110    23.5450     2.1960 
  198.2500   -21.4080    62.8730   119.7000   113.5020   106.9790    23.5450     2.2010 
  198.3750   -21.5130    63.6690   111.9530   107.4010   105.4480    23.5450     2.2090 
  198.5000   -21.5300    62.6030   102.9550    99.6720    96.8230    23.5450     2.2190 
  198.6250   -21.6050    61.6860    94.6360    91.8000    83.8610    23.5450     2.2260 
  198.7500   -21.6880    60.5240    88.5090    85.4270    75.4200    23.5450     2.2280 
  198.8750   -21.7720    59.2300    85.4030    81.6320    73.9410    23.5450     2.2250 
  199.0000   -21.9080    59.8690    85.5810    80.9600    78.2210    23.5450     2.2200 
  199.1250   -22.0060    63.2050    89.2720    83.8800    84.5690    23.5450     2.2180 
  199.2500   -22.1430    64.3350    95.3490    89.3630    89.6740    23.5450     2.2190 
  199.3750   -22.2980    62.4130   103.1370    96.7600    94.1870    23.5460     2.2230 
  199.5000   -22.4870    59.9630   111.9340   105.3740    99.6950    23.5470     2.2250 
  199.6250   -22.6430    57.8720   120.7900   114.3480   108.1080    23.5480     2.2220 
  199.7500   -22.8750    56.5190   128.3200   122.3960   120.1200    23.5470     2.2140 
  199.8750   -23.0200    56.9940   132.8180   127.9680   133.0590    23.5450     2.2040 
  200.0000   -23.2500    59.9710   132.4380   129.2830   139.1930    23.5470     2.1960 
  200.1250   -23.4090    61.9900   125.1090   124.0750   126.9920    23.5500     2.1960 
  200.2500   -23.5760    61.2620   112.9120   113.7540   103.4670    23.5430     2.2040 
  200.3750   -23.7440    60.3180    98.5560   100.4820    81.4930    23.5120     2.2160 
  200.5000   -23.9090    60.6720    85.0450    87.0930    69.8930    23.4700     2.2280 
  200.6250   -24.1070    62.5850    75.2190    76.6230    68.0710    23.4520     2.2320 
  200.7500   -24.1870    65.3230    69.5220    70.0370    67.8390    23.4470     2.2290 
  200.8750   -24.3990    67.5090    68.1690    67.7440    66.9310    23.4490     2.2230 
  201.0000   -24.5430    66.2350    71.2730    69.9130    68.2910    23.4530     2.2180 
  201.1250   -24.7420    61.0440    79.6110    77.3100    77.2420    23.4620     2.2140 
  201.2500   -24.9770    58.1250    91.8990    88.6280    94.4810    23.4660     2.2080 
  201.3750   -25.2020    59.7980   106.6670   102.3910   116.3870    23.4650     2.2000 
  201.5000   -25.4950    62.5790   121.4290   116.1660   135.3750    23.4610     2.1910 
  201.6250   -25.7320    63.2440   132.2700   126.2380   138.9810    23.4540     2.1840 
  201.7500   -26.0990    62.4820   137.4760   131.0300   129.4950    23.4500     2.1790 
  201.8750   -26.3940    60.6640   137.3230   130.7420   119.3250    23.4340     2.1770 
  202.0000   -26.7640    58.6000   133.9930   127.2840   115.7440    23.3880     2.1780 
  202.1250   -27.1120    60.5530   130.2190   123.2000   119.1790    23.3600     2.1800 
  202.2500   -27.4600    64.6640   127.3010   119.9780   125.1290    23.3500     2.1830 
  202.3750   -27.8260    65.8130   124.8650   117.4520   129.4830    23.3500     2.1860 
  202.5000   -28.1920    61.9190   122.0390   114.8320   128.0270    23.3500     2.1890 
  202.6250   -28.5830    57.8060   118.1080   111.3270   119.9190    23.3500     2.1930 
  202.7500   -28.9580    58.0030   113.6110   107.2320   110.3340    23.3500     2.1980 
  202.8750   -29.2780    60.5220   109.4570   103.2910   100.7980    23.3500     2.2030 
  203.0000   -29.5960    62.3170   106.4870   100.2550    95.8340    23.3500     2.2050 
  203.1250   -29.8930    62.5500   105.2850    98.6500   101.5390    23.3500     2.2020 
  203.2500   -30.0870    63.9620   105.2650    97.9830   111.4580    23.3500     2.1960 
  203.3750   -30.2850    67.0070   105.8040    97.7130   110.9690    23.3500     2.1910 
  203.5000   -30.3280    66.8160   106.3160    97.3470    98.1100    23.3500     2.1890 
  203.6250   -30.3810    61.1500   106.4750    96.6350    91.4490    23.3500     2.1930 
  203.7500   -30.3370    55.9320   106.4730    95.8250    95.5600    23.3500     2.1970 
  203.8750   -30.2700    54.7310   106.5760    95.2350   105.3760    23.3500     2.2000 
  204.0000   -30.1380    55.0880   107.0080    95.1230   115.3250    23.3500     2.1980 
  204.1250   -29.9170    53.9750   108.1030    95.8020   121.8200    23.3510     2.1900 
  204.2500   -29.7410    54.8030   110.0600    97.3190   119.7540    23.3560     2.1850 
  204.3750   -29.4650    58.3460   113.0600    99.7170   107.9790    23.3560     2.1880 
  204.5000   -29.2900    60.8860   116.8520   102.7310    96.8210    23.3300     2.2030 
  204.6250   -29.0120    61.9420   120.0690   105.2830   100.6080    23.2470     2.2250 
  204.7500   -28.7950    62.5340   120.6590   105.8040   116.1150    23.1060     2.2420 
  204.8750   -28.6380    62.5090   116.9040   102.9510   123.6340    22.9120     2.2460 
  205.0000   -28.4410    60.7880   108.3710    96.2770   108.7290    22.7620     2.2410 
  205.1250   -28.3520    59.4760    96.3200    86.4500    86.1640    22.7200     2.2360 
  205.2500   -28.2090    59.9330    84.2630    76.1000    71.6880    22.7550     2.2400 
  205.3750   -28.1290    61.1810    74.3450    67.0530    64.7650    22.7960     2.2530 
  205.5000   -27.9950    63.4170    67.5380    60.3980    61.4200    22.8290     2.2710 
  205.6250   -27.9390    65.6610    64.2790    56.8160    59.0740    22.8880     2.2850 
  205.7500   -27.8240    65.9250    63.4370    55.4840    59.1180    23.0000     2.2910 
  205.8750   -27.7420    64.7550    64.3440    55.8460    63.0100    23.2060     2.2880 
  206.0000   -27.6350    63.7070    66.3470    57.2990    68.1310    23.4450     2.2800 
  206.1250   -27.5840    62.2550    68.8610    59.2820    68.4730    23.6960     2.2680 
