~V
VERS. 2.00: Ver 2.00
~W
STRT.M 55.0000:
STOP.M 252.0000:
STEP.M 0.1250:
NULL. -999.2500:
UWI. DF33023:
~C
DEPT.M :
GR.API :
CALI.CM :
RXO.OHMM :
RI. :
RML.OHMM :
DEN.GM/CC :
SP.MV :
~A
# ...
  178.7500    72.6060    25.1330    47.3220    22.0160    27.1900     2.2960   -29.4250 
  178.8750    72.6220    25.4400    55.7780    27.9260    35.2940     2.2970   -29.9010 
  179.0000    74.5850    25.5250    60.6180    36.1860    45.6000     2.2950   -30.4300 
  179.1250    75.9390    25.4480    63.6280    45.3230    55.9840     2.2950   -30.9940 
  179.2500    75.2590    25.3880    68.3860    53.0110    63.9690     2.2970   -31.5630 
  179.3750    72.3100    25.3680    74.4540    58.2180    68.7150     2.2920   -32.1060 
  179.5000    68.6500    25.3650    78.7090    60.8860    70.5310     2.2780   -32.6020 
  179.6250    68.1400    25.3800    77.9600    60.7890    69.4250     2.2650   -33.0390 
  179.7500    73.1140    25.4070    74.3770    58.6730    66.3450     2.2570   -33.4240 
  179.8750    79.8350    25.4340    69.0620    55.3510    62.3150     2.2560   -33.7660 
  180.0000    82.3100    25.4470    61.7380    51.9010    58.5800     2.2590   -34.0660 
  180.1250    78.2970    25.4390    54.5220    49.4870    56.3780     2.2660   -34.3060 
  180.2500    73.0320    25.4140    51.8740    48.4610    55.8620     2.2730   -34.4860 
  180.3750    71.1990    25.3850    55.0980    48.8190    56.8710     2.2760   -34.6030 
  180.5000    72.7280    25.3940    61.0260    50.2730    58.9610     2.2740   -34.6660 
  180.6250    73.6420    25.4720    64.0290    52.3600    61.4870     2.2760   -34.6550 
  180.7500    72.0040    25.5630    63.6970    54.3460    63.6610     2.2830   -34.5780 
  180.8750    70.6290    25.5950    63.3360    55.7410    64.9840     2.2870   -34.4320 
  181.0000    72.5860    25.5600    64.8330    56.2030    65.1380     2.2770   -34.2420 
  181.1250    75.8580    25.5440    66.1720    55.4720    63.9200     2.2590   -34.0270 
  181.2500    76.7210    25.5790    65.1990    54.0720    62.0460     2.2520   -33.8150 
  181.3750    75.5930    25.6250    62.2370    52.7070    60.4180     2.2620   -33.6320 
  181.5000    74.5300    25.6380    58.3960    52.2990    60.1140     2.2820   -33.4800 
  181.6250    74.7840    25.6240    57.0770    54.3190    62.7530     2.2920   -33.3740 
  181.7500    73.7090    25.6110    62.9130    59.4330    68.8790     2.2880   -33.3270 
  181.8750    69.8640    25.6000    78.0370    68.1300    78.9400     2.2790   -33.3340 
  182.0000    65.1920    25.5990    98.3840    80.1110    92.6540     2.2720   -33.3680 
  182.1250    63.1640    25.6170   117.7320    93.6400   108.0630     2.2710   -33.4240 
  182.2500    64.4340    25.6450   134.9540   104.6520   120.0170     2.2730   -33.4800 
  182.3750    66.8810    25.6690   147.1560   109.2140   123.3030     2.2760   -33.5220 
  182.5000    66.9130    25.6800   148.7550   105.5020   116.2510     2.2770   -33.5680 
  182.6250    64.5150    25.6780   138.0520    94.8030   102.2550     2.2670   -33.6380 
  182.7500    64.0010    25.6630   120.7510    82.2830    87.7470     2.2550   -33.7340 
  182.8750    66.4940    25.6370   100.8270    70.5660    75.1330     2.2480   -33.8820 
  183.0000    69.6520    25.6200    85.5800    60.9350    65.2190     2.2490   -34.0900 
  183.1250    71.6250    25.6230    79.0520    54.3090    58.7040     2.2540   -34.3660 
  183.2500    72.3100    25.6230    72.0750    50.3810    55.1680     2.2620   -34.6860 
  183.3750    70.2200    25.6110    61.4980    49.2930    54.7570     2.2770   -35.0350 
  183.5000    66.4850    25.6000    54.8480    51.3240    57.7220     2.2960   -35.3640 
  183.6250    62.7440    25.5980    66.0180    57.3120    64.9180     2.2980   -35.6500 
  183.7500    61.0530    25.6020    92.1110    66.4660    75.6400     2.2780   -35.8740 
  183.8750    60.6110    25.6190   117.1610    77.6960    89.0000     2.2500   -36.0070 
  184.0000    61.5960    25.6500   126.0410    88.9600   102.8690     2.2310   -36.0420 
  184.1250    63.0680    25.6680   120.4710    97.2010   113.4120     2.2230   -35.9710 
  184.2500    64.8060    25.6570   116.1310   101.8490   119.5580     2.2230   -35.8300 
  184.3750    66.0240    25.6280   115.9850   104.1830   122.9930     2.2290   -35.6280 
  184.5000    65.5840    25.6030   118.5760   106.1840   126.3080     2.2410   -35.3890 
  184.6250    64.5600    25.5990   124.4970   109.1030   130.9480     2.2520   -35.1250 
  184.7500    63.5290    25.6170   133.9590   112.2470   135.7860     2.2560   -34.8570 
  184.8750    61.6040    25.6420   143.5470   114.3650   139.0270     2.2520   -34.5920 
  185.0000    59.1840    25.6480   146.4700   114.3350   139.0980     2.2410   -34.3490 
  185.1250    59.1860    25.6100   137.3890   111.2120   134.8540     2.2320   -34.1310 
  185.2500    61.7500    25.5550   123.0450   105.7980   127.6720     2.2290   -33.9250 
  185.3750    63.5410    25.5170   111.1720    98.8520   118.7300     2.2320   -33.7370 
  185.5000    61.9060    25.5090   106.3780    91.1960   109.1480     2.2360   -33.5680 
  185.6250    58.3250    25.5100   105.1040    83.5700    99.8310     2.2300   -33.3910 
  185.7500    57.4480    25.4870    98.6810    76.3590    91.0680     2.2130   -33.1830 
  185.8750    58.9530    25.4400    86.6680    69.6340    82.8170     2.1990   -32.9380 
  186.0000    59.3100    25.4000    74.9340    63.3870    75.0710     2.2070   -32.6310 
  186.1250    57.1790    25.4110    66.8810    57.9720    68.4780     2.2340   -32.2520 
  186.2500    55.9360    25.4390    58.4240    53.9340    63.8540     2.2580   -31.7850 
  186.3750    57.9330    25.4340    48.3020    52.0790    62.1020     2.2700   -31.2190 
  186.5000    60.8110    25.4450    40.5410    52.9560    63.6940     2.2890   -30.5570 
  186.6250    60.5940    25.5340    43.6590    56.1360    67.9520     2.3480   -29.8020 
  186.7500    58.4070    25.5710    58.0840    58.1350    70.1940     2.4510   -28.9790 
  186.8750    56.0770    25.4740    74.4580    54.8110    64.6920     2.5850   -28.1000 
  187.0000    55.5100    25.3340    73.8340    44.6260    50.4490     2.7050   -27.2050 
  187.1250    56.8610    25.2930    49.9700    31.5150    34.4060     2.7410   -26.3140 
  187.2500    58.2350    25.4250    25.4520    20.9360    22.4870     2.6920   -25.4720 
  187.3750    56.8720    25.9460    12.1330    14.0510    15.0510     2.6000   -24.7150 
  187.5000    51.7890    26.8880     6.8900    10.1270    10.9030     2.5200   -24.0620 
  187.6250    46.7210    27.6870     5.5830     8.2480     9.0400     2.4900   -23.5280 
  187.7500    43.8440    27.9810     5.3230     7.2910     8.2230     2.5000   -23.0810 
  187.8750    43.2660    27.9690     5.2260     6.8360     7.9160     2.5260   -22.7150 
  188.0000    45.3220    28.0440     5.1320     6.5920     7.7270     2.5470   -22.4080 
  188.1250    49.4010    28.3740     5.0430     6.3440     7.3740     2.5460   -22.1440 
  188.2500    52.3780    28.5800     4.8640     6.0060     6.8390     2.5290   -21.9050 
  188.3750    53.6170    28.2350     4.6080     5.6010     6.2150     2.5040   -21.6770 
  188.5000    54.9940    27.3480     4.4030     5.1830     5.6220     2.4780   -21.4510 
  188.6250    56.6020    26.7050     4.3630     4.8460     5.2120     2.4650   -21.2450 
  188.7500    55.8950    26.7200     4.3820     4.6560     5.0670     2.4700   -21.0900 
  188.8750    53.6680    26.9710     4.3920     4.6700     5.2570     2.4950   -21.0010 
  189.0000    54.6280    26.8920     4.5400     4.9190     5.8080     2.5330   -20.9630 
  189.1250    59.4850    26.3780     5.4720     5.4050     6.6810     2.5660   -20.9750 
  189.2500    63.1480    25.7640     7.5620     5.9430     7.5490     2.5810   -21.0170 
  189.3750    63.0710    25.2500    10.3930     6.2930     8.0190     2.5730   -21.0620 
  189.5000    58.0230    24.9390    12.3530     6.2390     7.7920     2.5530   -21.1000 
  189.6250    49.7580    24.9480    11.3950     5.7030     6.8530     2.5420   -21.1120 
  189.7500    44.3890    25.3250     8.6770     4.9870     5.7510     2.5370   -21.0850 
  189.8750    44.3550    26.1480     6.1620     4.3240     4.8570     2.5150   -21.0180 
