~V
VERS. 2.00: Ver 2.00
~W
STRT.M 60.0000:
STOP.M 268.0000:
STEP.M 0.1250:
NULL. -999.2500:
UWI. DF33031:
~C
DEPT.M :
SP.MV :
GR.API :
CALI.CM :
RXO.OHMM :
RI. :
RML.OHMM :
DEN.GM/CC :
~A
# ...
  217.5000   -30.9580    63.1690    23.7130    84.1040    93.9040   105.4520     2.1830 
  217.6250   -30.9270    67.5210    23.7130    84.3280    92.2200   103.7310     2.1790 
  217.7500   -30.9270    71.4350    23.7130    80.4070    88.8230    99.9610     2.1790 
  217.8750   -30.9540    70.7500    23.7130    75.7480    84.9360    95.3860     2.1810 
  218.0000   -31.0000    66.8720    23.7130    71.7860    81.7510    91.4160     2.1850 
  218.1250   -31.0510    65.9570    23.7120    68.0970    80.4360    89.5600     2.1880 
  218.2500   -31.1400    66.4210    23.7130    66.4420    80.9920    89.8710     2.1840 
  218.3750   -31.2440    66.0270    23.7500    67.3640    83.2210    92.0030     2.1720 
  218.5000   -31.3300    64.4760    23.8520    71.1280    86.6560    95.3400     2.1620 
  218.6250   -31.4350    62.6740    24.0170    77.0120    90.3930    98.9570     2.1640 
  218.7500   -31.5190    62.3410    24.0880    83.1320    92.9860   101.4660     2.1780 
  218.8750   -31.5840    64.5870    24.0760    86.6750    93.2400   101.6340     2.1980 
  219.0000   -31.6220    68.7580    23.9940    85.1460    90.7450    98.9110     2.2230 
  219.1250   -31.6560    69.9150    23.9080    79.0310    86.1030    93.7920     2.2460 
  219.2500   -31.6380    68.4900    24.0270    71.0150    81.2240    88.3340     2.2500 
  219.3750   -31.6010    67.9840    24.2100    65.7550    77.3140    83.8800     2.2300 
  219.5000   -31.5310    68.9390    24.3040    66.7960    75.0270    81.1140     2.2000 
  219.6250   -31.4840    70.1370    24.3110    71.6950    74.6180    80.1910     2.1900 
  219.7500   -31.4300    69.8190    24.3110    73.7790    75.1800    80.1990     2.1990 
  219.8750   -31.3770    67.7280    24.3100    72.8070    75.8610    80.3900     2.2120 
  220.0000   -31.3240    65.1410    24.3090    71.4470    75.8280    80.0270     2.2190 
  220.1250   -31.2820    64.6550    24.3060    71.0880    74.4620    78.4850     2.2200 
  220.2500   -31.2230    67.6230    24.3040    70.0190    72.3080    76.1750     2.2230 
  220.3750   -31.1410    71.5440    24.3040    67.5810    70.0860    73.7710     2.2270 
  220.5000   -31.0430    72.8410    24.3080    64.0410    68.4570    71.9350     2.2270 
  220.6250   -30.8640    71.7670    24.3100    61.6470    68.0870    71.2790     2.2130 
  220.7500   -30.6430    70.8880    24.3110    61.2780    69.0920    71.8620     2.1940 
  220.8750   -30.3810    69.9720    24.3080    62.4630    71.5480    73.7690     2.1860 
  221.0000   -30.0910    68.6380    24.3040    64.8230    75.2200    76.8710     2.1970 
  221.1250   -29.7300    68.6430    24.3100    69.8710    79.3140    80.4850     2.2200 
  221.2500   -29.3470    69.7090    24.3430    76.6340    82.3690    83.1770     2.2370 
  221.3750   -28.9550    68.1070    24.4140    80.3840    83.2450    83.8450     2.2470 
  221.5000   -28.6210    64.1570    24.4670    77.4370    81.7560    82.3260     2.2570 
  221.6250   -28.2800    64.2660    24.4750    69.7860    79.0280    79.7100     2.2740 
  221.7500   -27.9560    68.4400    24.4410    63.1590    77.1550    77.9340     2.2940 
  221.8750   -27.6190    71.2660    24.3790    61.5610    77.4340    78.1990     2.3040 
  222.0000   -27.3220    69.2850    24.3350    68.5500    80.5680    81.1940     2.2910 
  222.1250   -27.0230    63.1870    24.3190    86.1410    86.9250    87.3370     2.2680 
  222.2500   -26.7420    59.3760    24.3030   106.4300    94.3870    94.6630     2.2750 
  222.3750   -26.4530    61.1390    24.2720   118.8860    99.4680   100.0460     2.3320 
  222.5000   -26.1260    66.0180    24.2180   118.7780    98.0180    99.7840     2.4160 
  222.6250   -25.8000    67.0430    24.1350   106.2220    87.8120    91.2100     2.4860 
  222.7500   -25.4710    64.3040    24.0010    86.9250    74.1650    78.4010     2.5350 
  222.8750   -25.1370    62.5120    23.8370    66.5430    61.3590    65.4960     2.5720 
  223.0000   -24.7720    62.9260    23.6570    53.4640    51.6390    55.3030     2.5950 
  223.1250   -24.3940    62.6510    23.6170    47.0420    45.7320    49.0210     2.5880 
  223.2500   -23.9790    60.9030    23.7710    49.2670    42.2940    45.3940     2.5600 
  223.3750   -23.5280    60.8860    23.8650    61.2130    40.5930    43.6860     2.5280 
  223.5000   -23.0400    65.7110    23.8950    72.4330    40.1750    43.4240     2.5090 
  223.6250   -22.5060    72.6580    24.0590    66.9820    41.1350    44.6150     2.5080 
  223.7500   -21.9360    74.7760    24.1920    52.7510    43.3020    46.9480     2.5260 
  223.8750   -21.3520    71.3830    24.1730    48.4850    46.0570    49.6900     2.5700 
  224.0000   -20.7770    67.2710    24.0650    58.0790    47.2700    50.6080     2.6320 
  224.1250   -20.2810    66.1450    23.9970    68.6900    42.7500    45.4260     2.6700 
  224.2500   -19.9200    65.5530    23.8790    61.0890    33.3680    35.2730     2.6520 
  224.3750   -19.7500    63.9970    23.5730    35.9130    22.9970    24.2780     2.5830 
  224.5000   -19.7760    63.5300    23.0690    14.4330    14.8330    15.7010     2.4950 
  224.6250   -20.0710    68.1230    22.6490     7.1980    10.4460    10.2460     2.4290 
  224.7500   -20.5480    76.7730    22.5580     5.3010     7.6950     7.6000     2.4030 
  224.8750   -21.1850    87.9330    22.8080     5.1450     6.4360     6.4870     2.4090 
  225.0000   -21.9360    96.4020    23.3180     5.6180     6.2000     6.4100     2.4280 
  225.1250   -22.6830    95.5170    23.8400     6.5160     6.7540     7.0670     2.4310 
  225.2500   -23.3750    87.4890    24.1270     7.3740     7.6650     7.9760     2.4180 
  225.3750   -23.9710    80.3140    24.2120     7.9150     8.6180     8.8130     2.4000 
  225.5000   -24.4730    79.9340    24.2190     8.1870     9.3410     9.3420     2.3870 
  225.6250   -24.7830    84.3050    24.2190     8.3040     9.6390     9.4500     2.3830 
  225.7500   -24.9950    88.4830    24.2190     8.3400     9.6250     9.3100     2.3860 
  225.8750   -25.1340    91.0270    24.2190     8.2780     9.4280     9.0690     2.3950 
  226.0000   -25.2420    94.7140    24.2190     8.1950     9.1560     8.8390     2.4040 
  226.1250   -25.3960   101.5910    24.2190     8.2210     8.8680     8.6880     2.4030 
  226.2500   -25.5930   107.1790    24.2190     8.2510     8.6020     8.6360     2.3940 
  226.3750   -25.8080   110.3890    24.2190     8.2890     8.4100     8.7140     2.3840 
  226.5000   -26.0470   112.1000    24.2190     8.3900     8.3320     8.9310     2.3750 
  226.6250   -26.3110   114.1980    24.2190     8.7800     8.3910     9.2580     2.3660 
  226.7500   -26.5930   114.4090    24.2170     9.4850     8.5440     9.6320     2.3630 
  226.8750   -26.8930   112.1610    24.1950    10.1670     8.7850    10.0540     2.3680 
  227.0000   -27.1820   108.1850    24.1350    10.3470     9.1500    10.5800     2.3770 
  227.1250   -27.4300   103.9190    24.0470    10.4390     9.7570    11.3680     2.3830 
  227.2500   -27.6420    99.4890    24.0090    12.0470    10.6530    12.4990     2.3850 
  227.3750   -27.8130    94.9320    24.0010    15.3680    11.8350    13.9780     2.3860 
  227.5000   -27.9260    90.4170    24.0000    18.4670    13.1970    15.6510     2.3870 
  227.6250   -28.0220    87.3400    23.9810    19.1140    14.4960    17.1760     2.3880 
  227.7500   -28.0940    84.5940    23.9420    18.4800    15.4970    18.3010     2.3900 
  227.8750   -28.1420    80.2180    23.9080    17.9360    16.1320    18.9960     2.3950 
  228.0000   -28.1450    76.0890    23.8960    17.8570    16.5270    19.4450     2.3970 
  228.1250   -28.1530    76.5410    23.8970    18.5040    16.9390    19.9600     2.3830 
  228.2500   -28.1420    79.8790    23.8890    20.0710    17.5110    20.6940     2.3600 
  228.3750   -28.1450    82.5090    23.8580    21.9490    18.2120    21.5950     2.3430 
  228.5000   -28.1390    84.3060    23.7720    22.4470    18.9510    22.5220     2.3400 
  228.6250   -28.1650    86.7010    23.6330    21.4780    19.6390    23.3460     2.3480 
