~V
VERS. 2.00: Ver 2.00
~W
STRT.M 55.0000:
STOP.M 272.0000:
STEP.M 0.1250:
NULL. -999.2500:
UWI. DF33042:
~C
DEPT.M :
SP.MV :
GR.API :
RML.OHMM :
RI. :
RXO.OHMM :
CALI.CM :
DEN.GM/CC :
~A
# ...
  257.5000   -11.9060    57.8570     9.5540     7.2130     7.0380    24.1270     2.3330 
  257.6250   -11.9420    58.0490     9.5420     7.2550     7.0490    24.1040     2.3380 
  257.7500   -11.9650    60.8560     9.5440     7.3080     7.2500    24.0990     2.3500 
  257.8750   -11.9880    62.4140     9.5570     7.3520     7.5860    24.0990     2.3660 
  258.0000   -12.0120    61.2660     9.5650     7.3670     7.7910    24.0990     2.3770 
  258.1250   -12.0330    60.5300     9.5380     7.3330     7.9440    24.0990     2.3780 
  258.2500   -12.0270    61.0280     9.4670     7.2580     8.0620    24.0970     2.3680 
  258.3750   -12.0450    62.0450     9.3610     7.1550     7.7000    24.0940     2.3540 
  258.5000   -12.0560    64.7230     9.2390     7.0410     7.1380    24.1000     2.3420 
  258.6250   -12.0680    67.6820     9.1320     6.9340     6.8440    24.1240     2.3390 
  258.7500   -12.0680    67.7800     9.0560     6.8470     6.7810    24.1490     2.3430 
  258.8750   -12.0870    65.0220     9.0180     6.7820     6.7240    24.1400     2.3500 
  259.0000   -12.1120    63.0920     9.0180     6.7440     6.6790    24.0900     2.3550 
  259.1250   -12.1110    63.8040     9.0610     6.7410     6.6700    24.0500     2.3570 
  259.2500   -12.1890    63.0450     9.1410     6.7710     6.8130    24.0360     2.3550 
  259.3750   -12.1750    60.2850     9.2540     6.8280     7.0960    24.0290     2.3530 
  259.5000   -12.1560    59.1270     9.3950     6.9030     7.3630    24.0260     2.3500 
  259.6250   -12.1700    61.5550     9.5480     6.9770     7.5710    24.0270     2.3490 
  259.7500   -12.2420    63.7120     9.6890     7.0420     7.6660    24.0250     2.3500 
  259.8750   -12.3320    63.0760     9.7890     7.0950     7.5920    24.0230     2.3540 
  260.0000   -12.3830    60.5130     9.8290     7.1380     7.4840    24.0190     2.3590 
  260.1250   -12.3770    59.2540     9.7870     7.1680     7.4400    24.0130     2.3650 
  260.2500   -12.3070    58.8630     9.6890     7.1760     7.4330    24.0060     2.3690 
  260.3750   -12.3520    59.1770     9.5560     7.1490     7.4330    24.0070     2.3700 
  260.5000   -12.4940    60.2610     9.4100     7.0800     7.4810    24.0150     2.3690 
  260.6250   -12.6230    62.2340     9.2570     6.9680     7.4950    24.0200     2.3640 
  260.7500   -12.6990    62.7790     9.0990     6.8420     7.3370    24.0210     2.3540 
  260.8750   -12.7530    61.2280     8.9460     6.7260     7.1030    24.0210     2.3410 
  261.0000   -12.8500    60.2980     8.8210     6.6440     6.8360    24.0210     2.3300 
  261.1250   -12.9630    60.7720     8.7650     6.6190     6.6270    24.0210     2.3250 
  261.2500   -13.0360    61.2250     8.7810     6.6380     6.5880    24.0210     2.3280 
  261.3750   -13.1240    61.2250     8.8550     6.6850     6.5740    24.0170     2.3390 
  261.5000   -13.1870    61.2250     8.9510     6.7380     6.7010    24.0160     2.3520 
  261.6250   -13.1440    61.2250     9.0140     6.7740     6.9260    24.0920     2.3650 
  261.7500   -13.1450    61.2250     9.0180     6.7890     6.8910    24.3250     2.3730 
  261.8750   -13.1360    61.2250     8.9720     6.7870     6.6740    24.6380     2.3700 
  262.0000   -13.1270    61.2250     8.9130     6.7790     6.5290    24.8490     2.3510 
  262.1250   -13.1200    61.2250     8.8880     6.7740     6.4930    24.9240     2.3150 
  262.2500   -13.1640    61.2250     8.9070     6.7720     6.4850    24.9840     2.2750 
  262.3750   -13.1400    61.2250     8.9410     6.7700     6.5080    25.1930     2.2450 
  262.5000   -13.0610    61.2250     8.9490     6.7630     6.5790    25.4340     2.2360 
  262.6250   -13.0390    61.2250     8.8960     6.7420     6.6820    25.7120     2.2540 
  262.7500   -12.9860    61.2250     8.8100     6.7160     6.7490    26.0380     2.2880 
  262.8750   -12.9370    61.2250     8.7290     6.6960     6.7040    26.2650     2.3220 
  263.0000   -12.8980    61.2250     8.6850     6.7010     6.6340    26.2640     2.3440 
  263.1250   -12.9290    61.2250     8.6890     6.7430     6.5580    25.9380     2.3360 
  263.2500   -12.9630    61.2250     8.7100     6.8040     6.5890    25.3880     2.3010 
  263.3750   -13.0010    61.2250     8.7170     6.8620     6.6470    24.9510     2.2530 
  263.5000   -13.0760    61.2250     8.6850     6.8970     6.7410    24.7980     2.2070 
  263.6250   -13.1830    61.2250     8.6110     6.8960     6.7370    24.8920     2.1820 
  263.7500   -13.2720    61.2250     8.5370     6.8730     6.6380    24.9130     2.1820 
  263.8750   -13.4160    61.2250     8.5170     6.8420     6.4930    24.6380     2.1990 
  264.0000   -13.5600    61.2250     8.5830     6.8160     6.4800    24.2980     2.2230 
  264.1250   -13.6210    61.2250     8.7430     6.8070     6.5500    24.2730     2.2430 
  264.2500   -13.6640    61.2250     8.9460     6.8160     6.5110    24.4930     2.2600 
  264.3750   -13.7390    61.2250     9.1530     6.8450     6.5420    24.7160     2.2790 
  264.5000   -13.7620    61.2250     9.3320     6.8900     6.7290    24.7980     2.3040 
  264.6250   -13.7200    61.2250     9.4560     6.9420     6.8950    24.6310     2.3300 
  264.7500   -13.6870    61.2250     9.5290     6.9880     7.0540    24.5530     2.3450 
  264.8750   -13.6260    61.2250     9.5520     7.0230     7.0820    24.5530     2.3430 
  265.0000   -13.5380    61.2250     9.5360     7.0450     6.8870    24.6090     2.3290 
  265.1250   -13.4740    61.2250     9.5030     7.0550     6.8330    24.7360     2.3170 
  265.2500   -13.3460    61.2250     9.4690     7.0560     6.9150    24.8870     2.3140 
  265.3750   -13.1090    61.2250     9.4310     7.0510     6.9780    24.9010     2.3170 
  265.5000   -12.8920    61.2250     9.3800     7.0410     6.9740    24.8560     2.3210 
  265.6250   -12.7420    61.2250     9.3200     7.0320     6.9090    24.8330     2.3220 
  265.7500   -12.6640    61.2250     9.2640     7.0310     6.8910    24.8320     2.3230 
  265.8750   -12.5360    61.2250     9.2180     7.0370     6.9040    24.8320     2.3290 
  266.0000   -12.3750    61.2250     9.1810     7.0480     6.8500    24.8620     2.3400 
  266.1250   -12.3520    61.2250     9.1450     7.0580     6.8640    24.9430     2.3480 
  266.2500   -12.4030    61.2250     9.1150     7.0650     6.8590    25.0140     2.3450 
  266.3750   -12.4950    61.2250     9.1050     7.0700     6.8550    24.9430     2.3300 
  266.5000   -12.5350    61.2250     9.1280     7.0740     6.9140    24.7940     2.3080 
  266.6250   -12.5530    61.2250     9.1850     7.0770     6.9990    24.7490     2.2910 
  266.7500   -12.5630    61.2250     9.2470     7.0780     7.0330    24.8170     2.2850 
  266.8750  -999.2500    61.2250     9.2930     7.0760     6.9940    24.8710     2.2930 
  267.0000  -999.2500    61.2250     9.3180     7.0740     7.0000    24.8350     2.3100 
  267.1250  -999.2500    61.2250     9.3250     7.0730     7.0240    24.6790     2.3280 
  267.2500  -999.2500    61.2250     9.3260     7.0730     7.2270    24.5140     2.3390 
  267.3750  -999.2500    61.2250     9.3260     7.0730     7.3930    24.4060     2.3420 
  267.5000  -999.2500    61.2250     9.3260     7.0730     7.4420    24.3670     2.3360 
  267.6250  -999.2500    61.2250     9.3260     7.0730     7.3810    24.3630     2.3280 
  267.7500  -999.2500    61.2250     9.3260     7.0730     7.2940    24.3630     2.3200 
  267.8750  -999.2500    61.2250     9.3260     7.0730     7.2840    24.3620     2.3130 
  268.0000  -999.2500    61.2250     9.3260     7.0730     7.3220    24.3600     2.3060 
  268.1250  -999.2500    61.2250     9.3260     7.0730     7.3370    24.3560     2.2970 
  268.2500  -999.2500    61.2250     9.3260     7.0730     7.2000    24.3550     2.2890 
  268.3750  -999.2500    61.2250     9.3260     7.0730     7.0230    24.3570     2.2870 
  268.5000  -999.2500    61.2250     9.3260     7.0730     6.9390    24.3550     2.2910 
  268.6250  -999.2500    61.2250     9.3260     7.0730     6.9890    24.3550     2.2970 
