~V
VERS. 2.00: Ver 2.00
~W
STRT.M 60.0000:
STOP.M 236.0000:
STEP.M 0.1250:
NULL. -999.2500:
UWI. DF33015:
~C
DEPT.M :
DEN.GM/CC :
GR.API :
RML.OHMM :
RI. :
RXO.OHMM :
CALI.CM :
SP.MV :
~A
# ...
  217.5000     2.3350    71.8650    11.9780     9.9550     9.4130    24.6820   -14.4910 
  217.6250     2.3890    69.8400    12.0870    10.0610     9.7510    24.6530   -14.4490 
  217.7500     2.4420    66.7810    12.1580    10.1420    10.2350    24.7040   -14.4180 
  217.8750     2.4750    65.6600    12.1870    10.1920    10.4620    24.8130   -14.3780 
  218.0000     2.4840    67.0450    12.1800    10.2110    10.8830    24.9110   -14.3080 
  218.1250     2.4780    67.2680    12.1440    10.2000    12.1920    24.9280   -14.3430 
  218.2500     2.4680    66.6520    12.0900    10.1670    13.0250    24.9100   -14.2780 
  218.3750     2.4620    67.2080    12.0140    10.1120    12.4440    24.9210   -14.2900 
  218.5000     2.4570    68.7260    11.9130    10.0350    11.3460    24.9230   -14.2290 
  218.6250     2.4480    68.2890    11.7810     9.9340    10.8510    24.8380   -14.1660 
  218.7500     2.4330    66.6240    11.6330     9.8200    10.6960    24.6300   -14.1100 
  218.8750     2.4110    66.9850    11.4910     9.7090    10.5750    24.4640   -14.0350 
  219.0000     2.3900    68.9260    11.3850     9.6230    10.9370    24.4030   -14.0210 
  219.1250     2.3810    70.0240    11.3490     9.5880    11.7160    24.6030   -13.9160 
  219.2500     2.3870    68.8670    11.3830     9.6100    12.1200    24.7770   -13.9020 
  219.3750     2.4050    67.3010    11.4710     9.6790    11.6940    24.8450   -13.8250 
  219.5000     2.4290    67.3110    11.5820     9.7730    10.8310    24.8430   -13.8510 
  219.6250     2.4510    67.8880    11.6660     9.8520    10.5680    24.7940   -13.8930 
  219.7500     2.4640    67.7210    11.6890     9.8860    10.4080    24.6770   -13.9450 
  219.8750     2.4640    66.9880    11.6350     9.8580     9.8060    24.5250   -14.0380 
  220.0000     2.4480    67.2400    11.5050     9.7670     9.0900    24.3190   -14.0760 
  220.1250     2.4160    69.9910    11.3100     9.6180     8.9870    24.0890   -14.2050 
  220.2500     2.3790    71.7230    11.0990     9.4470     9.3810    23.9860   -14.2440 
  220.3750     2.3500    69.8790    10.9230     9.2870     9.9520    24.0950   -14.3160 
  220.5000     2.3360    67.0540    10.8310     9.1740    10.6240    24.3510   -14.3270 
  220.6250     2.3410    66.5490    10.8700     9.1460    10.7390    24.6990   -14.2730 
  220.7500     2.3540    67.5180    11.0090     9.1970    10.1910    24.8340   -14.2320 
  220.8750     2.3630    69.1960    11.2050     9.3120     9.6010    24.8490   -14.1220 
  221.0000     2.3630    72.0650    11.4130     9.4660     9.5080    24.8420   -14.0340 
  221.1250     2.3560    74.6080    11.6010     9.6390     9.7970    24.8430   -13.8900 
  221.2500     2.3530    72.7330    11.7650     9.8110    10.0330    24.8500   -13.7770 
  221.3750     2.3650    67.5000    11.9110     9.9750    10.1930    24.8730   -13.6690 
  221.5000     2.3930    63.9090    12.0360    10.1250    10.4500    24.9070   -13.5510 
  221.6250     2.4290    64.6530    12.1140    10.2510    10.7750    24.9150   -13.4740 
  221.7500     2.4530    67.2380    12.1300    10.3440    11.0210    24.9160   -13.3590 
  221.8750     2.4590    68.9540    12.0760    10.3930    11.2730    24.8910   -13.2770 
  222.0000     2.4480    68.5880    11.9690    10.3900    11.5590    24.8760   -13.2160 
  222.1250     2.4300    69.7170    11.8300    10.3180    11.8790    24.8950   -13.1470 
  222.2500     2.4170    73.5020    11.6840    10.1900    12.1200    24.9040   -13.0810 
  222.3750     2.4140    76.6650    11.5390    10.0230    12.1490    24.8910   -12.9980 
  222.5000     2.4190    75.8250    11.4080     9.8520    11.8480    24.8700   -12.9350 
  222.6250     2.4280    72.3080    11.3410     9.7380    11.3910    24.9350   -12.8360 
  222.7500     2.4350    70.1040    11.3870     9.7260    10.9410    24.9960   -12.8250 
  222.8750     2.4380    69.5020    11.5810     9.8410    10.7650    24.9470   -12.8050 
  223.0000     2.4370    68.9370    11.9150    10.0750    11.7690    24.9020   -12.8250 
  223.1250     2.4300    67.2950    12.3190    10.3870    15.1030    24.9270   -12.8040 
  223.2500     2.4230    66.0960    12.6690    10.6860    19.7400    24.9610   -12.7920 
  223.3750     2.4190    66.6920    12.8850    10.9110    23.4730    24.9670   -12.8570 
  223.5000     2.4200    68.6600    12.9450    11.0300    24.6770    24.9770   -12.8740 
  223.6250     2.4230    68.3710    12.8680    11.0290    25.6960    24.9790   -12.8620 
  223.7500     2.4230    67.5880    12.7380    10.9570    27.4140    24.9180   -12.7950 
  223.8750     2.4190    68.5830    12.6030    10.8490    26.1070    24.7830   -12.7270 
  224.0000     2.4160    71.2450    12.4830    10.7370    20.4150    24.6930   -12.6240 
  224.1250     2.4210    72.6360    12.3990    10.6570    15.1300    24.5990   -12.5640 
  224.2500     2.4380    70.6600    12.3770    10.6430    12.3580    24.4830   -12.5380 
  224.3750     2.4650    67.9720    12.4630    10.7350    10.9070    24.3790   -12.5120 
  224.5000     2.4950    68.8200    12.6990    10.9660     9.9710    24.3430   -12.4960 
  224.6250     2.5130    71.2970    13.1180    11.3610    10.1900    24.3180   -12.5550 
  224.7500     2.5150    70.0360    13.6260    11.8440    11.1060    24.2660   -12.6150 
  224.8750     2.5020    66.1200    14.1010    12.3130    11.8100    24.2720   -12.6330 
  225.0000     2.4810    64.8200    14.3930    12.6440    11.9820    24.3740   -12.7030 
  225.1250     2.4660    66.4300    14.3270    12.6760    12.2190    24.6280   -12.7530 
  225.2500     2.4640    66.3960    13.9370    12.4190    12.4300    24.8900   -12.7090 
  225.3750     2.4750    65.1840    13.3060    11.9310    11.7120    25.0440   -12.6560 
  225.5000     2.4940    65.1100    12.5690    11.3170     9.9050    25.0610   -12.6790 
  225.6250     2.5100    65.1100    11.8710    10.6950     8.1680    25.0020   -12.7150 
  225.7500     2.5150    65.1100    11.2870    10.1360     7.2720    24.9160   -12.7790 
  225.8750     2.5080    65.1100    10.8360     9.6560     6.9440    24.8890   -12.9120 
  226.0000     2.4940    65.1100    10.5050     9.2500     6.7280    24.8990   -12.9960 
  226.1250     2.4760    65.1100    10.2790     8.9150     6.5730    24.8910   -13.1150 
  226.2500     2.4600    65.1100    10.1140     8.6450     6.5810    24.8300   -13.3010 
  226.3750     2.4470    65.1100    10.0070     8.4540     6.7420    24.7550   -13.4190 
  226.5000     2.4350    65.1100     9.9750     8.3590     7.0610    24.6710   -13.4600 
  226.6250     2.4250    65.1100    10.0630     8.3970     7.5130    24.6740   -13.4520 
  226.7500     2.4160    65.1100    10.2690     8.5500     7.7720    24.7190   -13.4420 
  226.8750     2.4100    65.1100    10.5750     8.8010     7.6610    24.7400   -13.4310 
  227.0000     2.4100    65.1100    10.9330     9.1200     7.4220    24.7550   -13.4540 
  227.1250     2.4180    65.1100    11.2730     9.4540     7.7200    24.8050   -13.5030 
  227.2500     2.4330    65.1100    11.5500     9.7480     8.7730    24.7460   -13.5330 
  227.3750     2.4530    65.1100    11.7600     9.9710    10.1930    24.7030   -13.5870 
  227.5000     2.4720    65.1100    11.9230    10.1200    11.1030    24.7150   -13.6860 
  227.6250     2.4800    65.1100    12.0810    10.2190    11.1080    24.8150   -13.8150 
  227.7500     2.4700    65.1100    12.2900    10.3360    11.1700    24.9380   -13.9020 
  227.8750     2.4440    65.1100    12.5900    10.5380    11.8980    25.0430   -13.9620 
  228.0000     2.4110    65.1100    13.0110    10.8810    14.6380    25.0730   -13.9480 
  228.1250     2.3870    65.1100    13.5770    11.4150    24.0070    24.8640   -13.8540 
  228.2500     2.3810    65.1100    14.2030    12.0650    38.7460    24.7130   -13.7740 
  228.3750     2.3950    65.1100    14.7760    12.7190    47.6520    24.6500   -13.6770 
  228.5000     2.4270    65.1100    15.1670    13.2330    45.2220    24.5990   -13.5760 
  228.6250     2.4710    65.1100    15.2340    13.4210    45.3680    24.4690   -13.4490 
