~V
VERS. 2.00: Ver 2.00
~W
STRT.M 55.0000:
STOP.M 245.0000:
STEP.M 0.1250:
NULL. -999.2500:
UWI. DF33016:
~C
DEPT.M :
GR.API :
CALI.CM :
RXO.OHMM :
RI. :
RML.OHMM :
DEN.GM/CC :
SP.MV :
~A
# ...
  190.0000    96.0270    24.4160     7.3580     6.1020     9.2080     2.3600   -25.2450 
  190.1250    90.7760    24.0070     7.8180     6.6700     9.9600     2.3750   -24.7720 
  190.2500    87.2770    23.7610     8.4160     7.3400    10.7750     2.3940   -24.3000 
  190.3750    85.9500    23.7120     8.9560     7.9360    11.4020     2.4080   -23.9270 
  190.5000    87.4260    23.7070     9.1930     8.2670    11.5850     2.4190   -23.5190 
  190.6250    92.3760    23.6510     9.0290     8.1330    11.1160     2.4370   -22.9560 
  190.7500    96.7330    23.5720     8.4680     7.6580    10.2440     2.4610   -22.3960 
  190.8750    95.4230    23.4860     7.5490     7.0010     9.2400     2.4760   -21.7410 
  191.0000    86.7310    23.4450     6.6210     6.3280     8.3350     2.4740   -20.9080 
  191.1250    76.2730    23.4430     6.1820     5.7920     7.6950     2.4600   -20.0520 
  191.2500    67.8600    23.4670     6.0690     5.4150     7.2810     2.4510   -19.2000 
  191.3750    60.2280    23.4920     5.9430     5.1900     7.0390     2.4520   -18.2700 
  191.5000    54.8750    23.5180     5.7350     5.0890     6.9090     2.4460   -17.3520 
  191.6250    54.8920    23.4150     5.4710     5.0830     6.8570     2.4260   -16.6170 
  191.7500    59.7530    23.3860     5.2420     5.1440     6.8730     2.4060   -15.9970 
  191.8750    67.4420    23.4380     5.1330     5.2730     6.9770     2.4170   -15.5060 
  192.0000    73.6250    23.5560     5.2430     5.4630     7.1710     2.4430   -15.1560 
  192.1250    75.3040    23.5810     5.6240     5.6830     7.4220     2.4590   -14.8960 
  192.2500    77.7730    23.5640     6.0120     5.8810     7.6510     2.4540   -14.6430 
  192.3750    83.6640    23.5310     6.1860     6.0220     7.7870     2.4440   -14.4680 
  192.5000    89.8940    23.4880     6.1200     6.0850     7.7910     2.4420   -14.3690 
  192.6250    90.1360    23.4180     5.9870     6.0610     7.6650     2.4430   -14.2500 
  192.7500    89.8240    23.3600     6.0240     5.9670     7.4800     2.4440   -14.1340 
  192.8750    91.1160    23.3380     6.1370     5.8160     7.2680     2.4420   -14.0270 
  193.0000    89.8170    23.3350     6.1320     5.6340     7.0480     2.4350   -13.9910 
  193.1250    86.9120    23.3350     5.9100     5.4660     6.8400     2.4270   -13.9450 
  193.2500    88.0570    23.3350     5.6060     5.3560     6.6890     2.4250   -13.9230 
  193.3750    93.2830    23.3300     5.4330     5.3380     6.6570     2.4310   -13.9660 
  193.5000    96.9070    23.3040     5.4730     5.4290     6.8010     2.4340   -14.0940 
  193.6250    95.5320    23.2710     5.6450     5.6380     7.1510     2.4260   -14.2800 
  193.7500    93.7680    23.3940     5.8950     5.9290     7.6220     2.4110   -14.4630 
  193.8750    92.2770    23.8000     6.2850     6.2700     8.1360     2.4030   -14.7060 
  194.0000    90.5520    24.1460     6.9470     6.6070     8.5980     2.4060   -15.0030 
  194.1250    88.6650    24.2840     7.9050     6.8690     8.8800     2.4090   -15.3570 
  194.2500    89.2910    24.1600     8.5090     7.0360     8.9800     2.4020   -15.7260 
  194.3750    92.9010    23.7350     8.5810     7.1530     9.0080     2.3920   -16.1090 
  194.5000    95.6730    23.3690     8.3460     7.3820     9.2090     2.3890   -16.4790 
  194.6250    95.3140    23.1750     8.2710     8.0450    10.0120     2.3930   -16.8410 
  194.7500    92.6260    22.9940     8.9860     9.2960    11.6220     2.3950   -17.2750 
  194.8750    87.7880    22.7610    11.4540    11.2390    14.1610     2.3800   -17.7560 
  195.0000    81.4800    22.6740    17.2650    13.8310    17.4870     2.3480   -18.1810 
  195.1250    76.9650    22.9450    24.4470    16.7470    21.0120     2.3120   -18.5200 
  195.2500    77.1790    23.1530    26.7880    19.4670    24.0070     2.2890   -18.8890 
  195.3750    80.1850    23.3400    23.5150    21.9290    26.4650     2.3000   -19.2490 
  195.5000    81.7900    23.5070    20.1440    24.5260    29.0680     2.3320   -19.5350 
  195.6250    80.0150    23.5090    24.6620    28.2470    33.1250     2.3720   -19.8430 
  195.7500    76.7300    23.4720    41.5750    33.8160    39.4030     2.4080   -20.1450 
  195.8750    73.2860    23.5970    63.4710    41.6910    48.4110     2.4300   -20.3740 
  196.0000    69.8400    23.7110    71.0530    51.7640    60.0450     2.4270   -20.5850 
  196.1250    69.6380    23.7290    56.9460    63.7940    73.7200     2.3950   -20.8670 
  196.2500    71.6940    23.5450    54.1150    77.2990    88.4720     2.3400   -21.1490 
  196.3750    71.4620    23.4030    68.0660    91.8170   104.1310     2.2780   -21.4310 
  196.5000    67.9140    23.2850    82.9920   105.0670   118.9260     2.2270   -21.6830 
  196.6250    66.1290    23.2780    91.3290   110.7420   125.2390     2.2000   -21.9040 
  196.7500    67.1430    23.4090    96.2740   106.2790   119.2180     2.1990   -22.0760 
  196.8750    67.8340    23.6990    95.5950    94.5250   105.4150     2.2090   -22.2070 
  197.0000    68.0790    24.1250    83.1010    81.9790    92.0820     2.2170   -22.2800 
  197.1250    70.4070    24.3790    64.3960    74.9250    85.1880     2.2230   -22.3660 
  197.2500    73.5470    24.5430    58.3550    74.2260    84.7330     2.2270   -22.4150 
  197.3750    75.1250    24.2680    66.3160    79.1950    90.3130     2.2210   -22.3670 
  197.5000    73.3820    23.8170    80.3600    87.8920   100.5630     2.2050   -22.3290 
  197.6250    68.9460    23.5080    90.9200    95.6350   109.9120     2.1890   -22.2500 
  197.7500    66.6980    23.3190    90.1470    96.6600   109.8140     2.1790   -22.0640 
  197.8750    68.5630    23.2380    82.9050    88.7750    98.0560     2.1840   -21.8230 
  198.0000    71.6120    23.2230    70.9370    75.0190    80.7110     2.2020   -21.5970 
  198.1250    71.7050    23.2180    54.0990    61.3040    65.5270     2.2300   -21.2740 
  198.2500    70.3040    23.2350    39.9000    50.9250    54.6600     2.2590   -20.8650 
  198.3750    69.6510    23.3150    33.5410    44.0800    47.6490     2.2750   -20.4570 
  198.5000    70.7350    23.4650    32.5420    39.9930    43.5300     2.2740   -20.0720 
  198.6250    72.1930    23.5290    32.3360    38.0170    41.6290     2.2640   -19.6350 
  198.7500    71.1220    23.5380    31.9220    37.0920    40.8520     2.2540   -19.2640 
  198.8750    68.2990    23.5350    31.1590    36.7020    40.6330     2.2510   -18.9850 
  199.0000    67.8420    23.5430    29.9880    36.4920    40.4960     2.2540   -18.6690 
  199.1250    69.3640    23.5570    29.0030    36.1940    40.0690     2.2600   -18.3750 
  199.2500    68.2940    23.5530    28.3960    35.6700    39.2860     2.2650   -18.1570 
  199.3750    64.9620    23.5480    27.3410    34.8800    38.1940     2.2640   -17.9300 
  199.5000    64.0440    23.5530    26.0610    33.8670    36.9400     2.2610   -17.7120 
  199.6250    66.8840    23.5670    26.0320    32.7780    35.7440     2.2600   -17.5670 
  199.7500    69.5880    23.5550    27.2010    31.8450    34.8170     2.2630   -17.3880 
  199.8750    70.6820    23.5460    28.0290    31.2290    34.2910     2.2650   -17.1640 
  200.0000    69.5890    23.5610    28.3440    30.9840    34.1860     2.2630   -17.0410 
  200.1250    66.7420    23.6040    28.4090    31.0520    34.3970     2.2580   -16.9690 
  200.2500    64.7530    23.6200    28.2580    31.1560    34.5900     2.2530   -16.8730 
  200.3750    65.3950    23.6260    28.0770    31.0970    34.5420     2.2500   -16.8410 
  200.5000    69.0030    23.6310    28.5380    30.8100    34.1800     2.2520   -16.8090 
  200.6250    73.5330    23.6310    29.3680    30.3710    33.5940     2.2580   -16.7130 
  200.7500    75.1700    23.6140    29.1810    29.9470    33.0130     2.2630   -16.6590 
  200.8750    73.2860    23.5720    28.3680    29.6020    32.5370     2.2570   -16.6790 
  201.0000    70.7120    23.5330    27.8780    29.2820    32.1240     2.2440   -16.6500 
  201.1250    70.8900    23.5110    27.5520    28.8180    31.5640     2.2330   -16.5360 
