~V
VERS. 2.00: Ver 2.00
~W
STRT.M 60.0000:
STOP.M 233.0000:
STEP.M 0.1250:
NULL. -999.2500:
UWI. DF33019:
~C
DEPT.M :
GR.API :
RML.OHMM :
RI. :
RXO.OHMM :
CALI.CM :
DEN.GM/CC :
SP.MV :
~A
# ...
  161.2500    75.3750    17.6190    15.3140    13.7780    24.3000     2.2580   -10.5530 
  161.3750    72.8390    17.7320    15.4060    13.7450    24.3720     2.2620   -10.5620 
  161.5000    72.1510    17.9520    15.6080    13.9750    24.4000     2.2650   -10.6140 
  161.6250    73.2520    18.2240    15.8920    14.2580    24.4230     2.2680   -10.6770 
  161.7500    74.0930    18.4660    16.1790    14.6630    24.4680     2.2710   -10.7730 
  161.8750    74.0580    18.6290    16.4150    14.9960    24.5190     2.2750   -10.9190 
  162.0000    73.1890    18.7050    16.5700    15.1910    24.5860     2.2800   -11.1210 
  162.1250    71.6900    18.7350    16.6520    14.9650    24.5970     2.2880   -11.3300 
  162.2500    71.1950    18.8160    16.7290    14.6110    24.6000     2.2950   -11.5690 
  162.3750    71.0080    19.0250    16.8660    14.5740    24.6000     2.2990   -11.8040 
  162.5000    69.9000    19.4120    17.1160    15.1290    24.6000     2.2970   -12.0910 
  162.6250    69.1630    19.9920    17.5140    15.7670    24.5980     2.2900   -12.3690 
  162.7500    71.6030    20.6610    18.0010    16.0810    24.5860     2.2810   -12.6860 
  162.8750    75.9720    21.3370    18.5210    16.7100    24.5110     2.2730   -13.0080 
  163.0000    77.9220    21.9840    19.0310    18.3760    24.4700     2.2690   -13.3540 
  163.1250    76.1670    22.7370    19.5790    19.6460    24.4400     2.2690   -13.7570 
  163.2500    71.8330    23.9400    20.4440    20.2710    24.3750     2.2710   -14.1880 
  163.3750    66.1700    26.2320    22.3170    21.1540    24.3700     2.2730   -14.7000 
  163.5000    62.5650    30.8190    26.5280    23.1100    24.3760     2.2720   -15.2280 
  163.6250    63.3710    40.8370    36.1300    28.8190    24.3780     2.2640   -15.8070 
  163.7500    64.1980    58.1840    52.5220    48.1700    24.3930     2.2500   -16.3730 
  163.8750    61.0600    84.0200    76.1020    90.0480    24.4340     2.2320   -16.9390 
  164.0000    56.4570   116.9210   104.8010   139.4330    24.4860     2.2130   -17.4740 
  164.1250    55.7020   151.4410   133.2890   140.9540    24.5080     2.1970   -17.9720 
  164.2500    58.1520   179.4150   155.8640   127.6480    24.5170     2.1870   -18.4330 
  164.3750    59.9200   196.3200   170.3650   112.8580    24.5380     2.1810   -18.8380 
  164.5000    58.6820   202.8400   178.2110   103.7180    24.5940     2.1770   -19.1890 
  164.6250    57.8140   202.7380   181.5880   109.1020    24.6650     2.1730   -19.4960 
  164.7500    60.3060   198.1930   181.6320   133.6160    24.7050     2.1660   -19.7480 
  164.8750    62.3470   189.1310   176.9490   151.4270    24.7170     2.1590   -19.9580 
  165.0000    60.7090   174.7600   166.7050   148.1590    24.7180     2.1560   -20.1600 
  165.1250    57.6550   159.9400   151.6710   128.7740    24.7180     2.1590   -20.3600 
  165.2500    56.0570   146.3130   135.6690   112.4680    24.7220     2.1660   -20.5500 
  165.3750    56.1870   132.1970   121.3650   102.6310    24.7400     2.1770   -20.7000 
  165.5000    58.4140   119.6130   110.3540    97.9550    24.7870     2.1880   -20.8370 
  165.6250    62.2770   112.1560   103.5370    91.5970    24.8330     2.1990   -20.9350 
  165.7500    63.8900   107.9020    99.6310    84.8660    24.8510     2.2080   -21.0540 
  165.8750    62.8010   105.7960    97.7470    80.3480    24.8600     2.2120   -21.1640 
  166.0000    61.8170   105.0080    97.0900    80.6880    24.8840     2.2100   -21.2650 
  166.1250    61.7030   105.1660    97.2330    74.9470    24.9490     2.2010   -21.3180 
  166.2500    62.7980   106.1400    97.9760    75.1750    25.0160     2.1890   -21.3870 
  166.3750    66.1890   108.2800    99.5750    79.4410    25.0650     2.1800   -21.4780 
  166.5000    69.9820   112.0270   102.4100    81.8080    25.0890     2.1740   -21.6190 
  166.6250    69.8890   118.0300   107.1160    83.5030    25.0690     2.1730   -21.7700 
  166.7500    66.7440   126.0220   113.6140    95.5310    24.9890     2.1760   -21.9270 
  166.8750    63.8710   136.0310   122.0150   106.6070    24.9370     2.1840   -22.1070 
  167.0000    64.2740   148.4000   132.5860   108.9540    24.9230     2.1930   -22.2900 
  167.1250    67.9070   164.3020   146.2240   112.7060    24.9230     2.2010   -22.5100 
  167.2500    70.5290   183.0100   162.3210   123.4270    24.9230     2.2030   -22.6960 
  167.3750    68.7760   202.1830   179.1420   142.9040    24.9230     2.1980   -22.8680 
  167.5000    64.9810   217.0980   193.0880   170.9630    24.9230     2.1870   -22.9490 
  167.6250    63.6480   219.3190   197.5070   197.3890    24.9230     2.1760   -23.0500 
  167.7500    63.5290   206.9340   190.2380   207.8670    24.9260     2.1680   -23.0770 
  167.8750    62.5800   182.7040   172.2740   196.8000    24.9380     2.1670   -23.0640 
  168.0000    61.5490   153.9960   148.3060   152.7620    24.9640     2.1730   -22.9860 
  168.1250    61.9390   129.2210   125.0070   104.1420    24.9760     2.1860   -22.8530 
  168.2500    62.7680   111.1140   106.5590    79.1000    24.9700     2.2040   -22.7290 
  168.3750    63.2840    99.4530    93.9350    71.4590    24.9470     2.2240   -22.6010 
  168.5000    62.7200    93.0690    86.5840    67.6680    24.9290     2.2450   -22.4850 
  168.6250    62.8520    91.2330    83.9600    67.8560    24.9240     2.2620   -22.2990 
  168.7500    67.3570    92.1640    84.2330    71.2520    24.9320     2.2700   -22.1310 
  168.8750    74.7660    95.1060    86.6000    69.6620    24.9450     2.2680   -21.9590 
  169.0000    80.5520    99.5160    90.4780    67.2530    24.9330     2.2560   -21.8200 
  169.1250    81.8400   105.1790    95.6270    71.7660    24.8850     2.2380   -21.6610 
  169.2500    80.2440   111.5870   101.5010    83.9440    24.8610     2.2220   -21.4750 
  169.3750    76.4120   118.4260   107.7410    89.4800    24.8450     2.2110   -21.2570 
  169.5000    70.3780   125.4220   114.0250    94.2680    24.8140     2.2080   -21.0330 
  169.6250    65.4290   132.3540   120.1220   108.3630    24.7540     2.2130   -20.8070 
  169.7500    63.6070   138.9380   125.9150   114.5370    24.7390     2.2210   -20.5930 
  169.8750    64.4140   144.5070   131.0370   108.1540    24.7540     2.2300   -20.3890 
  170.0000    65.3130   147.7540   134.5760   108.3130    24.7580     2.2380   -20.1840 
  170.1250    64.7700   145.9170   134.2650   120.5380    24.7330     2.2390   -20.0260 
  170.2500    64.3730   138.4850   129.2220   141.0090    24.7190     2.2350   -19.8850 
  170.3750    64.5790   126.5200   119.7170   168.9080    24.7130     2.2280   -19.7950 
  170.5000    63.9930   113.0830   107.8370   141.6050    24.6980     2.2240   -19.7080 
  170.6250    64.0810   102.7120    97.4270    73.6380    24.6550     2.2290   -19.7050 
  170.7500    65.5210    97.8210    91.4760    44.6770    24.6150     2.2380   -19.7080 
  170.8750    65.2370    99.3080    91.3720    50.3070    24.5900     2.2440   -19.7750 
  171.0000    62.3680   106.6890    96.9160    79.6170    24.5810     2.2430   -19.7880 
  171.1250    61.3850   118.3510   106.6340   101.1230    24.5850     2.2360   -19.9100 
  171.2500    62.7350   130.1010   116.6060   102.0410    24.6110     2.2290   -20.0770 
  171.3750    62.7730   138.4620   123.7340    92.3420    24.6870     2.2230   -20.2450 
  171.5000    61.3540   141.0750   125.9760    84.2700    24.7910     2.2140   -20.3860 
  171.6250    60.5680   137.3480   122.7760    87.6720    24.8830     2.1970   -20.5230 
  171.7500    61.1660   130.8950   117.2180   115.6990    24.9170     2.1800   -20.6330 
  171.8750    63.1420   124.3280   111.6500   105.6400    24.9270     2.1700   -20.7430 
  172.0000    66.8120   119.5880   107.8320    91.9970    24.9340     2.1740   -20.8190 
  172.1250    69.7050   118.4410   107.3460    92.4470    24.9340     2.1910   -20.8950 
  172.2500    68.8540   120.1730   109.6300   103.4620    24.9340     2.2090   -20.9170 
  172.3750    64.6590   122.8590   113.1690   114.6040    24.9330     2.2200   -20.9330 
