~V
VERS. 2.00: Ver 2.00
~W
STRT.M 55.0000:
STOP.M 252.0000:
STEP.M 0.1250:
NULL. -999.2500:
UWI. DF33023:
~C
DEPT.M :
GR.API :
CALI.CM :
RXO.OHMM :
RI. :
RML.OHMM :
DEN.GM/CC :
SP.MV :
~A
# ...
  133.7500    86.2400    24.4790     6.5090     5.5820     5.9780     2.2690   -17.3980 
  133.8750    85.2460    24.6220     6.0050     5.4310     5.7670     2.2930   -17.1800 
  134.0000    85.6870    24.9280     5.4650     5.3580     5.7130     2.3350   -16.9670 
  134.1250    83.9300    25.1270     5.6000     5.4700     5.9600     2.3990   -16.7640 
  134.2500    82.1750    25.1460     7.4140     5.7350     6.4120     2.4670   -16.6010 
  134.3750    82.6170    25.0710    10.9720     6.0910     6.9330     2.5050   -16.5210 
  134.5000    83.7420    24.9520    13.5720     6.4570     7.3840     2.4870   -16.5520 
  134.6250    84.1080    24.8450    11.8450     6.8030     7.7480     2.4080   -16.7140 
  134.7500    84.1460    24.8350     8.6860     7.2220     8.2460     2.3230   -17.0030 
  134.8750    82.2200    24.9550     7.9750     7.8690     9.1420     2.2640   -17.3980 
  135.0000    78.0550    25.1320    10.6340     8.8990    10.6260     2.2370   -17.8690 
  135.1250    73.6140    25.2310    14.5070    10.4550    12.8010     2.2250   -18.3590 
  135.2500    70.0980    25.1990    16.9350    12.2990    15.2350     2.2100   -18.8060 
  135.3750    67.4290    25.0690    17.8580    14.0350    17.3530     2.1920   -19.1660 
  135.5000    67.3180    24.9410    18.5800    15.2350    18.6420     2.1800   -19.4160 
  135.6250    71.0810    24.9530    19.2270    15.6920    18.9870     2.1980   -19.5190 
  135.7500    73.6770    25.0910    18.7620    15.7910    19.0060     2.2520   -19.4700 
  135.8750    72.0300    25.2190    17.6400    15.8310    19.0960     2.3390   -19.2750 
  136.0000    66.8850    25.2190    17.5020    15.9990    19.4690     2.4370   -18.9620 
  136.1250    61.5780    25.1170    18.7980    16.4090    20.2290     2.5210   -18.5710 
  136.2500    57.3810    25.0350    19.6280    16.9840    21.2070     2.5790   -18.1450 
  136.3750    53.9610    24.9880    19.3110    17.5860    22.1650     2.6110   -17.7160 
  136.5000    51.2920    24.9240    18.9660    18.0160    22.7950     2.6190   -17.3080 
  136.6250    51.2280    24.8470    19.7270    18.0430    22.7510     2.6070   -16.9600 
  136.7500    52.4820    24.8130    20.2880    17.7290    22.1770     2.5960   -16.6860 
  136.8750    52.4880    24.8270    19.4710    17.2300    21.3530     2.5950   -16.4850 
  137.0000    50.2890    24.8490    17.7550    16.7420    20.6030     2.6010   -16.3420 
  137.1250    50.0290    24.8500    16.9830    16.4840    20.2640     2.5970   -16.2520 
  137.2500    52.4780    24.8480    17.6300    16.5470    20.4260     2.5860   -16.2000 
  137.3750    53.0030    24.8490    18.7930    16.9670    21.0810     2.5810   -16.1820 
  137.5000    49.9330    24.8420    19.5670    17.6710    22.0620     2.5910   -16.1860 
  137.6250    48.0980    24.8210    20.0690    18.4020    22.9460     2.6080   -16.1770 
  137.7500    49.5930    24.7920    20.9770    18.7910    23.2570     2.6210   -16.1540 
  137.8750    52.1050    24.7600    21.7220    18.6090    22.7360     2.6310   -16.1200 
  138.0000    55.1350    24.7190    20.8590    17.8620    21.4730     2.6390   -16.0780 
  138.1250    59.4370    24.6710    17.9380    16.7980    19.8990     2.6400   -16.0210 
  138.2500    61.9960    24.6500    15.2200    15.8470    18.6060     2.6330   -15.9520 
  138.3750    62.2830    24.6640    14.0790    15.2650    17.9230     2.6250   -15.8750 
  138.5000    62.7530    24.6800    14.2940    15.1870    17.9770     2.6250   -15.7950 
  138.6250    64.3050    24.6640    15.0470    15.6640    18.7510     2.6300   -15.7230 
  138.7500    64.1150    24.6320    16.3740    16.3870    19.7560     2.6280   -15.6610 
  138.8750    61.1090    24.5920    18.8180    17.0170    20.5150     2.6160   -15.6060 
  139.0000    56.8260    24.5420    21.4200    17.2330    20.6360     2.5940   -15.5610 
  139.1250    54.2380    24.4930    21.1050    16.8300    19.9490     2.5720   -15.5390 
  139.2500    54.7180    24.4530    18.0130    16.0930    18.9130     2.5590   -15.5320 
  139.3750    57.3640    24.4150    14.7210    15.3060    17.9240     2.5570   -15.5390 
  139.5000    59.7970    24.4020    13.4290    14.6840    17.2370     2.5560   -15.5560 
  139.6250    61.7520    24.4380    14.4060    14.3640    16.9760     2.5490   -15.5920 
  139.7500    63.0210    24.4760    15.8770    14.2870    17.0010     2.5430   -15.6510 
  139.8750    62.6930    24.4950    16.6170    14.3960    17.2040     2.5400   -15.7330 
  140.0000    61.3550    24.5430    16.2550    14.6370    17.5140     2.5370   -15.8250 
  140.1250    59.1940    24.6510    15.5510    15.0090    17.9630     2.5370   -15.9200 
  140.2500    59.0990    24.7420    15.6380    15.5100    18.5760     2.5460   -16.0270 
  140.3750    62.4320    24.7770    16.7570    16.1310    19.3370     2.5570   -16.1270 
  140.5000    67.6890    24.7790    18.2620    16.8000    20.1190     2.5630   -16.2250 
  140.6250    69.2030    24.7690    19.0610    17.3210    20.6270     2.5660   -16.3050 
  140.7500    66.4050    24.7440    19.0520    17.5150    20.6660     2.5710   -16.3590 
  140.8750    63.7200    24.7280    18.7020    17.3040    20.1990     2.5700   -16.3870 
  141.0000    63.8750    24.7390    18.1420    16.7560    19.3680     2.5550   -16.3960 
  141.1250    63.7350    24.7750    16.9920    16.0300    18.4150     2.5400   -16.3850 
  141.2500    60.2090    24.8020    15.5510    15.3350    17.5730     2.5360   -16.3520 
  141.3750    55.3880    24.7870    14.5720    14.7660    16.9380     2.5410   -16.3040 
  141.5000    53.0860    24.7300    14.4080    14.3540    16.5250     2.5500   -16.2350 
  141.6250    52.8300    24.6470    14.6330    14.1190    16.3380     2.5530   -16.1550 
  141.7500    52.2710    24.5520    14.7380    14.0130    16.2940     2.5470   -16.0760 
  141.8750    51.5600    24.4940    14.8320    14.0010    16.3390     2.5360   -15.9930 
  142.0000    50.5270    24.5470    15.0290    14.0420    16.4250     2.5300   -15.9120 
  142.1250    49.5180    24.7050    15.1950    14.1280    16.5640     2.5350   -15.8480 
  142.2500    50.0610    24.8400    15.2410    14.2720    16.7850     2.5390   -15.7980 
  142.3750    52.3890    24.9120    15.2420    14.4800    17.1000     2.5380   -15.7660 
  142.5000    53.7220    24.9600    15.4460    14.7510    17.5040     2.5410   -15.7560 
  142.6250    53.1730    24.9830    16.2250    15.0750    17.9770     2.5520   -15.7770 
  142.7500    53.5770    24.9720    17.1110    15.4000    18.4370     2.5570   -15.8100 
  142.8750    56.0750    24.9560    17.3850    15.6680    18.8010     2.5550   -15.8580 
  143.0000    59.8160    24.9590    17.0250    15.8310    19.0190     2.5550   -15.9080 
  143.1250    62.2770    24.9730    16.8160    15.8670    19.0830     2.5560   -15.9520 
  143.2500    63.4480    24.9810    16.8930    15.8450    19.1080     2.5470   -16.0000 
  143.3750    64.6140    24.9860    16.8800    15.8520    19.2200     2.5270   -16.0450 
  143.5000    65.4930    24.9900    16.7810    15.9630    19.5070     2.5100   -16.0880 
  143.6250    64.8640    24.9820    17.0040    16.2080    19.9720     2.5010   -16.1160 
  143.7500    64.5630    24.9610    17.5280    16.5040    20.4700     2.4940   -16.1350 
  143.8750    65.8480    24.9430    18.1360    16.7730    20.8790     2.4880   -16.1450 
  144.0000    68.1380    24.9240    18.5690    16.9610    21.1250     2.4910   -16.1520 
  144.1250    68.7050    24.8950    18.4830    17.0410    21.1970     2.5060   -16.1390 
  144.2500    67.5460    24.8720    17.9840    17.0750    21.2130     2.5210   -16.0980 
  144.3750    66.3060    24.8880    17.5040    17.1050    21.2390     2.5330   -16.0450 
  144.5000    66.6070    24.9320    17.4060    17.1260    21.2600     2.5470   -15.9860 
  144.6250    65.8320    24.9500    17.5800    17.0530    21.1380     2.5580   -15.9320 
  144.7500    62.9760    24.9480    17.4930    16.8110    20.7600     2.5590   -15.8830 
  144.8750    61.7140    24.9530    16.8710    16.3620    20.0840     2.5530   -15.8380 
