~V
VERS. 2.00: Ver 2.00
~W
STRT.M 60.0000:
STOP.M 235.0000:
STEP.M 0.1250:
NULL. -999.2500:
UWI. DF33014:
~C
DEPT.M :
SP.MV :
GR.API :
RML.OHMM :
RI. :
RXO.OHMM :
CALI.CM :
DEN.GM/CC :
~A
# ...
  161.2500   -15.4540    57.1500    77.5310    71.1420    16.1330    28.6230     2.2190 
  161.3750   -15.5450    56.6820    76.0200    69.9220    16.2440    28.6230     2.2070 
  161.5000   -15.5600    56.1220    73.7680    67.5950    16.7150    28.6230     2.1980 
  161.6250   -15.6430    57.7760    71.4600    64.9350    16.8660    28.6230     2.1950 
  161.7500   -15.6120    59.1560    69.4180    62.4640    16.1370    28.6230     2.1930 
  161.8750   -15.6000    58.0480    68.0360    60.5930    15.1510    28.6230     2.1920 
  162.0000   -15.5360    57.2010    67.9710    59.8970    14.9270    28.6240     2.1890 
  162.1250   -15.4420    59.5230    70.2290    61.2820    15.8790    28.6190     2.1860 
  162.2500   -15.3520    62.5270    74.5400    64.5610    17.1090    28.5980     2.1840 
  162.3750   -15.1520    64.0310    80.2830    69.2390    17.9310    28.5580     2.1820 
  162.5000   -15.0100    63.7450    86.4190    74.4380    18.3160    28.5320     2.1810 
  162.6250   -14.7450    62.8010    91.5390    78.9610    18.4930    28.5220     2.1800 
  162.7500   -14.6040    63.1570    94.9640    82.1460    18.7420    28.5050     2.1780 
  162.8750   -14.4180    65.2690    96.6470    83.8740    19.0840    28.4710     2.1740 
  163.0000   -14.2590    66.3340    97.0220    84.4480    19.3190    28.4480     2.1690 
  163.1250   -14.1770    63.6680    96.5930    84.2670    19.3580    28.4450     2.1660 
  163.2500   -14.1160    59.7550    95.8370    83.7990    19.3910    28.4470     2.1650 
  163.3750   -14.1870    57.3170    94.7760    83.1260    19.4580    28.4430     2.1690 
  163.5000   -14.2410    56.0660    93.3100    82.1910    19.7490    28.4260     2.1760 
  163.6250   -14.4300    55.3350    91.4040    80.9370    20.3440    28.3880     2.1860 
  163.7500   -14.5550    55.9960    89.4010    79.5870    20.6520    28.3410     2.1940 
  163.8750   -14.7490    57.9500    87.6120    78.3800    20.5670    28.2670     2.1980 
  164.0000   -14.9120    59.5430    86.2070    77.4800    20.6460    28.1730     2.1980 
  164.1250   -15.1020    61.5160    85.1860    76.9410    21.3750    28.0770     2.1940 
  164.2500   -15.2560    62.7320    84.3370    76.6000    21.9840    27.9910     2.1890 
  164.3750   -15.3690    61.2530    83.6640    76.4400    21.9240    27.8950     2.1850 
  164.5000   -15.4610    59.0190    83.4010    76.6210    21.5190    27.8050     2.1820 
  164.6250   -15.5690    61.6230    84.0440    77.5410    21.3720    27.7270     2.1780 
  164.7500   -15.6350    65.1740    85.5780    79.2120    21.7000    27.6670     2.1730 
  164.8750   -15.6910    65.4120    87.6490    81.3750    22.3900    27.5980     2.1690 
  165.0000   -15.7900    62.7050    89.5070    83.4160    23.1260    27.5290     2.1690 
  165.1250   -15.7700    59.3030    90.0530    84.3510    23.5060    27.4620     2.1720 
  165.2500   -15.8330    56.7990    89.1700    83.9580    23.1490    27.3770     2.1750 
  165.3750   -15.8080    55.7570    87.4710    82.6590    22.2940    27.2970     2.1740 
  165.5000   -15.8200    56.0860    86.0960    81.4210    21.9130    27.2550     2.1660 
  165.6250   -15.7480    55.5700    86.3930    81.5350    22.9100    27.2440     2.1560 
  165.7500   -15.7070    56.6330    88.3800    83.2370    24.3630    27.2120     2.1500 
  165.8750   -15.6570    59.6600    91.4890    86.1430    25.1030    27.1090     2.1510 
  166.0000   -15.5090    60.4090    94.8120    89.4550    25.1430    26.9450     2.1590 
  166.1250   -15.4630    58.1440    97.5000    92.3210    25.4650    26.8570     2.1690 
  166.2500   -15.3160    57.9830    99.6090    94.6250    26.3510    26.8380     2.1770 
  166.3750   -15.2470    60.0180   101.6380    96.7260    27.7100    26.8180     2.1840 
  166.5000   -15.1240    60.7930   104.1000    99.0800    29.5060    26.7880     2.1900 
  166.6250   -15.0350    59.4500   107.1450   101.8820    31.4920    26.7420     2.2000 
  166.7500   -14.9310    59.4800   110.1330   104.6490    32.5830    26.6590     2.2110 
  166.8750   -14.8050    61.2300   112.3660   106.7590    32.1470    26.5570     2.2210 
  167.0000   -14.7140    62.0340   113.4300   107.7780    30.6980    26.4670     2.2290 
  167.1250   -14.5710    61.1620   113.5390   107.7460    29.4130    26.4180     2.2340 
  167.2500   -14.4700    60.1280   114.0590   107.8280    28.7490    26.3560     2.2380 
  167.3750   -14.3510    59.5020   116.5710   109.4560    28.4510    26.2680     2.2380 
  167.5000   -14.2690    59.2530   122.7070   114.1790    28.3750    26.1730     2.2340 
  167.6250   -14.1400    57.0620   134.5240   123.9680    28.8060    26.0970     2.2260 
  167.7500   -14.0670    53.8130   151.0730   138.1070    29.3740    26.0320     2.2180 
  167.8750   -13.9890    52.0050   170.5450   155.1020    29.1170    25.9510     2.2100 
  168.0000   -14.0550    52.5930   189.7530   172.2610    27.8340    25.8490     2.2030 
  168.1250   -14.0390    53.0050   203.8560   185.5330    26.7340    25.7400     2.1980 
  168.2500   -14.0270    51.3350   211.1540   193.2830    26.6300    25.6660     2.1960 
  168.3750   -13.9960    49.3210   212.5080   195.9190    27.3180    25.5700     2.1980 
  168.5000   -13.9930    50.5660   211.0550   195.7850    28.3980    25.4350     2.2040 
  168.6250   -13.9900    54.1860   210.7120   196.1930    29.5410    25.3150     2.2090 
  168.7500   -13.9470    56.8440   212.9820   198.8610    30.1910    25.2650     2.2090 
  168.8750   -13.9640    56.9630   216.6560   203.4310    30.2110    25.2440     2.2020 
  169.0000   -13.8040    54.7200   219.7200   208.1460    30.3750    25.2020     2.1910 
  169.1250   -13.8250    53.8520   219.0110   209.7510    31.2440    25.1230     2.1850 
  169.2500   -13.8070    55.0560   213.6620   206.2750    31.5600    25.0560     2.1850 
  169.3750   -13.7750    57.5450   203.8800   196.9970    29.6370    24.9790     2.1900 
  169.5000   -13.7120    59.5380   192.8490   183.0070    26.5430    24.8830     2.1980 
  169.6250   -13.6260    58.6820   182.1450   167.2920    25.4420    24.8880     2.2060 
  169.7500   -13.5840    57.4280   172.8610   153.9980    27.0410    24.9200     2.2110 
  169.8750   -13.4720    56.7530   164.4750   145.8460    30.6780    24.8390     2.2130 
  170.0000   -13.4490    56.1540   163.5970   144.3000    34.8210    24.7090     2.2120 
  170.1250   -13.2720    55.7580   170.8780   150.3480    38.5800    24.5900     2.2090 
  170.2500   -13.1650    57.3530   183.0230   161.1110    41.3020    24.5210     2.2040 
  170.3750   -13.0630    59.7720   196.9240   173.8150    41.4150    24.4430     2.2010 
  170.5000   -12.9790    59.3690   208.9260   185.2250    39.2100    24.3370     2.2000 
  170.6250   -12.9330    58.7930   214.7080   191.5740    36.5660    24.1990     2.2060 
  170.7500   -12.9120    60.4880   213.9430   192.3370    34.9220    24.0920     2.2150 
  170.8750   -12.8760    60.9510   207.8250   188.2290    34.6550    24.0330     2.2250 
  171.0000   -12.9240    57.6850   198.5680   180.9020    35.5110    24.0040     2.2350 
  171.1250   -13.0090    54.7750   188.1770   171.9670    36.9100    23.9690     2.2420 
  171.2500   -13.1000    54.7340   178.0620   162.8920    38.5950    23.9460     2.2450 
  171.3750   -13.2610    55.0440   168.8350   154.3570    40.8330    23.9360     2.2450 
  171.5000   -13.3930    56.4150   161.0210   146.9420    43.8440    23.9380     2.2440 
  171.6250   -13.6430    59.7140   155.5920   141.6120    47.5630    23.9470     2.2430 
  171.7500   -13.8290    62.7640   152.7570   138.6760    51.8660    23.9460     2.2430 
  171.8750   -14.1390    63.5260   152.7810   138.4690    56.5920    23.9170     2.2450 
  172.0000   -14.3510    61.0930   155.6520   141.0310    61.0930    23.8580     2.2460 
  172.1250   -14.6300    58.1250   161.3900   146.3780    64.5710    23.7700     2.2460 
  172.2500   -14.9920    56.7540   168.8260   153.3380    66.8660    23.6870     2.2440 
  172.3750   -15.3300    58.0920   176.9900   160.9620    68.1700    23.6080     2.2410 
