~V
VERS. 2.00: Ver 2.00
~W
STRT.M 55.0000:
STOP.M 246.0000:
STEP.M 0.1250:
NULL. -999.2500:
UWI. DF33025:
~C
DEPT.M :
SP.MV :
GR.API :
CALI.CM :
RXO.OHMM :
RI. :
RML.OHMM :
DEN.GM/CC :
~A
# ...
   77.5000   -24.4370   115.8110    25.2100     6.3820     5.2170     7.3270     2.3160 
   77.6250   -25.2460   109.1170    25.2210     8.1250     5.8480     8.1540     2.2960 
   77.7500   -26.0500    98.7860    25.2630     9.2460     6.5260     9.0350     2.2600 
   77.8750   -26.8080    87.7080    25.2450     9.2640     7.1530     9.8380     2.2140 
   78.0000   -27.4990    77.6160    25.1460     8.9470     7.6320    10.4360     2.1730 
   78.1250   -28.0980    73.6170    24.9610     9.0170     7.8580    10.7040     2.1530 
   78.2500   -28.6180    74.8840    24.7870     9.4700     7.8760    10.7200     2.1540 
   78.3750   -29.0150    76.9520    24.7080     9.8300     7.7470    10.5820     2.1680 
   78.5000   -29.2740    76.4540    24.7920     9.8590     7.5500    10.3920     2.1840 
   78.6250   -29.4370    74.0900    24.6850     9.5870     7.3570    10.2380     2.1940 
   78.7500   -29.5540    73.2970    24.7480     9.4030     7.2220    10.1720     2.1960 
   78.8750   -29.6490    73.7880    24.9120     9.4320     7.1770    10.2250     2.1900 
   79.0000   -29.7190    73.4110    24.9110     9.6310     7.2150    10.3880     2.1780 
   79.1250   -29.7310    71.8870    24.6490     9.9020     7.2770    10.6090     2.1650 
   79.2500   -29.7280    70.3220    24.2900    10.1640     7.2970    10.7910     2.1580 
   79.3750   -29.7160    70.6280    24.1030    10.3490     7.2550    10.8730     2.1570 
   79.5000   -29.7010    73.7560    24.1010    10.3440     7.1630    10.8310     2.1580 
   79.6250   -29.6770    78.1080    24.3380    10.1180     7.0470    10.7020     2.1600 
   79.7500   -29.6610    78.9220    24.6840     9.8390     6.9590    10.5790     2.1620 
   79.8750   -29.6370    76.6600    24.8180     9.6380     6.9310    10.5270     2.1680 
   80.0000   -29.6150    75.7830    24.8590     9.5740     6.9700    10.5830     2.1750 
   80.1250   -29.6380    76.7630    24.8220     9.7620     7.0830    10.7700     2.1770 
   80.2500   -29.6610    76.9980    24.7040    10.0470     7.2440    11.0200     2.1730 
   80.3750   -29.6890    77.3090    24.4890    10.2240     7.4060    11.2420     2.1690 
   80.5000   -29.7130    78.4200    24.4750    10.2440     7.5000    11.3440     2.1690 
   80.6250   -29.7220    77.8280    24.3970    10.2050     7.4580    11.2500     2.1730 
   80.7500   -29.6980    74.9010    24.2130    10.1920     7.3180    11.0240     2.1760 
   80.8750   -29.6510    74.0300    24.0020    10.1710     7.1300    10.7540     2.1790 
   81.0000   -29.5850    76.2830    23.9880    10.0740     6.9530    10.5220     2.1840 
   81.1250   -29.4800    79.1480    24.1360     9.9200     6.8490    10.3820     2.1910 
   81.2500   -29.3290    79.5040    24.3870     9.7680     6.8050    10.2820     2.1940 
   81.3750   -29.1140    76.2380    24.4860     9.7520     6.7760    10.1530     2.1910 
   81.5000   -28.8350    72.1790    24.4940     9.8540     6.7440     9.9730     2.1870 
   81.6250   -28.4700    69.8600    24.4960     9.7960     6.7850     9.8730     2.1840 
   81.7500   -28.0360    69.1390    24.5200     9.6120     6.9910    10.0470     2.1760 
   81.8750   -27.5190    68.1890    24.5940     9.6960     7.4070    10.6100     2.1610 
   82.0000   -26.9250    67.7090    24.6980    10.8750     8.0000    11.5170     2.1500 
   82.1250   -26.2010    70.2830    24.7120    15.7190     8.5690    12.4350     2.1580 
   82.2500   -25.3850    73.1390    24.6580    21.6190     8.7790    12.7900     2.1840 
   82.3750   -24.4820    73.1280    24.6210    21.9570     8.4210    12.2030     2.2090 
   82.5000   -23.5030    70.7190    24.6250    15.8760     7.5630    10.7850     2.2210 
   82.6250   -22.4970    72.2070    24.6520     9.8780     6.5070     9.1010     2.2270 
   82.7500   -21.5420    80.6170    24.6850     7.3010     5.5830     7.7240     2.2460 
   82.8750   -20.6970    91.0790    24.7310     6.2080     4.9370     6.8530     2.2790 
   83.0000   -19.9590    97.9460    24.7530     5.9550     4.6380     6.5260     2.3120 
   83.1250   -19.4130    98.0380    24.7480     6.1100     4.7600     6.7800     2.3320 
   83.2500   -18.9950    96.0090    24.6780     6.4300     5.1970     7.4290     2.3460 
   83.3750   -18.7290    95.2950    24.8100     6.9180     5.8400     8.3120     2.3650 
   83.5000   -18.5930    94.8460    24.8200     7.7030     6.5130     9.1780     2.3970 
   83.6250   -18.5620    91.1680    24.5510     9.0020     6.9290     9.6170     2.4360 
   83.7500   -18.5650    86.8810    24.4380     9.3020     6.9540     9.4870     2.4600 
   83.8750   -18.5590    86.3220    24.5110     8.2290     6.6160     8.8980     2.4530 
   84.0000   -18.5560    90.8820    24.7000     6.8160     6.0670     8.1250     2.4180 
   84.1250   -18.5810    96.3980    24.8000     6.0590     5.4800     7.4420     2.3790 
   84.2500   -18.6960   100.6330    24.7750     5.8460     4.9640     6.9180     2.3520 
   84.3750   -18.9040   104.2320    24.7810     5.7160     4.5370     6.4930     2.3320 
   84.5000   -19.2390   106.9110    24.7820     5.5630     4.1960     6.0800     2.3160 
   84.6250   -19.7320   108.6240    24.7620     5.3910     4.0060     5.7540     2.3190 
   84.7500   -20.3530   109.1420    24.7250     5.3080     4.0780     5.7760     2.3450 
   84.8750   -21.1150   108.2340    24.7000     5.5040     4.5640     6.4330     2.3750 
   85.0000   -22.0450   105.2280    24.7310     6.6860     5.6000     7.9600     2.3970 
   85.1250   -23.0700    98.9880    24.7450    11.2350     7.3330    10.5900     2.4290 
   85.2500   -24.1500    89.7110    24.6400    20.1270     9.3680    13.6500     2.4840 
   85.3750   -25.2340    79.3460    24.6490    25.9900    10.9560    15.8030     2.5290 
   85.5000   -26.2790    71.8160    24.5610    22.4130    11.3110    15.7300     2.5140 
   85.6250   -27.2000    69.8190    24.6270    14.7150    10.3330    13.6480     2.4170 
   85.7500   -28.0020    69.2880    24.7710    11.0100     9.0390    11.4700     2.3000 
   85.8750   -28.6580    68.1520    24.7090    10.2960     7.9770     9.9860     2.2110 
   86.0000   -29.1340    67.9010    24.3320    10.5700     7.3330     9.3150     2.1670 
   86.1250   -29.4320    68.0110    24.1540    10.7630     7.0980     9.2990     2.1580 
   86.2500   -29.5700    67.8280    24.3970    10.5670     7.0390     9.4760     2.1600 
   86.3750   -29.5970    69.4160    24.7170    10.1570     7.0200     9.5930     2.1610 
   86.5000   -29.5300    71.9060    24.7170     9.8060     6.9760     9.5590     2.1570 
   86.6250   -29.4220    71.2640    24.3370     9.5670     6.8970     9.4180     2.1490 
   86.7500   -29.3100    69.7940    24.0420     9.3460     6.8220     9.2910     2.1400 
   86.8750   -29.2080    72.5110    23.9490     9.3420     6.7860     9.2470     2.1390 
   87.0000   -29.1280    78.7820    23.9310     9.8010     6.7970     9.3040     2.1470 
   87.1250   -29.0620    81.3580    24.1050    10.3000     6.8330     9.4320     2.1630 
   87.2500   -29.0420    81.2730    24.3070    10.3350     6.8620     9.5550     2.1800 
   87.3750   -29.0310    82.2950    24.4010    10.0660     6.8700     9.6310     2.1880 
   87.5000   -29.0480    83.5480    24.3850     9.8720     6.8490     9.6460     2.1830 
   87.6250   -29.0770    82.3440    24.3190     9.7790     6.8040     9.6250     2.1690 
   87.7500   -29.0970    79.5330    24.2920     9.7110     6.7680     9.6160     2.1560 
   87.8750   -29.0990    78.5250    24.2870     9.6340     6.7550     9.6340     2.1490 
   88.0000   -29.0910    77.4860    24.3390     9.5730     6.7470     9.6610     2.1450 
   88.1250   -29.0760    73.3730    24.4940     9.5550     6.7150     9.6520     2.1420 
   88.2500   -29.0360    69.9740    24.7010     9.5750     6.6520     9.5860     2.1400 
   88.3750   -29.0010    70.4580    24.7890     9.5010     6.5590     9.4790     2.1370 
   88.5000   -28.9440    73.9100    24.7600     9.3010     6.4540     9.3740     2.1310 
   88.6250   -28.8760    75.7160    24.5820     9.2070     6.3850     9.3400     2.1210 
