~V
VERS. 2.00: Ver 2.00
~W
STRT.M 60.0000:
STOP.M 235.0000:
STEP.M 0.1250:
NULL. -999.2500:
UWI. DF33014:
~C
DEPT.M :
SP.MV :
GR.API :
RML.OHMM :
RI. :
RXO.OHMM :
CALI.CM :
DEN.GM/CC :
~A
# ...
  217.5000   -14.2480    51.0750    10.6870     8.5940     9.2220    24.5850     2.4800 
  217.6250   -14.2040    50.8020    10.6980     8.5630     9.1400    24.5570     2.4670 
  217.7500   -14.1960    54.4950    10.7020     8.5330     9.2090    24.6240     2.4500 
  217.8750   -14.1430    59.6100    10.6800     8.4950     9.2800    24.7040     2.4380 
  218.0000   -14.1690    62.7080    10.6190     8.4430     9.1200    24.7690     2.4340 
  218.1250   -14.1270    62.3340    10.5260     8.3770     8.7420    24.6100     2.4380 
  218.2500   -14.1650    61.3830    10.4460     8.3240     8.4730    24.5250     2.4410 
  218.3750   -14.1810    61.4330    10.4270     8.3190     8.3630    24.5340     2.4410 
  218.5000   -14.2170    61.4620    10.5240     8.4030     8.3090    24.5530     2.4350 
  218.6250   -14.1510    60.9230    10.8100     8.6370     8.3970    24.4930     2.4300 
  218.7500   -14.1160    61.6400    11.2660     9.0100     8.7860    24.3910     2.4340 
  218.8750   -14.1220    63.3410    11.8430     9.4910     9.4270    24.2630     2.4520 
  219.0000   -14.0400    64.7630    12.4430    10.0150    10.0250    24.2060     2.4810 
  219.1250   -13.9940    63.1930    12.9110    10.4790    10.4130    24.2440     2.5100 
  219.2500   -14.0120    59.7600    13.1710    10.8090    10.8830    24.3120     2.5280 
  219.3750   -14.0440    57.2120    13.2230    10.9740    11.5630    24.3410     2.5300 
  219.5000   -13.9540    56.8240    13.1400    10.9960    12.4400    24.3340     2.5220 
  219.6250   -13.9280    59.5450    13.0340    10.9300    13.6300    24.3010     2.5150 
  219.7500   -13.9020    61.5340    12.9910    10.8600    14.5870    24.2380     2.5190 
  219.8750   -13.8940    61.0570    13.0340    10.8290    14.4150    24.1430     2.5340 
  220.0000   -13.9480    60.8340    13.1480    10.8480    13.6590    24.0200     2.5520 
  220.1250   -13.9110    65.2730    13.2990    10.9090    14.7450    23.9220     2.5630 
  220.2500   -13.7190    71.1800    13.4320    10.9760    17.8470    23.8370     2.5630 
  220.3750   -13.5400    72.2040    13.5060    11.0220    20.4470    23.7500     2.5530 
  220.5000   -13.4890    67.3460    13.4960    11.0320    21.4050    23.6860     2.5380 
  220.6250   -13.4510    61.5710    13.3910    10.9940    20.2630    23.6760     2.5250 
  220.7500   -13.3550    59.4550    13.2400    10.9290    16.6810    23.7610     2.5140 
  220.8750   -13.2180    59.9120    13.0870    10.8560    12.3020    23.8970     2.5070 
  221.0000   -13.1050    60.4910    12.9730    10.7930     9.7430    23.9720     2.5030 
  221.1250   -13.1080    61.3360    12.9200    10.7550     9.9140    24.0580     2.5020 
  221.2500   -13.2510    62.8270    12.8970    10.7340    10.3980    24.1330     2.5020 
  221.3750   -13.4490    63.8100    12.8650    10.7130    10.5130    24.2020     2.5030 
  221.5000   -13.5680    62.8000    12.7920    10.6740    10.6210    24.2330     2.5020 
  221.6250   -13.6150    63.5910    12.6610    10.6000    10.9360    24.2400     2.5020 
  221.7500   -13.7360    66.6150    12.5070    10.5030    11.3760    24.2690     2.5010 
  221.8750   -13.8750    67.3550    12.3670    10.4080    11.7150    24.3070     2.4970 
  222.0000   -14.0010    64.2290    12.2780    10.3450    11.7790    24.3280     2.4880 
  222.1250   -14.0970    61.8960    12.2650    10.3470    11.5010    24.3340     2.4770 
  222.2500   -14.1570    63.2320    12.3040    10.3980    11.1350    24.3380     2.4690 
  222.3750   -14.0880    65.2800    12.3630    10.4710    10.7410    24.3700     2.4670 
  222.5000   -14.0250    64.2880    12.3940    10.5200     9.9950    24.4650     2.4710 
  222.6250   -14.0300    61.7920    12.3280    10.4810     8.6590    24.5860     2.4780 
  222.7500   -13.9850    61.7880    12.1400    10.3330     7.4080    24.5110     2.4860 
  222.8750   -13.9550    63.3900    11.8330    10.0720     6.6770    24.3480     2.4960 
  223.0000   -13.9880    63.5030    11.4450     9.7230     6.3920    24.2570     2.5060 
  223.1250   -14.0660    58.9800    11.0450     9.3340     6.2180    24.2480     2.5150 
  223.2500   -14.1100    54.8460    10.7050     8.9760     6.0900    24.2480     2.5200 
  223.3750   -14.2600    54.6010    10.4630     8.6940     6.1710    24.2480     2.5200 
  223.5000   -14.4760    57.2980    10.3380     8.5170     6.4510    24.2410     2.5160 
  223.6250   -14.7070    59.8400    10.3510     8.4730     6.8010    24.2200     2.5100 
  223.7500   -14.9400    61.3320    10.4720     8.5350     7.0570    24.2010     2.5020 
  223.8750   -15.1640    62.7500    10.6800     8.6850     7.1220    24.2180     2.4940 
  224.0000   -15.3300    62.9400    10.9420     8.8980     7.0350    24.2390     2.4900 
  224.1250   -15.4650    60.6300    11.2220     9.1450     7.0170    24.2480     2.4910 
  224.2500   -15.6110    58.8720    11.4810     9.3890     7.1620    24.2480     2.4990 
  224.3750   -15.7390    58.7280    11.6930     9.6020     7.3500    24.2480     2.5110 
  224.5000   -15.8490    58.5120    11.8370     9.7600     7.6110    24.2480     2.5250 
  224.6250   -15.9530    57.1990    11.8970     9.8430     8.0900    24.2520     2.5380 
  224.7500   -16.0650    57.5660    11.8990     9.8660     8.3780    24.2690     2.5490 
  224.8750   -16.1460    58.2050    11.8700     9.8480     8.1500    24.3030     2.5580 
  225.0000   -16.1840    58.2050    11.8370     9.8120     7.8120    24.3190     2.5630 
  225.1250   -16.1990    58.2050    11.8240     9.7830     8.0580    24.2980     2.5640 
  225.2500   -16.1990    58.2050    11.8400     9.7780     8.6950    24.2390     2.5620 
  225.3750   -16.1810    58.2050    11.8900     9.8040     9.3830    24.1530     2.5570 
  225.5000   -16.1660    58.2050    11.9750     9.8650     9.9590    24.0490     2.5520 
  225.6250   -16.1730    58.2050    12.0950     9.9600    10.2520    23.9930     2.5490 
  225.7500   -16.1780    58.2050    12.2290    10.0730    10.6060    23.9710     2.5480 
  225.8750   -16.2230    58.2050    12.3590    10.1880    11.2000    23.9490     2.5490 
  226.0000   -16.3240    58.2050    12.4620    10.2890    11.4180    23.9020     2.5540 
  226.1250   -16.4340    58.2050    12.5000    10.3490    10.5660    23.8870     2.5610 
  226.2500   -16.5680    58.2050    12.4600    10.3560     9.7100    23.8880     2.5680 
  226.3750   -16.7940    58.2050    12.3370    10.3050     9.6420    23.8930     2.5730 
  226.5000   -17.1230    58.2050    12.1490    10.2050    10.0990    23.8960     2.5750 
  226.6250   -17.4660    58.2050    11.9400    10.0810    10.3370    23.8960     2.5730 
  226.7500   -17.8010    58.2050    11.7680     9.9750    10.2860    23.8970     2.5700 
  226.8750   -18.1350    58.2050    11.6730     9.9140    10.5770    23.8970     2.5670 
  227.0000   -18.4780    58.2050    11.6640     9.9090    11.7020    23.9000     2.5650 
  227.1250   -18.8040    58.2050    11.7210     9.9460    13.0960    23.9040     2.5610 
  227.2500   -19.0610    58.2050    11.7730     9.9700    13.4450    23.9110     2.5530 
  227.3750   -19.2070    58.2050    11.7620     9.9300    12.3280    23.9160     2.5360 
  227.5000   -19.2160    58.2050    11.6510     9.7850    10.4080    23.8760     2.5120 
  227.6250   -19.2010    58.2050    11.4190     9.5090     8.6050    23.8020     2.4840 
  227.7500   -19.2220    58.2050    11.1200     9.1520     7.2670    23.6660     2.4590 
  227.8750   -19.2660    58.2050    10.8010     8.7670     6.5600    23.5010     2.4420 
  228.0000   -19.3320    58.2050    10.5080     8.4110     6.4790    23.3230     2.4370 
  228.1250   -19.4720    58.2050    10.2950     8.1520     7.0150    23.2230     2.4440 
  228.2500   -19.7010    58.2050    10.1770     8.0150     8.2550    23.1820     2.4570 
  228.3750   -19.9800    58.2050    10.1770     8.0220    11.7130    23.2750     2.4710 
  228.5000   -20.3200    58.2050    10.3250     8.1900    17.7780    23.5410     2.4850 
  228.6250   -20.6790    58.2050    10.6980     8.5720    21.3210    23.6080     2.5020 
