~V
VERS. 2.00: Ver 2.00
~W
STRT.M 55.0000:
STOP.M 272.0000:
STEP.M 0.1250:
NULL. -999.2500:
UWI. DF33042:
~C
DEPT.M :
SP.MV :
GR.API :
RML.OHMM :
RI. :
RXO.OHMM :
CALI.CM :
DEN.GM/CC :
~A
# ...
  212.5000   -26.2210    54.0320   111.3780    96.1790    75.1390    24.1600     2.2460 
  212.6250   -26.1740    56.6480   112.4230    96.6920    73.9420    24.1800     2.2160 
  212.7500   -26.1360    59.4190   113.9480    97.5360    73.5550    24.1510     2.2010 
  212.8750   -26.0700    60.2100   115.4180    98.4720    74.7030    24.1170     2.2000 
  213.0000   -26.0080    59.4140   116.2580    99.1840    75.6290    24.1350     2.2070 
  213.1250   -25.9410    58.6040   116.0440    99.4330    74.9510    24.2550     2.2120 
  213.2500   -25.9020    58.6240   115.2240    99.4120    74.8710    24.3580     2.2090 
  213.3750   -25.8720    58.7380   114.2790    99.3380    78.7260    24.3980     2.1950 
  213.5000   -25.8020    57.1930   113.3940    99.2260    77.6790    24.4020     2.1730 
  213.6250   -25.7600    53.9640   112.1100    98.6200    68.9370    24.4020     2.1520 
  213.7500   -25.7020    52.7450   109.8570    97.0720    63.6440    24.4020     2.1400 
  213.8750   -25.6540    55.8600   106.4250    94.4010    65.0800    24.4020     2.1460 
  214.0000   -25.5840    60.7990   102.1870    90.8970    69.4480    24.4020     2.1700 
  214.1250   -25.4880    60.9710    98.2270    87.4240    68.7720    24.4100     2.2050 
  214.2500   -25.3920    58.5210    95.6830    84.9900    63.7050    24.3860     2.2330 
  214.3750   -25.2780    56.7450    95.2780    84.2550    62.1270    24.2520     2.2440 
  214.5000   -25.1820    55.2450    97.2270    85.4890    69.6540    23.9700     2.2370 
  214.6250   -25.0350    53.8960   101.3180    88.6840    75.7390    23.8300     2.2130 
  214.7500   -24.9020    55.9850   106.0430    92.6830    75.4700    23.7860     2.1860 
  214.8750   -24.7280    59.7280   110.0280    96.3740    78.0630    23.7890     2.1620 
  215.0000   -24.5370    59.8640   112.0180    98.6660    91.6490    23.8160     2.1470 
  215.1250   -24.3550    55.9130   110.8630    98.4710   105.3950    23.9640     2.1410 
  215.2500   -24.1860    55.0600   107.3650    96.2370   103.0440    24.2240     2.1410 
  215.3750   -24.0540    57.4330   102.6350    92.7240    89.5630    24.4720     2.1420 
  215.5000   -23.8970    59.2740    98.0440    88.9900    79.2890    24.5820     2.1420 
  215.6250   -23.8260    58.5680    94.9910    86.2310    78.7130    24.5640     2.1440 
  215.7500   -23.7700    56.7960    93.5920    84.7970    78.6770    24.5120     2.1480 
  215.8750   -23.7820    54.9690    93.3970    84.5150    77.2610    24.4800     2.1550 
  216.0000   -23.8560    53.2730    93.5480    84.7950    75.9060    24.4700     2.1650 
  216.1250   -23.9600    53.2020    92.8640    84.6680    76.3290    24.4700     2.1750 
  216.2500   -24.0360    55.2170    90.6970    83.3670    75.2260    24.4700     2.1840 
  216.3750   -24.1080    58.4040    86.8340    80.4990    73.3150    24.4700     2.1870 
  216.5000   -24.2230    60.7940    81.5430    76.1170    72.4160    24.4700     2.1860 
  216.6250   -24.2850    61.1200    75.6140    70.7900    66.3250    24.4600     2.1830 
  216.7500   -24.3430    61.2460    70.3790    65.8140    58.6890    24.4360     2.1850 
  216.8750   -24.3600    63.0770    66.8130    62.1830    53.5520    24.4120     2.1990 
  217.0000   -24.3400    65.8750    65.4280    60.4750    50.4730    24.3950     2.2290 
  217.1250   -24.2890    65.9910    66.4230    60.9740    51.7230    24.3330     2.2690 
  217.2500   -24.2740    63.8630    68.6870    62.7550    71.8800    24.1580     2.2980 
  217.3750   -24.2680    62.1920    71.2250    64.9860    95.7600    23.8990     2.3040 
  217.5000   -24.2500    62.9840    73.1500    66.8640    77.0070    23.7130     2.2820 
  217.6250   -24.2550    64.6560    73.8980    67.8040    61.6220    23.6530     2.2450 
  217.7500   -24.2050    65.3220    73.9910    68.1140    57.6460    23.6390     2.2150 
  217.8750   -24.1730    64.5710    74.0940    68.3020    58.5210    23.6300     2.2020 
  218.0000   -24.1360    62.0810    74.7720    68.8640    60.7130    23.6290     2.2030 
  218.1250   -24.1180    58.8210    76.3270    70.1020    62.5380    23.6300     2.2080 
  218.2500   -24.0720    56.6690    78.3530    71.7040    63.7100    23.6310     2.2080 
  218.3750   -24.0270    56.3680    80.4370    73.3170    66.3550    23.6400     2.2030 
  218.5000   -24.0030    57.4570    82.2380    74.6710    68.3820    23.6670     2.1950 
  218.6250   -24.0120    58.4360    83.4420    75.5740    67.9780    23.7200     2.1900 
  218.7500   -24.0950    58.9610    84.0730    76.0910    69.5150    23.7770     2.1900 
  218.8750   -24.1910    59.6260    84.2420    76.3130    72.1720    23.8330     2.1930 
  219.0000   -24.3460    60.4210    84.1820    76.3900    72.4620    23.8860     2.1960 
  219.1250   -24.5160    59.5700    84.2330    76.5290    70.0320    23.9650     2.2000 
  219.2500   -24.7370    56.4190    84.6260    76.8820    67.7950    24.0360     2.2040 
  219.3750   -24.9860    53.2790    85.4090    77.4820    67.4640    24.0610     2.2110 
  219.5000   -25.2690    51.3780    86.4310    78.2300    68.6780    24.0350     2.2180 
  219.6250   -25.5450    51.0480    87.3190    78.8680    69.1410    23.9770     2.2240 
  219.7500   -25.8430    53.3530    87.7770    79.1760    67.1950    23.8940     2.2300 
  219.8750   -26.1640    58.7310    87.8190    79.1340    60.3220    23.7470     2.2360 
  220.0000   -26.5090    64.2650    87.8900    79.0550    49.7470    23.4860     2.2460 
  220.1250   -26.9310    65.1430    89.1900    79.9080    45.5670    23.3340     2.2630 
  220.2500   -27.3770    62.4220    92.7830    82.6770    45.7980    23.3030     2.2790 
  220.3750   -27.8540    58.7460    99.5550    88.2350    49.9970    23.3920     2.2820 
  220.5000   -28.3660    55.5330   109.8630    96.9740    58.7920    23.5570     2.2600 
  220.6250   -28.8440    55.3090   123.5150   108.7260    74.7520    23.6630     2.2070 
  220.7500   -29.3040    56.9290   138.0990   121.2550    82.5090    23.6360     2.1490 
  220.8750   -29.7270    57.7610   151.1460   132.3190    83.2460    23.5040     2.1130 
  221.0000   -30.1070    56.6670   160.3760   139.9510    82.9020    23.4110     2.1160 
  221.1250   -30.3600    54.7770   164.1000   142.7910    82.7750    23.3800     2.1600 
  221.2500   -30.5440    55.6250   164.5400   142.7960    81.9270    23.3450     2.2100 
  221.3750   -30.6310    59.7430   164.1190   142.0210    78.8410    23.3070     2.2380 
  221.5000   -30.5900    64.0790   164.7910   142.1770    74.0280    23.3080     2.2340 
  221.6250   -30.4870    63.5610   167.3040   144.0220    80.0680    23.4280     2.2110 
  221.7500   -30.3290    59.2710   170.3180   146.4190    95.9690    23.5790     2.1960 
  221.8750   -30.1020    55.9270   172.3720   148.0700   112.9450    23.5900     2.2000 
  222.0000   -29.7980    55.4990   172.4210   148.0390   113.5840    23.3990     2.2220 
  222.1250   -29.4710    56.0940   170.3020   146.1190    99.1110    23.2120     2.2600 
  222.2500   -29.0760    55.7910   167.7520   143.7180    83.6710    23.2340     2.3000 
  222.3750   -28.6490    55.6690   166.3120   142.1700    77.4100    23.5130     2.3260 
  222.5000   -28.2070    55.8320   166.9320   142.4050    85.3420    23.8840     2.3310 
  222.6250   -27.7900    55.9950   169.7780   144.7160   105.5490    24.1180     2.3120 
  222.7500   -27.3560    56.7300   173.4020   147.8340   112.8730    24.2550     2.2870 
  222.8750   -26.9530    60.3060   176.4890   150.5570   112.8080    24.3430     2.2660 
  223.0000   -26.5900    64.8330   177.9130   151.8630   122.9700    24.4320     2.2570 
  223.1250   -26.2430    64.2200   176.6470   150.9000   137.0780    24.4800     2.2550 
  223.2500   -25.9590    60.7490   173.2100   148.1680   138.9440    24.5030     2.2490 
  223.3750   -25.7220    59.1450   168.2410   144.2150   129.3070    24.4940     2.2360 
  223.5000   -25.5180    60.2880   162.4970   139.6290   118.9140    24.4930     2.2170 
  223.6250   -25.3180    59.4560   156.6820   134.8880   118.2620    24.5140     2.2020 
