~V
VERS. 2.00: Ver 2.00
~W
STRT.M 63.0000:
STOP.M 272.0000:
STEP.M 0.1250:
NULL. -999.2500:
UWI. DF33040:
~C
DEPT.M :
SP.MV :
GR.API :
CALI.CM :
RXO.OHMM :
RI. :
RML.OHMM :
DEN.GM/CC :
~A
# ...
  254.2500   -11.3060    65.9360    23.3460     6.5230     6.0550     7.9110     2.3760 
  254.3750   -11.3650    62.5960    23.4520     6.6310     6.1010     8.0250     2.4110 
  254.5000   -11.4150    61.2760    23.6360     6.7050     6.1750     8.1780     2.4440 
  254.6250   -11.4450    63.5950    23.8490     6.8180     6.2550     8.3240     2.4520 
  254.7500   -11.4360    65.1360    23.9970     6.8780     6.3220     8.4210     2.4290 
  254.8750   -11.3880    64.0430    24.0520     6.7960     6.3640     8.4490     2.3890 
  255.0000   -11.3080    61.4330    24.0520     6.6800     6.3800     8.4150     2.3580 
  255.1250   -11.2050    60.8520    24.0730     6.7330     6.3720     8.3430     2.3580 
  255.2500   -11.0990    60.1620    24.1560     6.8690     6.3510     8.2640     2.3800 
  255.3750   -10.9890    58.2400    24.2710     6.9570     6.3220     8.1920     2.4060 
  255.5000   -10.8680    56.6950    24.3540     6.9700     6.2920     8.1350     2.4250 
  255.6250   -10.7570    57.1120    24.3710     6.9400     6.2700     8.0980     2.4310 
  255.7500   -10.6540    58.5310    24.3680     6.9170     6.2580     8.0750     2.4310 
  255.8750   -10.5620    58.8680    24.3660     6.9510     6.2510     8.0630     2.4310 
  256.0000   -10.4790    58.7210    24.3640     6.9870     6.2450     8.0540     2.4320 
  256.1250   -10.4100    60.4760    24.3640     6.8590     6.2420     8.0520     2.4340 
  256.2500   -10.3410    62.6830    24.3650     6.6330     6.2600     8.0850     2.4410 
  256.3750   -10.2780    63.7820    24.3670     6.5380     6.3200     8.1820     2.4600 
  256.5000   -10.2320    62.2960    24.3670     6.6670     6.4340     8.3570     2.4910 
  256.6250   -10.1890    59.7180    24.3670     6.8400     6.6060     8.6030     2.5170 
  256.7500   -10.1420    58.7450    24.3670     6.9060     6.8070     8.8740     2.5290 
  256.8750   -10.0920    60.7270    24.3670     7.0360     7.0160     9.1400     2.5290 
  257.0000   -10.0480    63.7110    24.3670     7.5020     7.2160     9.3890     2.5240 
  257.1250    -9.9940    63.6060    24.3680     8.2860     7.3990     9.6230     2.5230 
  257.2500    -9.9350    61.6050    24.3630     8.8540     7.5680     9.8480     2.5200 
  257.3750    -9.8760    60.3890    24.3450     8.9400     7.7180    10.0460     2.5120 
  257.5000    -9.8000    60.7710    24.3170     8.7470     7.8320    10.1780     2.4990 
  257.6250    -9.6990    60.9720    24.2970     8.7070     7.8710    10.1920     2.4920 
  257.7500    -9.6020    61.5640    24.3030     8.7980     7.8400    10.1110     2.4960 
  257.8750    -9.5110    63.1820    24.3270     8.7380     7.7590     9.9780     2.5060 
  258.0000    -9.4250    64.6400    24.3530     8.3930     7.6620     9.8470     2.5100 
  258.1250    -9.3590    64.3170    24.3640     7.9660     7.5840     9.7650     2.4920 
  258.2500    -9.3090    63.0470    24.3650     7.7290     7.5320     9.7230     2.4650 
  258.3750    -9.2730    61.9470    24.3570     7.6920     7.4960     9.6890     2.4450 
  258.5000    -9.2580    62.4010    24.3470     7.7130     7.4650     9.6400     2.4410 
  258.6250    -9.2730    64.5420    24.3480     7.6890     7.4420     9.5860     2.4430 
  258.7500    -9.3090    65.5300    24.3580     7.6870     7.4450     9.5710     2.4480 
  258.8750    -9.3550    65.1730    24.3660     7.8250     7.4950     9.6390     2.4600 
  259.0000    -9.4120    64.2300    24.3670     8.0990     7.6120     9.8130     2.4770 
  259.1250    -9.4800    63.4160    24.3670     8.2400     7.8010    10.0880     2.4860 
  259.2500    -9.5440    62.6260    24.3670     8.0770     8.0230    10.3920     2.4850 
  259.3750    -9.6120    63.6950    24.3670     7.7960     8.2380    10.6670     2.4820 
  259.5000    -9.6890    66.9160    24.3660     7.7510     8.4110    10.8700     2.4880 
  259.6250    -9.7940    68.5700    24.3680     8.0400     8.5160    10.9630     2.4970 
  259.7500    -9.9240    66.9370    24.3640     8.2730     8.5780    10.9840     2.4930 
  259.8750   -10.0900    63.6390    24.3460     8.2410     8.6230    10.9790     2.4800 
  260.0000   -10.2700    62.6960    24.3180     8.0730     8.6730    10.9940     2.4720 
  260.1250   -10.4530    62.6960    24.2980     8.0380     8.7380    11.0600     2.4790 
  260.2500   -10.6330    62.6960    24.3010     8.0800     8.8050    11.1500     2.4910 
  260.3750   -10.7880    62.6960    24.3180     8.0200     8.8590    11.2060     2.4960 
  260.5000   -10.9060    62.6960    24.3150     7.8300     8.8930    11.1900     2.4910 
  260.6250   -10.9630    62.6960    24.2750     7.6430     8.9140    11.1280     2.4850 
  260.7500   -10.9730    62.6960    24.2300     7.5250     8.9460    11.1100     2.4820 
  260.8750   -10.9310    62.6960    24.2100     7.4660     9.0110    11.2030     2.4800 
  261.0000   -10.8550    62.6960    24.2090     7.4880     9.1270    11.4260     2.4770 
  261.1250   -10.7550    62.6960    24.2130     7.6230     9.3060    11.7250     2.4770 
  261.2500   -10.6350    62.6960    24.2040     7.7740     9.5070    11.9640     2.4840 
  261.3750   -10.5120    62.6960    24.1650     7.8600     9.6790    12.0350     2.4970 
  261.5000   -10.3810    62.6960    24.1040     7.9010     9.7640    11.9000     2.5120 
  261.6250   -10.2410    62.6960    24.0620     7.9770     9.7160    11.6010     2.5170 
  261.7500   -10.0930    62.6960    24.0520     8.0590     9.5760    11.2830     2.5070 
  261.8750    -9.9380    62.6960    24.0510     8.0630     9.3910    11.0390     2.4890 
  262.0000    -9.7880    62.6960    24.0450     7.9730     9.2120    10.9020     2.4790 
  262.1250    -9.6550    62.6960    24.0420     7.8860     9.0820    10.8610     2.4850 
  262.2500    -9.5590    62.6960    24.0330     7.9350     9.0120    10.8610     2.4920 
  262.3750    -9.4920    62.6960    24.0130     8.1510     9.0020    10.8900     2.4910 
  262.5000    -9.4550    62.6960    23.9890     8.3830     9.0460    10.9500     2.4830 
  262.6250    -9.4520    62.6960    23.9640     8.2930     9.1360    11.0460     2.4830 
  262.7500    -9.4670    62.6960    23.9360     7.8920     9.2450    11.1590     2.4940 
  262.8750    -9.4950    62.6960    23.9100     7.4730     9.3480    11.2660     2.5090 
  263.0000    -9.5190    62.6960    23.8910     7.3400     9.4190    11.3350     2.5200 
  263.1250    -9.5200    62.6960    23.8580     7.5830     9.4250    11.3140     2.5220 
  263.2500    -9.4930    62.6960    23.8170     7.9370     9.3690    11.2120     2.5180 
  263.3750    -9.4410    62.6960    23.7710     8.3060     9.2720    11.0610     2.5120 
  263.5000    -9.3820    62.6960    23.6780     8.8410     9.1610    10.9090     2.5080 
  263.6250    -9.3150    62.6960    23.5600     9.8250     9.0680    10.8010     2.5120 
  263.7500    -9.2280    62.6960    23.5490    11.0710     9.0040    10.7420     2.5190 
  263.8750    -9.1230    62.6960    23.6790    12.2180     8.9700    10.7180     2.5190 
  264.0000    -9.0110    62.6960    23.8320    13.0430     8.9590    10.7040     2.5070 
  264.1250    -8.9000    62.6960    23.8790    13.5530     8.9620    10.6810     2.4940 
  264.2500    -8.8030    62.6960    23.8610    13.9230     8.9690    10.6450     2.4900 
  264.3750    -8.7360    62.6960    23.8390    14.1640     8.9770    10.6080     2.4960 
  264.5000    -8.6820    62.6960    23.8290    14.2680     8.9810    10.5730     2.5130 
  264.6250    -8.6450    62.6960    23.8290    14.3220     8.9810    10.5500     2.5280 
  264.7500    -8.6480    62.6960    23.8280    14.4450     8.9770    10.5530     2.5300 
  264.8750    -8.6720    62.6960    23.8230    14.5750     8.9730    10.5910     2.5190 
  265.0000    -8.6900    62.6960    23.8200    14.7080     8.9710    10.6650     2.5110 
  265.1250    -8.6990    62.6960    23.8230    15.0860     8.9730    10.7830     2.5210 
  265.2500    -8.6900    62.6960    23.8300    15.4890     8.9780    10.9060     2.5340 
  265.3750    -8.6590    62.6960    23.8260    15.2360     8.9820    10.9860     2.5350 
