~V
VERS. 2.00: Ver 2.00
~W
STRT.M 60.0000:
STOP.M 233.0000:
STEP.M 0.1250:
NULL. -999.2500:
UWI. DF33019:
~C
DEPT.M :
GR.API :
RML.OHMM :
RI. :
RXO.OHMM :
CALI.CM :
DEN.GM/CC :
SP.MV :
~A
# ...
  217.5000    91.6030     9.8780     9.0670     8.7770    23.6670     2.3830   -21.4660 
  217.6250    93.6530     9.9080     8.9910     8.7990    23.6730     2.3830   -21.5150 
  217.7500    93.4370     9.9680     8.8920     8.7390    23.7070     2.3840   -21.5820 
  217.8750    90.6040    10.0520     8.7760     8.6650    23.7750     2.3860   -21.6260 
  218.0000    89.8550    10.1370     8.6440     8.6520    23.8070     2.3880   -21.6740 
  218.1250    92.4180    10.1780     8.4880     8.6580    23.8630     2.3910   -21.6950 
  218.2500    94.7590    10.1510     8.3110     8.6170    23.9000     2.3950   -21.7410 
  218.3750    96.6650    10.0600     8.1280     8.5330    23.9370     2.3990   -21.7680 
  218.5000    99.7320     9.9620     7.9820     8.4110    23.9960     2.4030   -21.7530 
  218.6250   102.3210    10.0440     8.0090     8.3980    24.0420     2.4020   -21.6890 
  218.7500   104.0640    10.5310     8.3620     8.6110    24.1260     2.3950   -21.6030 
  218.8750   108.8270    11.6350     9.2110     9.0280    24.1790     2.3810   -21.4540 
  219.0000   117.2410    13.4650    10.6540     9.8590    24.2070     2.3640   -21.2950 
  219.1250   118.2170    16.0030    12.6540    12.9480    24.2590     2.3520   -21.0240 
  219.2500   105.6640    18.4300    14.7060    21.5200    24.2720     2.3530   -20.6970 
  219.3750    88.2810    19.9880    16.2290    31.8050    24.3110     2.3730   -20.2970 
  219.5000    78.7380    19.6620    16.6730    32.5280    24.3300     2.4060   -19.8790 
  219.6250    81.7630    17.3710    15.6200    24.4150    24.3380     2.4410   -19.4080 
  219.7500    88.5150    13.7760    13.6780    17.0410    24.3640     2.4650   -18.9120 
  219.8750    96.3930    10.0890    11.4530    13.1580    24.3050     2.4760   -18.4200 
  220.0000   104.6540     8.1010     9.4260    10.5690    24.2790     2.4750   -17.9200 
  220.1250   109.4080     6.9940     7.9040     8.2800    24.2790     2.4630   -17.4820 
  220.2500   108.1940     6.2870     6.8320     6.7750    24.2790     2.4430   -17.0710 
  220.3750   102.9960     5.9090     6.1530     5.7680    24.2790     2.4170   -16.7300 
  220.5000    95.8610     5.7820     5.7870     5.5060    24.2790     2.3910   -16.4000 
  220.6250    90.9450     5.8330     5.6660     6.1510    24.2790     2.3730   -16.1730 
  220.7500    91.7040     5.9330     5.6500     6.6210    24.2790     2.3620   -15.9790 
  220.8750    95.3480     6.0090     5.6590     6.5790    24.2790     2.3550   -15.8400 
  221.0000    96.4300     6.0310     5.6480     6.6010    24.2790     2.3480   -15.6980 
  221.1250    93.6630     6.0100     5.6050     6.4410    24.2790     2.3380   -15.6130 
  221.2500    92.6310     5.9920     5.5600     6.0860    24.2790     2.3250   -15.5000 
  221.3750    94.0200     6.0040     5.5350     5.7640    24.2790     2.3120   -15.4460 
  221.5000    94.4110     6.0510     5.5410     5.7430    24.2790     2.3020   -15.3500 
  221.6250    92.6270     6.1170     5.5700     5.7110    24.2700     2.2990   -15.3010 
  221.7500    92.5920     6.1820     5.6010     5.6380    24.2470     2.3020   -15.2500 
  221.8750    94.7070     6.2320     5.6190     4.9770    24.2210     2.3120   -15.1200 
  222.0000    95.4930     6.2610     5.6170     4.4370    24.2060     2.3270   -14.9660 
  222.1250    91.7370     6.2640     5.5870     4.3760    24.2070     2.3430   -14.8030 
  222.2500    88.6110     6.2470     5.5360     4.4950    24.2180     2.3550   -14.6670 
  222.3750    89.0200     6.2190     5.4730     4.6770    24.2480     2.3600   -14.5130 
  222.5000    90.3440     6.1900     5.4060     4.7710    24.2710     2.3580   -14.4710 
  222.6250    88.9910     6.1690     5.3460     4.6540    24.2790     2.3460   -14.3980 
  222.7500    88.9910     6.1610     5.2990     4.5310    24.2780     2.3300   -14.2820 
  222.8750    88.9910     6.1640     5.2670     4.5040    24.2710     2.3140   -14.2350 
  223.0000    88.9910     6.1750     5.2480     4.5900    24.2460     2.3010   -14.1660 
  223.1250    88.9910     6.1880     5.2380     4.7000    24.1950     2.2980   -14.1650 
  223.2500    88.9910     6.1980     5.2310     4.7120    24.1570     2.3040   -14.1600 
  223.3750    88.9910     6.2100     5.2260     4.7000    24.1430     2.3150   -14.0590 
  223.5000    88.9910     6.2270     5.2260     4.7700    24.1420     2.3250   -13.8550 
  223.6250    88.9910     6.2570     5.2330     4.8420    24.1380     2.3280   -13.6020 
  223.7500    88.9910     6.3000     5.2450     4.8620    24.0990     2.3250   -13.4090 
  223.8750    88.9910     6.3490     5.2580     4.9070    24.0630     2.3180   -13.2720 
  224.0000    88.9910     6.3930     5.2660     5.1580    24.0070     2.3130   -13.2750 
  224.1250    88.9910     6.4120     5.2570     5.5700    23.9810     2.3140   -13.2720 
  224.2500    88.9910     6.3990     5.2300     5.6820    23.9400     2.3220   -13.2510 
  224.3750    88.9910     6.3560     5.1880     5.4440    23.9370     2.3340   -13.2800 
  224.5000    88.9910     6.3020     5.1430     5.0760    23.9440     2.3480   -13.2870 
  224.6250    88.9910     6.2770     5.1230     4.8490    23.9960     2.3560   -13.4000 
  224.7500    88.9910     6.3110     5.1440     4.7360    24.0350     2.3580   -13.5620 
  224.8750    88.9910     6.4140     5.2160     4.9010    24.0840     2.3570   -13.6600 
  225.0000    88.9910     6.5710     5.3310     5.5130    24.2030     2.3600   -13.6050 
  225.1250    88.9910     6.7380     5.4660     6.2780    24.3440     2.3750   -13.4660 
  225.2500    88.9910     6.8660     5.5850     5.9630    24.4630     2.3990   -13.3760 
  225.3750    88.9910     6.9250     5.6620     5.3440    24.5640     2.4270   -13.3730 
  225.5000    88.9910     6.9190     5.6910     5.2230    24.5860     2.4480   -13.4640 
  225.6250    88.9910     6.8740     5.6820     5.1000    24.5410     2.4550   -13.5130 
  225.7500    88.9910     6.8450     5.6750     5.2400    24.5260     2.4470   -13.4890 
  225.8750    88.9910     6.8640     5.6950     5.5920    24.4800     2.4320   -13.4230 
  226.0000    88.9910     6.9390     5.7560     5.7270    24.4110     2.4140   -13.4030 
  226.1250    88.9910     7.0540     5.8540     5.8180    24.3690     2.4000   -13.4960 
  226.2500    88.9910     7.1640     5.9610     6.1510    24.2650     2.3900   -13.5650 
  226.3750    88.9910     7.2410     6.0560     6.4390    24.1550     2.3850   -13.6060 
  226.5000    88.9910     7.2760     6.1260     6.4850    24.0670     2.3820   -13.6780 
  226.6250    88.9910     7.2740     6.1620     6.1390    23.9890     2.3810   -13.6720 
  226.7500    88.9910     7.2610     6.1770     6.4310    23.9400     2.3830   -13.6020 
  226.8750    88.9910     7.2500     6.1820     7.0740    23.9250     2.3850   -13.6320 
  227.0000    88.9910     7.2470     6.1830     7.7310    23.8770     2.3890   -13.7020 
  227.1250    88.9910     7.2480     6.1850     8.1020    23.8680     2.3930   -13.6320 
  227.2500    88.9910     7.2490     6.1860     8.1500    23.8600     2.3980   -13.5470 
  227.3750    88.9910     7.2470     6.1870     8.1850    23.8220     2.4030   -13.3610 
  227.5000    88.9910     7.2420     6.1870     8.3090    23.7940     2.4070   -13.0980 
  227.6250    88.9910     7.2340     6.1850     8.3130    23.7980     2.4070   -12.9460 
  227.7500    88.9910     7.2270     6.1830     8.1560    23.8000     2.4020   -12.9550 
  227.8750    88.9910     7.2190     6.1820     7.8430    23.8020     2.3920   -12.9000 
  228.0000    88.9910     7.2140     6.1800     7.6590    23.8090     2.3790   -12.7870 
  228.1250    88.9910     7.2120     6.1800     7.8370    23.8200     2.3660   -12.7900 
  228.2500    88.9910     7.2120     6.1810     8.0370    23.8190     2.3550   -12.9000 
  228.3750    88.9910     7.2140     6.1810     8.1260    23.8070     2.3490   -13.0780 
  228.5000    88.9910     7.2160     6.1820     8.1100    23.7950     2.3460   -13.2630 
  228.6250    88.9910     7.2170     6.1820     8.1740    23.7910     2.3480   -13.4060 
