~V
VERS. 2.00: Ver 2.00
~W
STRT.M 60.0000:
STOP.M 236.0000:
STEP.M 0.1250:
NULL. -999.2500:
UWI. DF33015:
~C
DEPT.M :
DEN.GM/CC :
GR.API :
RML.OHMM :
RI. :
RXO.OHMM :
CALI.CM :
SP.MV :
~A
# ...
  172.5000     2.2280    64.9750   122.4620   110.8730    82.2860    23.3500   -25.8070 
  172.6250     2.2240    62.2150   121.2270   110.4480    87.5470    23.3210   -26.0650 
  172.7500     2.2250    63.6420   118.2250   108.2550    88.4560    23.3450   -26.2410 
  172.8750     2.2300    67.4210   114.1990   104.9530    86.6990    23.5140   -26.4660 
  173.0000     2.2370    69.1940   110.0560   101.3540    84.0040    23.9010   -26.5950 
  173.1250     2.2420    67.8190   107.2280    98.7840    81.1730    24.3290   -26.7590 
  173.2500     2.2430    65.4070   106.5270    98.1310    79.6870    24.4770   -26.8910 
  173.3750     2.2420    62.9290   108.2200    99.7880    80.4290    24.4400   -27.1270 
  173.5000     2.2380    60.2980   111.8170   103.4430    83.7570    24.3550   -27.3510 
  173.6250     2.2340    59.1140   115.8720   107.9100    91.7390    24.3380   -27.6200 
  173.7500     2.2280    59.6420   118.2570   111.1330   103.2320    24.3690   -27.8210 
  173.8750     2.2220    61.0040   117.3740   111.4630   111.2550    24.4000   -28.1100 
  174.0000     2.2170    63.1700   112.5560   107.9870   105.9090    24.4080   -28.3590 
  174.1250     2.2170    65.2530   104.2500   100.6830    89.7560    24.3840   -28.7320 
  174.2500     2.2210    65.5310    95.2040    92.0450    75.8480    24.3350   -28.9870 
  174.3750     2.2270    63.6540    87.6280    84.3290    66.4120    24.3100   -29.2920 
  174.5000     2.2330    61.5900    83.3090    79.6170    60.1910    24.3240   -29.5610 
  174.6250     2.2350    62.7870    84.6150    80.6330    57.8800    24.4910   -29.8570 
  174.7500     2.2310    63.7370    92.3800    88.1280    62.4700    24.7130   -30.1710 
  174.8750     2.2220    61.4880   108.1520   103.0380    75.1170    24.7670   -30.4310 
  175.0000     2.2080    58.0020   132.7100   125.2140    88.3570    24.7340   -30.7080 
  175.1250     2.1940    56.3190   165.1920   152.7310    90.1580    24.7150   -30.7850 
  175.2500     2.1820    55.9080   198.3310   179.3550    89.6680    24.7500   -30.9370 
  175.3750     2.1750    55.0420   223.9750   199.0730    95.3130    24.7620   -30.9340 
  175.5000     2.1750    55.6570   234.6920   207.1320   104.9160    24.7660   -30.8920 
  175.6250     2.1800    58.5250   225.9740   200.6200   112.1720    24.7570   -30.7430 
  175.7500     2.1880    59.9780   207.1330   185.7840   112.8330    24.7250   -30.4430 
  175.8750     2.1960    58.6860   186.2100   168.2290   106.9890    24.6890   -30.1240 
  176.0000     2.2020    56.9250   168.4930   152.4530    99.0930    24.6730   -29.6400 
  176.1250     2.2060    56.7150   157.1760   141.8830    95.5930    24.6740   -29.1150 
  176.2500     2.2070    56.9630   150.7130   135.7240    97.7710    24.6720   -28.4350 
  176.3750     2.2080    56.8950   147.5900   132.7750   104.7550    24.6720   -27.7090 
  176.5000     2.2090    56.8570   145.8980   131.3180   113.0450    24.6710   -26.9850 
  176.6250     2.2150    57.4610   143.1000   129.0020   115.6270    24.6730   -26.1890 
  176.7500     2.2220    57.7710   139.5300   126.0600   111.3520    24.6810   -25.4960 
  176.8750     2.2300    56.2850   135.3570   122.4630   102.5600    24.7020   -24.6930 
  177.0000     2.2340    55.1960   131.9220   119.2480    93.6340    24.7370   -24.0070 
  177.1250     2.2310    55.7870   132.0510   118.8890    90.4960    24.7540   -23.3160 
  177.2500     2.2220    56.1400   137.6720   123.2650    95.0580    24.7590   -22.7310 
  177.3750     2.2090    54.5490   150.8510   134.1320   106.5640    24.7590   -22.1920 
  177.5000     2.1970    51.6740   173.4780   152.6660   122.1720    24.7590   -21.7000 
  177.6250     2.1880    50.4750   208.3660   180.0850   139.8630    24.7590   -21.2480 
  177.7500     2.1850    51.8530   252.2560   212.9850   158.7830    24.7590   -20.7750 
  177.8750     2.1890    52.8080   300.6040   247.5340   174.6840    24.7590   -20.4120 
  178.0000     2.1970    51.3540   346.4180   278.8710   181.3740    24.7590   -19.9780 
  178.1250     2.2020    49.4530   379.9340   300.9280   179.2090    24.7610   -19.6930 
  178.2500     2.1990    50.3480   399.1700   313.3530   177.9000    24.7750   -19.2730 
  178.3750     2.1900    52.6070   406.9220   318.2710   182.1240    24.8080   -18.9040 
  178.5000     2.1900    53.8290   410.6230   320.3140   181.2640    24.8360   -18.5010 
  178.6250     2.2270    53.2590   419.9540   326.0450   168.0460    24.8440   -18.0970 
  178.7500     2.3120    49.8960   436.1000   338.2410   178.3490    24.8260   -17.7540 
  178.8750     2.4350    44.7350   451.4710   354.3940   236.4510    24.7930   -17.3100 
  179.0000     2.5680    40.4730   450.8930   366.1080   343.6950    24.8210   -16.9820 
  179.1250     2.6710    40.4500   410.2540   355.8640   429.7840    24.8830   -16.5790 
  179.2500     2.7280    43.8200   327.8790   315.1710   424.9920    24.8960   -16.2800 
  179.3750     2.7510    47.7910   221.1570   245.0670   352.2820    24.8840   -15.9900 
  179.5000     2.7500    49.1450   125.1710   161.5100   220.9990    24.8820   -15.6390 
  179.6250     2.7250    47.1530    67.8090    92.5950    94.9590    24.9030   -15.4160 
  179.7500     2.6790    46.1720    35.7460    48.5370    35.8750    24.9200   -15.1290 
  179.8750     2.6220    49.9610    18.1710    24.7690    14.4530    24.9600   -14.9750 
  180.0000     2.5720    59.3300     9.7570    13.1410     6.8560    24.9540   -14.7480 
  180.1250     2.5420    69.9090     6.5450     8.0980     4.9270    24.9190   -14.6030 
  180.2500     2.5280    76.7380     4.8190     5.4670     4.9160    24.8730   -14.4670 
  180.3750     2.5170    79.3240     4.0140     4.0970     5.7410    24.8590   -14.3540 
  180.5000     2.4980    78.8680     3.8190     3.4900     6.5580    24.8470   -14.3510 
  180.6250     2.4690    74.0120     4.1040     3.4680     6.4930    24.8000   -14.2700 
  180.7500     2.4380    66.2300     4.6520     3.7880     6.1520    24.7400   -14.2810 
  180.8750     2.4130    59.9100     5.3250     4.3250     6.0570    24.7180   -14.2590 
  181.0000     2.3980    56.5890     5.9640     4.9450     6.0890    24.7390   -14.3330 
  181.1250     2.3930    52.9720     6.3940     5.4940     6.1090    24.7330   -14.3330 
  181.2500     2.3930    48.9680     6.5950     5.8870     6.1400    24.6970   -14.4120 
  181.3750     2.3950    47.3710     6.6300     6.1150     6.1620    24.6900   -14.4780 
  181.5000     2.3990    47.6560     6.6010     6.2190     6.1730    24.7280   -14.4910 
  181.6250     2.4030    46.8150     6.5820     6.2430     6.2650    24.7920   -14.6170 
  181.7500     2.4070    45.3180     6.5830     6.2290     6.3990    24.7950   -14.6680 
  181.8750     2.4120    45.7560     6.5880     6.1870     6.4240    24.7550   -14.7610 
  182.0000     2.4160    47.3180     6.5930     6.1230     6.2480    24.7070   -14.7720 
  182.1250     2.4190    48.1050     6.6150     6.0420     5.9850    24.6870   -14.7810 
  182.2500     2.4200    48.6130     6.6680     5.9590     5.8160    24.6750   -14.7940 
  182.3750     2.4180    49.5740     6.7600     5.8860     5.7320    24.6710   -14.7650 
  182.5000     2.4150    50.6860     6.8820     5.8330     5.6650    24.6700   -14.8030 
  182.6250     2.4120    49.6450     7.0210     5.8100     5.6080    24.6680   -14.7680 
  182.7500     2.4130    47.1490     7.1560     5.8090     5.5930    24.6720   -14.7970 
  182.8750     2.4170    44.8300     7.2830     5.8250     5.6280    24.6910   -14.7980 
  183.0000     2.4220    43.4320     7.4040     5.8500     5.7040    24.7300   -14.8640 
  183.1250     2.4230    43.8550     7.5210     5.8830     5.7800    24.7430   -14.9610 
  183.2500     2.4180    45.7100     7.6350     5.9190     5.8130    24.7410   -15.0220 
  183.3750     2.4100    47.9540     7.7380     5.9560     5.8340    24.7470   -15.1610 
  183.5000     2.4040    49.1610     7.8140     5.9850     5.9010    24.7870   -15.3400 
  183.6250     2.4080    49.9920     7.8410     6.0010     6.0310    24.8320   -15.5850 
