~V
VERS. 2.00: Ver 2.00
~W
STRT.M 60.0000:
STOP.M 268.0000:
STEP.M 0.1250:
NULL. -999.2500:
UWI. DF33031:
~C
DEPT.M :
SP.MV :
GR.API :
CALI.CM :
RXO.OHMM :
RI. :
RML.OHMM :
DEN.GM/CC :
~A
   60.0000    24.1380    58.9810    24.5240     0.8680     0.0320     1.1400     2.1250 
   60.1250    21.8410    60.1810    24.5020     0.8920    -0.0090     0.5860     2.0280 
   60.2500    18.7510    61.4490    24.4950     0.8840    -0.0510     0.3310     1.9730 
   60.3750    14.8110    65.1100    24.4760     0.9730    -0.0730     0.2880     2.0320 
   60.5000    10.2360    71.5720    24.3250     1.4480    -0.0410     0.4370     2.1720 
   60.6250     5.3830    80.9490    23.9070     2.6800     0.1170     0.8860     2.2780 
   60.7500     0.5490    92.4360    23.4990     3.9530     0.4610     1.7400     2.3130 
   60.8750    -4.1430   105.2230    23.5130     4.6550     1.0260     3.0860     2.3110 
   61.0000    -8.5640   117.8630    23.8580     4.8650     1.7440     4.5960     2.3060 
   61.1250   -12.4440   124.6600    24.0420     4.8610     2.4160     5.2100     2.3110 
   61.2500   -15.5580   123.1300    24.0930     4.8300     2.9270     5.0080     2.3140 
   61.3750   -17.8120   118.1930    24.0860     4.7410     3.3180     4.6830     2.3060 
   61.5000   -19.4830   116.7700    24.0510     4.7300     3.6880     4.6090     2.2930 
   61.6250   -20.9920   117.3320    23.8920     4.8410     4.1080     4.8580     2.2970 
   61.7500   -22.4690   113.2550    23.5750     5.0930     4.5690     5.3010     2.3120 
   61.8750   -23.8560   106.7840    23.1480     5.4980     5.0590     5.8490     2.3130 
   62.0000   -25.1320   102.1160    22.7000     5.9610     5.5510     6.3980     2.2870 
   62.1250   -26.1670    98.5860    22.5300     6.5690     5.9370     6.8150     2.2490 
   62.2500   -26.8860    92.3910    22.4840     7.1150     6.1330     7.0410     2.2230 
   62.3750   -27.3250    85.3950    22.5230     7.5860     6.1270     7.0640     2.2190 
   62.5000   -27.5170    83.0590    22.6900     7.8320     5.9760     6.9230     2.2330 
   62.6250   -27.4350    89.8690    23.0740     7.1400     5.7650     6.6990     2.2530 
   62.7500   -27.1790   100.4340    23.4040     6.2470     5.5900     6.5160     2.2590 
   62.8750   -26.8720   107.8060    23.4910     5.8240     5.5030     6.4500     2.2460 
   63.0000   -26.5290   108.7500    23.4570     5.8340     5.5070     6.5310     2.2310 
   63.1250   -26.2440   107.4350    23.4810     5.8190     5.5780     6.7320     2.2340 
   63.2500   -26.1110   108.9630    23.5570     5.7050     5.6570     6.9280     2.2450 
   63.3750   -26.0880   110.8250    23.5930     5.8000     5.6740     7.0010     2.2540 
   63.5000   -26.1140   109.8590    23.6190     6.0320     5.5580     6.8730     2.2610 
   63.6250   -26.1430   108.7680    23.7240     5.9010     5.3130     6.5680     2.2700 
   63.7500   -26.2090   109.9700    23.9080     5.4580     5.0690     6.2730     2.2800 
   63.8750   -26.3150   111.1880    24.0440     4.9870     4.9130     6.1180     2.2830 
   64.0000   -26.4740   109.2210    24.0710     4.8690     4.9030     6.1680     2.2750 
   64.1250   -26.6510   104.9850    23.9640     5.3860     5.0740     6.4580     2.2560 
   64.2500   -26.8430   100.4200    23.7800     6.3640     5.3400     6.8780     2.2400 
   64.3750   -27.0900    96.4960    23.6450     7.0610     5.6020     7.2790     2.2400 
   64.5000   -27.4320    93.7980    23.5980     6.9640     5.7920     7.5050     2.2530 
   64.6250   -27.8750    91.5260    23.5980     6.6340     5.9300     7.5460     2.2610 
   64.7500   -28.3530    92.5050    23.5980     6.7150     6.1480     7.6730     2.2600 
   64.8750   -28.8350    96.8940    23.5980     7.0550     6.6000     8.1410     2.2740 
   65.0000   -29.3720    99.6740    23.6070     7.5020     7.3860     9.1270     2.3250 
   65.1250   -30.0010    95.8650    23.6350     8.5780     8.4940    10.7100     2.3920 
   65.2500   -30.7070    90.1300    23.6280    11.1270     9.6020    12.3930     2.4150 
   65.3750   -31.4590    86.2640    23.4670    13.1690    10.3150    13.4370     2.3710 
   65.5000   -32.2020    83.6970    23.0730    12.6170    10.3490    13.3250     2.2880 
   65.6250   -32.8470    81.6070    22.8440    10.4730     9.7490    12.3100     2.2260 
   65.7500   -33.4070    79.3580    22.7630     9.2290     9.0270    11.2790     2.2030 
   65.8750   -33.9110    77.5580    22.7590     8.9870     8.4700    10.5980     2.2080 
   66.0000   -34.3190    76.7710    22.7590     9.2770     8.1960    10.3450     2.2240 
   66.1250   -34.5990    76.9890    22.7590     9.9380     8.2050    10.4310     2.2380 
   66.2500   -34.7940    77.1760    22.7590    10.6040     8.2820    10.5680     2.2430 
   66.3750   -34.9620    77.1730    22.7670    10.6130     8.2670    10.5860     2.2350 
   66.5000   -35.0990    76.8740    22.7920     9.9060     8.1270    10.4570     2.2120 
   66.6250   -35.1890    74.9940    22.8460     9.2940     7.9480    10.2810     2.1890 
   66.7500   -35.2790    72.6440    22.8750     9.0120     7.8300    10.1600     2.1890 
   66.8750   -35.3920    69.8620    22.8850     9.0470     7.8110    10.1190     2.2180 
   67.0000   -35.4900    67.9210    22.8850     9.1980     7.8600    10.1220     2.2650 
   67.1250   -35.4970    69.3730    22.8860     9.0840     7.8720    10.0730     2.2990 
   67.2500   -35.4140    73.2520    22.8920     8.6610     7.7650     9.9160     2.2970 
   67.3750   -35.2610    76.5420    22.9060     8.3470     7.5480     9.6800     2.2610 
   67.5000   -35.0690    76.8260    22.9160     8.2840     7.2820     9.4520     2.2130 
   67.6250   -34.8170    75.3900    22.9200     8.2110     7.0380     9.3230     2.1820 
   67.7500   -34.5630    73.5740    22.9200     8.2360     6.8720     9.2890     2.1710 
   67.8750   -34.2710    72.0500    22.9200     8.3300     6.7880     9.3080     2.1710 
   68.0000   -33.9280    74.0810    22.9170     8.3290     6.7370     9.3190     2.1760 
   68.1250   -33.6510    79.8200    22.9110     8.2330     6.6630     9.2800     2.1820 
   68.2500   -33.4310    84.1620    22.9010     8.1340     6.5490     9.2230     2.1860 
   68.3750   -33.2390    82.8790    22.8970     8.1180     6.4330     9.1990     2.1880 
   68.5000   -33.0440    78.5460    22.8970     8.1150     6.3760     9.2510     2.1930 
   68.6250   -32.9610    79.6070    22.8970     8.0720     6.4560     9.4180     2.2060 
   68.7500   -32.9460    83.8740    22.8970     8.1230     6.6590     9.6710     2.2220 
   68.8750   -32.9260    86.1220    22.8970     8.4790     6.9260     9.9680     2.2330 
   69.0000   -32.9340    85.4950    22.8970     9.3790     7.1690    10.2300     2.2380 
   69.1250   -32.9690    82.8020    22.8970    10.7010     7.2850    10.3430     2.2370 
   69.2500   -33.0280    78.6690    22.8970    11.3920     7.3000    10.3400     2.2290 
   69.3750   -33.0790    73.3770    22.8970    10.9870     7.3240    10.3620     2.2160 
   69.5000   -33.1780    70.7250    22.8970    10.0340     7.4690    10.5720     2.2150 
   69.6250   -33.3030    72.7740    22.8970     9.8170     7.8120    11.0850     2.2560 
   69.7500   -33.4460    75.0480    22.8970    11.4010     8.2440    11.7490     2.3310 
   69.8750   -33.5850    76.1930    22.8900    14.3770     8.5890    12.2950     2.3970 
   70.0000   -33.7270    76.6410    22.8370    15.4520     8.6370    12.3900     2.4010 
   70.1250   -33.9020    75.5180    22.6830    13.0570     8.2410    11.7980     2.3270 
   70.2500   -34.1300    72.3870    22.5000    10.4420     7.5960    10.8490     2.2370 
   70.3750   -34.4020    68.9720    22.4030     9.2310     6.9090     9.8810     2.1760 
   70.5000   -34.6540    67.9960    22.3790     8.6790     6.3310     9.1450     2.1600 
   70.6250   -34.8890    69.9600    22.3790     8.3480     5.9730     8.8060     2.1730 
   70.7500   -35.1050    72.0170    22.3790     8.1530     5.8050     8.7640     2.1860 
   70.8750   -35.3950    74.2430    22.3790     8.0960     5.8110     8.9260     2.1890 
   71.0000   -35.7090    77.8540    22.3790     8.2150     5.9810     9.2310     2.1870 
   71.1250   -35.9720    80.6830    22.3790     8.6240     6.3220     9.6530     2.1980 
