~V
VERS. 2.00: Ver 2.00
~W
STRT.M 55.0000:
STOP.M 246.0000:
STEP.M 0.1250:
NULL. -999.2500:
UWI. DF33025:
~C
DEPT.M :
SP.MV :
GR.API :
CALI.CM :
RXO.OHMM :
RI. :
RML.OHMM :
DEN.GM/CC :
~A
# ...
  100.0000   -26.2480    67.6120    24.6460    10.5790     8.0600    10.0440     2.1970 
  100.1250   -26.2380    68.2530    24.7060    11.5350     8.1300    10.1620     2.1890 
  100.2500   -26.2090    70.0710    24.6200    12.1740     8.1510    10.2200     2.1840 
  100.3750   -26.1800    70.5640    24.4870    11.7460     8.0970    10.1690     2.1850 
  100.5000   -26.1140    69.5100    24.5240    10.5920     7.9780    10.0230     2.1820 
  100.6250   -26.0530    70.7290    24.5300     9.9150     7.8200     9.8460     2.1720 
  100.7500   -25.9890    75.2290    24.5570     9.7090     7.6690     9.7170     2.1660 
  100.8750   -25.9160    78.7660    24.6450     9.8340     7.5560     9.6660     2.1700 
  101.0000   -25.8330    79.4690    24.6750    10.0290     7.4940     9.6860     2.1800 
  101.1250   -25.7450    78.3300    24.5640     9.9770     7.4550     9.7370     2.1830 
  101.2500   -25.6470    75.5990    24.4350     9.7150     7.3940     9.7700     2.1780 
  101.3750   -25.5220    71.7760    24.4570     9.4220     7.3070     9.7730     2.1680 
  101.5000   -25.4190    69.2310    24.4940     9.2310     7.2250     9.7520     2.1630 
  101.6250   -25.3360    71.6330    24.5220     9.1400     7.1810     9.7240     2.1700 
  101.7500   -25.2630    75.5170    24.6160     9.0810     7.1500     9.6910     2.1820 
  101.8750   -25.1990    76.5250    24.7290     9.0680     7.1000     9.6460     2.1860 
  102.0000   -25.1560    74.7470    24.7810     9.1480     7.0300     9.5880     2.1790 
  102.1250   -25.1430    75.0300    24.7730     9.2140     6.9710     9.5260     2.1680 
  102.2500   -25.1350    78.2890    24.7830     9.1610     6.9430     9.4850     2.1620 
  102.3750   -25.1730    79.5450    24.8300     9.0760     6.9400     9.4860     2.1590 
  102.5000   -25.2360    75.6440    24.8860     9.0790     6.9520     9.5310     2.1580 
  102.6250   -25.2630    70.7530    24.9080     9.1870     6.9990     9.6280     2.1620 
  102.7500   -25.2780    72.0000    24.9150     9.3160     7.1150     9.7970     2.1730 
  102.8750   -25.2750    76.3650    24.9190     9.4650     7.3100    10.0680     2.1830 
  103.0000   -25.2660    78.7880    24.9350     9.5890     7.5450    10.4250     2.1850 
  103.1250   -25.2010    78.2180    24.9880     9.8710     7.7400    10.7760     2.1800 
  103.2500   -25.1470    75.7830    25.0150    10.6730     7.8290    10.9590     2.1900 
  103.3750   -25.0980    72.8320    24.9170    11.8260     7.7470    10.8160     2.2160 
  103.5000   -25.0410    72.4320    24.8830    12.0150     7.4530    10.2950     2.2400 
  103.6250   -25.0270    75.4760    24.9090    10.5610     6.9660     9.5270     2.2380 
  103.7500   -25.0560    78.0840    24.9890     8.9470     6.4600     8.8300     2.2220 
  103.8750   -25.1530    79.5880    24.9570     8.0140     6.0860     8.3900     2.2120 
  104.0000   -25.3090    79.9470    24.7940     7.6560     5.9440     8.2950     2.2120 
  104.1250   -25.5180    78.7110    24.5650     8.0250     6.0660     8.5730     2.2090 
  104.2500   -25.7540    77.5160    24.7050     8.5210     6.3070     9.0290     2.2000 
  104.3750   -25.9490    77.2500    24.9820     8.7140     6.5480     9.4880     2.1900 
  104.5000   -26.1570    74.2270    25.1340     8.6110     6.7230     9.8090     2.1820 
  104.6250   -26.3140    69.1810    25.1370     8.6670     6.8080     9.8910     2.1710 
  104.7500   -26.4190    67.4680    25.1170     8.8320     6.8180     9.7860     2.1570 
  104.8750   -26.4420    68.4340    25.0970     8.8570     6.7440     9.5630     2.1460 
  105.0000   -26.3830    68.6890    25.0740     8.8020     6.5960     9.3080     2.1420 
  105.1250   -26.2320    69.1910    25.0660     8.8130     6.4500     9.1370     2.1430 
  105.2500   -25.9890    71.0720    25.0670     8.8990     6.4190     9.1270     2.1440 
  105.3750   -25.7190    71.1030    25.0730     9.0330     6.5680     9.3110     2.1470 
  105.5000   -25.3640    67.2560    25.0070     9.2580     6.8760     9.6510     2.1630 
  105.6250   -24.9780    65.4080    24.8220     9.4850     7.2210    10.0240     2.2000 
  105.7500   -24.5190    68.2690    24.6440     9.5390     7.4500    10.2740     2.2380 
  105.8750   -24.0050    71.7090    24.7660     9.3070     7.4990    10.3200     2.2530 
  106.0000   -23.4120    71.8900    24.9510     8.9170     7.3890    10.1590     2.2360 
  106.1250   -22.7480    70.1790    25.0230     8.8730     7.1600     9.8140     2.2010 
  106.2500   -21.9660    69.7130    25.0340     8.9150     6.8470     9.3500     2.1710 
  106.3750   -21.0830    71.3270    25.0470     8.7340     6.4370     8.7840     2.1560 
  106.5000   -20.1000    75.4710    25.0870     8.0440     5.9340     8.1330     2.1580 
  106.6250   -19.0530    81.5090    25.1930     6.8010     5.4080     7.4460     2.1810 
  106.7500   -18.0470    88.1090    25.3450     5.8310     4.9750     6.8270     2.2190 
  106.8750   -17.0820    93.9070    25.4650     5.4950     4.7070     6.3700     2.2550 
  107.0000   -16.1710    97.6070    25.4420     5.7090     4.6070     6.1270     2.2730 
  107.1250   -15.3740    99.0490    25.2450     6.1650     4.6300     6.1140     2.2680 
  107.2500   -14.7320   101.2740    25.0430     6.4790     4.6900     6.2190     2.2630 
  107.3750   -14.2130   105.9160    25.1280     6.2680     4.7550     6.3590     2.2720 
  107.5000   -13.8590   109.2800    25.3810     5.6790     4.8300     6.4770     2.2880 
  107.6250   -13.6230   108.6920    25.3790     5.3440     4.9260     6.5470     2.2960 
  107.7500   -13.4350   108.4440    25.3010     5.1910     5.0020     6.5670     2.2950 
  107.8750   -13.3030   110.1780    25.1870     5.0740     4.9940     6.5120     2.2840 
  108.0000   -13.2250   112.2550    25.1240     4.9590     4.8470     6.3430     2.2610 
  108.1250   -13.2310   111.8610    25.2250     4.9100     4.5350     5.9900     2.2300 
  108.2500   -13.2640   110.1060    25.5330     4.8400     4.1530     5.5130     2.2110 
  108.3750   -13.3620   110.1290    25.8470     4.6440     3.8260     5.0600     2.2080 
  108.5000   -13.4930   111.8760    25.8350     4.3500     3.6710     4.8310     2.2070 
  108.6250   -13.6900   114.2930    25.7240     4.1640     3.8040     5.0670     2.2090 
  108.7500   -13.9230   114.7560    25.8940     4.7120     4.1980     5.7770     2.2360 
  108.8750   -14.2020   111.3290    25.8050     6.7460     4.8130     6.8990     2.2950 
  109.0000   -14.5060   104.8300    25.3140    10.2560     5.5240     8.1440     2.3740 
  109.1250   -14.8210    99.1010    24.9120    10.8380     6.0410     8.8560     2.4310 
  109.2500   -15.1650    97.2420    24.7070     8.8210     6.1880     8.7860     2.4400 
  109.3750   -15.5030    97.3180    24.6950     6.7470     6.0140     8.2100     2.4000 
  109.5000   -15.8290    96.2320    24.8390     6.0950     5.7300     7.6140     2.3400 
  109.6250   -16.1060    94.8750    24.9820     6.3440     5.6020     7.3960     2.2990 
  109.7500   -16.3170    93.7910    25.1360     6.7930     5.7000     7.5340     2.2830 
  109.8750   -16.4380    92.5600    25.2190     7.2450     5.9400     7.8460     2.2810 
  110.0000   -16.4880    93.0050    25.1030     7.5660     6.1380     8.0780     2.2840 
  110.1250   -16.4550    95.3430    25.1840     7.3360     6.1050     8.0000     2.2890 
  110.2500   -16.3720    96.8810    25.2180     6.7110     5.8820     7.6700     2.2900 
  110.3750   -16.2760    98.8940    24.9460     6.0830     5.5900     7.2260     2.2880 
  110.5000   -16.1710   104.0180    24.6870     5.8250     5.3470     6.8280     2.2890 
  110.6250   -16.0990   110.7740    24.5930     5.7090     5.2440     6.6530     2.2940 
  110.7500   -16.0950   113.8770    24.5680     5.6540     5.2820     6.7490     2.2910 
  110.8750   -16.1410   112.2190    24.6130     5.8450     5.4560     7.1060     2.2710 
  111.0000   -16.2260   107.5380    24.7130     6.3390     5.7290     7.6220     2.2380 
  111.1250   -16.2950   102.4350    24.9250     6.9420     5.9810     8.0570     2.2110 
