~V
VERS. 2.00: Ver 2.00
~W
STRT.M 60.0000:
STOP.M 233.0000:
STEP.M 0.1250:
NULL. -999.2500:
UWI. DF33019:
~C
DEPT.M :
GR.API :
RML.OHMM :
RI. :
RXO.OHMM :
CALI.CM :
DEN.GM/CC :
SP.MV :
~A
# ...
  195.0000    67.0090     7.6390     6.3460     5.8050    24.6740     2.4220   -16.1130 
  195.1250    69.4170     7.6550     6.3530     6.0190    24.4500     2.4230   -16.7680 
  195.2500    71.7860     7.6940     6.3710     6.0500    24.2710     2.4190   -17.4650 
  195.3750    74.7880     7.7760     6.4130     6.1330    24.1360     2.4110   -18.2270 
  195.5000    80.0790     7.9090     6.4910     6.4070    24.0570     2.4000   -18.9880 
  195.6250    85.4590     8.1000     6.6140     6.6230    24.1650     2.3910   -19.8070 
  195.7500    86.3220     8.3140     6.7650     6.9780    24.4520     2.3860   -20.5350 
  195.8750    85.2420     8.5180     6.9230     7.4780    24.6460     2.3860   -21.2040 
  196.0000    86.3130     8.6790     7.0650     7.8680    24.6730     2.3880   -21.7960 
  196.1250    90.1970     8.7690     7.1700     8.1460    24.5710     2.3870   -22.3100 
  196.2500    92.6900     8.8090     7.2420     8.2580    24.4300     2.3800   -22.7510 
  196.3750    90.9540     8.8220     7.2940     8.2990    24.2650     2.3650   -23.1410 
  196.5000    85.5630     8.8360     7.3470     8.6170    24.0560     2.3450   -23.5170 
  196.6250    81.5920     8.8840     7.4250     9.1760    23.8280     2.3250   -23.7940 
  196.7500    80.8940     8.9780     7.5370     9.7430    23.6840     2.3110   -24.0600 
  196.8750    79.2500     9.1180     7.6810     9.9910    23.6320     2.3070   -24.2800 
  197.0000    76.4830     9.2900     7.8440    10.0520    23.6350     2.3120   -24.4380 
  197.1250    78.0840     9.4630     7.9990    10.2380    23.6560     2.3240   -24.4930 
  197.2500    81.7720     9.5950     8.1110    10.4330    23.6450     2.3350   -24.4480 
  197.3750    81.8830     9.6510     8.1510    10.4610    23.6300     2.3420   -24.2690 
  197.5000    78.0860     9.6050     8.0970    10.5040    23.6710     2.3440   -23.9560 
  197.6250    77.0100     9.4350     7.9280    10.6500    23.8630     2.3430   -23.5240 
  197.7500    80.2770     9.1990     7.6870    10.5720    24.1660     2.3440   -23.0440 
  197.8750    83.9020     8.9620     7.4260     9.8610    24.4250     2.3510   -22.5400 
  198.0000    84.5850     8.8000     7.2120     8.8730    24.5860     2.3590   -22.0700 
  198.1250    82.3030     8.8040     7.1360     8.0540    24.6330     2.3640   -21.6410 
  198.2500    81.2490     8.9720     7.2160     7.8110    24.5920     2.3620   -21.3100 
  198.3750    80.6270     9.2750     7.4520     8.4850    24.4120     2.3580   -21.0620 
  198.5000    79.1550     9.6570     7.8150    10.4040    24.1370     2.3540   -20.8620 
  198.6250    79.9790    10.0630     8.2750    11.6620    23.9450     2.3560   -20.7470 
  198.7500    82.4160    10.4800     8.7920    11.9400    23.8620     2.3630   -20.6390 
  198.8750    83.4230    10.9460     9.3670    11.6160    23.8280     2.3710   -20.4760 
  199.0000    81.1180    11.5010    10.0050    11.9880    23.8260     2.3790   -20.1960 
  199.1250    77.3710    12.1400    10.6840    13.8250    23.8850     2.3870   -19.7950 
  199.2500    73.9400    12.7200    11.3000    16.1890    24.0020     2.3950   -19.2230 
  199.3750    71.2580    13.0400    11.7050    16.8630    24.1270     2.4020   -18.5230 
  199.5000    70.8560    12.9050    11.7360    15.0930    24.2570     2.4080   -17.6820 
  199.6250    71.7040    12.1420    11.2120    14.0490    24.4420     2.4210   -16.7140 
  199.7500    72.2660    10.9700    10.2730    13.5490    24.5940     2.4460   -15.6070 
  199.8750    71.9340     9.6430     9.1080    11.9870    24.6520     2.4770   -14.4670 
  200.0000    68.4870     8.4300     7.9510     9.4960    24.6630     2.5000   -13.3300 
  200.1250    60.9550     7.6000     7.0610     7.4100    24.6840     2.4990   -12.2220 
  200.2500    53.8740     7.1670     6.5080     6.6490    24.6960     2.4770   -11.1660 
  200.3750    50.1310     7.0780     6.2810     6.6440    24.6990     2.4470   -10.1880 
  200.5000    48.2340     7.2090     6.3020     6.9510    24.6990     2.4240    -9.3440 
  200.6250    50.3430     7.3930     6.4460     7.1790    24.6880     2.4130    -8.5890 
  200.7500    56.5010     7.4790     6.5560     7.0740    24.6610     2.4100    -7.9620 
  200.8750    62.3380     7.4210     6.5610     6.6110    24.6210     2.4100    -7.4400 
  201.0000    64.9360     7.2470     6.4490     6.1400    24.5730     2.4110    -7.0430 
  201.1250    67.6900     7.0320     6.2600     6.0000    24.5440     2.4140    -6.7580 
  201.2500    73.3230     6.8460     6.0670     6.0590    24.5360     2.4170    -6.5730 
  201.3750    78.4020     6.7170     5.9050     6.0620    24.5380     2.4170    -6.4670 
  201.5000    79.2610     6.6530     5.7950     5.9500    24.5450     2.4140    -6.4390 
  201.6250    78.7490     6.6610     5.7490     5.8420    24.5560     2.4060    -6.5340 
  201.7500    80.3570     6.7170     5.7510     5.7060    24.5560     2.3970    -6.7350 
  201.8750    83.3570     6.8060     5.7930     5.7110    24.5430     2.3870    -6.9870 
  202.0000    84.4740     6.9180     5.8670     5.9950    24.5330     2.3780    -7.2390 
  202.1250    81.1350     7.0600     5.9820     6.4240    24.5870     2.3730    -7.5290 
  202.2500    78.4920     7.2510     6.1460     6.6970    24.6830     2.3700    -7.8120 
  202.3750    77.9420     7.5090     6.3720     7.0430    24.7470     2.3680    -8.0960 
  202.5000    77.3800     7.8290     6.6610     7.2830    24.7670     2.3640    -8.3310 
  202.6250    76.0620     8.1560     6.9820     8.0420    24.7670     2.3590    -8.5750 
  202.7500    76.2410     8.4000     7.2640     9.0150    24.7670     2.3550    -8.7370 
  202.8750    78.8360     8.5020     7.4570    10.0180    24.7670     2.3520    -8.8990 
  203.0000    80.6410     8.4690     7.5460    10.6010    24.7670     2.3520    -9.0510 
  203.1250    79.2100     8.4000     7.5880     9.3120    24.7670     2.3540    -9.2120 
  203.2500    77.2150     8.4510     7.7080     8.0530    24.7670     2.3570    -9.3630 
  203.3750    76.4930     8.7140     8.0040     8.0940    24.7670     2.3590    -9.5280 
  203.5000    76.2680     9.1900     8.5110     9.2930    24.7670     2.3570    -9.6980 
  203.6250    74.7770     9.7900     9.1930    10.7980    24.7670     2.3500    -9.8280 
  203.7500    74.0970    10.3290     9.8820    11.6910    24.7670     2.3400    -9.9580 
  203.8750    75.4890    10.6810    10.4380    11.6650    24.7670     2.3310   -10.0780 
  204.0000    77.3820    10.7940    10.7610    11.1340    24.7670     2.3280   -10.2110 
  204.1250    76.0890    10.6870    10.8050    11.0370    24.7760     2.3320   -10.2750 
  204.2500    75.0280    10.4890    10.6780    11.0340    24.7960     2.3380   -10.3270 
  204.3750    77.5090    10.2630    10.4500    10.6270    24.8160     2.3420   -10.3240 
  204.5000    81.5240    10.0410    10.1720    10.2370    24.8110     2.3400   -10.3390 
  204.6250    81.6170     9.8400     9.8830    10.5220    24.7700     2.3330   -10.3590 
  204.7500    80.2560     9.6720     9.6250    10.2290    24.7080     2.3270   -10.4520 
  204.8750    81.1230     9.5790     9.4430     9.4150    24.6580     2.3240   -10.5500 
  205.0000    81.8380     9.6570     9.3890     9.4440    24.6300     2.3230   -10.6750 
  205.1250    80.4750     9.8620     9.5690    10.2430    24.6210     2.3230   -10.8610 
  205.2500    80.0130    10.1480    10.1220    11.1980    24.6180     2.3220   -11.0780 
  205.3750    79.6780    11.1380    11.5100    12.1670    24.6050     2.3260   -11.3310 
  205.5000    75.9290    14.1610    14.7100    13.3400    24.5770     2.3370   -11.5840 
  205.6250    69.6750    22.7840    21.7740    18.7460    24.5610     2.3500   -11.8510 
  205.7500    66.0670    37.2690    32.9680    34.5600    24.5660     2.3570   -12.0880 
  205.8750    65.2540    56.7500    47.1980    64.7010    24.5910     2.3510   -12.3200 
  206.0000    67.0960    76.2190    61.1980   104.4240    24.6020     2.3340   -12.5060 
  206.1250    70.9910    83.4220    68.6740   124.2510    24.5870     2.3120   -12.6680 
