~V
VERS. 2.00: Ver 2.00
~W
STRT.M 50.0000:
STOP.M 235.0000:
STEP.M 0.1250:
NULL. -999.2500:
UWI. DF33017:
~C
DEPT.M :
GR.API :
CALI.CM :
RXO.OHMM :
RI. :
RML.OHMM :
DEN.GM/CC :
SP.MV :
~A
   50.0000  -999.2500  -999.2500  -999.2500  -999.2500  -999.2500  -999.2500   109.7510 
   50.1250  -999.2500  -999.2500  -999.2500  -999.2500  -999.2500  -999.2500   109.8780 
   50.2500  -999.2500  -999.2500  -999.2500  -999.2500  -999.2500  -999.2500   109.9490 
   50.3750  -999.2500  -999.2500  -999.2500  -999.2500  -999.2500  -999.2500   109.9980 
   50.5000  -999.2500  -999.2500  -999.2500  -999.2500  -999.2500  -999.2500   109.9950 
   50.6250  -999.2500  -999.2500  -999.2500  -999.2500  -999.2500  -999.2500   110.0350 
   50.7500  -999.2500  -999.2500  -999.2500  -999.2500  -999.2500  -999.2500   110.0750 
   50.8750  -999.2500  -999.2500  -999.2500  -999.2500  -999.2500  -999.2500   110.1420 
   51.0000  -999.2500  -999.2500  -999.2500  -999.2500  -999.2500  -999.2500   110.2820 
   51.1250  -999.2500  -999.2500  -999.2500  -999.2500  -999.2500  -999.2500   110.4210 
   51.2500  -999.2500  -999.2500  -999.2500  -999.2500  -999.2500  -999.2500   110.5010 
   51.3750  -999.2500  -999.2500  -999.2500  -999.2500  -999.2500  -999.2500   110.5640 
   51.5000  -999.2500  -999.2500  -999.2500  -999.2500  -999.2500  -999.2500   110.5690 
   51.6250  -999.2500  -999.2500  -999.2500  -999.2500  -999.2500  -999.2500   110.4850 
   51.7500  -999.2500  -999.2500  -999.2500  -999.2500  -999.2500  -999.2500   110.3220 
   51.8750    52.4980    28.8580     4.0200     0.2000     4.1710  -999.2500   110.0710 
   52.0000    52.4980    28.8580     4.0200     0.2000     4.1710  -999.2500   109.6900 
   52.1250    52.4980    27.9830     4.0200     0.0700     4.1410  -999.2500   109.3070 
   52.2500    52.8970    25.3580     4.0540     0.0780     4.0360  -999.2500   108.9400 
   52.3750    52.9460    25.3580     4.1630     0.0880     4.0060  -999.2500   108.5720 
   52.5000    51.4070    25.3580     4.2910     0.0800     4.0080  -999.2500   108.2440 
   52.6250    51.0310    25.3580     4.3060     0.0690     4.0900  -999.2500   107.9610 
   52.7500    52.2550    25.3580     4.1630     0.0670     4.2380  -999.2500   107.7230 
   52.8750    52.7880    25.3580     3.9080     0.0710     4.3950  -999.2500   107.5450 
   53.0000    51.7010    25.3580     3.6770     0.0730     4.4600  -999.2500   107.4270 
   53.1250    51.8110    25.3580     3.6310     0.0620     4.3410  -999.2500   107.3650 
   53.2500    53.0660    25.3580     3.6730     0.0450     4.1240  -999.2500   107.3080 
   53.3750    53.0220    25.3580     3.7050     0.0310     3.9140  -999.2500   107.2840 
   53.5000    50.6320    25.3580     3.7040     0.0250     3.7980  -999.2500   107.2990 
   53.6250    49.0810    25.3580     3.6530     0.0310     3.7880  -999.2500   107.3770 
   53.7500    50.4680    25.3580     3.5760     0.0420     3.8200  -999.2500   107.4790 
   53.8750    53.0460    25.3590     3.4820     0.0530     3.8610  -999.2500   107.5630 
   54.0000    53.7470    25.3610     3.4080     0.0630     3.9050  -999.2500   107.6470 
   54.1250    52.2150    25.3620     3.4030     0.0690     3.9960  -999.2500   107.6770 
   54.2500    50.7830    25.3600     3.4190     0.0720     4.1120  -999.2500   107.7260 
   54.3750    49.9740    25.3590     3.3590     0.0730     4.2210  -999.2500   107.7020 
   54.5000    49.7070    25.3580     3.2330     0.0750     4.3400  -999.2500   107.6470 
   54.6250    50.5070    25.3580     3.1400     0.0660     4.4520  -999.2500   107.5260 
   54.7500    51.6790    25.3580     3.1300     0.0480     4.5080  -999.2500   107.3420 
   54.8750    52.1450    25.3580     3.1530     0.0290     4.4520  -999.2500   107.1890 
   55.0000    52.6510    25.3580     3.1850     0.0150     4.2910  -999.2500   107.0180 
   55.1250    52.5640    25.3580     3.1820     0.0190     4.1290  -999.2500   106.8780 
   55.2500    51.3780    25.3580     3.1140     0.0390     4.0620  -999.2500   106.6800 
   55.3750    51.0220    25.3580     3.0120     0.0590     4.1100  -999.2500   106.5090 
   55.5000    52.9090    25.3580     2.9380     0.0630     4.1900  -999.2500   106.3600 
   55.6250    53.6890    25.3580     2.8890     0.0530     4.1650  -999.2500   106.1370 
   55.7500    52.0610    25.3580     2.8240     0.0450     4.0640  -999.2500   105.9570 
   55.8750    51.0950    25.3580     2.7240     0.0450     3.9550  -999.2500   105.7450 
   56.0000    51.4660    25.3580     2.6050     0.0510     3.8960  -999.2500   105.5480 
   56.1250    50.6170    25.3580     2.5400     0.0580     3.8230  -999.2500   105.2620 
   56.2500    49.1130    25.3580     2.5420     0.0620     3.6280  -999.2500   105.0050 
   56.3750    49.2470    25.3580     2.6110     0.0640     3.3280  -999.2500   104.7630 
   56.5000    50.3290    25.3580     2.6950     0.0640     3.0150     2.0420   104.5420 
   56.6250    51.2780    25.3580     2.6910     0.0520     2.8360     2.0420   104.3530 
   56.7500    53.4910    25.3580     2.6420     0.0250     2.8100     2.0530   104.1730 
   56.8750    57.5700    25.3580     2.5980    -0.0010     2.8890     2.0780   103.9930 
   57.0000    62.2060    25.3580     2.5860    -0.0130     3.0130     2.0890   103.8530 
   57.1250    65.0660    25.3580     2.5950    -0.0030     3.1280     2.0850   103.8280 
   57.2500    64.3890    25.3580     2.5970     0.0210     3.2300     2.0750   103.7950 
   57.3750    60.7070    25.3580     2.5830     0.0470     3.3130     2.0650   103.7880 
   57.5000    57.9490    25.3580     2.5770     0.0590     3.3500     2.0540   103.8220 
   57.6250    58.9230    25.3580     2.6040     0.0480     3.3620     2.0460   103.9040 
   57.7500    58.8120    25.3580     2.6460     0.0340     3.3630     2.0410   103.9410 
   57.8750    55.0250    25.3580     2.6820     0.0320     3.3360     2.0340   104.0140 
   58.0000    50.2590    25.3590     2.7070     0.0380     3.2460     2.0170   104.1090 
   58.1250    49.0070    25.3610     2.7290     0.0400     3.0840     1.9920   104.1270 
   58.2500    50.2200    25.3620     2.7240     0.0400     2.9270     1.9760   104.1880 
   58.3750    51.0350    25.3600     2.7120     0.0400     2.8270     1.9750   104.2670 
   58.5000    50.8540    25.3580     2.7140     0.0500     2.7720     1.9880   104.2370 
   58.6250    50.6440    25.3580     2.7280     0.0800     2.7050     1.9980   104.1560 
   58.7500    51.0180    25.3580     2.7300     0.1100     2.5840     1.9910   104.1150 
   58.8750    50.9760    25.3580     2.7210     0.1140     2.4360     1.9690   103.9640 
   59.0000    50.4580    25.3580     2.7150     0.0890     2.3260     1.9500   103.6270 
   59.1250    49.8220    25.3580     2.7230     0.0610     2.3310     1.9570   103.1880 
   59.2500    49.4030    25.3580     2.7400     0.0450     2.4550     1.9840   102.5810 
   59.3750    50.1590    25.3580     2.7200     0.0380     2.6960     2.0170   101.6720 
   59.5000    51.0170    25.3610     2.6000     0.0380     3.0200     2.0500   100.3820 
   59.6250    50.9030    25.3730     2.3870     0.0330     3.0660     2.0800    98.4750 
   59.7500    50.0830    25.3860     2.2360     0.0180     2.4060     2.0970    95.7640 
   59.8750    50.1000    25.3510     2.1240     0.0040     1.4250     2.1060    91.9770 
   60.0000    50.6570    25.2460     1.8730    -0.0060     0.6970     2.1170    86.7730 
   60.1250    49.3840    25.0330     1.4710    -0.0210     0.3490     2.1060    79.4130 
   60.2500    47.8650    24.8450     1.2130    -0.0400     0.2090     2.0450    69.8850 
   60.3750    48.1760    24.7950     1.3600    -0.0480     0.2250     1.9790    58.3530 
   60.5000    51.0960    24.8270     2.3470    -0.0060     0.4010     2.0080    45.5610 
   60.6250    57.5890    24.9260     4.5080     0.1900     0.8550     2.1580    32.4520 
   60.7500    65.5810    24.8570     6.9440     0.6280     1.7080     2.2850    19.6940 
   60.8750    73.4220    24.6810     8.5220     1.3900     3.0620     2.3080     7.7450 
   61.0000    79.8780    24.4820     8.9780     2.4230     4.5120     2.2550    -2.9580 
   61.1250    83.9080    24.3520     8.8470     3.4540     5.0270     2.2100   -11.6630 
