~V
VERS. 2.00: Ver 2.00
~W
STRT.M 55.0000:
STOP.M 246.0000:
STEP.M 0.1250:
NULL. -999.2500:
UWI. DF33025:
~C
DEPT.M :
SP.MV :
GR.API :
CALI.CM :
RXO.OHMM :
RI. :
RML.OHMM :
DEN.GM/CC :
~A
# ...
  156.2500   -14.9300    74.2400    25.4230    15.8420    12.1540    13.2110     2.2890 
  156.3750   -14.8900    78.0580    25.2460    11.6760    10.1920    11.2100     2.3190 
  156.5000   -14.8600    80.5310    25.1960    10.9210     8.8970    10.0380     2.3510 
  156.6250   -14.8050    83.3590    25.1720    10.5930     8.2550     9.5830     2.3700 
  156.7500   -14.7440    86.7200    25.0870    10.0540     8.0280     9.4870     2.3770 
  156.8750   -14.6830    87.8220    24.9940     9.8580     8.1020     9.5830     2.3780 
  157.0000   -14.5850    86.6180    25.1260    10.2650     8.4340     9.8410     2.3700 
  157.1250   -14.5330    87.1520    25.4530    11.0360     9.1770    10.4740     2.3490 
  157.2500   -14.4570    87.0840    25.6510    12.5060    10.4350    11.6430     2.3250 
  157.3750   -14.3530    82.0110    25.6000    14.7620    12.2740    13.4400     2.3110 
  157.5000   -14.2250    75.8030    25.5520    18.1500    14.5430    15.7460     2.3060 
  157.6250   -14.0990    75.8440    25.5970    22.0780    16.6000    17.9190     2.3030 
  157.7500   -13.9510    78.4280    25.5800    23.8810    17.4620    18.8330     2.3020 
  157.8750   -13.7840    79.0980    25.4640    22.2700    16.4850    17.6940     2.3090 
  158.0000   -13.6340    78.0500    25.2960    18.4820    13.9380    14.7940     2.3230 
  158.1250   -13.4580    78.6740    25.1530    14.3630    10.8540    11.3800     2.3300 
  158.2500   -13.3130    81.9820    25.0650    10.6430     8.1960     8.5660     2.3270 
  158.3750   -13.1960    87.1940    25.0120     7.7070     6.2360     6.6440     2.3230 
  158.5000   -13.1210    93.0740    24.9700     5.6390     4.9910     5.5780     2.3210 
  158.6250   -13.0880    99.7760    25.0150     5.0280     4.4860     5.3310     2.3150 
  158.7500   -13.1120   105.1900    25.0570     5.4800     4.5210     5.6320     2.3100 
  158.8750   -13.1680   105.3610    25.0780     6.3280     4.9860     6.3490     2.3140 
  159.0000   -13.2370    99.3700    25.0920     7.1660     5.7300     7.3140     2.3280 
  159.1250   -13.3320    92.8110    25.1210     8.1870     6.5680     8.2940     2.3420 
  159.2500   -13.4410    91.0270    25.1610     9.1290     7.3470     9.1100     2.3490 
  159.3750   -13.5510    91.5050    25.1990     9.6190     8.0580     9.7680     2.3560 
  159.5000   -13.6400    89.9880    25.2430     9.9930     8.7490    10.3750     2.3640 
  159.6250   -13.7100    85.8860    25.3020    10.8720     9.4550    11.0700     2.3660 
  159.7500   -13.7430    84.4150    25.2450    12.3930    10.1850    11.9300     2.3570 
  159.8750   -13.7770    85.8210    25.2010    15.0490    10.9140    12.9350     2.3410 
  160.0000   -13.7860    86.2490    25.1970    18.2570    11.5300    13.8750     2.3220 
  160.1250   -13.7910    84.1040    25.2380    20.2440    11.7090    14.2270     2.3070 
  160.2500   -13.7800    83.6330    25.2790    20.8680    11.2980    13.7520     2.2990 
  160.3750   -13.7510    85.2800    25.3950    19.4590    10.3430    12.5530     2.3020 
  160.5000   -13.7010    86.4080    25.3990    15.2020     9.1240    11.0640     2.3130 
  160.6250   -13.6750    87.5810    25.3100    10.4680     8.0750     9.8920     2.3230 
  160.7500   -13.6460    89.0890    25.1440     8.2540     7.4460     9.3060     2.3220 
  160.8750   -13.6080    90.0640    25.0360     8.3510     7.2990     9.3260     2.3130 
  161.0000   -13.5850    88.3860    24.9970     9.5270     7.5640     9.8240     2.3020 
  161.1250   -13.5630    84.8550    24.9760    10.7200     8.0550    10.5290     2.2980 
  161.2500   -13.5480    82.1060    24.9320    11.0920     8.4560    11.0210     2.3010 
  161.3750   -13.5510    82.5350    24.8840    10.8330     8.6110    11.0930     2.3090 
  161.5000   -13.5790    86.1400    24.8620    10.2420     8.5540    10.8240     2.3190 
  161.6250   -13.5720    89.2170    24.8570     9.7740     8.4480    10.4990     2.3270 
  161.7500   -13.5730    87.8610    24.8320     9.6310     8.4150    10.3310     2.3340 
  161.8750   -13.5820    83.4900    24.7800     9.7170     8.4640    10.3430     2.3380 
  162.0000   -13.5850    81.1320    24.7360     9.9220     8.5660    10.4690     2.3350 
  162.1250   -13.6000    83.4540    24.6830    10.2390     8.6930    10.5950     2.3290 
  162.2500   -13.6300    84.7230    24.6070    10.2360     8.8140    10.6450     2.3260 
  162.3750   -13.6660    83.8330    24.5510     9.8660     8.8980    10.6140     2.3260 
  162.5000   -13.7010    83.7230    24.5320     9.3980     8.9220    10.5270     2.3270 
  162.6250   -13.7400    86.3850    24.6200     9.2250     8.8580    10.3550     2.3240 
  162.7500   -13.7860    86.8590    24.8750     9.2840     8.6960    10.0350     2.3200 
  162.8750   -13.8320    83.9630    25.1620     9.3790     8.4080     9.5070     2.3140 
  163.0000   -13.8840    82.1000    25.1830     9.2140     7.9850     8.8000     2.3090 
  163.1250   -13.9400    83.9130    25.4530     8.4580     7.4910     8.0890     2.3080 
  163.2500   -13.9990    86.5100    25.8540     7.5340     7.0880     7.5950     2.3160 
  163.3750   -14.0680    87.1900    26.1290     6.9240     6.9050     7.4330     2.3330 
  163.5000   -14.1400    86.5300    26.0400     7.0040     6.9880     7.6080     2.3450 
  163.6250   -14.2430    87.5830    25.6000     7.7730     7.2560     8.0100     2.3350 
  163.7500   -14.3440    89.6070    25.4140     8.5080     7.4620     8.3510     2.3120 
  163.8750   -14.4630    91.1930    25.3920     8.5240     7.4160     8.3930     2.2940 
  164.0000   -14.5910    91.7180    25.4320     7.6930     7.0320     8.0050     2.2960 
  164.1250   -14.7600    93.1610    25.5240     6.7210     6.3470     7.2100     2.3200 
  164.2500   -14.9600    95.2650    25.7630     6.1530     5.5990     6.3220     2.3440 
  164.3750   -15.2100    96.1720    26.0920     5.8210     4.9810     5.5950     2.3510 
  164.5000   -15.5370    96.5030    26.1970     5.5360     4.6640     5.2290     2.3400 
  164.6250   -15.9410    96.1850    25.8320     5.7090     4.9060     5.5260     2.3270 
  164.7500   -16.4270    93.7370    25.6160     6.8820     5.8720     6.6980     2.3180 
  164.8750   -16.9920    88.5300    25.5360     9.8390     7.9670     9.2040     2.3020 
  165.0000   -17.6410    81.7600    25.5140    15.5860    11.9200    13.7700     2.2760 
  165.1250   -18.3350    76.8380    25.5090    27.0670    19.5050    22.1110     2.2490 
  165.2500   -19.0590    74.4100    25.5100    50.2120    32.4970    32.6430     2.2300 
  165.3750   -19.8020    74.2720    25.5140    84.2720    46.8910    44.3200     2.2200 
  165.5000   -20.5390    74.2500    25.5110   110.9910    54.2050    53.1120     2.2140 
  165.6250   -21.2540    72.9480    25.4960    99.7280    51.6260    53.0410     2.2160 
  165.7500   -21.9570    72.5140    25.4480    67.7310    46.1250    49.1170     2.2280 
  165.8750   -22.6100    74.5160    25.3510    42.8730    41.7260    45.0920     2.2520 
  166.0000   -23.2230    77.6390    25.2280    36.0000    39.4080    42.4410     2.2760 
  166.1250   -23.7950    79.5370    25.2610    46.3980    39.0410    41.4850     2.2870 
  166.2500   -24.3600    79.0550    25.5740    54.8730    39.7030    41.6640     2.2860 
  166.3750   -24.9080    76.9930    25.8680    52.0610    41.1520    42.9400     2.2860 
  166.5000   -25.4370    76.2250    25.7970    39.9660    43.7820    45.9010     2.2910 
  166.6250   -25.9480    78.4070    25.3320    44.2650    49.3860    52.9620     2.2910 
  166.7500   -26.4500    79.6330    25.1290    70.5670    59.5890    66.0300     2.2770 
  166.8750   -26.9510    77.2260    25.0780   105.5460    76.5210    86.8000     2.2550 
  167.0000   -27.4320    73.4740    25.0730   130.2790   101.6860   114.9130     2.2370 
  167.1250   -27.9330    72.9290    25.0700   133.7830   133.1610   145.7690     2.2280 
  167.2500   -28.3950    72.3890    25.0650   133.9910   160.6380   171.3610     2.2150 
  167.3750   -28.8350    69.4800    25.0570   130.7520   178.2710   188.8110     2.1990 
