~V
VERS. 2.00: Ver 2.00
~W
STRT.M 60.0000:
STOP.M 268.0000:
STEP.M 0.1250:
NULL. -999.2500:
UWI. DF33031:
~C
DEPT.M :
SP.MV :
GR.API :
CALI.CM :
RXO.OHMM :
RI. :
RML.OHMM :
DEN.GM/CC :
~A
# ...
  150.0000   -22.0940    99.3070    24.4090     4.2630     4.3130     5.1900     2.3200 
  150.1250   -22.2380    96.4040    24.2390     4.3040     4.4090     5.1960     2.3270 
  150.2500   -22.3600    95.2450    24.1680     4.2300     4.4340     5.1430     2.3280 
  150.3750   -22.5410    95.9140    24.1480     4.1030     4.3980     5.0560     2.3240 
  150.5000   -22.7040    96.9010    24.1480     4.0220     4.3320     4.9600     2.3220 
  150.6250   -22.8840    96.1330    24.1490     4.0450     4.2780     4.8850     2.3330 
  150.7500   -23.0280    92.6630    24.1500     4.1040     4.2700     4.8530     2.3450 
  150.8750   -23.1850    88.9170    24.1500     4.1360     4.3260     4.8770     2.3420 
  151.0000   -23.3810    88.9700    24.1500     4.1280     4.4430     4.9540     2.3210 
  151.1250   -23.5370    93.9270    24.1610     4.1200     4.5930     5.0740     2.2950 
  151.2500   -23.7230    98.2730    24.2160     4.1870     4.7130     5.2090     2.2780 
  151.3750   -23.8400    98.6190    24.3560     4.2920     4.7520     5.3320     2.2710 
  151.5000   -23.9730    96.6040    24.6620     4.3600     4.6790     5.4080     2.2680 
  151.6250   -24.1190    95.6830    25.1440     4.3140     4.4690     5.3820     2.2680 
  151.7500   -24.2720    96.1640    25.7570     4.2080     4.1640     5.2250     2.2730 
  151.8750   -24.4840    96.4320    26.0470     4.0760     3.7980     4.9220     2.2770 
  152.0000   -24.6680    95.0040    25.8320     3.9460     3.4360     4.5330     2.2730 
  152.1250   -24.8970    92.5200    25.1320     3.9160     3.2200     4.2650     2.2580 
  152.2500   -25.1660    91.8820    24.7040     4.1500     3.2780     4.3500     2.2470 
  152.3750   -25.5120    92.0940    24.5640     5.0960     3.7760     5.0420     2.2520 
  152.5000   -25.8700    90.6740    24.5530     8.1500     4.9610     6.6550     2.2650 
  152.6250   -26.2470    86.7460    24.5530    17.5420     7.4770     9.8950     2.2660 
  152.7500   -26.6720    81.5040    24.5530    30.9120    11.7180    15.0560     2.2530 
  152.8750   -27.0520    75.5190    24.5530    40.8890    18.0450    22.3350     2.2330 
  153.0000   -27.4500    69.2710    24.5530    43.5520    26.1500    31.1690     2.2190 
  153.1250   -27.8190    64.7600    24.5530    43.1750    34.8060    40.0370     2.2170 
  153.2500   -28.1420    63.0190    24.5530    47.3170    43.0520    48.2230     2.2200 
  153.3750   -28.3790    63.3250    24.5520    58.9880    51.2170    56.5730     2.2170 
  153.5000   -28.6150    64.5800    24.5500    75.1410    59.3290    65.5880     2.2010 
  153.6250   -28.7710    63.3410    24.5490    85.5350    64.6130    72.1310     2.1800 
  153.7500   -28.8590    62.0460    24.5510    83.2570    63.8690    71.4370     2.1710 
  153.8750   -28.9570    63.8720    24.5520    71.0200    56.9960    63.1720     2.1780 
  154.0000   -29.0600    69.4940    24.5530    54.7280    47.6670    52.3420     2.1950 
  154.1250   -29.1760    74.5320    24.5530    38.9020    40.3110    44.3690     2.2090 
  154.2500   -29.2370    76.1260    24.5530    29.9230    36.1660    40.2460     2.2180 
  154.3750   -29.3170    73.6050    24.5530    31.1760    35.0340    39.6020     2.2230 
  154.5000   -29.3590    68.0780    24.5530    41.0730    36.2220    41.6510     2.2250 
  154.6250   -29.4220    63.8830    24.5530    49.0330    38.6970    45.1600     2.2300 
  154.7500   -29.5300    63.4420    24.5530    48.2930    40.7390    47.9660     2.2380 
  154.8750   -29.5610    65.6440    24.5530    42.3820    41.3500    48.7890     2.2460 
  155.0000   -29.5610    67.6840    24.5530    36.6120    40.5330    47.7000     2.2510 
  155.1250   -29.4860    67.0990    24.5530    33.9510    39.2720    46.0480     2.2530 
  155.2500   -29.3990    65.8110    24.5530    33.4300    38.6750    45.2350     2.2560 
  155.3750   -29.3070    66.5240    24.5530    34.9940    39.0470    45.6120     2.2620 
  155.5000   -29.2130    68.4300    24.5530    37.7160    40.1710    46.9120     2.2680 
  155.6250   -29.1310    69.3870    24.5530    39.7200    41.5740    48.5990     2.2680 
  155.7500   -28.9600    69.4900    24.5530    42.1130    42.7240    50.0220     2.2570 
  155.8750   -28.8120    70.1070    24.5530    45.2500    43.2500    50.6980     2.2410 
  156.0000   -28.6030    71.8110    24.5530    45.8820    42.8710    50.2500     2.2290 
  156.1250   -28.4140    72.9850    24.5530    42.4960    41.3530    48.3900     2.2320 
  156.2500   -28.2520    73.1890    24.5530    38.3860    38.9580    45.4760     2.2430 
  156.3750   -28.0910    72.4490    24.5530    34.4920    35.7930    41.6720     2.2560 
  156.5000   -27.8950    71.7290    24.5530    30.5580    32.0040    37.2040     2.2650 
  156.6250   -27.7050    74.1410    24.5530    27.2650    27.8470    32.4220     2.2700 
  156.7500   -27.6060    78.4420    24.5530    24.2370    23.8190    27.8440     2.2750 
  156.8750   -27.4840    82.2310    24.5530    20.4010    20.2840    23.8520     2.2790 
  157.0000   -27.4380    84.7700    24.5530    16.3610    17.4920    20.7150     2.2850 
  157.1250   -27.4150    89.4880    24.5530    13.8860    15.6790    18.6800     2.2920 
  157.2500   -27.4040    95.1070    24.5530    13.3310    14.6440    17.5240     2.2960 
  157.3750   -27.3840    96.3500    24.5530    13.6350    14.2830    17.1380     2.2910 
  157.5000   -27.4130    91.6600    24.5530    14.1170    14.4810    17.3850     2.2820 
  157.6250   -27.4480    86.6290    24.5530    14.7380    15.1360    18.1340     2.2780 
  157.7500   -27.3650    85.0100    24.5530    15.6840    15.9850    19.0780     2.2790 
  157.8750   -27.2940    84.9110    24.5530    16.7190    16.8210    20.0050     2.2790 
  158.0000   -27.2240    83.8750    24.5530    17.4130    17.4690    20.7160     2.2760 
  158.1250   -27.1570    82.7080    24.5530    17.6240    17.7800    21.0030     2.2720 
  158.2500   -27.1210    81.7650    24.5530    17.5520    17.8150    20.9010     2.2700 
  158.3750   -27.1020    80.4020    24.5530    17.1160    17.6520    20.5080     2.2690 
  158.5000   -27.0960    78.8130    24.5530    16.4020    17.3720    19.9860     2.2680 
  158.6250   -27.0570    78.9750    24.5530    15.8140    17.0170    19.5110     2.2720 
  158.7500   -27.1300    81.2740    24.5530    15.6180    16.6390    19.1680     2.2800 
  158.8750   -27.1980    81.6550    24.5530    15.5000    16.2860    18.9500     2.2860 
  159.0000   -27.2490    80.2910    24.5530    15.2610    15.9980    18.7970     2.2830 
  159.1250   -27.2960    81.3870    24.5530    14.9470    15.7600    18.6020     2.2730 
  159.2500   -27.3220    84.7200    24.5530    14.6470    15.4780    18.2820     2.2690 
  159.3750   -27.3160    86.6140    24.5530    14.3430    15.0850    17.8330     2.2720 
  159.5000   -27.3040    86.6720    24.5530    13.8940    14.5930    17.3100     2.2750 
  159.6250   -27.3340    88.6050    24.5530    13.3560    14.1190    16.8070     2.2750 
  159.7500   -27.3550    90.4910    24.5530    13.0320    13.7920    16.3960     2.2750 
  159.8750   -27.4230    89.5790    24.5530    12.9770    13.6720    16.1090     2.2760 
  160.0000   -27.4440    88.6800    24.5530    13.1030    13.7430    15.9490     2.2740 
  160.1250   -27.4930    89.2940    24.5530    13.4110    13.9490    15.9140     2.2710 
  160.2500   -27.5110    88.5560    24.5530    13.6800    14.1750    15.9450     2.2770 
  160.3750   -27.5520    86.7680    24.5530    13.8130    14.3760    16.0100     2.2930 
  160.5000   -27.5600    87.7050    24.5530    13.9110    14.5550    16.0960     2.3060 
  160.6250   -27.5550    89.9810    24.5530    14.0610    14.7360    16.2470     2.3030 
  160.7500   -27.5600    89.0380    24.5530    14.2690    14.9390    16.5150     2.2940 
  160.8750   -27.5140    85.8750    24.5530    14.5330    15.1560    16.9070     2.2910 
  161.0000   -27.5420    83.4340    24.5530    14.7200    15.3500    17.3540     2.2980 
  161.1250   -27.5510    83.8720    24.5530    14.7200    15.4510    17.6950     2.3070 
