~V
VERS. 2.00: Ver 2.00
~W
STRT.M 55.0000:
STOP.M 252.0000:
STEP.M 0.1250:
NULL. -999.2500:
UWI. DF33023:
~C
DEPT.M :
GR.API :
CALI.CM :
RXO.OHMM :
RI. :
RML.OHMM :
DEN.GM/CC :
SP.MV :
~A
# ...
   66.2500    71.4060    23.7930     7.0690     6.2600     6.4360     2.1590   -25.8290 
   66.3750    70.2910    23.8170     7.0030     6.2550     6.4720     2.1660   -25.6180 
   66.5000    73.7290    23.8380     6.9880     6.2400     6.4880     2.1700   -25.4140 
   66.6250    75.8760    23.8790     7.0000     6.2180     6.4970     2.1620   -25.2600 
   66.7500    74.2260    23.9240     6.9290     6.1910     6.5080     2.1530   -25.1380 
   66.8750    71.7730    23.8690     6.8230     6.1540     6.5170     2.1550   -25.0600 
   67.0000    71.8530    23.6490     6.8280     6.1060     6.5150     2.1710   -25.0280 
   67.1250    73.0040    23.3420     6.9870     6.0510     6.4980     2.1860   -25.0640 
   67.2500    73.0820    23.1080     7.1220     6.0000     6.4800     2.1890   -25.1630 
   67.3750    74.1010    22.9910     7.1600     5.9620     6.4720     2.1830   -25.3200 
   67.5000    75.5320    22.9890     7.1460     5.9450     6.4850     2.1780   -25.5410 
   67.6250    77.1100    23.0810     7.1290     5.9640     6.5350     2.1820   -25.8320 
   67.7500    78.4300    23.1800     7.1360     6.0180     6.6290     2.1870   -26.1900 
   67.8750    78.4450    23.2110     7.2090     6.1090     6.7780     2.1820   -26.6020 
   68.0000    76.2470    23.1430     7.3610     6.2350     6.9860     2.1710   -27.0440 
   68.1250    73.6030    23.0490     7.5340     6.3880     7.2400     2.1630   -27.5020 
   68.2500    73.5710    23.0260     7.6920     6.5420     7.4930     2.1640   -27.9660 
   68.3750    74.1550    23.0680     7.8640     6.6680     7.6920     2.1690   -28.4300 
   68.5000    72.7240    23.1100     8.0620     6.7380     7.7870     2.1700   -28.8930 
   68.6250    69.4810    23.1150     8.2260     6.7170     7.7320     2.1680   -29.3540 
   68.7500    67.6440    23.1130     8.3050     6.6230     7.5770     2.1700   -29.7910 
   68.8750    69.1540    23.1120     8.3010     6.4850     7.3870     2.1780   -30.1800 
   69.0000    71.7310    23.1120     8.2340     6.3440     7.2320     2.1860   -30.5130 
   69.1250    71.2080    23.1130     8.1480     6.2430     7.1790     2.1880   -30.7620 
   69.2500    68.6650    23.1100     8.2570     6.1860     7.2080     2.1830   -30.9360 
   69.3750    67.5570    23.1100     8.7830     6.1530     7.2690     2.1740   -31.0430 
   69.5000    68.9610    23.1240     9.5310     6.1070     7.2910     2.1650   -31.0840 
   69.6250    70.8480    23.1590     9.6360     6.0060     7.2080     2.1660   -31.0820 
   69.7500    73.1740    23.2000     8.8440     5.8530     7.0500     2.1760   -31.0750 
   69.8750    74.8750    23.2340     7.7250     5.6750     6.8750     2.1850   -31.1040 
   70.0000    73.4530    23.2620     7.0460     5.5070     6.7450     2.1790   -31.2160 
   70.1250    69.6350    23.2570     7.1570     5.3900     6.7150     2.1550   -31.4300 
   70.2500    68.1090    23.2060     7.5460     5.3260     6.7660     2.1320   -31.7090 
   70.3750    68.8920    23.1350     7.7880     5.3050     6.8670     2.1260   -32.0320 
   70.5000    68.3320    23.0880     7.7880     5.3100     6.9790     2.1400   -32.3780 
   70.6250    66.2480    23.0890     7.7740     5.3230     7.0690     2.1590   -32.6850 
   70.7500    65.0420    23.1090     7.8730     5.3330     7.1360     2.1650   -32.9270 
   70.8750    64.3480    23.0890     7.9930     5.3400     7.1930     2.1630   -33.0660 
   71.0000    63.3990    23.0050     8.0600     5.3480     7.2540     2.1620   -33.0710 
   71.1250    63.9580    22.9900     8.0600     5.3570     7.3210     2.1630   -32.9220 
   71.2500    67.0280    23.0710     8.0270     5.3580     7.3640     2.1610   -32.6530 
   71.3750    71.3900    23.1280     7.9400     5.3310     7.3400     2.1560   -32.2860 
   71.5000    75.9390    23.0970     7.7510     5.2560     7.2080     2.1570   -31.8410 
   71.6250    77.8500    23.0800     7.4460     5.1180     6.9500     2.1710   -31.3380 
   71.7500    76.5560    23.1290     7.1320     4.9550     6.6610     2.1870   -30.8260 
   71.8750    75.2180    23.1690     6.9350     4.8210     6.4560     2.1950   -30.3240 
   72.0000    76.4300    23.1200     6.9930     4.7720     6.4400     2.1930   -29.8550 
   72.1250    77.9100    22.9210     7.4000     4.8530     6.6750     2.1850   -29.4300 
   72.2500    77.3220    22.6760     7.9770     5.0130     7.0330     2.1790   -29.0540 
   72.3750    76.7240    22.6660     8.4780     5.1730     7.3400     2.1790   -28.7150 
   72.5000    77.9470    22.9830     8.5570     5.2360     7.4060     2.1930   -28.4250 
   72.6250    80.2330    23.2890     7.8530     5.1150     7.0990     2.2200   -28.2310 
   72.7500    82.6820    23.2300     6.7890     4.8720     6.6040     2.2530   -28.1200 
   72.8750    84.0440    22.9210     5.9520     4.6030     6.1310     2.2770   -28.1080 
   73.0000    82.7420    22.6770     5.6750     4.4020     5.8460     2.2800   -28.2250 
   73.1250    79.0710    22.6120     5.9450     4.3520     5.8540     2.2510   -28.5140 
   73.2500    76.5730    22.5680     6.4850     4.4320     6.0660     2.2110   -28.9230 
   73.3750    75.8070    22.5120     7.1430     4.6020     6.3800     2.1770   -29.4260 
   73.5000    75.6230    22.5480     7.7200     4.8030     6.6740     2.1640   -29.9570 
   73.6250    73.2540    22.7090     8.0200     4.9670     6.8300     2.1690   -30.4150 
   73.7500    70.7150    22.8950     8.1550     5.0650     6.8390     2.1770   -30.7550 
   73.8750    71.4440    23.1060     8.1490     5.0900     6.7310     2.1860   -30.9380 
   74.0000    75.2580    23.3690     7.8710     5.0600     6.5690     2.1990   -30.8890 
   74.1250    78.5310    23.6010     7.2420     5.0160     6.4540     2.2160   -30.5340 
   74.2500    82.8530    23.7050     6.5630     5.0010     6.4470     2.2320   -29.9720 
   74.3750    88.8180    23.7290     6.1190     5.0240     6.5390     2.2420   -29.2670 
   74.5000    92.5430    23.7390     6.1000     5.0570     6.6570     2.2460   -28.4740 
   74.6250    90.9610    23.7350     6.3650     5.0260     6.6540     2.2470   -27.6460 
   74.7500    91.5790    23.8260     6.2680     4.8840     6.4450     2.2520   -26.8410 
   74.8750    98.6080    24.1440     5.5360     4.6250     6.0300     2.2680   -26.0840 
   75.0000   107.5990    24.6280     4.5530     4.2960     5.5050     2.3000   -25.4140 
   75.1250   110.3070    25.0220     3.9970     3.9740     5.0080     2.3410   -24.9120 
   75.2500   107.9050    25.2500     3.8790     3.7170     4.6210     2.3740   -24.5330 
   75.3750   104.7200    25.4020     3.9440     3.5580     4.3940     2.3930   -24.2380 
   75.5000   104.9160    25.5090     4.0900     3.5420     4.4100     2.4020   -24.0470 
   75.6250   106.5660    25.4600     4.4790     3.7920     4.8980     2.4130   -24.0010 
   75.7500   104.6930    25.2590     5.5600     4.3830     5.9840     2.4450   -24.0860 
   75.8750    97.1750    25.0090     8.6560     5.4050     7.8120     2.5070   -24.3220 
   76.0000    84.9510    24.8260    15.6770     6.8780    10.3860     2.5830   -24.7060 
   76.1250    71.6430    24.7390    23.8230     8.5740    13.1950     2.6040   -25.2450 
   76.2500    62.9560    24.6770    24.7350     9.8040    14.8890     2.5380   -25.9020 
   76.3750    61.1680    24.6120    18.0230    10.0160    14.5420     2.4170   -26.6530 
   76.5000    65.4680    24.5560    10.8890     9.2670    12.6280     2.3010   -27.4730 
   76.6250    69.9960    24.5170     8.4720     8.1490    10.5590     2.2340   -28.3160 
   76.7500    70.5630    24.4980     8.1390     7.2310     9.1660     2.2040   -29.1150 
   76.8750    67.3160    24.5290     8.1290     6.6670     8.5170     2.1990   -29.8380 
   77.0000    63.1140    24.6200     7.9660     6.4520     8.4560     2.2020   -30.4650 
   77.1250    61.2760    24.6970     7.8260     6.5440     8.8290     2.1940   -30.9280 
   77.2500    60.8710    24.6690     7.8090     6.8060     9.4030     2.1690   -31.2630 
   77.3750    60.9110    24.5070     8.4570     7.1590    10.0620     2.1310   -31.5020 
