~V
VERS. 2.00: Ver 2.00
~W
STRT.M 50.0000:
STOP.M 235.0000:
STEP.M 0.1250:
NULL. -999.2500:
UWI. DF33017:
~C
DEPT.M :
GR.API :
CALI.CM :
RXO.OHMM :
RI. :
RML.OHMM :
DEN.GM/CC :
SP.MV :
~A
# ...
  106.2500    80.1000    26.6140    11.2400     8.6510     9.2320     2.3770   -40.2080 
  106.3750    80.0550    26.5810    10.3680     7.5110     8.4390     2.3070   -40.3270 
  106.5000    79.2060    26.8730     9.7520     7.0760     8.2070     2.2550   -40.3390 
  106.6250    77.0190    27.1530     9.4240     7.0840     8.3410     2.2230   -40.2340 
  106.7500    74.4950    27.2400     9.4860     7.1400     8.5810     2.2040   -40.0430 
  106.8750    72.3440    27.2370     9.7240     7.1000     8.7950     2.1930   -39.7890 
  107.0000    71.8320    27.1580     9.7970     6.9990     8.9020     2.1920   -39.5160 
  107.1250    73.6140    27.1320     9.6110     7.0020     8.8600     2.1960   -39.2760 
  107.2500    75.7950    27.1240     9.3400     7.1660     8.7230     2.2010   -39.0740 
  107.3750    76.0210    27.1140     9.1420     7.4170     8.5460     2.2070   -38.9030 
  107.5000    74.3500    27.0740     9.1040     7.6060     8.3870     2.2120   -38.7290 
  107.6250    74.5200    27.0070     9.2190     7.5630     8.2840     2.2140   -38.6040 
  107.7500    76.4100    26.9800     9.3710     7.3180     8.2240     2.2130   -38.5030 
  107.8750    77.3180    27.0670     9.4750     6.9950     8.1890     2.2070   -38.4120 
  108.0000    76.1800    27.2210     9.4610     6.7600     8.1690     2.1980   -38.3260 
  108.1250    74.9240    27.3870     9.3340     6.7600     8.1610     2.1940   -38.2320 
  108.2500    75.7800    27.5330     9.1560     6.9060     8.1620     2.1990   -38.1590 
  108.3750    76.4000    27.6440     9.0460     7.0410     8.1690     2.2050   -38.0900 
  108.5000    74.7180    27.8050     8.9720     7.0160     8.1770     2.2030   -38.0400 
  108.6250    72.8550    28.1620     8.7940     6.7680     8.1690     2.1990   -37.9790 
  108.7500    76.0750    28.4680     8.5500     6.4660     8.1380     2.2020   -37.9180 
  108.8750    81.9680    28.6500     8.3210     6.2950     8.0960     2.2090   -37.8290 
  109.0000    84.4400    28.7120     8.2030     6.3900     8.0920     2.2100   -37.7100 
  109.1250    79.9760    28.6910     8.2380     6.8050     8.2320     2.2060   -37.5760 
  109.2500    73.4320    28.5720     8.4560     7.3810     8.5780     2.2070   -37.4240 
  109.3750    70.3240    28.2940     9.0470     7.9900     9.1620     2.2160   -37.2530 
  109.5000    71.0700    27.8880    10.1380     8.5510     9.9690     2.2400   -37.0760 
  109.6250    73.0710    27.5050    11.4300     9.0660    10.9410     2.2890   -36.9110 
  109.7500    75.4660    27.2230    12.4590     9.6380    11.9220     2.3460   -36.7340 
  109.8750    78.9160    27.1010    13.0640    10.3450    12.7940     2.3870   -36.5850 
  110.0000    83.2120    27.1350    13.2860    11.1600    13.4770     2.4000   -36.4540 
  110.1250    86.0170    26.8780    13.3320    11.8710    13.9010     2.3910   -36.3270 
  110.2500    85.4190    26.4720    13.4250    12.2210    14.0790     2.3830   -36.1790 
  110.3750    82.7940    26.1380    13.5760    12.0720    13.9840     2.3820   -36.0490 
  110.5000    81.7340    25.9400    13.5880    11.4770    13.6230     2.3880   -35.9110 
  110.6250    84.5420    25.7620    13.0610    10.6940    13.0560     2.3930   -35.7460 
  110.7500    86.4420    25.6330    12.2410    10.0920    12.4560     2.3920   -35.5750 
  110.8750    85.5290    25.5820    11.8770     9.8480    11.9550     2.3840   -35.3820 
  111.0000    83.6940    25.5850    12.3480     9.9810    11.6720     2.3720   -35.1670 
  111.1250    82.9490    25.6230    13.2360    10.4400    11.7960     2.3640   -34.9100 
  111.2500    83.1420    25.6900    14.1530    11.0910    12.4000     2.3650   -34.6210 
  111.3750    83.4150    25.7880    16.0330    11.9740    13.6060     2.3740   -34.2800 
  111.5000    81.6150    26.0060    20.4200    13.2170    15.4930     2.3890   -33.9340 
  111.6250    77.0980    26.4750    27.1790    14.9220    17.9420     2.4190   -33.6110 
  111.7500    74.7770    26.8980    31.0170    16.5780    19.9870     2.4650   -33.3330 
  111.8750    76.5500    27.1210    29.4920    17.2660    20.2860     2.5200   -33.1200 
  112.0000    80.1520    27.1130    24.6950    16.2280    18.1400     2.5670   -32.9890 
  112.1250    82.8410    26.9670    18.4800    13.5870    14.4960     2.5840   -32.9690 
  112.2500    85.5960    26.5950    12.6640    10.6940    11.2300     2.5670   -33.0530 
  112.3750    89.2690    26.0390     9.1120     8.2950     8.9720     2.5210   -33.2370 
  112.5000    92.6780    25.5280     8.4100     6.7050     7.7430     2.4510   -33.4950 
  112.6250    92.5220    25.3020     9.1420     6.1120     7.4500     2.3680   -33.7700 
  112.7500    89.5220    25.2310     9.9450     6.2490     7.6940     2.2940   -34.0230 
  112.8750    86.6430    25.2220    10.4160     6.8590     8.2240     2.2440   -34.1980 
  113.0000    85.2850    25.2270    10.5940     7.5770     8.7830     2.2190   -34.2640 
  113.1250    83.3150    25.2330    10.6150     8.0100     9.1620     2.2140   -34.1540 
  113.2500    80.4630    25.2480    10.5710     8.1240     9.4000     2.2150   -33.8790 
  113.3750    78.8070    25.2980    10.4050     8.0870     9.5870     2.2150   -33.4360 
  113.5000    78.2900    25.4640    10.1180     8.0740     9.7320     2.2120   -32.8730 
  113.6250    77.3510    25.8110     9.9440     8.0850     9.6890     2.2100   -32.2140 
  113.7500    77.0970    26.1650     9.9580     7.9100     9.3350     2.2160   -31.5220 
  113.8750    79.1960    26.3780     9.7220     7.3600     8.6320     2.2330   -30.8660 
  114.0000    84.3310    26.5350     8.4600     6.4480     7.6960     2.2670   -30.2870 
  114.1250    92.0960    26.7510     6.8280     5.4600     6.7870     2.3140   -29.8920 
  114.2500    98.2800    27.0110     5.7470     4.7390     6.1070     2.3550   -29.6830 
  114.3750   101.9870    27.1610     5.3860     4.4050     5.7300     2.3740   -29.6610 
  114.5000   104.0670    27.0950     5.3660     4.3990     5.6640     2.3670   -29.8350 
  114.6250   103.0440    26.7330     5.8730     4.5890     5.9230     2.3350   -30.2270 
  114.7500    96.9080    26.1870     6.6840     4.8530     6.3910     2.2880   -30.7440 
  114.8750    86.9710    25.8820     7.3640     5.2290     6.9920     2.2380   -31.3300 
  115.0000    78.7890    26.0110     7.7820     5.7750     7.6430     2.2070   -31.9460 
  115.1250    76.2130    26.0570     8.2310     6.4250     8.2200     2.2110   -32.4980 
  115.2500    76.3700    26.0280     8.5830     6.9220     8.6130     2.2340   -32.9460 
  115.3750    76.9270    25.9470     8.7480     7.0920     8.7680     2.2560   -33.2850 
  115.5000    77.2910    25.8390     8.8250     6.9530     8.7030     2.2640   -33.4830 
  115.6250    77.7440    25.6930     9.0070     6.6930     8.4570     2.2530   -33.5330 
  115.7500    77.1840    25.6330     9.1350     6.4920     8.1460     2.2330   -33.4830 
  115.8750    75.7550    25.6330     9.0860     6.3460     7.8540     2.2160   -33.3500 
  116.0000    75.6660    25.6410     8.7570     6.1810     7.6490     2.2120   -33.1470 
  116.1250    77.0330    25.5830     8.3980     5.9870     7.6020     2.2260   -32.8910 
  116.2500    78.4820    25.4410     8.3320     5.8900     7.7180     2.2390   -32.6470 
  116.3750    77.9470    25.2610     8.6750     6.0160     7.9910     2.2410   -32.4080 
  116.5000    75.1200    25.1200     9.3550     6.3590     8.3490     2.2350   -32.1590 
  116.6250    72.5500    25.0220    10.1460     6.6460     8.5620     2.2310   -31.8690 
  116.7500    74.1650    24.9290    10.3680     6.5570     8.4020     2.2290   -31.5400 
  116.8750    77.3110    24.8930     9.7170     6.0250     7.7950     2.2240   -31.1920 
  117.0000    79.7640    25.0490     8.2220     5.2610     6.8970     2.2250   -30.8660 
  117.1250    83.7430    25.5290     6.4410     4.6010     6.0280     2.2520   -30.6480 
  117.2500    89.8310    26.0020     5.2260     4.1940     5.4420     2.3020   -30.5180 
  117.3750    95.2190    26.0870     4.9230     4.0450     5.2570     2.3460   -30.5530 
