~V
VERS. 2.00: Ver 2.00
~W
STRT.M 60.0000:
STOP.M 236.0000:
STEP.M 0.1250:
NULL. -999.2500:
UWI. DF33015:
~C
DEPT.M :
DEN.GM/CC :
GR.API :
RML.OHMM :
RI. :
RXO.OHMM :
CALI.CM :
SP.MV :
~A
# ...
  161.2500     2.2480    54.8570   280.1550   222.6730   133.9090    23.8850   -29.1120 
  161.3750     2.2380    53.5840   295.3280   235.2810   139.5320    23.8750   -28.7800 
  161.5000     2.2300    53.9040   295.2560   237.3240   146.4170    23.8540   -28.5780 
  161.6250     2.2270    55.0680   274.1380   224.1250   150.7040    23.8290   -28.2260 
  161.7500     2.2290    56.2660   238.6720   199.7070   144.6950    23.7950   -27.9770 
  161.8750     2.2360    56.5800   196.7660   169.0880   126.6510    23.7650   -27.6600 
  162.0000     2.2460    57.8190   155.6610   138.3540   101.5950    23.7530   -27.4310 
  162.1250     2.2550    61.5760   123.8760   113.7010    78.3570    23.7530   -27.2340 
  162.2500     2.2600    64.5910   103.0970    96.5040    64.3980    23.7530   -26.9910 
  162.3750     2.2610    63.8590    93.9010    86.4460    60.3780    23.7530   -26.8490 
  162.5000     2.2570    60.9310    90.3100    82.2130    63.8110    23.7530   -26.6130 
  162.6250     2.2530    60.0070    91.1010    82.7090    70.4610    23.7530   -26.5370 
  162.7500     2.2490    60.9040    94.0070    85.6350    75.1540    23.7530   -26.4020 
  162.8750     2.2460    62.8430    97.8700    89.8080    77.2630    23.7530   -26.3230 
  163.0000     2.2440    64.6130   101.8920    94.3290    78.3400    23.7550   -26.2410 
  163.1250     2.2450    65.4910   105.5930    98.5730    81.2740    23.7580   -26.1160 
  163.2500     2.2470    65.1310   108.7220   102.2430    86.3430    23.7610   -26.0940 
  163.3750     2.2500    64.3650   110.6890   104.8680    91.1650    23.7620   -25.9860 
  163.5000     2.2530    65.1550   110.4030   105.5560    92.9830    23.7630   -25.9900 
  163.6250     2.2550    66.9880   105.6790   102.3250    90.8490    23.7590   -25.8740 
  163.7500     2.2550    67.9070    96.0950    94.5380    86.5870    23.7620   -25.7710 
  163.8750     2.2570    67.7910    82.1050    82.2270    80.3460    23.7990   -25.6530 
  164.0000     2.2640    68.5010    65.8680    67.0460    73.6380    23.8730   -25.5330 
  164.1250     2.2760    68.6490    51.1290    52.4310    59.3500    23.9530   -25.4940 
  164.2500     2.2910    67.3620    40.2360    41.1610    39.2590    23.9040   -25.3770 
  164.3750     2.3060    67.3710    33.7850    34.1120    25.3570    23.8570   -25.3370 
  164.5000     2.3160    70.1140    31.3570    30.9830    21.6640    23.8410   -25.2580 
  164.6250     2.3140    73.2150    32.4080    31.3140    29.0160    23.8370   -25.3050 
  164.7500     2.3080    74.6430    35.1830    33.4900    42.2790    23.8340   -25.3340 
  164.8750     2.3020    73.9570    38.5760    36.5230    48.8710    23.8360   -25.4180 
  165.0000     2.3030    72.4390    41.7120    39.5470    44.9490    23.8370   -25.4530 
  165.1250     2.3070    71.5450    44.1700    41.9860    40.3350    23.8350   -25.5630 
  165.2500     2.3090    70.8370    46.5410    44.1770    38.6290    23.8340   -25.6850 
  165.3750     2.3040    69.3650    49.6210    46.7850    40.7100    23.8340   -25.8300 
  165.5000     2.2910    68.2480    53.9350    50.3350    47.6630    23.8330   -25.9600 
  165.6250     2.2760    69.4500    59.4300    54.8510    57.7840    23.8350   -26.0290 
  165.7500     2.2640    70.3130    65.0040    59.4010    63.5850    23.8380   -26.1700 
  165.8750     2.2560    69.4530    69.6630    63.0920    64.1040    23.8390   -26.2120 
  166.0000     2.2520    67.6160    72.7090    65.2950    63.8810    23.8370   -26.3440 
  166.1250     2.2520    65.2630    73.8110    65.7220    64.3560    23.8390   -26.3900 
  166.2500     2.2540    63.7760    73.9040    65.2450    63.9600    23.8420   -26.4270 
  166.3750     2.2570    63.9700    73.8250    64.6410    61.9530    23.8440   -26.4130 
  166.5000     2.2600    64.8720    74.2450    64.5380    60.2130    23.8350   -26.3440 
  166.6250     2.2620    64.8030    75.5840    65.3450    61.6270    23.8110   -26.3150 
  166.7500     2.2600    62.9760    77.4790    66.7410    64.9210    23.7910   -26.2070 
  166.8750     2.2570    60.8490    79.3770    68.2570    69.0830    23.7800   -26.1990 
  167.0000     2.2540    60.5590    80.6270    69.3340    71.9340    23.7730   -26.0880 
  167.1250     2.2540    63.2170    80.5560    69.3720    69.3200    23.7530   -26.0350 
  167.2500     2.2570    64.6650    79.4500    68.5100    64.4240    23.7130   -25.9720 
  167.3750     2.2610    63.8690    77.9200    67.1780    61.2480    23.6800   -25.9280 
  167.5000     2.2650    63.0110    76.7500    65.9990    60.6550    23.6550   -25.9230 
  167.6250     2.2650    63.7390    76.7110    65.6440    59.6980    23.6230   -25.8410 
  167.7500     2.2630    65.0550    77.6910    66.1290    58.1550    23.5850   -25.8190 
  167.8750     2.2580    66.3050    79.3030    67.1990    58.7850    23.5700   -25.7520 
  168.0000     2.2540    68.6990    81.0200    68.4450    62.8900    23.5670   -25.7950 
  168.1250     2.2510    70.9460    82.4140    69.5040    68.3950    23.5680   -25.6970 
  168.2500     2.2490    70.4310    83.6960    70.4800    69.5260    23.5690   -25.6550 
  168.3750     2.2470    66.7290    85.5160    71.8570    65.6310    23.5730   -25.5300 
  168.5000     2.2440    62.2740    88.6540    74.2840    61.7530    23.5750   -25.4350 
  168.6250     2.2390    62.3080    93.6660    78.3710    62.8310    23.5730   -25.4040 
  168.7500     2.2340    64.7510    99.3310    83.3180    68.7620    23.5700   -25.2980 
  168.8750     2.2290    66.5810   103.6850    87.6670    77.7770    23.5700   -25.2270 
  169.0000     2.2250    66.6720   104.3950    89.5020    87.4930    23.5730   -25.0200 
  169.1250     2.2210    66.6960    99.0170    86.5530    92.2350    23.5730   -24.9410 
  169.2500     2.2190    67.9460    89.2500    79.6620    89.1570    23.5710   -24.8030 
  169.3750     2.2220    68.6610    77.6540    70.5710    76.2470    23.5710   -24.6610 
  169.5000     2.2300    68.0760    66.8470    61.4620    56.0590    23.5690   -24.5560 
  169.6250     2.2450    68.0140    58.7640    54.2790    42.3020    23.5680   -24.3590 
  169.7500     2.2630    69.8160    53.1680    49.2310    37.4050    23.5690   -24.2480 
  169.8750     2.2820    70.7820    49.5740    46.0410    38.0910    23.5730   -24.0770 
  170.0000     2.2980    69.8630    47.3880    44.2160    39.1040    23.5810   -24.0070 
  170.1250     2.3070    69.8480    46.2410    43.4120    38.2180    23.5890   -23.8690 
  170.2500     2.3090    70.6680    45.6740    43.1680    39.3380    23.5920   -23.7470 
  170.3750     2.3070    71.7320    45.4720    43.2670    40.7260    23.5830   -23.7120 
  170.5000     2.3020    73.1220    45.3480    43.4300    40.1660    23.5770   -23.6280 
  170.6250     2.2960    73.8860    44.7860    43.1580    39.8160    23.5890   -23.6700 
  170.7500     2.2900    72.6120    43.4160    42.0780    41.8000    23.6190   -23.6410 
  170.8750     2.2870    70.9920    41.0910    40.0130    42.5400    23.6530   -23.6570 
  171.0000     2.2880    71.4950    38.0470    37.1360    37.3770    23.6770   -23.6220 
  171.1250     2.2960    72.7540    35.0290    34.0700    30.2670    23.6850   -23.7030 
  171.2500     2.3070    74.6430    33.0250    31.7380    26.4760    23.6690   -23.7750 
  171.3750     2.3190    76.0290    32.9260    30.9590    25.0240    23.6100   -23.8830 
  171.5000     2.3270    74.0730    35.5960    32.5650    24.5260    23.4990   -23.9950 
  171.6250     2.3260    69.6360    42.5390    38.0480    27.4940    23.4180   -24.1140 
  171.7500     2.3160    66.3770    53.6060    47.4320    38.5330    23.3890   -24.3330 
  171.8750     2.2990    63.9530    68.3430    60.3850    61.6720    23.3840   -24.5260 
  172.0000     2.2810    60.9920    85.1990    75.4860    85.6580    23.3830   -24.8430 
  172.1250     2.2630    61.0830   101.1010    89.9310    84.2530    23.3820   -25.0540 
  172.2500     2.2490    64.8050   113.1860   101.1530    77.3930    23.3810   -25.3160 
  172.3750     2.2370    67.1090   120.1520   108.0310    77.2080    23.3730   -25.5740 
