~V
VERS. 2.00: Ver 2.00
~W
STRT.M 55.0000:
STOP.M 252.0000:
STEP.M 0.1250:
NULL. -999.2500:
UWI. DF33023:
~C
DEPT.M :
GR.API :
CALI.CM :
RXO.OHMM :
RI. :
RML.OHMM :
DEN.GM/CC :
SP.MV :
~A
# ...
  122.5000    63.7420    23.2270     8.0300     6.1060     7.5490     2.2020   -24.5700 
  122.6250    65.2820    23.3560     7.8810     6.1370     7.6560     2.2030   -24.7570 
  122.7500    65.1880    23.4810     7.7270     6.1610     7.7200     2.2110   -24.8380 
  122.8750    64.4580    23.5240     7.6680     6.1770     7.7520     2.2130   -24.8420 
  123.0000    62.8470    23.4720     7.6940     6.1890     7.7690     2.2010   -24.7890 
  123.1250    61.6530    23.3910     7.7350     6.2020     7.7830     2.1830   -24.6810 
  123.2500    62.4750    23.3400     7.7880     6.2150     7.7950     2.1770   -24.5530 
  123.3750    64.4340    23.3230     7.8270     6.2220     7.7920     2.1810   -24.4390 
  123.5000    65.7560    23.3850     7.7700     6.2120     7.7640     2.1870   -24.3450 
  123.6250    65.7650    23.5480     7.6190     6.1810     7.7020     2.1890   -24.2710 
  123.7500    66.4010    23.7210     7.5210     6.1400     7.6310     2.1910   -24.2260 
  123.8750    66.6680    23.8740     7.5320     6.1070     7.5770     2.1920   -24.2100 
  124.0000    65.5180    23.9970     7.6100     6.1030     7.5680     2.1920   -24.2130 
  124.1250    65.6470    24.0190     7.7180     6.1530     7.6330     2.1970   -24.2330 
  124.2500    67.4950    23.9210     7.8760     6.2540     7.7640     2.2080   -24.2520 
  124.3750    68.4070    23.8090     8.0970     6.3950     7.9440     2.2140   -24.2430 
  124.5000    67.2290    23.7740     8.3300     6.5560     8.1430     2.2120   -24.2040 
  124.6250    67.2190    23.7520     8.4830     6.7000     8.3110     2.2080   -24.1450 
  124.7500    70.1550    23.6750     8.5760     6.7940     8.4010     2.2110   -24.0670 
  124.8750    73.7580    23.5970     8.6700     6.8170     8.3890     2.2150   -23.9740 
  125.0000    75.1880    23.5770     8.7120     6.7690     8.2870     2.2090   -23.8820 
  125.1250    74.0110    23.5910     8.4860     6.6710     8.1370     2.1970   -23.8070 
  125.2500    72.3770    23.5490     8.0570     6.5670     8.0080     2.1940   -23.7600 
  125.3750    70.3460    23.4530     7.6850     6.4890     7.9450     2.2050   -23.7300 
  125.5000    66.9210    23.3740     7.5780     6.4590     7.9660     2.2200   -23.7060 
  125.6250    62.8280    23.3740     7.7400     6.4920     8.0720     2.2280   -23.6570 
  125.7500    60.3290    23.3940     7.9940     6.5750     8.2330     2.2290   -23.5620 
  125.8750    59.8450    23.3750     8.2790     6.7140     8.4540     2.2340   -23.3900 
  126.0000    60.6760    23.3190     8.5700     6.9290     8.7700     2.2490   -23.1100 
  126.1250    63.4820    23.2650     8.8740     7.2850     9.2880     2.2850   -22.6700 
  126.2500    65.0930    23.2600     9.4030     7.8200    10.0650     2.3440   -22.0830 
  126.3750    63.8030    23.3640    10.4240     8.5680    11.1290     2.4290   -21.3760 
  126.5000    60.3730    23.6460    11.9720     9.5150    12.4300     2.5280   -20.5880 
  126.6250    58.2260    24.0760    14.0280    10.6190    13.8850     2.6060   -19.7760 
  126.7500    56.6010    24.4320    16.3250    11.7940    15.4110     2.6450   -18.9800 
  126.8750    54.1050    24.6060    18.1660    13.0350    17.0470     2.6500   -18.2410 
  127.0000    52.0780    24.6450    18.7600    14.3610    18.8420     2.6460   -17.5960 
  127.1250    52.0170    24.6390    18.6370    15.6290    20.5270     2.6520   -17.1000 
  127.2500    52.9520    24.6100    19.6570    16.3420    21.2430     2.6610   -16.7320 
  127.3750    55.3880    24.5600    21.6510    15.8700    20.0170     2.6560   -16.4820 
  127.5000    61.4290    24.5320    21.6520    14.0320    16.8080     2.6240   -16.3270 
  127.6250    72.4380    24.5350    16.9550    11.4750    12.9890     2.5630   -16.2490 
  127.7500    82.0420    24.5540    10.9200     9.2810    10.1000     2.5010   -16.2080 
  127.8750    83.2560    24.5970     7.1100     7.8970     8.6010     2.4650   -16.1920 
  128.0000    74.6430    24.6370     7.0980     7.4390     8.5060     2.4670   -16.2000 
  128.1250    63.6180    24.6080    11.3830     8.0730     9.9550     2.5040   -16.2130 
  128.2500    56.7880    24.5340    17.0370     9.6230    12.6190     2.5540   -16.2250 
  128.3750    52.6520    24.4760    20.4950    11.9080    16.1220     2.5960   -16.2410 
  128.5000    49.1550    24.4640    20.4440    14.4020    19.5190     2.6220   -16.2540 
  128.6250    48.4170    24.4670    19.4290    16.1270    21.2520     2.6390   -16.2550 
  128.7500    50.5210    24.4670    19.5680    16.8120    21.3580     2.6540   -16.2610 
  128.8750    51.8930    24.4670    19.9540    16.8380    20.7730     2.6600   -16.2640 
  129.0000    50.2780    24.4680    19.8150    16.7880    20.4230     2.6540   -16.2590 
  129.1250    48.5910    24.4680    19.8720    17.1250    20.8860     2.6480   -16.2550 
  129.2500    49.2020    24.4510    21.3280    17.9120    22.0960     2.6510   -16.2690 
  129.3750    50.6710    24.4130    24.4140    19.1040    23.9030     2.6610   -16.3040 
  129.5000    50.8160    24.3600    27.7490    20.4520    25.8340     2.6700   -16.3570 
  129.6250    50.4010    24.3210    28.8210    21.1280    26.5330     2.6680   -16.4320 
  129.7500    50.9460    24.3020    28.1930    20.3300    24.9310     2.6470   -16.5220 
  129.8750    52.8230    24.2860    26.5140    17.8710    21.0720     2.6000   -16.6240 
  130.0000    57.0730    24.2510    22.5610    14.4420    16.2390     2.5330   -16.7320 
  130.1250    65.6850    24.2240    15.8190    11.1860    12.0730     2.4610   -16.8540 
  130.2500    74.7700    24.2420     9.8940     8.7060     9.1230     2.3940   -16.9740 
  130.3750    81.5140    24.2950     6.8740     7.0560     7.3180     2.3380   -17.0900 
  130.5000    85.7260    24.3470     6.2360     6.0900     6.4000     2.3040   -17.2110 
  130.6250    86.9830    24.3730     6.4690     5.6910     6.1580     2.3000   -17.3530 
  130.7500    84.8840    24.3730     6.5370     5.5970     6.2190     2.3030   -17.5520 
  130.8750    80.7880    24.3250     6.3890     5.6690     6.3880     2.2930   -17.8280 
  131.0000    78.2930    24.2020     6.1680     5.8060     6.5480     2.2730   -18.1910 
  131.1250    77.4150    23.9540     6.0430     5.9590     6.6840     2.2570   -18.6610 
  131.2500    76.1410    23.5970     6.1320     6.1270     6.8410     2.2490   -19.2330 
  131.3750    74.8900    23.2550     6.4430     6.3130     7.0330     2.2400   -19.8790 
  131.5000    74.1020    23.0870     6.8410     6.4990     7.2310     2.2330   -20.5580 
  131.6250    73.2290    23.1380     7.1030     6.6360     7.3620     2.2330   -21.1960 
  131.7500    71.5510    23.2320     7.1820     6.6920     7.3930     2.2370   -21.7390 
  131.8750    70.2130    23.2800     7.1660     6.6630     7.3370     2.2380   -22.1540 
  132.0000    69.2810    23.2980     7.1570     6.5870     7.2530     2.2310   -22.4130 
  132.1250    67.9020    23.3280     7.1750     6.5400     7.2510     2.2180   -22.4640 
  132.2500    67.1010    23.3510     7.2380     6.5910     7.4040     2.2130   -22.3150 
  132.3750    67.6720    23.3690     7.4420     6.7600     7.7120     2.2240   -21.9870 
  132.5000    68.9920    23.4640     7.8200     7.0000     8.0800     2.2550   -21.5240 
  132.6250    70.7960    23.7750     8.4160     7.1760     8.2900     2.2950   -20.9800 
  132.7500    74.3140    24.2180     9.0470     7.1670     8.1880     2.3230   -20.4020 
  132.8750    78.7490    24.6080     9.1110     6.9370     7.7560     2.3300   -19.8240 
  133.0000    82.0190    24.8560     8.1240     6.5530     7.1390     2.3240   -19.2850 
  133.1250    84.1840    25.0000     6.6440     6.1670     6.6000     2.3170   -18.8280 
  133.2500    87.3460    25.0690     5.8620     5.9000     6.2880     2.3110   -18.4530 
  133.3750    91.1320    25.0220     5.9500     5.7760     6.1980     2.2980   -18.1430 
  133.5000    93.0050    24.8410     6.4280     5.7460     6.2190     2.2780   -17.8690 
  133.6250    90.0890    24.5920     6.6830     5.7030     6.1660     2.2640   -17.6280 
