~V
VERS. 2.00: Ver 2.00
~W
STRT.M 60.0000:
STOP.M 235.0000:
STEP.M 0.1250:
NULL. -999.2500:
UWI. DF33014:
~C
DEPT.M :
SP.MV :
GR.API :
RML.OHMM :
RI. :
RXO.OHMM :
CALI.CM :
DEN.GM/CC :
~A
# ...
  138.7500    -5.0540    57.6120    17.2640    15.0130    13.3920    27.0790     2.5030 
  138.8750    -5.0490    57.0760    16.8960    14.6000    13.1670    27.0770     2.4970 
  139.0000    -5.0840    57.0470    16.8760    14.4570    14.0720    27.0780     2.4930 
  139.1250    -5.1020    56.7590    17.1740    14.5890    15.9540    27.0790     2.4900 
  139.2500    -5.0870    55.0930    17.5810    14.8510    17.3300    27.0800     2.4880 
  139.3750    -5.1450    53.3500    17.9370    15.1170    17.2750    27.0800     2.4850 
  139.5000    -5.1630    52.5470    18.1290    15.2720    16.4600    27.0790     2.4820 
  139.6250    -5.2520    53.9110    18.1060    15.2410    16.0470    27.0780     2.4830 
  139.7500    -5.2520    56.4800    17.9650    15.0860    15.7660    27.0760     2.4870 
  139.8750    -5.3020    57.8710    17.7760    14.8750    15.1970    27.0760     2.4940 
  140.0000    -5.3160    56.8300    17.5930    14.6680    14.6210    27.0780     2.5030 
  140.1250    -5.3110    54.1210    17.4670    14.5170    14.7110    27.0790     2.5110 
  140.2500    -5.3550    53.4960    17.4260    14.4380    15.1270    27.0790     2.5170 
  140.3750    -5.3080    53.6640    17.4960    14.4430    15.3240    27.0780     2.5210 
  140.5000    -5.3210    52.2890    17.6840    14.5370    15.4120    27.0810     2.5220 
  140.6250    -5.2340    52.1570    17.9720    14.7120    15.9850    27.0870     2.5200 
  140.7500    -5.2230    54.7170    18.2650    14.9060    16.7940    27.0830     2.5150 
  140.8750    -5.1670    57.8180    18.4760    15.0560    17.0760    27.0620     2.5060 
  141.0000    -5.1010    58.5540    18.5330    15.1050    16.6230    27.0200     2.4970 
  141.1250    -5.1020    57.8410    18.3880    15.0150    15.7730    26.9990     2.4920 
  141.2500    -5.0570    57.1950    18.1410    14.8500    15.1530    26.9920     2.4930 
  141.3750    -5.0040    55.9980    17.9020    14.6900    15.1220    26.9900     2.5010 
  141.5000    -4.9660    54.7160    17.7650    14.6130    15.5450    26.9840     2.5150 
  141.6250    -4.8910    55.5010    17.7610    14.6720    16.1850    26.9640     2.5290 
  141.7500    -4.8590    56.8810    17.7870    14.7990    16.7320    26.9300     2.5390 
  141.8750    -4.8260    55.6300    17.7430    14.9080    16.8110    26.9050     2.5420 
  142.0000    -4.8130    51.2260    17.5660    14.9180    16.0620    26.9040     2.5370 
  142.1250    -4.7240    48.2540    17.2640    14.7720    14.7920    26.9130     2.5290 
  142.2500    -4.6630    48.6430    16.9440    14.5270    13.9950    26.9010     2.5240 
  142.3750    -4.5700    50.2010    16.6750    14.2350    13.8040    26.8500     2.5250 
  142.5000    -4.5250    50.8460    16.4600    13.9260    13.8670    26.8100     2.5300 
  142.6250    -4.4410    49.6430    16.2020    13.5680    13.5360    26.7980     2.5340 
  142.7500    -4.4340    48.1920    15.7760    13.1020    12.6340    26.7940     2.5310 
  142.8750    -4.3850    49.1040    15.1010    12.4830    11.4850    26.7740     2.5170 
  143.0000    -4.4030    52.7120    14.2060    11.7280    10.4740    26.7360     2.4920 
  143.1250    -4.4840    57.1000    13.3130    10.9710     9.7000    26.7290     2.4600 
  143.2500    -4.5460    60.0550    12.8000    10.4600     8.9430    26.7580     2.4250 
  143.3750    -4.7190    60.8870    13.0990    10.5000     8.6310    26.8160     2.3870 
  143.5000    -4.8480    60.3020    14.7010    11.4720    10.1260    26.8560     2.3470 
  143.6250    -5.0910    59.2750    18.4140    14.0520    16.1780    26.9120     2.3100 
  143.7500    -5.2660    59.5280    24.0570    18.2240    27.4480    26.9650     2.2770 
  143.8750    -5.5010    60.7810    31.0580    23.6810    39.3960    26.9950     2.2520 
  144.0000    -5.7390    60.7260    38.1110    29.5210    43.9120    27.0020     2.2360 
  144.1250    -5.9590    57.4080    42.8750    34.0090    42.3820    27.0290     2.2300 
  144.2500    -6.2420    53.3210    44.2500    36.0810    40.4530    27.0980     2.2290 
  144.3750    -6.4440    51.7960    42.5690    35.7130    37.6550    27.1560     2.2320 
  144.5000    -6.6660    52.3400    39.4490    33.9090    34.0940    27.1780     2.2360 
  144.6250    -6.8310    52.7750    36.7110    32.0280    31.3880    27.1900     2.2360 
  144.7500    -6.9990    52.8300    34.9520    30.7860    30.1030    27.2170     2.2330 
  144.8750    -7.1250    53.0540    33.9380    30.1520    29.9640    27.2440     2.2290 
  145.0000    -7.2340    54.2270    33.0870    29.7390    30.3540    27.2560     2.2270 
  145.1250    -7.3190    56.0630    31.5640    28.8750    30.0310    27.2550     2.2310 
  145.2500    -7.4010    57.3830    29.0180    27.1580    27.6620    27.2470     2.2410 
  145.3750    -7.4380    59.2040    25.5590    24.5560    22.5450    27.2240     2.2550 
  145.5000    -7.5200    63.5780    21.7120    21.4210    16.4670    27.1890     2.2710 
  145.6250    -7.5740    69.0880    18.2500    18.3740    12.2370    27.1720     2.2850 
  145.7500    -7.6540    69.9840    15.5680    15.8690    10.2980    27.1680     2.2920 
  145.8750    -7.7760    67.4040    13.7500    14.0590     9.8800    27.1620     2.2920 
  146.0000    -7.8500    66.8180    12.7070    12.9300     9.6710    27.1530     2.2840 
  146.1250    -8.0600    71.7370    12.3450    12.4430     9.1140    27.1580     2.2720 
  146.2500    -8.2460    76.3880    12.3530    12.3310     8.9010    27.2120     2.2600 
  146.3750    -8.5510    78.3830    12.5410    12.4270     9.2610    27.2690     2.2500 
  146.5000    -8.8320    78.3860    12.7340    12.5670     9.7990    27.3270     2.2470 
  146.6250    -9.2070    77.2770    12.7570    12.5820    10.0400    27.3900     2.2530 
  146.7500    -9.6190    74.4290    12.5940    12.4220    10.0520    27.4710     2.2640 
  146.8750    -9.9940    70.6110    12.3500    12.1440    10.0490    27.5460     2.2790 
  147.0000   -10.5100    68.8960    12.2710    11.9280    10.2140    27.6310     2.2910 
  147.1250   -10.9520    70.0590    12.9140    12.2450    11.8820    27.7210     2.2960 
  147.2500   -11.5020    69.9490    14.8110    13.6270    17.2920    27.8830     2.2920 
  147.3750   -12.0830    66.9870    18.6380    16.7670    28.9440    28.1480     2.2800 
  147.5000   -12.7500    61.5390    25.0010    22.3130    45.5650    28.5510     2.2640 
  147.6250   -13.4800    56.2000    34.5180    30.9280    54.3400    28.8330     2.2520 
  147.7500   -14.2450    51.7490    45.9910    41.4730    55.3110    29.0460     2.2440 
  147.8750   -15.1150    48.6060    57.9670    52.5490    55.9520    29.2200     2.2410 
  148.0000   -15.9410    47.8750    68.8400    62.6440    56.1590    29.3760     2.2380 
  148.1250   -16.8430    49.6200    77.7520    70.9840    55.6920    29.5420     2.2340 
  148.2500   -17.6620    53.3460    86.6340    79.2570    55.6240    29.7160     2.2270 
  148.3750   -18.4500    57.3200    98.2320    89.7550    55.3800    29.9160     2.2180 
  148.5000   -19.1700    58.0930   115.1000   104.4730    54.5190    30.1110     2.2090 
  148.6250   -19.8730    55.9510   139.8250   125.1320    53.3740    30.2770     2.1980 
  148.7500   -20.4700    55.4030   170.3930   149.8310    51.7760    30.3970     2.1880 
  148.8750   -21.0390    56.9230   203.3240   175.8190    49.1640    30.4960     2.1770 
  149.0000   -21.5380    57.5810   233.1130   199.2200    45.7660    30.5780     2.1670 
  149.1250   -21.9340    56.2520   252.1120   214.9380    42.2100    30.6860     2.1570 
  149.2500   -22.3680    54.4220   259.8700   222.7260    38.4560    30.8110     2.1480 
  149.3750   -22.6910    52.6140   259.7130   224.5420    34.6010    30.9340     2.1410 
  149.5000   -23.0140    52.0240   257.3140   224.0970    31.1990    31.0240     2.1340 
  149.6250   -23.1900    53.9350   258.0420   225.4070    29.0510    31.0930     2.1280 
  149.7500   -23.4110    55.2250   262.3100   229.3700    28.2860    31.1420     2.1210 
  149.8750   -23.5730    54.3380   267.3710   234.1900    28.2810    31.1600     2.1150 
