~V
VERS. 2.00: Ver 2.00
~W
STRT.M 60.0000:
STOP.M 268.0000:
STEP.M 0.1250:
NULL. -999.2500:
UWI. DF33031:
~C
DEPT.M :
SP.MV :
GR.API :
CALI.CM :
RXO.OHMM :
RI. :
RML.OHMM :
DEN.GM/CC :
~A
# ...
  138.7500   -25.1290    84.4320    24.2120    10.0680     9.7910    11.2860     2.1910 
  138.8750   -24.9470    87.0900    24.1840    10.1370     9.6510    11.2330     2.1870 
  139.0000   -24.7600    90.0580    24.1730    10.2190     9.4250    10.9870     2.1950 
  139.1250   -24.5510    89.7560    24.1730    10.2190     9.1800    10.7070     2.2240 
  139.2500   -24.3180    86.5700    24.1730     9.9540     9.0840    10.6690     2.2680 
  139.3750   -24.0660    83.5170    24.1730     9.7860     9.3110    11.0930     2.3230 
  139.5000   -23.8080    82.7310    24.1730    10.7920    10.0230    12.1280     2.3850 
  139.6250   -23.5460    80.5530    24.1730    13.6460    11.4080    13.9100     2.4560 
  139.7500   -23.2990    76.0620    24.1730    16.3640    13.2790    16.1560     2.5230 
  139.8750   -23.0750    70.7550    24.1730    17.8640    15.3400    18.5010     2.5720 
  140.0000   -22.8810    66.4440    24.1730    18.6810    17.1630    20.4730     2.6010 
  140.1250   -22.7440    62.0250    24.1730    19.7990    18.2690    21.5740     2.6150 
  140.2500   -22.6280    56.8650    24.1720    20.3420    18.7540    21.9920     2.6220 
  140.3750   -22.5490    52.2760    24.1690    19.9440    18.8660    22.0470     2.6280 
  140.5000   -22.4970    48.4280    24.1710    19.2050    18.8350    21.9900     2.6350 
  140.6250   -22.4650    45.9750    24.1720    19.4190    18.7790    21.9270     2.6430 
  140.7500   -22.4330    45.4890    24.1700    20.7150    18.7650    21.8960     2.6460 
  140.8750   -22.4010    46.2820    24.1640    21.3660    18.8220    21.9230     2.6420 
  141.0000   -22.4050    47.4030    24.1590    20.5130    18.9430    22.0130     2.6360 
  141.1250   -22.4420    49.1190    24.1630    19.5310    19.0950    22.1450     2.6280 
  141.2500   -22.5240    50.9830    24.1660    19.7210    19.2110    22.2350     2.6150 
  141.3750   -22.5880    52.2180    24.1650    20.7210    19.2170    22.1720     2.5980 
  141.5000   -22.6610    53.5410    24.1580    21.1410    19.0330    21.8410     2.5800 
  141.6250   -22.7150    55.2710    24.1570    19.9420    18.5540    21.1220     2.5660 
  141.7500   -22.8140    56.1450    24.1560    18.3240    17.8460    20.1300     2.5530 
  141.8750   -22.9270    55.4930    24.1560    16.7940    17.0290    19.0320     2.5410 
  142.0000   -23.0030    55.8240    24.1610    15.5230    16.2770    18.0350     2.5330 
  142.1250   -23.0290    57.6740    24.1620    14.6860    15.7800    17.3480     2.5350 
  142.2500   -22.9970    58.6820    24.1590    14.3870    15.5750    17.0140     2.5450 
  142.3750   -22.9380    58.3900    24.1530    14.4160    15.6980    17.0980     2.5590 
  142.5000   -22.8810    58.9080    24.1500    14.7780    16.1810    17.6540     2.5720 
  142.6250   -22.8460    61.3760    24.1510    15.8750    17.0420    18.6710     2.5750 
  142.7500   -22.7740    62.7320    24.1520    17.6690    17.9940    19.7600     2.5750 
  142.8750   -22.6980    62.7490    24.1540    19.4500    18.6730    20.4710     2.5770 
  143.0000   -22.6370    62.5440    24.1530    20.1730    18.7080    20.3860     2.5870 
  143.1250   -22.6050    61.4190    24.1510    17.8130    17.8400    19.2680     2.5940 
  143.2500   -22.5880    60.1780    24.1500    14.7240    16.4970    17.6790     2.5850 
  143.3750   -22.6040    59.3730    24.1500    12.6300    15.0970    16.1300     2.5570 
  143.5000   -22.6190    58.2720    24.1510    12.0130    13.9570    14.9560     2.5200 
  143.6250   -22.6130    56.2510    24.1530    12.1280    13.3050    14.3680     2.4920 
  143.7500   -22.6580    55.4630    24.1540    12.3480    13.0710    14.2560     2.4840 
  143.8750   -22.7130    56.3980    24.1520    12.7980    13.1860    14.5270     2.4920 
  144.0000   -22.7530    56.2740    24.1500    13.5010    13.5550    15.0590     2.5050 
  144.1250   -22.7790    55.9570    24.1500    14.2790    14.1210    15.7820     2.5170 
  144.2500   -22.8200    57.6370    24.1500    14.9850    14.8180    16.6210     2.5260 
  144.3750   -22.9070    60.7330    24.1500    15.7900    15.5820    17.4930     2.5300 
  144.5000   -22.9910    62.5800    24.1500    16.3830    16.2820    18.2530     2.5270 
  144.6250   -23.1250    64.4360    24.1500    16.6870    16.7120    18.6920     2.5150 
  144.7500   -23.1920    68.0830    24.1500    16.6640    16.8360    18.8320     2.5050 
  144.8750   -23.2550    69.9580    24.1500    16.5500    16.7120    18.7600     2.5030 
  145.0000   -23.3450    67.5950    24.1500    16.3530    16.4610    18.5940     2.5060 
  145.1250   -23.4350    62.1640    24.1470    16.1350    16.2210    18.4320     2.5060 
  145.2500   -23.5280    59.5900    24.1280    16.3230    16.0660    18.3310     2.5050 
  145.3750   -23.5700    61.3020    24.0920    16.7010    15.9900    18.3080     2.5100 
  145.5000   -23.6190    64.7690    24.0660    16.4850    15.9660    18.3740     2.5190 
  145.6250   -23.5860    65.2530    24.0580    16.2960    15.9910    18.5490     2.5230 
  145.7500   -23.5340    62.2410    24.0580    16.1500    16.0310    18.7680     2.5270 
  145.8750   -23.4870    59.1700    24.0580    15.8160    16.0300    18.9310     2.5390 
  146.0000   -23.4120    58.1690    24.0580    15.1440    15.9410    18.9510     2.5540 
  146.1250   -23.3450    58.3630    24.0580    14.7730    15.7380    18.7710     2.5560 
  146.2500   -23.2380    58.5350    24.0570    14.4880    15.4730    18.4770     2.5500 
  146.3750   -23.1630    57.6450    24.0540    14.2510    15.1990    18.1780     2.5480 
  146.5000   -23.0760    55.5770    24.0560    14.0090    14.9680    17.9880     2.5560 
  146.6250   -23.0560    56.1630    24.0530    13.9770    14.8500    18.0220     2.5680 
  146.7500   -23.0490    60.4180    24.0340    14.0830    14.8710    18.2790     2.5720 
  146.8750   -23.0820    64.5110    23.9930    14.3210    15.0660    18.7480     2.5640 
  147.0000   -23.1370    64.9620    23.9630    15.0050    15.4320    19.3790     2.5450 
  147.1250   -23.2060    62.8010    23.9150    16.2370    15.9050    20.0820     2.5210 
  147.2500   -23.2810    62.2380    23.8160    17.5520    16.3670    20.7250     2.4990 
  147.3750   -23.3370    63.8910    23.6920    18.0070    16.7500    21.2070     2.4810 
  147.5000   -23.4480    66.3600    23.5910    17.4790    17.0470    21.4930     2.4690 
  147.6250   -23.5170    68.7790    23.5610    17.1720    17.3210    21.6580     2.4680 
  147.7500   -23.5670    70.3120    23.5520    17.5130    17.6880    21.9010     2.4730 
  147.8750   -23.5540    70.1340    23.5520    18.2120    18.2660    22.4040     2.4840 
  148.0000   -23.5340    70.0100    23.5530    19.0800    19.1320    23.2850     2.5020 
  148.1250   -23.5050    71.3340    23.5570    20.3820    20.2350    24.4660     2.5230 
  148.2500   -23.4640    70.9600    23.5720    22.1010    21.2350    25.4740     2.5360 
  148.3750   -23.4270    67.9950    23.6120    23.9890    21.7340    25.7870     2.5390 
  148.5000   -23.2900    67.3660    23.7060    24.5310    21.3520    24.9810     2.5370 
  148.6250   -23.1160    69.8250    23.8190    21.7790    19.6890    22.7010     2.5320 
  148.7500   -22.9300    69.3470    23.9440    17.7120    17.1020    19.4680     2.5170 
  148.8750   -22.7350    66.9050    24.0640    14.5490    14.0430    15.8420     2.4920 
  149.0000   -22.5580    68.2430    24.1930    12.3970    11.0090    12.3720     2.4580 
  149.1250   -22.3410    73.8940    24.2780     9.9870     8.4780     9.5580     2.4180 
  149.2500   -22.1770    78.5780    24.4060     7.4060     6.5570     7.4750     2.3770 
  149.3750   -22.0030    83.1490    24.6190     5.4480     5.2400     6.1070     2.3420 
  149.5000   -21.9110    90.3270    24.8510     4.4950     4.4470     5.3400     2.3180 
  149.6250   -21.8820    97.6200    24.9280     4.1780     4.1210     5.0680     2.3080 
  149.7500   -21.9330   101.7440    24.8640     4.1190     4.0670     5.0390     2.3070 
  149.8750   -22.0190   101.8220    24.6530     4.1750     4.1680     5.1160     2.3120 
