~V
VERS. 2.00: Ver 2.00
~W
STRT.M 50.0000:
STOP.M 235.0000:
STEP.M 0.1250:
NULL. -999.2500:
UWI. DF33017:
~C
DEPT.M :
GR.API :
CALI.CM :
RXO.OHMM :
RI. :
RML.OHMM :
DEN.GM/CC :
SP.MV :
~A
# ...
  117.5000    96.2680    25.9230     5.3230     4.1460     5.5140     2.3580   -30.7740 
  117.6250    92.1690    25.8600     6.0420     4.5990     6.2630     2.3340   -31.2120 
  117.7500    85.7820    25.7500     6.7660     5.3910     7.3180     2.3030   -31.7960 
  117.8750    79.2380    25.3690     7.7160     6.3810     8.4540     2.2830   -32.4760 
  118.0000    74.8680    24.7720     8.9630     7.2260     9.3410     2.2690   -33.1960 
  118.1250    72.2250    24.4130     9.9410     7.4790     9.5990     2.2540   -33.8840 
  118.2500    71.1660    24.2960    10.2600     7.2350     9.3430     2.2390   -34.5170 
  118.3750    70.6830    24.3000    10.0490     6.8020     8.8250     2.2330   -35.0440 
  118.5000    71.2910    24.3350     9.5530     6.4740     8.3260     2.2360   -35.4780 
  118.6250    74.4020    24.3540     9.0690     6.3850     8.1080     2.2390   -35.8210 
  118.7500    77.1250    24.3160     9.0570     6.4300     8.2100     2.2350   -36.1270 
  118.8750    77.3540    24.1860     9.5620     6.5450     8.5800     2.2290   -36.4250 
  119.0000    75.5330    24.0070    10.2690     6.7280     9.0820     2.2290   -36.7100 
  119.1250    72.2080    23.8930    10.7460     6.9770     9.4930     2.2410   -36.9550 
  119.2500    69.3400    23.8570    10.9560     7.1620     9.6570     2.2570   -37.1460 
  119.3750    69.3680    23.8520    10.9530     7.1440     9.5390     2.2640   -37.2450 
  119.5000    71.7680    23.8520    10.8470     6.8930     9.2300     2.2520   -37.2470 
  119.6250    72.6060    23.8500    10.7210     6.5710     8.8800     2.2220   -37.1310 
  119.7500    69.9220    23.8460    10.5410     6.4150     8.6050     2.1970   -36.9140 
  119.8750    66.3940    23.8420    10.3080     6.4920     8.4360     2.1880   -36.6060 
  120.0000    65.5300    23.8400    10.1530     6.6910     8.3600     2.1930   -36.2160 
  120.1250    67.7980    23.8410    10.1920     6.7890     8.3550     2.1960   -35.7630 
  120.2500    69.6830    23.8430    10.2840     6.7170     8.3840     2.1960   -35.2670 
  120.3750    68.0380    23.8650    10.3410     6.5760     8.4340     2.1960   -34.7810 
  120.5000    66.3020    23.9300    10.3100     6.5370     8.5010     2.1970   -34.3000 
  120.6250    68.4880    24.1090    10.0840     6.7280     8.5770     2.1970   -33.8170 
  120.7500    70.8090    24.3500     9.7630     7.0210     8.6550     2.1960   -33.3090 
  120.8750    71.4420    24.6250     9.4700     7.2300     8.7290     2.1960   -32.7740 
  121.0000    72.6930    24.8760     9.2640     7.2200     8.7950     2.1960   -32.2140 
  121.1250    76.2220    25.1090     9.1130     6.9940     8.8390     2.1970   -31.7050 
  121.2500    77.4640    25.3200     8.8550     6.7660     8.8480     2.2010   -31.2470 
  121.3750    75.1690    25.5160     8.4970     6.6750     8.8070     2.2080   -30.8260 
  121.5000    73.8030    25.7100     8.1190     6.7300     8.7000     2.2220   -30.4330 
  121.6250    77.0160    25.9080     7.8380     6.7820     8.5030     2.2390   -30.0550 
  121.7500    79.8570    26.0930     7.6760     6.6770     8.2610     2.2520   -29.7010 
  121.8750    79.2320    26.2030     7.5880     6.4080     8.0470     2.2550   -29.3750 
  122.0000    78.5880    26.2680     7.5030     6.1290     7.9690     2.2560   -29.0850 
  122.1250    82.1200    26.3170     7.5720     6.1880     8.2280     2.2680   -28.7750 
  122.2500    83.8740    26.4360     8.1090     6.7990     8.9210     2.2930   -28.4290 
  122.3750    79.1610    26.6140     9.5180     8.0310    10.1200     2.3290   -28.0100 
  122.5000    72.6730    26.7690    12.0830     9.7690    11.8060     2.3800   -27.5170 
  122.6250    69.2960    26.8970    15.7830    11.7470    13.8570     2.4450   -27.0170 
  122.7500    65.1790    27.1180    20.2250    13.6600    15.9310     2.5070   -26.5320 
  122.8750    59.3480    27.3940    23.5570    15.4700    17.8420     2.5510   -26.0700 
  123.0000    55.1920    27.6470    23.7860    17.3300    19.6230     2.5740   -25.6510 
  123.1250    55.5310    27.8090    24.2840    19.3650    21.4440     2.5810   -25.2750 
  123.2500    54.8380    27.9720    26.8490    21.1080    23.0140     2.5760   -24.9760 
  123.3750    53.0730    27.8320    30.1350    21.6520    23.4540     2.5660   -24.7690 
  123.5000    53.6940    27.7130    31.2680    20.3440    22.0020     2.5620   -24.6560 
  123.6250    56.7600    27.7570    27.1250    17.5270    18.9140     2.5640   -24.5710 
  123.7500    60.6870    27.8350    20.3300    14.7750    15.8460     2.5560   -24.5160 
  123.8750    64.3930    27.8660    14.0750    12.9380    13.7310     2.5350   -24.4520 
  124.0000    68.6390    27.8950    11.2800    12.2890    12.9260     2.5100   -24.3760 
  124.1250    70.5010    27.9640    12.4460    12.8630    13.6450     2.4980   -24.3090 
  124.2500    67.6490    28.0400    15.0170    14.1510    15.4520     2.5050   -24.2540 
  124.3750    63.1840    28.0820    17.4210    15.7560    17.8910     2.5260   -24.2220 
  124.5000    61.1670    28.1100    19.6350    17.2120    20.1550     2.5480   -24.2110 
  124.6250    62.6610    28.1370    21.4770    18.0050    21.1010     2.5560   -24.2350 
  124.7500    62.8590    28.1190    22.0720    18.2200    20.8050     2.5520   -24.2720 
  124.8750    60.0930    28.1250    20.8280    18.1650    19.9570     2.5430   -24.3450 
  125.0000    57.1110    28.2530    18.9670    18.1380    19.2950     2.5340   -24.4430 
  125.1250    56.8510    28.5180    18.9930    18.3130    19.3120     2.5310   -24.5480 
  125.2500    58.9250    28.7180    19.6050    18.7210    19.9490     2.5390   -24.6230 
  125.3750    60.4170    28.8210    21.2000    19.4350    21.0590     2.5530   -24.6790 
  125.5000    59.9370    28.8830    23.8890    20.4750    22.3540     2.5680   -24.6990 
  125.6250    59.8520    28.9080    25.2640    21.6160    23.3040     2.5770   -24.7520 
  125.7500    60.9630    28.9040    23.6840    22.2590    23.4400     2.5830   -24.8150 
  125.8750    62.9050    28.8500    20.8030    21.8060    22.4580     2.5850   -24.9050 
  126.0000    65.1480    28.7610    18.8320    19.9670    20.3270     2.5780   -25.0100 
  126.1250    67.7670    28.8390    17.3330    16.9860    17.3310     2.5470   -25.1170 
  126.2500    71.0360    29.1190    14.2930    13.8970    14.2630     2.4940   -25.2450 
  126.3750    74.4870    29.3790    10.7150    11.3010    11.5950     2.4300   -25.3450 
  126.5000    77.0970    29.5260     8.1630     9.3970     9.5420     2.3690   -25.4310 
  126.6250    76.7260    29.5510     7.1500     8.1490     8.2110     2.3250   -25.4450 
  126.7500    75.7160    29.5620     6.9310     7.2780     7.4260     2.2940   -25.3970 
  126.8750    77.1740    29.5820     6.9320     6.7500     7.1500     2.2740   -25.2770 
  127.0000    80.7650    29.6280     7.0650     6.6740     7.3940     2.2610   -25.0830 
  127.1250    84.1170    29.6540     7.9570     7.3900     8.3540     2.2610   -24.8580 
  127.2500    84.7530    29.6780    10.8610     9.0270    10.0950     2.2810   -24.5620 
  127.3750    80.2320    29.7140    16.4420    11.6790    12.7310     2.3310   -24.2430 
  127.5000    71.6930    29.7420    22.8100    15.1310    16.1380     2.4090   -23.9300 
  127.6250    63.2090    29.7510    25.7740    18.5130    19.5280     2.4950   -23.6410 
  127.7500    57.6180    29.7520    26.4990    20.6880    21.7140     2.5640   -23.4060 
  127.8750    54.4580    29.7640    26.3540    21.2760    22.2520     2.6060   -23.2350 
  128.0000    54.2390    29.8040    25.1860    20.8320    21.7080     2.6270   -23.1560 
  128.1250    57.0140    29.8780    23.7190    20.4180    21.1530     2.6320   -23.1310 
  128.2500    58.6060    29.9320    23.4870    20.6890    21.2290     2.6290   -23.1950 
  128.3750    58.0200    29.9360    24.0700    21.6600    21.9520     2.6210   -23.3230 
  128.5000    56.8590    29.9000    24.2330    22.8680    22.9030     2.6110   -23.4970 
  128.6250    56.7090    29.8660    24.7310    23.1350    22.9670     2.5950   -23.7270 
