~V
VERS. 2.00: Ver 2.00
~W
STRT.M 60.0000:
STOP.M 235.0000:
STEP.M 0.1250:
NULL. -999.2500:
UWI. DF33014:
~C
DEPT.M :
SP.MV :
GR.API :
RML.OHMM :
RI. :
RXO.OHMM :
CALI.CM :
DEN.GM/CC :
~A
# ...
  127.5000   -11.4450    64.0330    11.0070     8.3990    11.3360    25.4010     2.1970 
  127.6250   -11.5610    66.5410    12.1040     9.1450    11.3980    25.4360     2.2010 
  127.7500   -11.5340    69.4640    13.2610     9.9890    12.2080    25.4910     2.1980 
  127.8750   -11.4010    69.8800    14.1820    10.8650    15.2810    25.5200     2.1900 
  128.0000   -11.2560    67.1520    14.8970    11.6010    18.8420    25.5280     2.1850 
  128.1250   -10.9260    64.5400    14.9400    11.8500    18.0140    25.5320     2.1920 
  128.2500   -10.6390    63.9940    14.2050    11.4820    14.6770    25.5510     2.2110 
  128.3750   -10.2790    63.9360    12.8400    10.5400    11.2800    25.6220     2.2360 
  128.5000    -9.9370    64.7610    11.2320     9.2700     8.3180    25.7770     2.2610 
  128.6250    -9.5740    68.2880     9.8680     8.0410     6.4540    25.9630     2.2750 
  128.7500    -9.2410    73.1010     8.9370     7.0930     5.7290    26.0590     2.2820 
  128.8750    -8.9180    77.1930     8.4170     6.4720     5.6910    26.1000     2.2880 
  129.0000    -8.5820    79.7730     8.1880     6.1220     5.5660    26.1360     2.2960 
  129.1250    -8.2450    80.8400     8.1220     5.9640     5.1060    26.2070     2.3040 
  129.2500    -7.9380    82.8100     8.1150     5.8980     4.7590    26.2490     2.3050 
  129.3750    -7.6860    84.3880     8.1840     5.9170     4.8580    26.2710     2.2980 
  129.5000    -7.4280    82.8120     8.4230     6.0650     5.4760    26.2560     2.2920 
  129.6250    -7.2270    78.1000     9.0330     6.4730     6.6680    26.1930     2.3040 
  129.7500    -6.9370    73.6200    10.0530     7.1750     8.2080    26.1590     2.3400 
  129.8750    -6.6920    70.1000    11.4300     8.1510    10.2820    26.2340     2.3940 
  130.0000    -6.3350    66.8470    12.9690     9.2860    13.0440    26.4050     2.4510 
  130.1250    -6.0890    64.8230    14.3040    10.3440    15.1190    26.5580     2.4890 
  130.2500    -5.8160    63.9720    15.1840    11.1360    14.8260    26.6510     2.5080 
  130.3750    -5.5480    63.0520    15.6100    11.6270    12.9630    26.6970     2.5170 
  130.5000    -5.2970    62.9920    15.8820    11.9750    12.0110    26.7170     2.5320 
  130.6250    -5.0300    62.5480    16.5930    12.5420    13.8030    26.7250     2.5600 
  130.7500    -4.8940    59.5850    18.0450    13.5720    17.7040    26.7320     2.5960 
  130.8750    -4.7360    54.1810    20.1920    15.1010    22.2220    26.7460     2.6280 
  131.0000    -4.7420    50.6150    22.6430    16.9340    25.2280    26.7810     2.6470 
  131.1250    -4.7140    51.9910    24.6450    18.6240    25.8710    26.8000     2.6490 
  131.2500    -4.7260    53.0740    25.6970    19.7690    24.6640    26.8070     2.6430 
  131.3750    -4.7840    49.9790    25.7340    20.2190    22.3340    26.8070     2.6340 
  131.5000    -4.8390    45.5070    25.1060    20.0970    20.7060    26.8070     2.6270 
  131.6250    -4.9400    45.7920    24.2970    19.6750    20.6590    26.8070     2.6240 
  131.7500    -4.9850    48.5690    23.5870    19.2290    21.0250    26.8070     2.6220 
  131.8750    -5.0810    50.0820    22.9620    18.8140    21.2560    26.8000     2.6190 
  132.0000    -5.1130    50.6480    22.3560    18.4100    20.9610    26.7800     2.6100 
  132.1250    -5.1790    51.3910    21.7470    17.9960    19.5070    26.7610     2.5940 
  132.2500    -5.2170    53.5310    21.1790    17.5990    17.7630    26.7980     2.5770 
  132.3750    -5.2550    56.3460    20.7230    17.2740    17.2000    26.8640     2.5620 
  132.5000    -5.2840    57.6190    20.4340    17.0750    18.1180    26.9130     2.5510 
  132.6250    -5.3400    56.1270    20.3680    17.0660    18.7200    26.9500     2.5440 
  132.7500    -5.3390    54.9160    20.5000    17.2260    18.2040    26.9790     2.5380 
  132.8750    -5.3600    55.0940    20.8510    17.5620    17.5820    26.9910     2.5350 
  133.0000    -5.3990    54.1500    21.4640    18.0900    17.7960    26.9920     2.5360 
  133.1250    -5.4210    52.1360    22.3900    18.8380    18.6050    26.9920     2.5470 
  133.2500    -5.5090    52.2700    23.4580    19.6920    19.4180    26.9920     2.5660 
  133.3750    -5.5010    53.2380    24.4130    20.4780    20.3100    26.9920     2.5900 
  133.5000    -5.5270    52.6770    24.9340    20.9710    21.0470    26.9920     2.6110 
  133.6250    -5.4570    50.9950    24.6680    20.8960    20.5650    26.9920     2.6180 
  133.7500    -5.4450    50.0710    23.8100    20.3500    18.4710    26.9920     2.6090 
  133.8750    -5.4100    51.8230    22.7150    19.5550    15.8980    26.9920     2.5870 
  134.0000    -5.3130    56.4350    21.8080    18.8160    15.1080    26.9920     2.5600 
  134.1250    -5.2640    60.0900    21.4990    18.4670    17.7380    26.9920     2.5370 
  134.2500    -5.1330    58.0140    21.7550    18.5540    21.2430    26.9920     2.5230 
  134.3750    -5.1070    51.9710    22.4080    18.9980    22.1270    26.9920     2.5170 
  134.5000    -5.0440    47.7680    23.1830    19.6120    20.4220    26.9920     2.5180 
  134.6250    -5.0990    47.7180    23.7410    20.1350    19.8750    26.9920     2.5210 
  134.7500    -5.1480    48.4040    23.9650    20.4220    20.9040    26.9920     2.5220 
  134.8750    -5.2010    48.7160    23.9150    20.4740    21.4410    26.9920     2.5190 
  135.0000    -5.2820    49.0210    23.7640    20.4000    20.7340    26.9920     2.5140 
  135.1250    -5.3580    50.4580    23.7500    20.3840    20.6370    26.9920     2.5160 
  135.2500    -5.4560    53.8490    23.9970    20.5520    21.9070    26.9920     2.5260 
  135.3750    -5.5170    58.5610    24.5350    20.9490    23.1030    26.9920     2.5420 
  135.5000    -5.5930    60.6190    25.3100    21.5460    23.1450    26.9920     2.5550 
  135.6250    -5.5820    56.4400    26.1870    22.2440    23.2870    26.9920     2.5580 
  135.7500    -5.5870    50.1170    26.9660    22.8780    24.0930    26.9920     2.5510 
  135.8750    -5.5270    45.6810    27.5040    23.3290    24.4450    26.9920     2.5400 
  136.0000    -5.5380    44.0140    27.7070    23.5160    24.0320    26.9920     2.5310 
  136.1250    -5.4550    44.2290    27.4640    23.3530    24.0330    26.9920     2.5270 
  136.2500    -5.4030    44.7020    26.8570    22.9060    24.3340    26.9920     2.5270 
  136.3750    -5.3190    45.2700    25.9780    22.2400    23.5890    26.9920     2.5280 
  136.5000    -5.2570    46.1500    25.0050    21.4790    21.5000    26.9920     2.5260 
  136.6250    -5.2050    46.9770    24.2100    20.8200    19.7230    26.9920     2.5200 
  136.7500    -5.1220    48.1140    23.7460    20.3970    19.2990    26.9920     2.5120 
  136.8750    -5.1270    51.2450    23.6440    20.2570    20.0540    26.9920     2.5040 
  137.0000    -5.0370    56.0130    23.8130    20.3590    21.1870    26.9920     2.5000 
  137.1250    -5.0520    59.4960    24.0570    20.5790    22.4680    26.9920     2.5020 
  137.2500    -5.0210    60.8570    24.1480    20.7250    24.2990    26.9920     2.5100 
  137.3750    -5.0040    60.1070    23.9850    20.6900    25.2870    26.9920     2.5220 
  137.5000    -4.9940    57.0550    23.5900    20.4540    23.5860    26.9920     2.5370 
  137.6250    -4.9840    52.3280    23.0690    20.0680    20.5280    26.9920     2.5520 
  137.7500    -5.0300    48.6530    22.5640    19.6510    19.4410    26.9920     2.5650 
  137.8750    -4.9980    48.3520    22.1200    19.2540    20.1120    26.9920     2.5720 
  138.0000    -5.0420    51.6220    21.7070    18.8730    19.9420    26.9860     2.5710 
  138.1250    -5.0210    55.8310    21.2190    18.4400    18.3680    26.9670     2.5610 
  138.2500    -5.0450    57.4180    20.5790    17.8940    17.6630    26.9560     2.5470 
  138.3750    -5.0690    57.1510    19.7690    17.2140    17.7200    26.9920     2.5330 
  138.5000    -5.0780    57.4720    18.8440    16.4340    16.8600    27.0490     2.5200 
  138.6250    -5.0630    57.7930    17.9520    15.6560    14.8070    27.0750     2.5110 
