~V
VERS. 2.00: Ver 2.00
~W
STRT.M 60.0000:
STOP.M 235.0000:
STEP.M 0.1250:
NULL. -999.2500:
UWI. DF33014:
~C
DEPT.M :
SP.MV :
GR.API :
RML.OHMM :
RI. :
RXO.OHMM :
CALI.CM :
DEN.GM/CC :
~A
# ...
  172.5000   -15.7610    60.9340   184.7260   168.1760    69.9920    23.5470     2.2390 
  172.6250   -16.0780    62.8910   190.3950   173.5590    74.7700    23.4980     2.2400 
  172.7500   -16.5200    63.3230   193.2360   176.5340    82.1590    23.4670     2.2420 
  172.8750   -16.8390    63.3860   192.9160   176.9100    89.7760    23.4290     2.2450 
  173.0000   -17.2250    64.1220   189.8460   175.1050    93.1360    23.4000     2.2480 
  173.1250   -17.5560    65.0880   184.8300   171.8130    90.1350    23.3850     2.2500 
  173.2500   -17.7710    65.3640   178.9670   167.8370    87.0680    23.3660     2.2500 
  173.3750   -17.9500    66.6690   172.1360   162.9560    87.6230    23.3320     2.2460 
  173.5000   -18.0430    67.8870   163.5530   156.4160    89.4700    23.3090     2.2420 
  173.6250   -18.1250    66.7450   151.8460   146.9210    84.0930    23.2960     2.2390 
  173.7500   -18.0700    64.9070   137.4040   134.6990    71.2990    23.2870     2.2420 
  173.8750   -17.9740    62.2440   121.4040   120.5500    59.1340    23.2450     2.2530 
  174.0000   -17.7740    57.8680   105.9030   106.1080    49.9850    23.1580     2.2690 
  174.1250   -17.5600    53.1390    93.8560    94.0500    40.8310    22.9960     2.2780 
  174.2500   -17.2240    52.5350    86.4750    86.1500    33.3850    22.8880     2.2740 
  174.3750   -16.8660    55.5610    84.6580    83.7810    30.8850    22.8550     2.2590 
  174.5000   -16.4060    56.9750    89.7010    87.8620    34.7380    22.8610     2.2410 
  174.6250   -15.9580    54.5890   103.1110    99.7860    44.5030    22.8420     2.2350 
  174.7500   -15.4210    51.9960   123.3710   117.5240    53.9590    22.8520     2.2410 
  174.8750   -14.9610    52.5550   147.4590   139.0550    59.2300    22.9870     2.2480 
  175.0000   -14.4900    55.3480   173.2650   161.6720    62.0100    23.4440     2.2410 
  175.1250   -13.9450    57.0720   194.2700   182.8710    67.0450    24.2800     2.2100 
  175.2500   -13.5400    57.2860   213.1830   203.2920    72.4350    25.1030     2.1700 
  175.3750   -13.0950    57.1290   238.9600   226.0810    73.2410    25.5490     2.1360 
  175.5000   -12.7920    56.3620   277.5220   255.1030    70.6540    25.5840     2.1230 
  175.6250   -12.4570    53.8980   331.8910   293.6610    73.4020    25.2140     2.1350 
  175.7500   -12.2610    51.4220   397.2260   337.7070    81.7460    24.6160     2.1590 
  175.8750   -12.0570    50.6670   463.8520   380.7770    87.4490    24.1330     2.1840 
  176.0000   -11.9130    50.6790   517.4660   414.4880    83.7700    23.8350     2.2030 
  176.1250   -11.9220    50.3470   538.7860   428.1000    74.9190    23.6410     2.2120 
  176.2500   -11.8950    51.0270   528.4020   422.3430    67.0670    23.5290     2.2120 
  176.3750   -11.9860    52.1220   495.1150   401.5320    61.3860    23.5090     2.2040 
  176.5000   -12.0780    50.8990   453.2380   373.5350    58.7000    23.5690     2.1870 
  176.6250   -12.2550    49.4380   416.6020   347.9610    58.9620    23.6800     2.1710 
  176.7500   -12.4440    51.8880   392.0360   331.5760    58.8480    23.7750     2.1750 
  176.8750   -12.6740    54.9200   382.5870   328.2460    55.8390    23.7980     2.2160 
  177.0000   -12.9200    53.0970   386.9190   338.6650    53.5970    23.7610     2.3010 
  177.1250   -13.1840    48.3590   395.9610   358.0510    61.8980    23.6190     2.4250 
  177.2500   -13.4320    47.5550   391.5750   371.4390    88.9600    23.3750     2.5550 
  177.3750   -13.7360    48.8360   357.9810   363.5460   142.8020    23.1880     2.6650 
  177.5000   -14.0000    48.5220   287.5320   322.9110   204.4540    23.1480     2.7450 
  177.6250   -14.3030    46.8610   193.2590   246.9290   220.0100    23.2340     2.7920 
  177.7500   -14.5550    44.9180   112.9900   162.2850   190.6730    23.3380     2.8100 
  177.8750   -14.7790    42.4460    61.2550    92.2680   121.6870    23.4330     2.7870 
  178.0000   -15.0130    41.6650    32.1820    47.2480    52.8460    23.5400     2.7160 
  178.1250   -15.0890    46.4410    17.9380    25.5420    22.9400    23.7710     2.6130 
  178.2500   -15.1990    51.8650    10.4810    14.7450    10.7370    24.0900     2.5130 
  178.3750   -15.1430    52.6940     7.3960     9.4890     6.0550    24.3110     2.4410 
  178.5000   -15.1100    49.4070     5.8810     6.9330     4.6370    24.4020     2.4020 
  178.6250   -14.9530    47.2470     5.3790     5.8880     4.6810    24.4480     2.3900 
  178.7500   -14.8320    47.6350     5.3270     5.5150     5.0200    24.4760     2.3850 
  178.8750   -14.7200    48.1900     5.4900     5.5080     5.1000    24.4760     2.3750 
  179.0000   -14.5540    46.8150     5.7110     5.6590     4.8390    24.4430     2.3630 
  179.1250   -14.5560    44.2220     5.8960     5.8340     4.6590    24.3700     2.3540 
  179.2500   -14.5260    42.7810     6.0310     5.9710     4.7970    24.3120     2.3510 
  179.3750   -14.6260    43.3960     6.1320     6.0660     5.0620    24.3000     2.3570 
  179.5000   -14.6940    44.5370     6.2130     6.1270     5.2760    24.3230     2.3700 
  179.6250   -14.8450    45.7460     6.2760     6.1510     5.5140    24.3380     2.3890 
  179.7500   -14.9810    48.0380     6.3170     6.1310     5.7030    24.2760     2.4100 
  179.8750   -15.1210    50.4610     6.3290     6.0600     5.7070    24.1950     2.4270 
  180.0000   -15.2370    51.4760     6.3100     5.9380     5.5040    24.1810     2.4360 
  180.1250   -15.2860    51.1730     6.2630     5.7750     5.2210    24.1920     2.4330 
  180.2500   -15.3470    51.4660     6.2060     5.6050     5.0110    24.1990     2.4220 
  180.3750   -15.3660    52.4340     6.1610     5.4540     4.9220    24.1990     2.4040 
  180.5000   -15.3830    52.9870     6.1530     5.3480     4.9480    24.2000     2.3860 
  180.6250   -15.3750    51.9030     6.2270     5.3250     5.0380    24.2150     2.3730 
  180.7500   -15.4040    50.2370     6.3920     5.3860     5.1670    24.2460     2.3670 
  180.8750   -15.3970    49.6000     6.6470     5.5290     5.4660    24.2750     2.3700 
  181.0000   -15.5290    50.0650     6.9610     5.7320     5.9610    24.2870     2.3810 
  181.1250   -15.6240    49.8400     7.2720     5.9520     6.3680    24.2800     2.3940 
  181.2500   -15.7340    48.0290     7.5040     6.1290     6.4300    24.2490     2.4060 
  181.3750   -15.8480    45.7440     7.6120     6.2230     6.2220    24.1860     2.4130 
  181.5000   -15.9500    43.3630     7.5920     6.2200     5.9600    24.1180     2.4150 
  181.6250   -16.0890    41.3540     7.4780     6.1270     5.7270    24.0720     2.4150 
  181.7500   -16.1540    40.7890     7.3620     6.0070     5.5470    24.0360     2.4180 
  181.8750   -16.3070    42.6910     7.3060     5.9090     5.5130    24.0240     2.4280 
  182.0000   -16.4260    46.7770     7.3480     5.8730     5.6840    24.0440     2.4440 
  182.1250   -16.6490    50.6770     7.5210     5.9380     6.0460    24.1280     2.4630 
  182.2500   -16.9660    55.7110     7.7930     6.0920     6.5010    24.2610     2.4780 
  182.3750   -17.3110    62.9890     8.1340     6.3150     7.0780    24.3560     2.4860 
  182.5000   -17.7620    71.5280     8.5050     6.5770     7.7260    24.4070     2.4870 
  182.6250   -18.1800    78.3060     8.8450     6.8280     8.2190    24.4760     2.4810 
  182.7500   -18.7080    83.3530     9.1090     7.0290     8.4260    24.5440     2.4720 
  182.8750   -19.1810    86.8660     9.2720     7.1590     8.4040    24.5580     2.4600 
  183.0000   -19.6910    88.1290     9.3390     7.2200     8.3080    24.5200     2.4460 
  183.1250   -20.1380    87.4990     9.3310     7.2210     8.4200    24.4520     2.4320 
  183.2500   -20.5630    84.9300     9.2850     7.1850     8.8380    24.3800     2.4200 
  183.3750   -20.9710    80.7400     9.2040     7.1150     9.1000    24.3000     2.4130 
  183.5000   -21.3630    77.9510     9.0780     7.0080     8.6280    24.2300     2.4090 
  183.6250   -21.7780    79.5010     8.9030     6.8660     7.5650    24.1730     2.4030 
