~V
VERS. 2.00: Ver 2.00
~W
STRT.M 55.0000:
STOP.M 252.0000:
STEP.M 0.1250:
NULL. -999.2500:
UWI. DF33023:
~C
DEPT.M :
GR.API :
CALI.CM :
RXO.OHMM :
RI. :
RML.OHMM :
DEN.GM/CC :
SP.MV :
~A
# ...
  167.5000    71.3530    24.3010   110.6230   125.7390   131.8980     2.2770   -32.7290 
  167.6250    70.4170    24.3540   100.1770   115.4570   123.7190     2.2780   -32.1790 
  167.7500    66.7270    24.9270   110.0920   112.2540   122.4100     2.2740   -31.7070 
  167.8750    64.2290    25.5810   132.2870   113.8900   125.8660     2.2750   -31.3590 
  168.0000    65.8580    25.9520   150.7670   118.5490   132.3390     2.2800   -31.1330 
  168.1250    68.1410    26.0040   148.8690   125.2540   140.8630     2.2820   -31.0190 
  168.2500    67.6100    25.9930   139.7720   133.2800   150.8310     2.2770   -31.0060 
  168.3750    64.2370    25.9900   145.5220   142.5450   162.3230     2.2700   -31.0230 
  168.5000    58.7520    25.9910   182.5640   152.4040   174.6180     2.2650   -31.0360 
  168.6250    55.0650    25.9900   241.8750   160.1140   183.9230     2.2510   -31.0420 
  168.7500    55.8590    25.9900   266.9240   162.3440   185.4240     2.2280   -31.0140 
  168.8750    60.9750    25.9970   236.4960   157.0110   176.5260     2.2090   -30.9310 
  169.0000    66.8090    26.0110   182.7170   144.8230   159.1930     2.2060   -30.7820 
  169.1250    67.2960    25.9950   144.1020   128.6020   138.2590     2.2180   -30.5780 
  169.2500    65.0050    25.8760   115.4940   112.1820   118.1770     2.2260   -30.2890 
  169.3750    65.9130    25.6340    90.6940    96.7550    99.8900     2.2270   -29.9340 
  169.5000    71.4650    25.3670    67.1970    82.3300    83.2340     2.2300   -29.5180 
  169.6250    74.7630    25.2610    46.1410    69.0490    68.5590     2.2430   -29.0350 
  169.7500    74.6870    25.3220    31.8170    57.2660    56.0920     2.2630   -28.5080 
  169.8750    73.9140    25.4190    26.2240    47.3880    46.0360     2.2890   -27.9620 
  170.0000    72.4900    25.4350    26.2400    39.3740    38.1170     2.3200   -27.4200 
  170.1250    71.0210    25.3690    27.1710    33.0400    31.9870     2.3480   -26.8860 
  170.2500    71.9960    25.3120    25.9740    27.6800    26.8290     2.3690   -26.4170 
  170.3750    75.1240    25.2950    22.7330    23.0490    22.3660     2.3840   -26.0310 
  170.5000    79.1340    25.2970    18.7560    19.1460    18.5860     2.3920   -25.7550 
  170.6250    84.7940    25.2920    15.5200    16.3120    15.8630     2.3930   -25.6010 
  170.7500    89.4730    25.2860    13.5270    14.5720    14.3400     2.3890   -25.5430 
  170.8750    89.3420    25.3250    12.6670    14.0660    14.3300     2.3860   -25.5850 
  171.0000    84.9720    25.4370    13.6310    15.0540    16.2580     2.3850   -25.7210 
  171.1250    79.3180    25.5850    20.4230    18.4970    21.2390     2.3720   -25.9520 
  171.2500    75.7620    25.6820    36.0330    24.9010    29.6070     2.3420   -26.2460 
  171.3750    74.1430    25.6790    57.9530    34.7580    41.7670     2.3000   -26.5800 
  171.5000    73.4690    25.5850    76.8300    47.4160    57.0590     2.2630   -26.9220 
  171.6250    72.9240    25.4610    86.5320    59.7540    71.9800     2.2480   -27.2690 
  171.7500    71.1590    25.3720    92.0990    67.9470    81.6570     2.2470   -27.6070 
  171.8750    68.2530    25.3250    94.0960    70.8240    84.4460     2.2490   -27.8980 
  172.0000    66.6920    25.3020    90.7150    69.8440    82.5190     2.2450   -28.1270 
  172.1250    69.9590    25.2960    84.4840    67.3690    79.2620     2.2360   -28.2980 
  172.2500    74.1550    25.2960    80.3310    65.1740    76.7360     2.2310   -28.3910 
  172.3750    74.8380    25.3040    80.1860    63.6670    75.3040     2.2320   -28.4030 
  172.5000    72.3490    25.3280    83.8600    62.8220    74.7660     2.2390   -28.3420 
  172.6250    70.6020    25.3450    85.2360    61.9070    73.8820     2.2510   -28.1890 
  172.7500    69.8440    25.3340    78.2640    59.3090    70.4330     2.2580   -27.9690 
  172.8750    71.0240    25.3100    67.3480    53.5950    62.7660     2.2560   -27.7110 
  173.0000    73.7710    25.2950    62.6040    44.7780    51.4250     2.2490   -27.4340 
  173.1250    78.1210    25.2960    59.8530    34.8090    39.3360     2.2560   -27.1240 
  173.2500    83.3920    25.2950    46.8560    26.2530    29.3630     2.2920   -26.8340 
  173.3750    86.7130    25.3020    27.9870    20.1090    22.4060     2.3430   -26.5910 
  173.5000    84.7510    25.3350    15.6610    16.3730    18.3560     2.3820   -26.4040 
  173.6250    80.0440    25.3420    13.9220    14.8590    17.0940     2.3940   -26.2960 
  173.7500    79.3060    25.3030    15.4220    14.8470    17.7860     2.3950   -26.2700 
  173.8750    80.2200    25.3190    17.4800    16.1650    20.1400     2.3880   -26.3220 
  174.0000    77.6070    25.4270    22.2160    18.6540    23.8000     2.3650   -26.4440 
  174.1250    74.3230    25.4940    34.4220    22.0800    28.2570     2.3280   -26.6520 
  174.2500    75.3160    25.4540    45.8510    25.7820    32.7150     2.3020   -26.8950 
  174.3750    79.1270    25.4280    47.0340    29.4210    36.8510     2.3020   -27.1490 
  174.5000    80.7190    25.4710    41.5900    32.9070    40.6850     2.3180   -27.3950 
  174.6250    77.0440    25.4720    45.8920    36.2350    44.3210     2.3200   -27.6160 
  174.7500    72.2830    25.4170    58.8850    39.3090    47.6820     2.2990   -27.8000 
  174.8750    69.5160    25.3760    65.2090    41.8580    50.3990     2.2740   -27.9290 
  175.0000    69.7750    25.3660    56.2230    43.5070    51.9480     2.2700   -27.9900 
  175.1250    70.2570    25.3430    43.3280    43.5740    51.4600     2.2900   -27.9610 
  175.2500    71.2390    25.3140    42.6760    41.9900    48.9350     2.3060   -27.8710 
  175.3750    74.2880    25.3000    50.8200    38.7100    44.4300     2.3050   -27.7330 
  175.5000    78.8950    25.2910    52.3520    33.9200    38.2990     2.3000   -27.5610 
  175.6250    83.7260    25.2470    38.2920    28.2260    31.3850     2.3090   -27.3700 
  175.7500    87.7060    25.1810    22.4620    22.8750    25.0710     2.3260   -27.1730 
  175.8750    90.5730    25.0920    13.8290    18.6100    20.1710     2.3420   -27.0060 
  176.0000    90.8940    24.9310    10.6350    15.6740    16.9520     2.3610   -26.8920 
  176.1250    90.4720    24.6490     9.8260    14.0950    15.4310     2.3910   -26.8470 
  176.2500    91.7580    24.3650     9.8560    13.3440    14.8790     2.4220   -26.8660 
  176.3750    93.5780    24.2510    10.6870    13.1060    14.8280     2.4390   -26.9530 
  176.5000    94.4780    24.3550    11.9630    13.1380    14.9430     2.4360   -27.1020 
  176.6250    93.0490    24.5390    12.8600    13.4040    15.2290     2.4260   -27.3190 
  176.7500    89.5130    24.6380    13.4740    14.0580    16.0400     2.4200   -27.5880 
  176.8750    83.6120    24.6400    14.7630    15.4730    17.9460     2.4130   -27.8780 
  177.0000    76.4260    24.6120    18.0960    18.2040    21.6340     2.4060   -28.1560 
  177.1250    71.5220    24.5680    27.0900    23.4450    28.3390     2.4110   -28.4150 
  177.2500    68.3110    24.5230    45.0300    31.5550    38.2100     2.4310   -28.6370 
  177.3750    65.5130    24.4990    70.3670    42.3620    51.0060     2.4500   -28.7970 
  177.5000    63.3690    24.4700    92.1860    54.2290    64.9990     2.4440   -28.8980 
  177.6250    64.0900    24.4270    96.0090    63.0030    75.1150     2.4020   -28.9160 
  177.7500    67.0590    24.4110    86.8530    65.1510    76.4800     2.3460   -28.8660 
  177.8750    69.5250    24.4400    74.3160    59.3090    67.6710     2.2940   -28.7690 
  178.0000    71.4460    24.4740    65.7390    47.7390    52.6350     2.2560   -28.6590 
  178.1250    73.5780    24.4890    61.7690    35.5130    38.1680     2.2370   -28.5690 
  178.2500    75.4130    24.5020    55.0600    26.2490    27.8180     2.2360   -28.5370 
  178.3750    76.3560    24.5000    44.3180    20.5810    21.9430     2.2500   -28.5930 
  178.5000    75.7580    24.5280    36.3000    18.1120    20.0160     2.2700   -28.7470 
  178.6250    74.2170    24.7560    38.7250    18.7760    22.0350     2.2870   -29.0340 
