~V
VERS. 2.00: Ver 2.00
~W
STRT.M 55.0000:
STOP.M 245.0000:
STEP.M 0.1250:
NULL. -999.2500:
UWI. DF33016:
~C
DEPT.M :
GR.API :
CALI.CM :
RXO.OHMM :
RI. :
RML.OHMM :
DEN.GM/CC :
SP.MV :
~A
# ...
  111.2500    83.6060    23.4390     7.9970     6.5580     8.8820     2.1530   -27.0310 
  111.3750    82.4080    23.4390     7.8160     6.4870     8.7660     2.1460   -26.8800 
  111.5000    79.7740    23.4390     7.7810     6.4560     8.6930     2.1470   -26.6650 
  111.6250    79.0460    23.4390     7.8380     6.4660     8.6490     2.1470   -26.4090 
  111.7500    79.7390    23.4390     7.9210     6.5090     8.6230     2.1450   -26.1340 
  111.8750    80.4740    23.4390     8.0110     6.5930     8.6290     2.1440   -25.7910 
  112.0000    80.5390    23.4390     8.1090     6.7170     8.6870     2.1460   -25.3470 
  112.1250    77.8420    23.4390     8.2190     6.8750     8.8250     2.1540   -24.8870 
  112.2500    75.7690    23.4390     8.2710     7.0270     8.9990     2.1670   -24.3100 
  112.3750    77.7070    23.4390     8.3010     7.0970     9.1040     2.1780   -23.6790 
  112.5000    82.7250    23.4480     8.3830     6.9920     8.9970     2.1800   -22.9860 
  112.6250    85.2350    23.5030     8.4130     6.6180     8.5470     2.1750   -22.2030 
  112.7500    87.0740    23.6720     7.9640     6.0610     7.8650     2.1770   -21.4580 
  112.8750    91.7400    24.0360     6.7910     5.4240     7.0910     2.2060   -20.7420 
  113.0000    99.5540    24.5460     5.4000     4.8190     6.3660     2.2560   -20.1680 
  113.1250   106.4400    24.9000     4.5710     4.3670     5.8280     2.3080   -19.7820 
  113.2500   108.0760    24.9290     4.3880     4.0940     5.5050     2.3430   -19.5490 
  113.3750   105.3770    24.8800     4.3900     4.0060     5.4110     2.3550   -19.5490 
  113.5000   101.5550    24.8040     4.3950     4.0830     5.5360     2.3570   -19.7410 
  113.6250    97.8660    24.5800     4.6730     4.3050     5.8540     2.3560   -20.1830 
  113.7500    92.1230    24.2950     5.3780     4.5970     6.2570     2.3470   -20.7170 
  113.8750    84.4190    23.9860     6.1980     4.9160     6.6760     2.3200   -21.2740 
  114.0000    78.0190    23.9170     6.7100     5.2350     7.0670     2.2810   -21.8520 
  114.1250    75.1970    23.9020     6.7880     5.5350     7.3980     2.2430   -22.3470 
  114.2500    76.2600    23.8950     6.9990     5.8140     7.6780     2.2180   -22.7940 
  114.3750    78.6580    23.8480     7.3780     6.0620     7.9030     2.2110   -23.1080 
  114.5000    78.5950    23.8190     7.7150     6.2680     8.0620     2.2170   -23.2910 
  114.6250    76.6410    23.8040     7.8000     6.3980     8.1320     2.2310   -23.3400 
  114.7500    74.9960    23.7980     7.6840     6.4580     8.1420     2.2420   -23.2670 
  114.8750    73.6230    23.7960     7.4720     6.4750     8.1430     2.2440   -23.1530 
  115.0000    71.7130    23.7950     7.2660     6.4910     8.2010     2.2390   -22.9560 
  115.1250    71.1740    23.7950     7.1740     6.5360     8.3550     2.2330   -22.6450 
  115.2500    71.7720    23.7960     7.0930     6.5520     8.5090     2.2250   -22.2670 
  115.3750    70.9840    23.7990     6.9590     6.4470     8.5040     2.2130   -21.8060 
  115.5000    70.0770    23.8180     6.7800     6.1390     8.1760     2.1970   -21.2970 
  115.6250    73.0170    23.8740     6.5110     5.5700     7.4070     2.1870   -20.7980 
  115.7500    81.4420    24.0430     5.9900     4.8840     6.4220     2.1950   -20.3820 
  115.8750    92.0770    24.4230     5.2100     4.2470     5.5110     2.2330   -20.1030 
  116.0000    99.6470    25.1140     4.4640     3.8220     4.9360     2.2890   -19.9850 
  116.1250   102.2040    25.5790     4.2520     3.7800     4.9430     2.3400   -20.1070 
  116.2500   100.3020    25.5750     4.7720     4.1200     5.5150     2.3720   -20.4210 
  116.3750    93.5310    24.9670     6.8400     4.8440     6.6250     2.3850   -20.9370 
  116.5000    83.0180    24.3550    11.0260     5.8500     8.1000     2.3930   -21.5960 
  116.6250    74.1040    23.8000    13.7030     6.8410     9.4110     2.3890   -22.3150 
  116.7500    70.7420    23.6080    12.6530     7.4600    10.0120     2.3590   -23.0350 
  116.8750    70.8710    23.6030     9.9070     7.5730     9.8130     2.3060   -23.6960 
  117.0000    72.0990    23.6560     8.3210     7.3130     9.1630     2.2580   -24.2670 
  117.1250    74.1570    23.6670     7.7940     6.9490     8.5550     2.2290   -24.7580 
  117.2500    76.8520    23.6270     7.5230     6.7080     8.2250     2.2150   -25.1670 
  117.3750    78.0420    23.5910     7.4800     6.6320     8.1710     2.2050   -25.4840 
  117.5000    75.0990    23.5770     7.7160     6.6780     8.2980     2.1950   -25.7370 
  117.6250    70.2410    23.5790     8.0620     6.7790     8.4940     2.1900   -25.9250 
  117.7500    69.4220    23.5890     8.2780     6.8650     8.6540     2.1920   -26.0490 
  117.8750    72.7090    23.6120     8.4390     6.9020     8.7300     2.1970   -26.0990 
  118.0000    76.0030    23.6450     8.5810     6.8790     8.7150     2.1980   -26.0790 
  118.1250    75.4600    23.6680     8.5430     6.8150     8.6400     2.1920   -25.9570 
  118.2500    71.5840    23.6850     8.4010     6.7400     8.5540     2.1800   -25.7590 
  118.3750    68.3810    23.6910     8.2860     6.6600     8.4620     2.1680   -25.4920 
  118.5000    69.3130    23.6970     8.3070     6.5810     8.3620     2.1650   -25.2070 
  118.6250    73.3070    23.7220     8.3910     6.5160     8.2710     2.1710   -24.9090 
  118.7500    75.7810    23.7620     8.2740     6.4970     8.2220     2.1790   -24.6210 
  118.8750    76.6890    23.7940     7.9980     6.5430     8.2460     2.1880   -24.3740 
  119.0000    78.2950    23.8240     8.1530     6.6610     8.3670     2.2000   -24.1640 
  119.1250    80.4610    23.8690     9.6280     6.8470     8.5930     2.2140   -23.9880 
  119.2500    79.9920    23.9110    11.2490     7.0350     8.8440     2.2220   -23.8560 
  119.3750    77.2440    23.8990    11.2500     7.1780     9.0420     2.2170   -23.7780 
  119.5000    75.2200    23.8490     9.7210     7.2600     9.1330     2.2110   -23.7060 
  119.6250    74.6830    23.8190     8.7920     7.2780     9.1050     2.2110   -23.6440 
  119.7500    74.1460    23.8080     8.4290     7.2590     9.0390     2.2140   -23.5690 
  119.8750    73.8420    23.8040     8.3520     7.2270     9.0070     2.2110   -23.4580 
  120.0000    74.8320    23.7990     8.4160     7.2110     9.0390     2.2050   -23.3160 
  120.1250    75.3660    23.7930     8.5840     7.2080     9.1120     2.2060   -23.1080 
  120.2500    73.9770    23.7870     8.7370     7.2020     9.1660     2.2130   -22.8550 
  120.3750    73.8940    23.7850     8.8330     7.2080     9.1850     2.2200   -22.5430 
  120.5000    76.0010    23.7910     8.9060     7.2550     9.2100     2.2250   -22.1630 
  120.6250    76.8060    23.7950     9.0170     7.4020     9.3670     2.2320   -21.7040 
  120.7500    75.0860    23.8040     9.3170     7.7410     9.7720     2.2430   -21.1590 
  120.8750    71.4970    23.8500    10.2160     8.3950    10.5620     2.2630   -20.5690 
  121.0000    66.5710    23.9750    12.0650     9.4480    11.8560     2.3010   -19.9180 
  121.1250    62.0490    24.2290    14.5050    11.0150    13.8240     2.3630   -19.2530 
  121.2500    60.5070    24.6190    16.5670    12.9490    16.2740     2.4440   -18.5760 
  121.3750    61.7770    25.1110    18.6390    14.9010    18.7070     2.5230   -17.9310 
  121.5000    62.5420    25.5490    20.9350    16.1780    20.1200     2.5830   -17.3260 
  121.6250    61.7100    25.8930    21.1530    15.9380    19.3020     2.6180   -16.7660 
  121.7500    60.7850    26.0950    18.9820    14.6590    17.1100     2.6270   -16.3070 
  121.8750    62.1440    26.1120    15.7350    13.1290    14.7890     2.6080   -15.9210 
  122.0000    66.9030    25.9030    12.7260    12.0440    13.2560     2.5850   -15.6300 
  122.1250    72.3930    25.4690    12.4980    11.9910    13.1670     2.5760   -15.4180 
  122.2500    73.1010    25.2570    15.7670    12.9590    14.4240     2.5870   -15.2550 
  122.3750    68.1170    25.2070    20.4510    14.8590    16.8690     2.6100   -15.1140 
