~V
VERS. 2.00: Ver 2.00
~W
STRT.M 50.0000:
STOP.M 235.0000:
STEP.M 0.1250:
NULL. -999.2500:
UWI. DF33017:
~C
DEPT.M :
GR.API :
CALI.CM :
RXO.OHMM :
RI. :
RML.OHMM :
DEN.GM/CC :
SP.MV :
~A
# ...
  207.5000    69.1670    24.4270    34.5360    41.1690    43.5490     2.2360   -29.6580 
  207.6250    67.1880    24.4270    33.9500    40.9420    43.3120     2.2350   -30.1740 
  207.7500    66.3810    24.4270    33.6110    40.8630    43.2300     2.2330   -30.7100 
  207.8750    68.6480    24.4270    33.9880    41.0900    43.4670     2.2310   -31.2980 
  208.0000    72.2750    24.4270    34.5560    42.2030    44.6250     2.2310   -31.8360 
  208.1250    72.1470    24.4270    34.9140    45.7100    48.2730     2.2310   -32.4090 
  208.2500    69.5570    24.4270    37.4620    52.7710    55.6190     2.2330   -32.9280 
  208.3750    67.4690    24.4270    47.0010    64.4870    67.8070     2.2460   -33.4010 
  208.5000    67.5740    24.4270    66.8170    80.6910    84.6640     2.2760   -33.8430 
  208.6250    67.5940    24.4270    91.7730    98.3690   103.0550     2.3130   -34.2100 
  208.7500    67.1310    24.4290   109.5310   111.6670   116.8880     2.3320   -34.5350 
  208.8750    67.3520    24.4430   115.0240   117.0170   122.4540     2.3220   -34.7870 
  209.0000    68.0760    24.4760   109.2620   115.2210   120.5850     2.2900   -35.0020 
  209.1250    68.7750    24.5650    96.9190   110.7910   115.9770     2.2600   -35.1830 
  209.2500    67.9790    24.7220    88.8770   108.4370   113.5280     2.2460   -35.2880 
  209.3750    67.5670    24.9190    89.0330   109.2370   114.3600     2.2450   -35.3940 
  209.5000    68.8100    24.9950    94.4020   112.0550   117.2910     2.2420   -35.5080 
  209.6250    70.6310    24.8820    99.9380   114.2870   119.6140     2.2310   -35.6210 
  209.7500    72.2830    24.6530   104.5020   113.9570   119.2700     2.2180   -35.6610 
  209.8750    73.1870    24.5460   106.8330   110.8050   115.9910     2.2130   -35.6450 
  210.0000    73.6110    24.5340   103.7830   106.0030   110.9960     2.2210   -35.6360 
  210.1250    73.8760    24.5390    93.4840   101.4410   106.2500     2.2400   -35.5970 
  210.2500    72.8900    24.5450    84.5180    98.2430   102.9240     2.2560   -35.5870 
  210.3750    70.6410    24.5480    82.2980    96.6910   101.3090     2.2560   -35.5100 
  210.5000    68.4350    24.5490    85.7060    96.9110   101.5380     2.2470   -35.2460 
  210.6250    69.7220    24.5390    90.0900    99.5920   104.3270     2.2450   -34.8860 
  210.7500    72.0130    24.5070    90.4990   104.7000   109.6410     2.2530   -34.5530 
  210.8750    71.7850    24.4500    86.5990   112.1310   117.3710     2.2600   -34.2350 
  211.0000    69.2450    24.3680    82.4960   121.1610   126.7650     2.2580   -33.9220 
  211.1250    65.7790    24.2280    80.5510   129.8750   135.8300     2.2470   -33.4840 
  211.2500    61.7220    24.0900    78.5860   135.3610   141.5370     2.2410   -32.9130 
  211.3750    60.1100    23.9950    78.8350   134.0870   140.2120     2.2530   -32.2950 
  211.5000    62.4420    23.9370    89.6330   122.2460   127.8930     2.2930   -31.7200 
  211.6250    66.0170    23.8470   100.4530    97.1060   101.7400     2.3680   -31.1880 
  211.7500    67.3550    23.8090    91.9820    67.8610    71.3170     2.4590   -30.6310 
  211.8750    67.3550    23.9320    62.4870    43.0460    45.5020     2.5470   -30.0700 
  212.0000    68.5990    24.2050    31.1200    26.0400    27.8100     2.6110   -29.4940 
  212.1250    70.6920    24.3070    14.3470    16.5090    17.8950     2.6240   -28.9720 
  212.2500    71.6030    24.1480     7.7620    10.9800    12.1430     2.5890   -28.5240 
  212.3750    69.7190    24.1290     6.0310     7.9720     9.0140     2.5230   -28.1480 
  212.5000    64.6080    24.1900     5.5630     6.5710     7.5570     2.4520   -27.8470 
  212.6250    60.3210    24.2150     5.3170     6.2650     7.2380     2.3980   -27.6670 
  212.7500    59.7110    24.1930     5.4630     6.4280     7.4090     2.3680   -27.6360 
  212.8750    63.0260    24.1480     6.3450     6.8170     7.8130     2.3610   -27.7340 
  213.0000    69.5940    24.1150     7.8870     7.3460     8.3630     2.3700   -27.9500 
  213.1250    79.2170    24.1050     8.9360     8.0140     9.0580     2.3870   -28.3010 
  213.2500    87.7270    24.1040     9.0460     8.6750     9.7460     2.4030   -28.7680 
  213.3750    91.4270    24.0980     8.6180     9.1010    10.1890     2.4180   -29.2800 
  213.5000    92.2080    24.0850     8.2720     9.0920    10.1790     2.4300   -29.8170 
  213.6250    95.2650    24.0640     8.1640     8.6060     9.6740     2.4330   -30.3610 
  213.7500    99.6810    24.0510     8.1190     8.0190     9.0640     2.4290   -30.8840 
  213.8750   102.7300    24.0400     8.1480     7.6920     8.7230     2.4190   -31.3800 
  214.0000   103.7970    24.0360     8.3750     7.9240     8.9640     2.4060   -31.7990 
  214.1250   104.1620    24.0360     9.4510     9.0310    10.1160     2.3920   -32.1130 
  214.2500   104.6600    24.0360    12.0740    10.9320    12.0930     2.3800   -32.3760 
  214.3750   103.1470    24.0360    16.5790    13.5520    14.8190     2.3660   -32.6430 
  214.5000    98.4170    24.0360    21.9980    16.7110    18.1060     2.3500   -32.8480 
  214.6250    91.3430    24.0360    26.2610    20.0700    21.6000     2.3320   -32.8440 
  214.7500    85.9670    24.0360    29.1730    23.0590    24.7100     2.3180   -32.6560 
  214.8750    84.2810    24.0370    31.2320    25.1700    26.9060     2.3090   -32.3410 
  215.0000    84.6130    24.0390    32.1980    26.1130    27.8860     2.3080   -31.8540 
  215.1250    85.0040    24.0450    31.2110    25.9110    27.6760     2.3130   -31.2120 
  215.2500    83.9400    24.0440    29.3390    25.2650    27.0040     2.3240   -30.4910 
  215.3750    82.4760    24.0310    28.3150    24.6070    26.3190     2.3360   -29.6190 
  215.5000    82.0650    24.0210    27.9790    24.1060    25.7990     2.3480   -28.6640 
  215.6250    80.7850    24.0160    27.8740    23.4990    25.1670     2.3700   -27.7920 
  215.7500    77.5440    24.0150    27.1290    22.2810    23.9000     2.4010   -26.9190 
  215.8750    74.5880    23.9720    24.1150    20.2310    21.7670     2.4320   -26.0610 
  216.0000    74.9010    23.9150    19.7780    17.6330    19.0650     2.4460   -25.3270 
  216.1250    77.7250    23.9310    16.4170    15.1420    16.4730     2.4390   -24.6900 
  216.2500    79.1160    24.0570    13.6860    13.1280    14.3780     2.4260   -24.1040 
  216.3750    79.1810    24.1500    11.2110    11.5790    12.7660     2.4140   -23.5830 
  216.5000    78.9950    24.1910     9.7320    10.3400    11.4770     2.3970   -23.1680 
  216.6250    78.0280    24.2080     8.9170     9.3500    10.4480     2.3800   -22.7500 
  216.7500    78.8410    24.2030     8.1490     8.6390     9.7080     2.3750   -22.4080 
  216.8750    84.3200    24.1840     7.6680     8.2800     9.3350     2.3880   -22.1130 
  217.0000    91.3660    24.1400     7.9550     8.2000     9.2520     2.4160   -21.8140 
  217.1250    92.2330    24.1190     8.9620     8.1200     9.1680     2.4400   -21.6200 
  217.2500    88.1370    24.0940     9.3410     7.8210     8.8570     2.4480   -21.4230 
  217.3750    83.5860    24.0670     8.4580     7.3540     8.3710     2.4440   -21.2810 
  217.5000    79.4230    24.0540     6.9860     6.9160     7.9160     2.4400   -21.1180 
  217.6250    74.9400    24.0620     6.5580     6.7210     7.7120     2.4460   -20.9960 
  217.7500    71.7660    24.0610     6.8270     6.7750     7.7690     2.4550   -20.8740 
  217.8750    69.9510    24.0770     7.7110     7.0440     8.0490     2.4650   -20.7250 
  218.0000    69.6120    24.0880     9.2070     7.4530     8.4740     2.4730   -20.5880 
  218.1250    72.4050    24.0800    11.0170     7.8450     8.8820     2.4760   -20.4030 
  218.2500    75.8710    24.1180    12.2680     8.0620     9.1080     2.4750   -20.2730 
  218.3750    78.1500    24.1710    11.7410     8.0660     9.1130     2.4730   -20.1210 
  218.5000    78.6820    24.1970     9.7640     7.9340     8.9750     2.4690   -20.0200 
  218.6250    78.8190    24.1970     8.2910     7.7920     8.8270     2.4580   -19.9170 
