~V
VERS. 2.00: Ver 2.00
~W
STRT.M 60.0000:
STOP.M 268.0000:
STEP.M 0.1250:
NULL. -999.2500:
UWI. DF33031:
~C
DEPT.M :
SP.MV :
GR.API :
CALI.CM :
RXO.OHMM :
RI. :
RML.OHMM :
DEN.GM/CC :
~A
# ...
  251.2500    -7.0640    68.8290    24.1590    23.6820    18.9220    20.9810     2.5530 
  251.3750    -7.1370    68.6820    24.1280    24.6080    18.6870    20.5600     2.5340 
  251.5000    -7.2350    67.6970    24.0880    24.2330    18.3320    19.9980     2.5260 
  251.6250    -7.3280    64.9420    24.0330    22.6200    17.9590    19.4530     2.5390 
  251.7500    -7.4690    63.2490    23.9860    21.3310    17.7140    19.1020     2.5580 
  251.8750    -7.6390    64.2930    23.9590    20.2510    17.7070    19.0600     2.5690 
  252.0000    -7.8080    67.4270    23.9290    18.9110    17.9850    19.3650     2.5670 
  252.1250    -7.9280    69.9870    23.8700    17.6250    18.5370    19.9760     2.5620 
  252.2500    -8.1100    71.3860    23.8170    17.4240    19.1490    20.6300     2.5670 
  252.3750    -8.3370    72.8290    23.7800    18.9410    19.6030    21.0430     2.5780 
  252.5000    -8.5580    74.0970    23.7630    20.6210    19.6890    20.9580     2.5850 
  252.6250    -8.7820    74.0380    23.7600    19.6220    19.2240    20.2380     2.5770 
  252.7500    -8.9360    71.8920    23.7590    17.6000    18.4270    19.2230     2.5590 
  252.8750    -9.0490    69.7550    23.7590    16.0350    17.5660    18.2390     2.5410 
  253.0000    -9.1130    69.3590    23.7590    15.4850    16.8730    17.5450     2.5320 
  253.1250    -9.1710    69.4950    23.7590    16.3860    16.5830    17.3380     2.5310 
  253.2500    -9.2080    68.3650    23.7590    17.8450    16.6780    17.5020     2.5310 
  253.3750    -9.1530    66.7140    23.7540    18.5140    17.0250    17.8630     2.5320 
  253.5000    -9.1130    67.2090    23.7370    18.0240    17.3320    18.1450     2.5380 
  253.6250    -9.0970    69.9870    23.6990    17.2490    17.2150    17.9570     2.5380 
  253.7500    -9.0800    72.0920    23.6570    16.5930    16.6340    17.2520     2.5220 
  253.8750    -9.0770    72.4260    23.5920    15.2060    15.7190    16.2040     2.4950 
  254.0000    -9.0890    70.8940    23.5270    13.3820    14.7270    15.1110     2.4760 
  254.1250    -9.0430    69.3020    23.5550    12.6460    14.0030    14.3290     2.4770 
  254.2500    -8.8970    69.3270    23.6530    13.0550    13.6670    14.0080     2.4890 
  254.3750    -8.7600    69.2210    23.7400    13.6470    13.7500    14.1760     2.5020 
  254.5000    -8.5950    65.7370    23.7900    13.9300    14.2200    14.7430     2.5110 
  254.6250    -8.3450    62.8950    23.8370    14.4420    14.9580    15.5430     2.5230 
  254.7500    -8.1530    66.4160    23.8580    14.7210    15.6970    16.3030     2.5400 
  254.8750    -7.9420    73.2210    23.8630    14.9190    16.2870    16.8510     2.5580 
  255.0000    -7.6860    76.1110    23.8630    15.4790    16.6580    17.1250     2.5690 
  255.1250    -7.4570    75.5190    23.8860    16.8340    16.7890    17.1640     2.5730 
  255.2500    -7.2960    76.6860    23.9580    17.8680    16.7640    17.0900     2.5750 
  255.3750    -7.1710    78.0740    24.0670    18.1070    16.6270    16.9480     2.5730 
  255.5000    -7.0390    77.6650    24.1340    17.1520    16.4460    16.7890     2.5690 
  255.6250    -6.9720    75.6710    24.1500    15.6190    16.3240    16.6810     2.5650 
  255.7500    -6.9110    74.4900    24.1500    14.1360    16.3100    16.6760     2.5610 
  255.8750    -6.8500    75.1990    24.1500    13.3660    16.4380    16.8320     2.5590 
  256.0000    -6.8200    76.9240    24.1500    13.0020    16.7580    17.2100     2.5600 
  256.1250    -6.8370    76.3850    24.1500    12.7600    17.3720    17.8940     2.5620 
  256.2500    -6.8530    72.9420    24.1500    12.9380    18.2420    18.8060     2.5590 
  256.3750    -6.8560    70.1150    24.1500    13.6500    19.2750    19.8290     2.5500 
  256.5000    -6.8080    68.9750    24.1500    14.7320    20.2560    20.7580     2.5400 
  256.6250    -6.7570    68.3720    24.1480    15.3750    20.7940    21.2740     2.5370 
  256.7500    -6.6580    70.4340    24.1320    15.0330    20.7740    21.2810     2.5360 
  256.8750    -6.5590    74.9900    24.0950    13.9860    20.2490    20.8120     2.5290 
  257.0000    -6.4720    76.7360    24.0670    13.0230    19.4000    20.0320     2.5150 
  257.1250    -6.2920    73.8780    24.0580    12.5420    18.5130    19.1800     2.5020 
  257.2500    -6.1370    70.2030    24.0580    12.1290    17.8040    18.4630     2.4970 
  257.3750    -5.9990    68.4920    24.0580    11.5610    17.3150    17.9680     2.4990 
  257.5000    -5.9230    70.4970    24.0580    10.9550    17.0450    17.7120     2.5080 
  257.6250    -5.9200    74.3830    24.0580    10.5620    17.0070    17.7030     2.5190 
  257.7500    -5.9690    74.3830    24.0580    10.3120    17.1140    17.8500     2.5260 
  257.8750    -6.0360    74.3830    24.0580    10.2040    17.3260    18.1010     2.5260 
  258.0000    -6.0390    74.3830    24.0580    10.3820    17.6170    18.4060     2.5230 
  258.1250    -6.1560    74.3830    24.0580    10.9030    17.9390    18.7120     2.5240 
  258.2500    -6.2520    74.3830    24.0570    11.5260    18.2280    18.9710     2.5300 
  258.3750    -6.3350    74.3830    24.0540    11.9180    18.4390    19.1540     2.5350 
  258.5000    -6.4170    74.3830    24.0550    11.8840    18.5490    19.2630     2.5360 
  258.6250    -6.3930    74.3830    24.0540    11.5030    18.5880    19.3200     2.5360 
  258.7500    -6.3290    74.3830    24.0530    11.0960    18.6360    19.3680     2.5420 
  258.8750    -6.2280    74.3830    24.0530    10.9950    18.6980    19.4210     2.5560 
  259.0000    -6.1850    74.3830    24.0550    11.1640    18.7370    19.4680     2.5690 
  259.1250    -6.0710    74.3830    24.0510    11.4440    18.7210    19.4430     2.5710 
  259.2500    -6.0050    74.3830    24.0310    11.7090    18.6220    19.3020     2.5640 
  259.3750    -5.9310    74.3830    23.9910    12.1000    18.4110    19.0400     2.5540 
  259.5000    -5.8680    74.3830    23.9520    12.4810    18.1220    18.6940     2.5440 
  259.6250    -5.8420    74.3830    23.9140    12.7420    17.7950    18.3430     2.5350 
  259.7500    -5.8620    74.3830    23.8780    13.2060    17.4630    18.0720     2.5260 
  259.8750    -5.9090    74.3830    23.8600    13.9360    17.1820    17.9180     2.5180 
  260.0000    -5.9470    74.3830    23.8570    14.5470    17.0340    17.8800     2.5120 
  260.1250    -6.0540    74.3830    23.8550    14.7000    17.0550    17.9420     2.5120 
  260.2500    -6.1150    74.3830    23.8550    14.6050    17.1600    18.0600     2.5190 
  260.3750    -6.1760    74.3830    23.8530    14.2980    17.3140    18.2120     2.5310 
  260.5000    -6.2520    74.3830    23.8410    13.6620    17.4890    18.3740     2.5420 
  260.6250    -6.3030    74.3830    23.8100    12.8110    17.5940    18.5080     2.5490 
  260.7500    -6.3530    74.3830    23.7760    12.3350    17.6030    18.5850     2.5550 
  260.8750    -6.4130    74.3830    23.7610    12.5280    17.5420    18.5870     2.5620 
  261.0000    -6.4480    74.3830    23.7590    13.2080    17.4220    18.5220     2.5630 
  261.1250    -6.4810    74.3830    23.7590    13.8660    17.2520    18.3990     2.5520 
  261.2500    -6.5150    74.3830    23.7590    14.1670    17.1030    18.2450     2.5440 
  261.3750    -6.5670    74.3830    23.7590    14.1350    17.0080    18.0780     2.5500 
  261.5000    -6.5580    74.3830    23.7590    13.9870    16.9430    17.9140     2.5680 
  261.6250    -6.6000    74.3830    23.7590    14.0550    16.8630    17.7830     2.5810 
  261.7500    -6.6220    74.3830    23.7590    14.4090    16.7630    17.6950     2.5820 
  261.8750    -6.6570    74.3830    23.7590    14.9270    16.6660    17.6410     2.5790 
  262.0000    -6.6800    74.3830    23.7590    15.3230    16.6030    17.5990     2.5770 
  262.1250    -6.6760    74.3830    23.7590    14.7080    16.6160    17.5510     2.5750 
  262.2500    -6.7250    74.3830    23.7590    13.3720    16.6950    17.4950     2.5740 
  262.3750    -6.7420    74.3830    23.7590    12.1000    16.8050    17.4450     2.5750 
