~V
VERS. 2.00: Ver 2.00
~W
STRT.M 50.0000:
STOP.M 235.0000:
STEP.M 0.1250:
NULL. -999.2500:
UWI. DF33017:
~C
DEPT.M :
GR.API :
CALI.CM :
RXO.OHMM :
RI. :
RML.OHMM :
DEN.GM/CC :
SP.MV :
~A
# ...
  173.7500    72.8980    35.7050    55.2430    51.7150    48.9130     2.2670   -34.2390 
  173.8750    70.4710    35.5760    54.5130    49.5580    47.7650     2.2840   -34.1840 
  174.0000    71.0190    35.4260    53.1290    46.3940    45.8270     2.3100   -34.1170 
  174.1250    71.7190    35.2660    50.8350    42.5340    42.7880     2.3310   -34.0530 
  174.2500    70.7310    35.0430    47.6760    38.5430    39.1010     2.3410   -33.9680 
  174.3750    69.8850    34.7740    43.7610    34.7540    35.3460     2.3380   -33.8920 
  174.5000    69.6920    34.5460    39.3350    31.4010    32.1210     2.3250   -33.7820 
  174.6250    70.2920    34.4020    35.6250    28.7370    29.9450     2.3120   -33.6380 
  174.7500    70.9630    34.3060    33.5760    26.6820    28.5970     2.3050   -33.4740 
  174.8750    71.9620    34.2170    33.4950    25.1310    27.7120     2.3000   -33.3180 
  175.0000    72.7540    34.1110    34.2160    23.8670    26.8080     2.2960   -33.1470 
  175.1250    72.5180    33.9880    34.4290    22.5580    25.3810     2.2920   -32.9990 
  175.2500    72.4340    33.8650    33.0960    20.9590    23.4250     2.2920   -32.8550 
  175.3750    74.1200    33.7370    30.3520    19.0300    21.1600     2.2970   -32.7230 
  175.5000    75.9440    33.6190    26.1000    16.9100    18.8870     2.3080   -32.6350 
  175.6250    75.5800    33.5240    20.8540    14.8920    16.8490     2.3230   -32.6080 
  175.7500    76.0470    33.4280    16.6050    13.2200    15.0650     2.3410   -32.6140 
  175.8750    79.8700    33.3310    13.9500    12.0130    13.5540     2.3570   -32.6610 
  176.0000    85.8990    33.2810    12.0470    11.3170    12.4180     2.3700   -32.7870 
  176.1250    89.5080    33.2720    10.5650    11.2400    11.9740     2.3760   -32.9770 
  176.2500    90.5760    33.2910    10.2590    11.7060    12.3150     2.3780   -33.2300 
  176.3750    90.0860    33.3230    11.5530    12.7200    13.4600     2.3700   -33.5150 
  176.5000    87.8380    33.3770    13.9330    14.2680    15.2450     2.3480   -33.8490 
  176.6250    83.7290    33.4560    15.7750    16.3440    17.3980     2.3230   -34.2060 
  176.7500    79.1360    33.5650    17.7310    18.7170    19.6280     2.3140   -34.5870 
  176.8750    76.2310    33.6510    20.4390    21.2560    21.9720     2.3170   -34.9960 
  177.0000    75.4740    33.7010    23.5590    23.9380    24.6620     2.3140   -35.3980 
  177.1250    75.2890    33.7550    25.9790    26.9460    28.0450     2.2940   -35.7890 
  177.2500    75.7140    33.8340    28.4140    30.4990    32.0510     2.2700   -36.1640 
  177.3750    76.6090    33.9130    32.1600    34.8850    36.6030     2.2520   -36.5530 
  177.5000    76.3290    33.9940    38.3820    40.3430    41.6900     2.2400   -36.9110 
  177.6250    74.7380    34.0460    46.4110    47.0760    47.4950     2.2260   -37.2620 
  177.7500    75.1510    34.0650    53.7950    54.3790    53.7750     2.2130   -37.5820 
  177.8750    77.4970    34.0710    59.1500    60.9580    59.6790     2.2020   -37.8700 
  178.0000    77.9110    34.0740    64.1320    64.8090    63.5220     2.1900   -38.1430 
  178.1250    74.5130    34.0650    69.3310    63.7030    63.0280     2.1790   -38.3990 
  178.2500    70.3620    34.0410    70.4980    59.3470    59.2240     2.1700   -38.6470 
  178.3750    67.4110    34.0190    63.2970    54.0970    54.1980     2.1660   -38.8750 
  178.5000    67.1450    34.0110    50.1500    49.9740    50.1750     2.1650   -39.1010 
  178.6250    70.1700    34.0080    44.6760    48.5160    49.0630     2.1710   -39.3360 
  178.7500    73.6620    34.0050    49.8650    49.6200    50.7770     2.1830   -39.6010 
  178.8750    75.2510    33.9970    63.7270    52.9870    54.7900     2.1930   -39.8890 
  179.0000    75.6550    33.9720    77.1420    57.8030    60.0560     2.1930   -40.1990 
  179.1250    76.5300    33.9340    79.9880    62.3980    65.0160     2.1890   -40.4750 
  179.2500    77.5490    33.8790    75.9000    65.0290    68.3810     2.1950   -40.7390 
  179.3750    76.4230    33.8090    73.5850    65.0580    69.6650     2.2080   -40.9980 
  179.5000    72.8850    33.7230    74.6390    63.0470    69.0790     2.2140   -41.2480 
  179.6250    70.9330    33.6540    70.7030    60.0450    66.9640     2.2050   -41.4490 
  179.7500    71.9620    33.5780    63.0430    56.9760    64.0410     2.1930   -41.6170 
  179.8750    73.8340    33.5010    56.3820    54.1230    60.8220     2.1870   -41.7530 
  180.0000    73.1020    33.3990    52.7800    51.6670    57.9610     2.1870   -41.8400 
  180.1250    69.3550    33.2650    51.0880    49.9090    56.2240     2.1890   -41.9380 
  180.2500    66.1350    33.0930    50.6650    48.9420    55.6010     2.1960   -41.9890 
  180.3750    65.4070    32.9010    50.1270    48.9770    55.9750     2.2110   -41.9860 
  180.5000    68.2450    32.7110    48.9760    50.2880    57.3480     2.2270   -41.9500 
  180.6250    73.3670    32.5180    48.3820    53.5100    60.4560     2.2360   -41.8670 
  180.7500    77.6040    32.3350    52.0400    58.7530    65.9630     2.2390   -41.7450 
  180.8750    77.5720    32.1270    61.0710    66.3420    74.6260     2.2390   -41.5590 
  181.0000    72.1080    31.8860    73.8720    76.4370    86.5940     2.2390   -41.3030 
  181.1250    67.2190    31.5580    86.3990    88.7900   100.9260     2.2440   -40.9480 
  181.2500    67.4930    31.0960    92.3180   101.2670   114.6050     2.2490   -40.5470 
  181.3750    70.3760    30.4940    91.2700   111.6120   125.1350     2.2510   -40.1140 
  181.5000    71.1330    29.8260    89.9580   118.3580   131.2930     2.2520   -39.6260 
  181.6250    69.8910    29.2430    89.5480   121.6010   133.5400     2.2500   -39.1040 
  181.7500    69.6580    28.9070    89.9160   123.8900   134.9820     2.2390   -38.5550 
  181.8750    68.9520    28.6470    88.2090   126.9620   137.7660     2.2190   -38.0200 
  182.0000    68.0310    28.2670    88.4760   131.9940   143.1320     2.2020   -37.5030 
  182.1250    67.1760    27.9060    98.2460   140.1680   151.8810     2.1980   -37.0090 
  182.2500    65.8980    27.7410   116.3040   151.4180   163.4510     2.2010   -36.5210 
  182.3750    64.7800    27.7500   137.6090   165.9370   178.0400     2.2010   -36.0420 
  182.5000    66.0650    27.8030   153.0360   184.1300   196.6000     2.1970   -35.5810 
  182.6250    67.3460    27.6430   156.6860   208.0260   222.1950     2.1920   -35.1390 
  182.7500    66.0940    27.4130   160.6520   237.2890   254.0660     2.1930   -34.7060 
  182.8750    66.5930    27.1440   172.8390   265.6240   285.4950     2.2060   -34.2590 
  183.0000    69.4740    26.8000   199.1050   275.0080   301.5770     2.2390   -33.8060 
  183.1250    70.1410    26.3000   265.8670   243.5890   281.9420     2.3040   -33.3320 
  183.2500    67.6070    25.7500   337.6690   192.6570   236.2010     2.3940   -32.8670 
  183.3750    64.2590    25.2290   313.2030   145.0910   183.1330     2.4990   -32.4150 
  183.5000    60.7450    24.8340   188.3890   110.6800   138.6410     2.6040   -31.9880 
  183.6250    57.6620    24.6420    96.9290    90.8580   110.8310     2.6840   -31.5690 
  183.7500    59.2440    24.7440    79.2640    79.4100    94.3620     2.7270   -31.1890 
  183.8750    64.5180    24.8500    83.0690    71.8810    83.7500     2.7360   -30.8600 
  184.0000    68.1970    24.7750    81.2510    63.4200    73.4400     2.7280   -30.5550 
  184.1250    67.6630    24.7180    78.2170    50.4620    59.2250     2.7210   -30.3150 
  184.2500    67.0580    24.7000    75.2700    36.3220    43.3680     2.7210   -30.1340 
  184.3750    68.5400    24.7180    59.5900    24.6500    29.6020     2.7200   -30.0030 
  184.5000    69.5000    24.7130    31.3380    16.6520    19.7500     2.7050   -29.8960 
  184.6250    66.4990    24.9760    14.7000    12.1260    13.9560     2.6630   -29.8550 
  184.7500    61.6720    25.4020     8.9240     9.5440    10.5170     2.5960   -29.8410 
  184.8750    57.6700    25.5760     7.9880     8.2420     8.6900     2.5200   -29.8500 
