~V
VERS. 2.00: Ver 2.00
~W
STRT.M 55.0000:
STOP.M 246.0000:
STEP.M 0.1250:
NULL. -999.2500:
UWI. DF33025:
~C
DEPT.M :
SP.MV :
GR.API :
CALI.CM :
RXO.OHMM :
RI. :
RML.OHMM :
DEN.GM/CC :
~A
# ...
  235.0000    -4.9100    70.1820    24.6400     6.8810     6.4250     8.8250     2.4020 
  235.1250    -4.9170    70.7430    24.7110     6.7660     6.3500     8.7730     2.4130 
  235.2500    -4.9170    71.4980    24.6700     6.8060     6.3230     8.7820     2.4140 
  235.3750    -4.9710    71.7740    24.6060     6.8630     6.3270     8.8350     2.4070 
  235.5000    -4.9840    69.9710    24.5660     6.9330     6.3300     8.8960     2.3980 
  235.6250    -4.9610    66.6030    24.5810     7.2130     6.3210     8.9140     2.3910 
  235.7500    -4.9530    64.7080    24.6080     7.5420     6.3090     8.8690     2.3900 
  235.8750    -5.0050    64.7080    24.6430     7.4490     6.2850     8.7700     2.3940 
  236.0000    -5.0510    64.7080    24.8450     6.8120     6.2280     8.6520     2.4020 
  236.1250    -5.0980    64.7080    25.2980     6.1400     6.1370     8.5790     2.4170 
  236.2500    -5.1910    64.7080    25.6280     5.7700     6.0660     8.5880     2.4320 
  236.3750    -5.2430    64.7080    25.5210     5.6740     6.0660     8.6830     2.4420 
  236.5000    -5.3250    64.7080    25.2790     5.7900     6.1430     8.8340     2.4470 
  236.6250    -5.4310    64.7080    25.1330     6.0590     6.2360     8.9730     2.4490 
  236.7500    -5.5630    64.7080    25.0330     6.2810     6.2640     9.0460     2.4440 
  236.8750    -5.6910    64.7080    24.9880     6.3120     6.2120     9.0380     2.4300 
  237.0000    -5.8250    64.7080    25.0040     6.1780     6.1200     8.9720     2.4130 
  237.1250    -5.9640    64.7080    25.0210     6.1580     6.0510     8.8840     2.4070 
  237.2500    -6.0660    64.7080    25.1350     6.4680     6.0170     8.8050     2.4090 
  237.3750    -6.1140    64.7080    25.5130     7.1120     5.9960     8.7390     2.4090 
  237.5000    -6.1180    64.7080    25.7900     7.8830     5.9730     8.6920     2.4020 
  237.6250    -6.0800    64.7080    25.6990     8.3540     5.9700     8.6800     2.3850 
  237.7500    -6.0090    64.7080    25.3070     8.4430     6.0140     8.7140     2.3630 
  237.8750    -5.9190    64.7080    25.0040     8.3590     6.1010     8.7970     2.3380 
  238.0000    -5.8130    64.7080    24.8500     8.4450     6.1890     8.9080     2.3190 
  238.1250    -5.6590    64.7080    24.8620     8.9070     6.2200     8.9980     2.3210 
  238.2500    -5.4960    64.7080    25.0630     9.4410     6.2050     9.0270     2.3370 
  238.3750    -5.4200    64.7080    25.3800     9.7890     6.1790     8.9910     2.3450 
  238.5000    -5.3740    64.7080    25.4120     9.6560     6.1720     8.9160     2.3350 
  238.6250    -5.3480    64.7080    25.0490     9.0360     6.1730     8.8430     2.3250 
  238.7500    -5.3470    64.7080    24.8400     8.4630     6.1540     8.7980     2.3360 
  238.8750    -5.3220    64.7080    24.7560     8.2270     6.1110     8.7740     2.3610 
  239.0000    -5.2400    64.7080    24.6940     8.0840     6.0680     8.7500     2.3780 
  239.1250    -5.2230    64.7080    24.6670     7.8210     6.0510     8.6990     2.3800 
  239.2500    -5.2550    64.7080    24.6600     7.4710     6.0510     8.6230     2.3840 
  239.3750    -5.2830    64.7080    24.6680     7.1210     6.0560     8.5460     2.3950 
  239.5000    -5.3250    64.7080    24.6740     6.7560     6.0640     8.5000     2.4060 
  239.6250    -5.3650    64.7080    24.6680     6.4310     6.0760     8.5180     2.4080 
  239.7500    -5.4380    64.7080    24.6530     6.2070     6.0760     8.5750     2.4060 
  239.8750    -5.5070    64.7080    24.6450     6.0450     6.0430     8.6300     2.4050 
  240.0000    -5.5940    64.7080    24.6410     5.8630     5.9590     8.6440     2.4050 
  240.1250    -5.6730    64.7080    24.6300     5.6450     5.8330     8.5970     2.3970 
  240.2500    -5.7340    64.7080    24.6310     5.4510     5.7170     8.5100     2.3850 
  240.3750    -5.8040    64.7080    24.6580     5.3840     5.6450     8.3950     2.3680 
  240.5000    -5.8860    64.7080    24.7000     5.6350     5.6230     8.2610     2.3510 
  240.6250    -5.9090    64.7080    24.7280     6.5940     5.6370     8.1330     2.3400 
  240.7500    -5.8680    64.7080    24.6590     7.9690     5.6550     8.0500     2.3350 
  240.8750    -5.8220    64.7080    24.6380     9.0050     5.6560     8.0240     2.3350 
  241.0000    -5.7950    64.7080    24.7220     9.1820     5.6370     8.0200     2.3400 
  241.1250    -5.7370    64.7080    24.8320     8.7170     5.6070     8.0040     2.3540 
  241.2500    -5.6300    64.7080    24.7860     8.1270     5.5770     7.9850     2.3750 
  241.3750    -5.5240    64.7080    24.8490     7.6520     5.5470     7.9730     2.3940 
  241.5000    -5.4110    64.7080    24.9400     7.3830     5.5220     7.9690     2.4130 
  241.6250    -5.3560    64.7080    24.9880     7.5420     5.5220     7.9690     2.4370 
  241.7500    -5.3280    64.7080    25.2160     8.1620     5.5220     7.9690     2.4660 
  241.8750    -5.3280    64.7080    25.3830     9.0410     5.5220     7.9690     2.4930 
  242.0000    -5.3380    64.7080    25.2540     9.6880     5.5220     7.9690     2.5130 
  242.1250    -5.3300    64.7080    24.8880     9.4430     5.5220     7.9690     2.5220 
  242.2500    -5.3920    64.7080    24.7090     8.6770     5.5220     7.9690     2.5200 
  242.3750    -5.4370    64.7080    24.7260     7.9440     5.5220     7.9690     2.5100 
  242.5000    -5.4660    64.7080    24.7760     7.5040     5.5220     7.9690     2.4980 
  242.6250    -5.4720    64.7080    24.7490     7.2410     5.5220     7.9690     2.4920 
  242.7500    -5.4780    64.7080    24.3960     7.1420     5.5220     7.9690     2.4960 
  242.8750    -5.5070    64.7080    24.1910     7.2340     5.5220     7.9690     2.5010 
  243.0000    -5.5570    64.7080    24.2320     7.4640     5.5220     7.9690     2.5010 
  243.1250    -5.6320    64.7080    24.3630     7.7070     5.5220     7.9690     2.4990 
  243.2500    -5.6490    64.7080    24.2640     7.9200     5.5220     7.9690     2.5040 
  243.3750    -5.6610    64.7080    24.0210     7.9850     5.5220     7.9690     2.5160 
  243.5000    -5.7100    64.7080    23.8720     7.8070     5.5220     7.9690     2.5280 
  243.6250    -5.7610    64.7080    23.8390     7.5490     5.5220     7.9690     2.5380 
  243.7500    -5.7680    64.7080    23.7950     7.5580     5.5220     7.9690     2.5520 
  243.8750    -5.7780    64.7080    23.7570     7.8370     5.5220     7.9690     2.5710 
  244.0000    -5.8190    64.7080    23.7280     8.1400     5.5220     7.9690     2.5870 
  244.1250    -5.8190    64.7080    23.6970     8.2290     5.5220     7.9690     2.5890 
  244.2500    -5.8190    64.7080    23.6380     8.2850     5.5220     7.9690     2.5790 
  244.3750  -999.2500    64.7080    23.5080     8.4410     5.5220     7.9690     2.5670 
  244.5000  -999.2500    64.7080    23.3680     8.6940     5.5220     7.9690     2.5580 
  244.6250  -999.2500    64.7080    23.2800     8.9570     5.5220     7.9690     2.5570 
  244.7500  -999.2500    64.7080    23.2640     9.1290     5.5220     7.9690     2.5570 
  244.8750  -999.2500    64.7080    23.1430     9.0010     5.5220     7.9690     2.5450 
  245.0000  -999.2500    64.7080    22.4430     8.4830     5.5220     7.9690     2.4820 
  245.1250  -999.2500    64.7080    21.2730     7.8820     5.5220     7.9690     2.3110 
  245.2500  -999.2500    64.7080    20.0160     7.5360     5.5220     7.9690     2.0810 
  245.3750  -999.2500    64.7080    19.3900     7.4310     5.5220     7.9690     1.8840 
  245.5000  -999.2500    64.7080    19.2390     7.4190     5.5220     7.9690     1.7900 
  245.6250  -999.2500    64.7080    19.2390     7.4190     5.5220     7.9690     1.7970 
  245.7500  -999.2500    64.7080    19.2390     7.4180     5.5220     7.9690     1.8250 
  245.8750  -999.2500    64.7080    19.2380     7.4180     5.5220     7.9690     1.8400 
  246.0000  -999.2500    64.7080    19.2350     7.4180     5.5220     7.9690     1.8310 
