~V
VERS. 2.00: Ver 2.00
~W
STRT.M 50.0000:
STOP.M 235.0000:
STEP.M 0.1250:
NULL. -999.2500:
UWI. DF33017:
~C
DEPT.M :
GR.API :
CALI.CM :
RXO.OHMM :
RI. :
RML.OHMM :
DEN.GM/CC :
SP.MV :
~A
# ...
  185.0000    55.7300    25.4930     8.0690     7.7640     7.9730     2.4630   -29.8960 
  185.1250    56.0680    25.2860     8.1830     7.8060     7.9730     2.4500   -29.9570 
  185.2500    57.3860    25.0910     8.0290     8.0090     8.1450     2.4610   -29.9910 
  185.3750    59.7980    24.7750     7.8500     8.2180     8.2950     2.4690   -30.0010 
  185.5000    62.6390    24.4230     7.9940     8.2120     8.6430     2.4630   -30.0180 
  185.6250    63.3660    24.2020     8.3630     8.5340     8.8020     2.4530   -30.0170 
  185.7500    62.0880    24.1370     8.6050     8.9710     8.9250     2.4450   -29.9720 
  185.8750    59.7080    24.0800     8.5950     9.3210     8.9550     2.4350   -29.8690 
  186.0000    57.1860    23.8990     8.2740     9.3440     8.8340     2.4220   -29.7130 
  186.1250    56.6700    23.8000     7.6860     8.8380     8.5050     2.4150   -29.4570 
  186.2500    59.0800    23.8750     7.0680     7.9990     8.0290     2.4130   -29.1640 
  186.3750    61.8030    24.0640     6.4610     7.0890     7.4850     2.4030   -28.8260 
  186.5000    63.4480    24.2320     5.9340     6.3680     6.9680     2.3760   -28.4500 
  186.6250    64.9130    24.5270     5.6640     6.0130     6.5810     2.3410   -28.0630 
  186.7500    64.9250    25.1620     5.6230     5.8940     6.3470     2.3180   -27.7250 
  186.8750    61.6940    26.2170     5.7600     5.8440     6.2690     2.3070   -27.4590 
  187.0000    57.2870    27.4410     5.9800     5.7340     6.3230     2.2930   -27.2610 
  187.1250    54.9040    28.1680     6.1290     5.5580     6.4650     2.2770   -27.1770 
  187.2500    53.8080    27.9470     6.0630     5.4650     6.6230     2.2790   -27.1480 
  187.3750    53.1340    26.8270     5.8670     5.5750     6.7640     2.3030   -27.1650 
  187.5000    52.4220    25.7020     5.6940     5.8960     6.8760     2.3380   -27.2000 
  187.6250    51.8830    25.3170     5.7100     6.2680     6.9470     2.3600   -27.2400 
  187.7500    52.2230    25.7760     5.8630     6.4580     6.9730     2.3580   -27.2580 
  187.8750    53.2550    27.1040     6.0230     6.3460     6.9340     2.3290   -27.2440 
  188.0000    54.2730    29.2980     6.0780     5.9580     6.8080     2.2820   -27.2370 
  188.1250    54.6870    31.2360     5.9690     5.4780     6.5880     2.2390   -27.2590 
  188.2500    54.6090    31.8420     5.7680     5.1500     6.3500     2.2140   -27.3370 
  188.3750    55.2310    31.2750     5.5260     5.0770     6.1910     2.1990   -27.4970 
  188.5000    56.6940    30.3710     5.3880     5.2300     6.2030     2.1850   -27.7850 
  188.6250    59.1540    29.1360     5.5760     5.4890     6.4850     2.1850   -28.2090 
  188.7500    64.0430    27.9860     6.2570     5.7360     6.9760     2.2170   -28.7340 
  188.8750    72.7320    27.0130     7.4300     5.9780     7.5920     2.2810   -29.3360 
  189.0000    84.6030    26.0560     8.6020     6.2980     8.2060     2.3570   -29.9690 
  189.1250    93.2980    25.8580     8.9540     6.7570     8.6820     2.4170   -30.6280 
  189.2500    96.1100    26.2240     8.9340     7.2140     8.9930     2.4490   -31.3360 
  189.3750    95.1700    26.4720     9.1770     7.4780     9.1570     2.4550   -32.0710 
  189.5000    94.2790    26.3020     9.8090     7.4380     9.2020     2.4410   -32.7810 
  189.6250    93.8100    25.9960    10.4380     7.1400     9.1340     2.4180   -33.4870 
  189.7500    92.0700    25.9290    10.2300     6.8510     8.9980     2.3880   -34.1970 
  189.8750    89.5000    26.2850     9.1870     6.7380     8.8680     2.3460   -34.9470 
  190.0000    88.1260    26.8370     8.1750     6.8340     8.8560     2.2960   -35.7460 
  190.1250    89.9290    26.8470     8.3340     7.0490     9.0980     2.2550   -36.6080 
  190.2500    93.8080    26.2140     9.5080     7.2630     9.5650     2.2410   -37.4170 
  190.3750    96.9340    25.1630    11.0830     7.4740    10.1590     2.2560   -38.1270 
  190.5000    95.9330    24.0680    12.6570     7.7720    10.7490     2.2920   -38.7290 
  190.6250    91.6880    23.5590    13.8220     8.2810    11.2280     2.3260   -39.1500 
  190.7500    87.1720    23.6770    14.3560     8.9250    11.6420     2.3500   -39.3820 
  190.8750    81.6320    23.8570    14.6360     9.5320    12.0620     2.3710   -39.3940 
  191.0000    75.2840    23.9850    15.4180     9.9420    12.5170     2.3930   -39.1800 
  191.1250    73.3930    24.1470    17.3060    10.1010    12.9610     2.4100   -38.6400 
  191.2500    77.7250    24.4080    18.2020    10.1620    13.2660     2.4190   -37.9270 
  191.3750    83.6400    24.6360    17.1170    10.1910    13.3000     2.4270   -37.0850 
  191.5000    86.3760    24.7760    15.4480    10.1270    12.9750     2.4330   -36.1490 
  191.6250    86.6430    24.9070    14.8540     9.7470    12.2320     2.4360   -35.1120 
  191.7500    85.5190    25.5550    14.3790     8.9970    11.2420     2.4370   -34.0530 
  191.8750    84.4540    26.5170    12.5980     7.9930    10.1760     2.4400   -32.9770 
  192.0000    85.6060    27.6880    10.0860     6.9980     9.2280     2.4430   -31.9340 
  192.1250    88.5590    28.5910     8.6720     6.3610     8.6220     2.4300   -30.9880 
  192.2500    90.8710    28.9180     8.2590     6.1960     8.4110     2.3950   -30.1280 
  192.3750    92.7970    28.8650     8.4400     6.4970     8.6230     2.3620   -29.3500 
  192.5000    95.5720    28.5920     8.9030     7.1340     9.2230     2.3680   -28.6460 
  192.6250    96.3840    27.8130     9.2490     7.8850    10.1090     2.4240   -28.0650 
  192.7500    96.3650    26.7100     9.5440     8.5100    10.9860     2.4790   -27.5320 
  192.8750    99.1400    25.7690     9.9870     8.8950    11.5630     2.5020   -27.0460 
  193.0000   102.5110    25.1390    10.6650     8.9950    11.5800     2.5010   -26.5590 
  193.1250    99.2610    24.8870    10.8430     8.7460    10.8800     2.5070   -26.0470 
  193.2500    90.8180    24.9670    10.1100     8.2090     9.8250     2.5180   -25.4920 
  193.3750    81.9040    25.3780     8.4890     7.4530     8.7510     2.5080   -24.9280 
  193.5000    73.9540    25.9090     6.7550     6.6210     7.9070     2.4640   -24.3820 
  193.6250    66.1960    26.3610     5.9010     5.9440     7.4150     2.4030   -23.8370 
  193.7500    59.6810    26.4580     5.6480     5.5580     7.1490     2.3620   -23.3540 
  193.8750    56.1460    26.5730     5.5070     5.4770     6.9990     2.3520   -22.9300 
  194.0000    57.1230    26.6930     5.3590     5.5790     6.8760     2.3630   -22.5760 
  194.1250    62.7200    26.9270     5.2480     5.6450     6.7490     2.3790   -22.3060 
  194.2500    68.3310    27.1180     5.1650     5.5710     6.6590     2.3850   -22.1030 
  194.3750    71.2930    27.0440     5.1100     5.4340     6.6440     2.3810   -21.9690 
  194.5000    74.4620    26.4150     5.1600     5.3930     6.7100     2.3820   -21.8690 
  194.6250    81.8800    26.0660     5.3810     5.5900     6.8410     2.4080   -21.8240 
  194.7500    88.6150    25.9300     5.6880     5.9150     7.0010     2.4390   -21.7980 
  194.8750    89.7570    25.4420     6.0130     6.1890     7.1540     2.4500   -21.7910 
  195.0000    86.4200    24.8560     6.2950     6.2800     7.2470     2.4400   -21.8010 
  195.1250    85.5500    24.5030     6.4280     6.1910     7.2340     2.4300   -21.8700 
  195.2500    89.0590    24.5830     6.4430     6.0830     7.1370     2.4310   -21.9600 
  195.3750    92.0810    24.8310     6.3760     6.0090     6.9870     2.4310   -22.0730 
  195.5000    90.9350    25.1000     6.2190     5.9110     6.8180     2.4170   -22.2160 
  195.6250    89.1690    25.0410     5.9850     5.6980     6.6980     2.3970   -22.3900 
  195.7500    91.4300    24.9290     5.8580     5.4440     6.6850     2.3920   -22.5760 
  195.8750    95.5860    24.8710     5.9370     5.3140     6.7960     2.4080   -22.8080 
  196.0000    97.0690    24.8760     6.1560     5.4490     7.0250     2.4320   -23.0820 
  196.1250    96.9700    24.9090     6.5560     5.8900     7.3590     2.4380   -23.3680 
