~V
VERS. 2.00: Ver 2.00
~W
STRT.M 55.0000:
STOP.M 252.0000:
STEP.M 0.1250:
NULL. -999.2500:
UWI. DF33023:
~C
DEPT.M :
GR.API :
CALI.CM :
RXO.OHMM :
RI. :
RML.OHMM :
DEN.GM/CC :
SP.MV :
~A
   55.0000  -999.2500  -999.2500  -999.2500  -999.2500  -999.2500     2.0360  -999.2500 
   55.1250  -999.2500  -999.2500  -999.2500  -999.2500  -999.2500     2.0100  -999.2500 
   55.2500  -999.2500  -999.2500  -999.2500  -999.2500  -999.2500     1.9930  -999.2500 
   55.3750    43.2100    26.0230     1.2640     3.5480    23.8830     1.9810  -999.2500 
   55.5000    43.2100    26.0230     1.2640     3.5480    23.8830     1.9720  -999.2500 
   55.6250    42.2890    26.0300     2.0650     3.5290    15.0420     1.9650  -999.2500 
   55.7500    42.2370    26.0300     3.3190     3.4480     9.6540     1.9550  -999.2500 
   55.8750    44.3550    26.0300     4.7720     3.2650     7.6420     1.9420  -999.2500 
   56.0000    47.1310    26.0300     6.5070     2.9960     8.0900     1.9300  -999.2500 
   56.1250    47.9290    26.0300     8.1630     2.7680    11.9170     1.9290    33.8680 
   56.2500    47.2420    26.0300     7.9230     2.6530    19.1950     1.9410    33.8680 
   56.3750    46.9940    26.0300     5.7740     2.6840    25.4720     1.9610    33.8170 
   56.5000    47.0100    26.0300     3.7010     2.8550    25.3400     1.9800    33.6830 
   56.6250    44.7350    26.0300     3.3210     3.1460    23.2220     1.9780    33.5340 
   56.7500    42.1990    26.0300     4.1530     3.4110    25.5810     1.9480    33.4170 
   56.8750    42.1330    26.0300     5.5930     3.5340    31.9570     1.9030    33.3880 
   57.0000    44.3120    26.0300     6.3990     3.5240    35.6090     1.8610    33.4930 
   57.1250    45.7470    26.0300     5.6240     3.4890    29.8920     1.8390    33.7680 
   57.2500    45.8320    26.0310     4.3830     3.4800    22.8960     1.8360    34.1900 
   57.3750    45.0740    26.0250     3.5230     3.5260    18.4740     1.8470    34.7630 
   57.5000    44.3940    26.0030     3.0140     3.6650    16.7770     1.8590    35.5230 
   57.6250    45.7360    25.9730     2.7100     3.8770    17.0050     1.8570    36.5280 
   57.7500    49.9490    25.9540     2.7020     4.0200    16.9160     1.8370    37.7330 
   57.8750    54.6880    25.9500     3.1260     4.0220    15.5860     1.8090    39.0890 
   58.0000    56.4940    25.9520     3.9300     3.9470    13.9850     1.7880    40.5490 
   58.1250    57.7810    25.9510     4.6830     3.9060    13.4980     1.7830    42.0560 
   58.2500    60.4870    25.9510     4.7960     3.8200    13.3030     1.7700    43.5580 
   58.3750    61.4700    25.9510     4.1180     3.6240    11.9730     1.7260    45.0160 
   58.5000    59.7340    25.9520     3.2000     3.3580     9.4370     1.6550    46.3560 
   58.6250    59.3020    25.9510     3.4570     3.1550     7.0920     1.5920    47.4580 
   58.7500    61.2860    25.9510     6.1160     3.1090     5.4440     1.5700    48.3300 
   58.8750    59.8810    25.9430    13.0870     3.2400     4.5220     1.6030    48.9830 
   59.0000    53.1280    25.9210    20.4890     3.5060     4.3030     1.6900    49.4260 
   59.1250    47.7400    25.8850    16.2330     3.7650     5.4420     1.8110    49.6650 
   59.2500    47.6590    25.8470     6.7620     3.8780     9.2990     1.9310    49.7750 
   59.3750    49.7180    25.7770     1.7640     3.8900    19.9860     2.0350    49.7820 
   59.5000    50.6690    25.5960     0.8660     3.8970    48.2390     2.1130    49.7140 
   59.6250    52.4160    25.2560     0.6730     4.0060    91.2880     2.1510    49.5970 
   59.7500    54.6900    24.8970     0.6480     4.1980    75.5280     2.1570    49.4450 
   59.8750    55.1140    24.6280     0.6720     4.3980    42.3100     2.1470    49.2830 
   60.0000    54.9070    24.4660     0.6710     4.4770    25.1100     2.1300    49.1180 
   60.1250    57.5460    24.3790     0.6390     4.4980    18.8690     2.1070    49.0100 
   60.2500    60.6840    24.3420     0.6180     4.5440    16.7090     2.0850    48.9430 
   60.3750    61.1960    24.3300     0.6150     4.4830    16.6800     2.0760    48.9090 
   60.5000    60.1830    24.2980     0.6160     4.2280    17.7110     2.0810    48.8650 
   60.6250    60.7160    24.2550     0.6090     3.8820    17.4270     2.0860    48.7500 
   60.7500    61.7320    24.2550     0.5980     3.6450    15.7110     2.0800    48.5690 
   60.8750    63.0100    24.2990     0.5900     3.5540    14.7730     2.0710    48.3410 
   61.0000    64.5180    24.3260     0.5930     3.5700    16.1330     2.0670    48.0980 
   61.1250    64.5480    24.2540     0.6140     3.5430    21.1700     2.0670    47.8460 
   61.2500    63.7610    24.1240     0.6480     3.3720    28.7100     2.0690    47.6150 
   61.3750    63.2050    24.0030     0.6850     3.1490    33.1120     2.0750    47.4070 
   61.5000    62.4530    23.9280     0.7250     3.0120    27.5780     2.0890    47.2200 
   61.6250    59.2810    23.8910     0.7710     3.0050    15.9110     2.1200    47.0090 
   61.7500    55.3740    23.8570     0.8250     2.9180     7.4580     2.1810    46.7100 
   61.8750    52.9190    23.8270     0.8790     2.3650     3.1620     2.2580    46.1920 
   62.0000    51.5790    23.7990     0.9140     1.4080     1.1400     2.2960    45.2630 
   62.1250    50.8770    23.7600     0.8890     0.7870     0.2170     2.2430    43.5410 
   62.2500    52.2320    23.7130     0.8740     0.5500    -0.2480     2.1840    40.9130 
   62.3750    57.5680    23.6710     1.1100     0.5070    -0.4470     2.1970    37.1870 
   62.5000    66.6250    23.5240     1.9450     0.5750    -0.4730     2.2670    32.2680 
   62.6250    73.7780    23.4350     3.5280     0.7860    -0.3100     2.2880    26.2730 
   62.7500    74.5410    23.6610     5.0940     1.1990     0.1130     2.2400    19.8090 
   62.8750    71.9300    23.9490     6.0560     1.8830     0.9910     2.1790    13.2030 
   63.0000    71.1370    24.0640     6.4960     2.7960     2.3410     2.1440     6.6970 
   63.1250    72.6330    23.9420     6.8110     3.6790     3.3280     2.1350     0.6700 
   63.2500    72.3670    23.7300     7.0230     4.3560     3.6530     2.1320    -4.6710 
   63.3750    71.7150    23.4600     7.0100     4.9160     3.8220     2.1390    -9.0980 
   63.5000    71.9920    23.2150     6.8410     5.5120     4.1660     2.1610   -12.4870 
   63.6250    70.8080    23.2550     7.1880     6.2350     4.8130     2.2020   -14.8930 
   63.7500    69.1940    23.3530     9.0400     7.0010     5.6680     2.2580   -16.8030 
   63.8750    70.6550    23.4800    12.1140     7.6540     6.5220     2.3080   -18.4170 
   64.0000    74.7650    23.6340    13.7060     7.9990     7.0300     2.3230   -19.8020 
   64.1250    75.8530    23.7440    11.7370     7.8840     6.9420     2.2920   -20.9570 
   64.2500    72.3050    23.8330     9.0440     7.5080     6.5890     2.2560   -21.9470 
   64.3750    67.1040    23.8940     7.7860     7.0610     6.2320     2.2370   -22.7790 
   64.5000    64.1830    23.8700     7.6690     6.6780     5.9960     2.2270   -23.4570 
   64.6250    66.9460    23.7990     7.7010     6.4400     5.9130     2.2070   -23.9690 
   64.7500    71.8860    23.8200     7.4360     6.3020     5.8970     2.1870   -24.3790 
   64.8750    74.3640    23.9500     6.9830     6.2100     5.8870     2.1820   -24.7050 
   65.0000    72.9030    24.1020     6.6200     6.1320     5.8640     2.1850   -24.9800 
   65.1250    68.9590    24.1590     6.6770     6.0830     5.8600     2.1760   -25.2420 
   65.2500    65.4070    24.0960     6.9850     6.0710     5.8850     2.1530   -25.5070 
   65.3750    64.1360    23.9580     7.2210     6.0840     5.9240     2.1280   -25.7680 
   65.5000    66.1490    23.8370     7.2250     6.1070     5.9660     2.1110   -25.9950 
   65.6250    70.2630    23.7720     7.0980     6.1300     6.0150     2.1160   -26.1410 
   65.7500    73.4420    23.7230     7.0090     6.1540     6.0810     2.1380   -26.2170 
   65.8750    75.8970    23.7050     6.9960     6.1840     6.1680     2.1620   -26.2260 
   66.0000    77.0070    23.7280     7.0500     6.2190     6.2720     2.1690   -26.1650 
   66.1250    75.1060    23.7640     7.0980     6.2470     6.3680     2.1620   -26.0210 
