~V
VERS. 2.00: Ver 2.00
~W
STRT.M 60.0000:
STOP.M 235.0000:
STEP.M 0.1250:
NULL. -999.2500:
UWI. DF33014:
~C
DEPT.M :
SP.MV :
GR.API :
RML.OHMM :
RI. :
RXO.OHMM :
CALI.CM :
DEN.GM/CC :
~A
# ...
  150.0000   -23.7160    52.0300   268.8660   236.4750    27.9590    31.1620     2.1110 
  150.1250   -23.9010    49.4540   261.8240   231.9470    27.0420    31.1620     2.1110 
  150.2500   -23.9450    48.4810   248.0310   221.4110    26.0460    31.1630     2.1150 
  150.3750   -24.0350    50.0120   232.0110   208.0060    25.0290    31.1710     2.1190 
  150.5000   -24.0270    52.2920   219.2680   196.2370    24.0790    31.1920     2.1190 
  150.6250   -24.0820    52.7380   214.8020   190.9240    23.7090    31.2300     2.1160 
  150.7500   -24.0090    51.7590   217.5640   192.0300    23.6280    31.2460     2.1100 
  150.8750   -23.8850    50.8180   225.1590   197.7860    23.1760    31.2500     2.1030 
  151.0000   -23.7030    49.8620   234.1210   205.2500    22.1880    31.2500     2.0960 
  151.1250   -23.4410    49.5850   240.3370   210.9000    21.2710    31.2500     2.0890 
  151.2500   -23.1990    50.8520   241.4940   212.8780    21.0490    31.2500     2.0820 
  151.3750   -22.8710    53.2840   236.8840   210.5480    21.6920    31.2500     2.0770 
  151.5000   -22.5370    54.8450   227.1540   203.9730    22.7160    31.2500     2.0750 
  151.6250   -22.0850    53.8580   212.2630   192.7960    23.0760    31.2500     2.0770 
  151.7500   -21.7340    53.2190   195.4710   178.2490    22.8820    31.2500     2.0810 
  151.8750   -21.3050    54.2470   178.9640   161.6870    22.6050    31.2500     2.0830 
  152.0000   -20.9740    55.1480   164.9870   145.3780    22.3140    31.2500     2.0830 
  152.1250   -20.5880    53.7450   155.8410   132.4650    21.8750    31.2500     2.0800 
  152.2500   -20.2170    50.6160   145.5360   123.8040    21.5350    31.2500     2.0780 
  152.3750   -19.9010    47.3970   139.6150   118.9300    21.5770    31.2490     2.0780 
  152.5000   -19.5950    45.3880   135.8010   116.2200    21.7720    31.2240     2.0830 
  152.6250   -19.4010    46.2130   131.2580   113.2800    21.7060    31.1590     2.0940 
  152.7500   -19.1000    49.5550   124.4260   108.4020    21.5350    31.0860     2.1090 
  152.8750   -18.9270    52.3620   115.4800   101.3290    21.0100    31.0640     2.1250 
  153.0000   -18.6540    52.5630   105.8210    92.9560    19.8670    31.0670     2.1380 
  153.1250   -18.4190    51.7410    97.4550    84.9780    18.7170    31.0630     2.1440 
  153.2500   -18.2570    52.3020    91.2140    78.6030    18.2640    31.0410     2.1430 
  153.3750   -18.0450    54.3570    87.2250    74.2620    18.4810    30.9790     2.1370 
  153.5000   -17.9090    55.5900    85.2940    71.9460    18.9210    30.8950     2.1280 
  153.6250   -17.6960    55.6840    85.5650    71.8390    19.0090    30.8290     2.1190 
  153.7500   -17.6220    56.5760    87.8250    73.6650    18.7580    30.8050     2.1110 
  153.8750   -17.5120    57.8890    92.3450    77.6390    18.5830    30.8000     2.1060 
  154.0000   -17.4940    58.7120    99.2840    83.9210    18.8530    30.7960     2.1020 
  154.1250   -17.4760    57.3910   108.4950    92.5270    19.1060    30.7710     2.0990 
  154.2500   -17.3840    55.0410   118.1570   101.9820    18.9740    30.7110     2.0980 
  154.3750   -17.3330    53.3540   126.0770   110.5410    19.0370    30.6190     2.1000 
  154.5000   -17.2490    53.0900   129.7480   116.0900    19.5440    30.5090     2.1050 
  154.6250   -17.1690    55.0100   125.9860   115.6640    19.9600    30.4080     2.1120 
  154.7500   -17.0300    55.9490   115.5050   109.1280    19.9490    30.3220     2.1220 
  154.8750   -16.8630    54.9960    99.7840    97.0190    19.8420    30.2740     2.1320 
  155.0000   -16.6270    55.9700    81.4120    81.0890    19.9790    30.2540     2.1470 
  155.1250   -16.4750    60.1720    63.7270    64.1690    19.1930    30.2140     2.1690 
  155.2500   -16.2690    62.4930    48.9760    49.2540    16.3600    30.1430     2.1970 
  155.3750   -16.1180    61.3950    37.9910    37.7970    12.6670    30.0890     2.2260 
  155.5000   -15.9670    60.5070    30.9140    30.1070    10.2160    30.0700     2.2480 
  155.6250   -15.8530    60.9570    27.9040    26.3440    10.5620    30.0720     2.2530 
  155.7500   -15.7780    60.1580    28.1420    25.6130    13.1740    30.0710     2.2410 
  155.8750   -15.6850    59.6320    31.3930    28.0630    16.8730    30.0720     2.2160 
  156.0000   -15.6980    61.2130    38.0970    34.1480    19.7780    30.0710     2.1860 
  156.1250   -15.6230    62.2560    48.2270    44.8160    20.9800    30.0730     2.1570 
  156.2500   -15.6640    60.1590    61.0780    58.6830    21.3740    30.0760     2.1350 
  156.3750   -15.7060    57.4100    76.0780    73.7860    20.9860    30.0780     2.1200 
  156.5000   -15.7470    57.4040    90.7030    87.2780    20.0030    30.0780     2.1120 
  156.6250   -15.8610    58.9220   100.5560    95.5250    18.9910    30.0780     2.1110 
  156.7500   -15.9300    58.5340   105.1860    98.4270    17.8400    30.0780     2.1140 
  156.8750   -16.0850    56.0790   105.9340    97.4040    16.5430    30.0780     2.1180 
  157.0000   -16.1310    54.3180   105.4490    94.9200    15.5220    30.0780     2.1220 
  157.1250   -16.2740    54.6120   106.9320    93.8240    15.2090    30.0780     2.1230 
  157.2500   -16.3540    55.0760   111.9390    95.5700    15.3060    30.0780     2.1210 
  157.3750   -16.4240    55.8550   120.9920   100.5770    15.5190    30.0780     2.1160 
  157.5000   -16.4660    57.0940   133.7130   108.4760    15.7970    30.0770     2.1110 
  157.6250   -16.4420    57.9260   148.9820   118.3950    16.0740    30.0730     2.1070 
  157.7500   -16.4170    57.0750   164.1230   128.4680    16.1640    30.0560     2.1050 
  157.8750   -16.3560    55.1890   176.8010   137.2500    16.1160    30.0180     2.1050 
  158.0000   -16.3320    53.6270   184.8310   143.3850    16.1210    29.9900     2.1050 
  158.1250   -16.2140    53.2390   185.1910   144.8070    16.1830    29.9810     2.1060 
  158.2500   -16.1580    54.2090   177.9570   141.1650    16.0610    29.9810     2.1080 
  158.3750   -16.0370    55.5990   163.5970   132.3990    15.5890    29.9830     2.1130 
  158.5000   -15.9900    56.7520   144.2920   119.6460    14.7990    29.9840     2.1190 
  158.6250   -15.8660    59.1840   124.0240   105.3340    14.1430    29.9630     2.1250 
  158.7500   -15.7850    61.5960   106.8790    92.6510    14.0100    29.9050     2.1280 
  158.8750   -15.6990    61.0440    94.6880    83.3730    14.4050    29.8240     2.1280 
  159.0000   -15.5620    57.2900    87.4860    77.9890    14.8100    29.7420     2.1240 
  159.1250   -15.5180    54.6050    84.1750    75.9850    14.4000    29.6620     2.1210 
  159.2500   -15.3910    55.2200    81.7150    74.8870    13.8750    29.5420     2.1230 
  159.3750   -15.3420    56.5230    78.0410    72.8000    14.0870    29.3980     2.1330 
  159.5000   -15.2560    57.0270    71.9520    68.4240    14.7050    29.2430     2.1530 
  159.6250   -15.2170    57.0830    63.3730    61.2960    14.1500    29.0550     2.1800 
  159.7500   -15.2140    58.9690    54.1990    53.0460    12.6810    28.9240     2.2090 
  159.8750   -15.1830    63.2230    45.9270    45.1510    11.4190    28.8520     2.2340 
  160.0000   -15.2680    67.5190    39.5290    38.7250    10.6760    28.8150     2.2510 
  160.1250   -15.2330    69.5520    35.8580    34.7040    10.2170    28.8010     2.2600 
  160.2500   -15.2620    70.0370    34.7380    32.9680     9.9760    28.7920     2.2600 
  160.3750   -15.2540    69.6780    36.3540    33.6720    10.2000    28.7700     2.2540 
  160.5000   -15.2740    68.1720    40.8220    36.9560    11.2270    28.7340     2.2440 
  160.6250   -15.3000    65.6040    48.3010    43.1060    13.3760    28.7160     2.2330 
  160.7500   -15.3050    62.8340    57.3550    50.9830    15.6810    28.7070     2.2290 
  160.8750   -15.3410    59.9200    66.4090    59.2790    16.9660    28.6890     2.2300 
  161.0000   -15.3590    56.8050    73.6420    66.3340    16.9630    28.6500     2.2320 
  161.1250   -15.4170    56.2880    77.1290    70.2180    16.4330    28.6300     2.2290 
