~V
VERS. 2.00: Ver 2.00
~W
STRT.M 55.0000:
STOP.M 252.0000:
STEP.M 0.1250:
NULL. -999.2500:
UWI. DF33023:
~C
DEPT.M :
GR.API :
CALI.CM :
RXO.OHMM :
RI. :
RML.OHMM :
DEN.GM/CC :
SP.MV :
~A
# ...
  246.2500    74.4090    24.4500     6.3440     5.9400     7.7820     2.3230  -999.2500 
  246.3750    74.4090    24.3570     6.5090     5.9400     7.7820     2.2900  -999.2500 
  246.5000    74.4090    23.9580     6.5590     5.9400     7.7820     2.2320  -999.2500 
  246.6250    74.4090    22.8370     6.4700     5.9400     7.7820     2.1540  -999.2500 
  246.7500    74.4090    20.8850     6.3250     5.9400     7.7820     2.0930  -999.2500 
  246.8750    74.4090    18.4290     6.1750     5.9400     7.7820     2.0740  -999.2500 
  247.0000    74.4090    16.2980     6.0570     5.9400     7.7820     2.0880  -999.2500 
  247.1250    74.4090    15.3440     6.0050     5.9400     7.7820     2.1070  -999.2500 
  247.2500    74.4090    15.1730     5.9950     5.9400     7.7820     2.1160  -999.2500 
  247.3750    74.4090    15.2060     5.9970     5.9400     7.7820     2.1160  -999.2500 
  247.5000    74.4090    15.2100     5.9980     5.9400     7.7820     2.1150  -999.2500 
  247.6250    74.4090    15.2100     5.9980     5.9400     7.7820     2.1190  -999.2500 
  247.7500    74.4090    15.2090     5.9980     5.9400     7.7820     2.1240  -999.2500 
  247.8750    74.4090    15.1990     5.9980     5.9400     7.7820     2.1250  -999.2500 
  248.0000    74.4090    15.1760     5.9990     5.9400     7.7820     2.1160  -999.2500 
  248.1250    74.4090    15.1490     6.0010     5.9400     7.7820     2.1010  -999.2500 
  248.2500    74.4090    15.1340     6.0040     5.9400     7.7820     2.0970  -999.2500 
  248.3750    74.4090    15.1310     6.0070     5.9400     7.7820     2.1070  -999.2500 
  248.5000    74.4090    15.1310     6.0080     5.9400     7.7820     2.1230  -999.2500 
  248.6250    74.4090    15.1310     6.0090     5.9400     7.7820     2.1300  -999.2500 
  248.7500    74.4090    15.1310     6.0090     5.9400     7.7820     2.1300  -999.2500 
  248.8750    74.4090    15.1310     6.0100     5.9400     7.7820     2.1300  -999.2500 
  249.0000    74.4090    15.1310     6.0110     5.9400     7.7820     2.1300  -999.2500 
  249.1250    74.4090    15.1310     6.0110     5.9400     7.7820     2.1250  -999.2500 
  249.2500    74.4090    15.1290     6.0110     5.9400     7.7820     2.1130  -999.2500 
  249.3750    74.4090    15.1280     6.0110     5.9400     7.7820     2.0990  -999.2500 
  249.5000    74.4090    15.1290     6.0100     5.9400     7.7820     2.0870  -999.2500 
  249.6250    74.4090    15.1290     6.0090     5.9400     7.7820     2.0840  -999.2500 
  249.7500    74.4090    15.1270     6.0080     5.9400     7.7820     2.0920  -999.2500 
  249.8750    74.4090    15.1250     6.0080     5.9400     7.7820     2.1100  -999.2500 
  250.0000    74.4090    15.1240     6.0070     5.9400     7.7820     2.1290  -999.2500 
  250.1250    74.4090    15.1230     6.0070     5.9400     7.7820     2.1370  -999.2500 
  250.2500    74.4090    15.1220     6.0080     5.9400     7.7820     2.1330  -999.2500 
  250.3750    74.4090    15.1210     6.0100     5.9400     7.7820     2.1240  -999.2500 
  250.5000    74.4090    15.1210     6.0100     5.9400     7.7820     2.1150  -999.2500 
  250.6250    74.4090    15.1210     6.0150     5.9400     7.7820     2.1080  -999.2500 
  250.7500    74.4090    15.1210     6.0160     5.9400     7.7820     2.1040  -999.2500 
  250.8750    74.4090    15.1210     6.0160     5.9400     7.7820     2.0970  -999.2500 
  251.0000  -999.2500  -999.2500  -999.2500  -999.2500  -999.2500     2.0840  -999.2500 
  251.1250  -999.2500  -999.2500  -999.2500  -999.2500  -999.2500     2.0800  -999.2500 
  251.2500  -999.2500  -999.2500  -999.2500  -999.2500  -999.2500     2.0990  -999.2500 
  251.3750  -999.2500  -999.2500  -999.2500  -999.2500  -999.2500     2.1300  -999.2500 
  251.5000  -999.2500  -999.2500  -999.2500  -999.2500  -999.2500     2.1420  -999.2500 
  251.6250  -999.2500  -999.2500  -999.2500  -999.2500  -999.2500     2.1300  -999.2500 
  251.7500  -999.2500  -999.2500  -999.2500  -999.2500  -999.2500     2.1130  -999.2500 
  251.8750  -999.2500  -999.2500  -999.2500  -999.2500  -999.2500     2.0860  -999.2500 
  252.0000  -999.2500  -999.2500  -999.2500  -999.2500  -999.2500     2.0470  -999.2500 
