~V
VERS. 2.00: Ver 2.00
~W
STRT.M 60.0000:
STOP.M 236.0000:
STEP.M 0.1250:
NULL. -999.2500:
UWI. DF33015:
~C
DEPT.M :
DEN.GM/CC :
GR.API :
RML.OHMM :
RI. :
RXO.OHMM :
CALI.CM :
SP.MV :
~A
   60.0000     2.5550    50.8900     2.8940     0.2100     0.5130    24.1560    13.9630 
   60.1250     2.6010    53.1090     0.9000     0.1030     0.5800    23.9230    10.0690 
   60.2500     2.5550    56.2020     0.2380     0.0940     0.9510    23.7260     5.5890 
   60.3750     2.4500    58.8930     0.3350     0.2290     2.0220    23.5850     0.6830 
   60.5000     2.3310    60.5910     1.0470     0.5840     4.0120    23.5120    -4.3960 
   60.6250     2.2350    63.2740     2.4300     1.2770     6.1460    23.4900    -9.4730 
   60.7500     2.1750    67.4910     4.1010     2.2410     6.9330    23.4870   -14.3970 
   60.8750     2.1480    70.1860     5.6960     3.3470     6.7830    23.5020   -18.9730 
   61.0000     2.1460    68.3870     6.7170     4.3850     6.7940    23.5330   -22.8040 
   61.1250     2.1590    66.1600     6.9070     5.1160     7.0140    23.5410   -25.5020 
   61.2500     2.1770    69.3520     7.0350     5.5480     7.0950    23.5240   -27.2780 
   61.3750     2.1960    76.1230     7.2500     5.7550     6.8560    23.4810   -28.2530 
   61.5000     2.2110    80.5890     7.2950     5.8080     6.3390    23.0770   -28.7000 
   61.6250     2.2180    79.9870     7.2740     5.7580     5.7460    23.1200   -28.8210 
   61.7500     2.2200    79.0610     7.2480     5.6870     5.2720    23.1230   -28.8680 
   61.8750     2.2200    80.9420     7.2130     5.6520     5.0180    23.0880   -28.9290 
   62.0000     2.2190    84.6460     7.1810     5.6840     4.9690    23.0600   -29.1030 
   62.1250     2.2230    87.3060     7.1660     5.7910     5.0870    23.0500   -29.3530 
   62.2500     2.2290    87.2550     7.1740     5.9290     5.3130    23.0500   -29.6340 
   62.3750     2.2340    85.4910     7.2100     6.0600     5.5340    23.0500   -30.0750 
   62.5000     2.2340    82.5180     7.2700     6.1570     5.6770    23.0500   -30.7150 
   62.6250     2.2270    80.7680     7.3440     6.2030     5.7950    23.0520   -31.4500 
   62.7500     2.2170    81.3220     7.4190     6.2190     5.9630    23.0570   -32.1090 
   62.8750     2.2070    83.7230     7.4850     6.2230     6.1240    23.0640   -32.7270 
   63.0000     2.1980    86.6470     7.5400     6.2320     6.2110    23.0680   -33.3700 
   63.1250     2.1910    88.0140     7.5840     6.2560     6.2670    23.0690   -34.0260 
   63.2500     2.1870    86.7740     7.6250     6.2940     6.3420    23.0690   -34.5660 
   63.3750     2.1840    83.6270     7.6670     6.3430     6.4730    23.0690   -34.9690 
   63.5000     2.1830    79.7170     7.7150     6.4080     6.6600    23.0690   -35.2740 
   63.6250     2.1860    76.5610     7.7730     6.4950     6.8080    23.0700   -35.5290 
   63.7500     2.1920    75.2030     7.8380     6.5940     6.9180    23.0760   -35.7870 
   63.8750     2.2000    75.2630     7.9080     6.6860     7.0620    23.0850   -35.9670 
   64.0000     2.2110    74.0490     7.9760     6.7440     7.2500    23.0810   -35.9820 
   64.1250     2.2260    70.7600     8.0290     6.7280     7.3160    23.0910   -35.8640 
   64.2500     2.2430    71.1060     8.0640     6.6410     7.2020    23.1230   -35.8020 
   64.3750     2.2600    76.8490     8.0780     6.5000     6.9430    23.1520   -35.8170 
   64.5000     2.2660    84.0290     8.0710     6.3400     6.5790    23.1610   -35.8290 
   64.6250     2.2520    88.5980     8.0450     6.2050     6.1600    23.1530   -35.8350 
   64.7500     2.2200    90.5600     8.0230     6.1260     5.9650    23.1530   -35.8930 
   64.8750     2.1840    91.7360     8.0260     6.1200     6.0660    23.1710   -36.0290 
   65.0000     2.1590    91.3260     8.0770     6.1980     6.2710    23.1860   -36.2140 
   65.1250     2.1590    87.2390     8.1940     6.3750     6.3650    23.1420   -36.4780 
   65.2500     2.1750    81.9420     8.3610     6.6290     6.4160    22.9890   -36.8060 
   65.3750     2.1950    79.3540     8.5610     6.9340     6.5920    22.8950   -37.1610 
   65.5000     2.2050    80.5610     8.7690     7.2470     6.8840    22.8710   -37.4950 
   65.6250     2.2060    81.3820     8.9450     7.4860     7.1190    22.8700   -37.6970 
   65.7500     2.2090    78.8450     9.0600     7.5830     7.2640    22.8680   -37.6080 
   65.8750     2.2200    74.1250     9.0920     7.4880     7.3840    22.8530   -37.2450 
   66.0000     2.2380    71.3180     9.0330     7.1950     7.5450    22.8670   -36.8180 
   66.1250     2.2520    75.1920     8.8740     6.7350     7.1650    23.1080   -36.3370 
   66.2500     2.2560    84.2780     8.6450     6.2340     6.0720    23.6670   -35.7130 
   66.3750     2.2550    92.1880     8.3620     5.7900     4.8990    24.3930   -34.9610 
   66.5000     2.2540    96.6070     8.0520     5.4860     4.2430    25.1120   -34.2180 
   66.6250     2.2600    98.5670     7.7570     5.4000     4.1990    25.1900   -33.6720 
   66.7500     2.2690    99.7250     7.5150     5.4970     4.3620    24.7550   -33.3700 
   66.8750     2.2730    99.1850     7.3490     5.7310     4.7620    24.2450   -33.2510 
   67.0000     2.2710    96.2890     7.2600     6.0260     5.4480    23.9810   -33.2350 
   67.1250     2.2620    92.1320     7.2340     6.2690     5.8950    23.9320   -33.3530 
   67.2500     2.2510    87.4550     7.2320     6.3630     5.9590    23.8740   -33.5980 
   67.3750     2.2410    83.7480     7.2250     6.2560     6.0360    23.7640   -33.8760 
   67.5000     2.2310    83.9670     7.2300     5.9460     6.1900    23.6770   -34.0900 
   67.6250     2.2270    88.9730     7.2900     5.5020     5.9020    23.6730   -34.1130 
   67.7500     2.2380    95.6600     7.3860     5.1340     5.3140    23.6880   -33.9680 
   67.8750     2.2770   100.2400     7.7190     5.1260     5.0260    23.6940   -33.7400 
   68.0000     2.3540    99.4150     8.5280     5.8680     5.5990    23.6940   -33.5470 
   68.1250     2.4640    91.6670    10.7390     7.9510     8.5910    23.6940   -33.4700 
   68.2500     2.5710    80.7920    14.0060    11.2020    15.5770    23.6940   -33.4850 
   68.3750     2.6390    70.3770    17.9400    15.0270    27.2970    23.6940   -33.6060 
   68.5000     2.6410    62.8800    21.6530    18.2760    40.1280    23.6940   -33.8700 
   68.6250     2.5690    60.5780    21.6180    19.1090    43.6350    23.6660   -34.3640 
   68.7500     2.4610    61.2700    18.3670    17.3360    33.3820    23.5390   -35.1060 
   68.8750     2.3480    61.7340    13.8770    14.0280    18.5210    23.2840   -35.9890 
   69.0000     2.2550    60.7660    10.2200    10.7650     9.9190    23.0680   -36.8910 
   69.1250     2.1980    59.3690     8.2650     8.5800     7.3960    22.9960   -37.6770 
   69.2500     2.1730    60.3500     7.4680     7.3350     6.9060    22.9920   -38.3130 
   69.3750     2.1690    63.1170     7.4790     6.8220     6.9570    22.9930   -38.8170 
   69.5000     2.1750    65.7420     7.9920     6.8250     7.1130    22.9920   -39.3270 
   69.6250     2.1800    66.0770     8.7140     7.1560     7.3270    22.9910   -39.7810 
   69.7500     2.1790    65.5530     9.3310     7.5490     7.6850    22.9910   -40.1140 
   69.8750     2.1700    65.2220     9.6800     7.8550     8.3730    22.9900   -40.4100 
   70.0000     2.1560    63.6140     9.7010     7.9880     9.0630    22.9760   -40.6330 
   70.1250     2.1420    61.1180     9.4070     7.9080     8.8920    22.9370   -40.8250 
   70.2500     2.1330    59.3720     8.9910     7.7100     8.1960    22.8930   -41.0140 
   70.3750     2.1300    59.1400     8.5990     7.4760     7.7190    22.8710   -41.2400 
   70.5000     2.1310    60.5940     8.3360     7.2780     7.6840    22.8650   -41.3960 
   70.6250     2.1370    61.7270     8.2640     7.1720     7.8270    22.8650   -41.5220 
   70.7500     2.1440    60.7500     8.3150     7.1390     7.9840    22.8660   -41.6550 
   70.8750     2.1500    59.3650     8.4150     7.1430     8.1420    22.8700   -41.7280 
   71.0000     2.1530    60.2380     8.4870     7.1440     8.2460    22.8730   -41.7620 
   71.1250     2.1490    61.9280     8.4650     7.0970     8.2590    22.8740   -41.7450 
