~V
VERS. 2.00: Ver 2.00
~W
STRT.M 60.0000:
STOP.M 235.0000:
STEP.M 0.1250:
NULL. -999.2500:
UWI. DF33014:
~C
DEPT.M :
SP.MV :
GR.API :
RML.OHMM :
RI. :
RXO.OHMM :
CALI.CM :
DEN.GM/CC :
~A
# ...
  116.2500   -18.6730    61.8030     7.8340     6.9220     8.3910    23.6480     2.2060 
  116.3750   -18.5500    59.0370     7.9050     6.9490     8.4050    23.7020     2.2130 
  116.5000   -18.4290    56.6200     8.0860     7.0730     8.4660    23.7820     2.2300 
  116.6250   -18.1920    57.0430     8.3850     7.3220     9.0570    23.8620     2.2570 
  116.7500   -18.0600    59.0240     8.7470     7.6560    11.5090    23.9290     2.2880 
  116.8750   -17.8810    59.9080     9.1150     8.0260    16.8300    23.9420     2.3130 
  117.0000   -17.7510    57.5750     9.4250     8.3650    20.8850    23.8850     2.3230 
  117.1250   -17.6630    55.2100     9.6040     8.5870    16.9830    23.7390     2.3200 
  117.2500   -17.5010    55.1210     9.6630     8.6790    12.0870    23.6390     2.3160 
  117.3750   -17.3480    55.7770     9.6400     8.6570    10.1900    23.5890     2.3180 
  117.5000   -17.1340    55.6350     9.5860     8.5620    11.1060    23.5440     2.3210 
  117.6250   -16.9050    56.3910     9.5250     8.4270    12.1450    23.5240     2.3120 
  117.7500   -16.5910    57.3210     9.4370     8.2700    11.5740    23.5190     2.2870 
  117.8750   -16.1710    56.9040     9.2900     8.0840    10.2240    23.5180     2.2570 
  118.0000   -15.6810    56.7880     9.0860     7.8750     9.3930    23.5290     2.2420 
  118.1250   -15.0250    56.6620     8.8890     7.6970     9.5970    23.5840     2.2670 
  118.2500   -14.3450    55.4730     8.8080     7.6450    10.6280    23.6950     2.3320 
  118.3750   -13.5950    56.2600     9.0090     7.8320    12.9430    23.8400     2.4250 
  118.5000   -12.8060    60.2770     9.6020     8.3730    16.0640    24.1520     2.5250 
  118.6250   -12.0780    63.0010    10.9950     9.4730    19.5610    24.5600     2.6010 
  118.7500   -11.2800    61.0230    13.1100    11.1340    24.0100    24.9350     2.6430 
  118.8750   -10.6290    57.1070    15.9680    13.3250    28.7290    25.0060     2.6560 
  119.0000    -9.9740    54.1700    19.2490    15.8420    30.6140    25.0120     2.6550 
  119.1250    -9.4660    52.1240    21.5320    18.1350    28.5590    25.0070     2.6530 
  119.2500    -9.0640    49.8030    22.5890    19.5290    27.5520    25.0090     2.6500 
  119.3750    -8.7270    47.6530    21.8230    19.4790    27.8480    25.0280     2.6380 
  119.5000    -8.5090    47.7740    19.2050    17.8160    25.7300    25.0770     2.6030 
  119.6250    -8.3040    52.0400    15.4190    14.8470    17.6470    25.1290     2.5430 
  119.7500    -8.2950    58.2320    11.8080    11.6600     9.7500    25.1890     2.4720 
  119.8750    -8.2580    65.6090     9.0210     8.9210     5.3800    25.2310     2.4070 
  120.0000    -8.3250    73.1200     7.2270     6.9430     3.9790    25.2710     2.3560 
  120.1250    -8.4470    78.3000     6.4390     5.8780     4.1240    25.2660     2.3270 
  120.2500    -8.5450    81.0590     6.3100     5.4700     4.4570    25.2480     2.3180 
  120.3750    -8.7110    81.5800     6.6710     5.5740     4.8340    25.2650     2.3240 
  120.5000    -8.8440    79.2730     7.3450     6.0290     5.5070    25.3240     2.3410 
  120.6250    -9.0420    73.5430     8.1200     6.6430     6.8590    25.3990     2.3520 
  120.7500    -9.1760    66.1990     8.7460     7.1710     7.9620    25.4590     2.3480 
  120.8750    -9.3150    62.0530     9.0620     7.4620     7.5090    25.4910     2.3270 
  121.0000    -9.4970    63.5840     9.0000     7.4420     5.9630    25.4800     2.2960 
  121.1250    -9.5740    68.7040     8.5830     7.1130     5.0030    25.4240     2.2700 
  121.2500    -9.6640    71.5780     8.0350     6.6520     4.7910    25.3720     2.2540 
  121.3750    -9.7310    71.4690     7.5030     6.1890     4.9150    25.3550     2.2480 
  121.5000    -9.7770    72.2980     7.1030     5.8270     5.2760    25.3590     2.2510 
  121.6250    -9.7800    73.6350     7.0140     5.7100     5.7060    25.3780     2.2730 
  121.7500    -9.6730    72.5130     7.3490     5.9240     5.9080    25.4300     2.3210 
  121.8750    -9.5890    69.4870     8.2110     6.5600     6.9910    25.5230     2.3930 
  122.0000    -9.3860    66.5610     9.5700     7.6280    10.5640    25.5980     2.4760 
  122.1250    -9.2490    63.2640    11.1430     8.9760    16.6960    25.6220     2.5380 
  122.2500    -9.1540    59.6530    12.3390    10.1480    19.8590    25.6250     2.5550 
  122.3750    -9.0460    57.6720    12.6650    10.7190    16.0000    25.6250     2.5250 
  122.5000    -9.0070    57.4130    11.9400    10.4410     9.6930    25.6250     2.4620 
  122.6250    -9.0100    59.6360    10.4800     9.3750     6.1020    25.6070     2.3900 
  122.7500    -9.1380    65.2950     9.0910     8.1400     5.1300    25.5440     2.3300 
  122.8750    -9.2530    72.7400     8.1340     7.1140     5.6960    25.4270     2.2880 
  123.0000    -9.4460    77.9470     7.6180     6.4310     6.1530    25.3590     2.2660 
  123.1250    -9.5060    77.6810     7.3820     6.0570     5.7160    25.4140     2.2630 
  123.2500    -9.5380    76.9760     7.1920     5.8040     5.1030    25.6190     2.2680 
  123.3750    -9.5840    77.9040     6.9810     5.5950     4.4800    25.8110     2.2740 
  123.5000    -9.5740    79.3290     6.8050     5.4280     3.9620    25.8950     2.2740 
  123.6250    -9.5930    78.1560     6.8540     5.4090     4.0160    25.8390     2.2690 
  123.7500    -9.5250    76.8240     7.2500     5.6260     4.7340    25.6950     2.2710 
  123.8750    -9.4860    77.5330     8.0170     6.1140     5.8950    25.5830     2.2870 
  124.0000    -9.4030    78.1000     9.0250     6.8040     7.6140    25.5480     2.3200 
  124.1250    -9.3110    73.5060     9.9360     7.4830    10.4670    25.5860     2.3570 
  124.2500    -9.2380    66.7040    10.3970     7.8930    12.2390    25.6700     2.3790 
  124.3750    -9.0960    62.1820    10.2380     7.8920    10.2660    25.7710     2.3790 
  124.5000    -9.0120    61.8970     9.5870     7.5200     6.7470    25.8760     2.3660 
  124.6250    -8.8530    65.6310     8.9010     7.0320     5.5980    25.9140     2.3580 
  124.7500    -8.7860    68.8020     8.6270     6.7610     6.6710    25.9090     2.3670 
  124.8750    -8.7510    69.2500     8.8930     6.8620     8.6370    25.8550     2.3890 
  125.0000    -8.6880    67.5650     9.5940     7.3260    10.2900    25.8010     2.4180 
  125.1250    -8.7610    64.8500    10.4530     8.0160    11.3140    25.8510     2.4420 
  125.2500    -8.7580    61.6660    11.1240     8.6660    11.6170    25.9500     2.4580 
  125.3750    -8.8150    59.2040    11.4680     9.1300    10.8650    25.9720     2.4690 
  125.5000    -8.8280    58.8160    11.5720     9.4040     9.5700    25.9460     2.4830 
  125.6250    -8.8700    60.8400    11.6800     9.6010     9.4330    25.9300     2.5030 
  125.7500    -8.8470    63.4600    11.9030     9.8220    11.5220    25.9310     2.5180 
  125.8750    -8.8370    63.5180    12.0980    10.0020    15.0570    25.9300     2.5130 
  126.0000    -8.8590    61.0340    11.9990     9.9730    15.5180    25.9300     2.4800 
  126.1250    -8.9000    61.1320    11.3020     9.4880    10.9490    25.9140     2.4270 
  126.2500    -9.0480    66.8220    10.1610     8.6050     7.0890    25.8790     2.3780 
  126.3750    -9.1590    74.0330     8.8960     7.5180     5.2620    25.8550     2.3450 
  126.5000    -9.3470    79.1730     7.8630     6.5020     4.5280    25.8800     2.3260 
  126.6250    -9.5040    82.3240     7.3470     5.8370     4.2440    25.9400     2.3120 
  126.7500    -9.8070    83.3370     7.2860     5.5530     4.3690    25.9460     2.2920 
  126.8750   -10.1020    81.7040     7.5660     5.6170     4.9030    25.8810     2.2640 
  127.0000   -10.4200    77.8040     8.0730     5.9560     5.6380    25.6970     2.2340 
  127.1250   -10.7820    72.4440     8.7050     6.4920     6.5240    25.5500     2.2090 
  127.2500   -11.0310    67.1740     9.3830     7.1020     7.8200    25.4630     2.1960 
  127.3750   -11.2880    64.1060    10.1070     7.7370     9.7580    25.4140     2.1930 
