~V
VERS. 2.00: Ver 2.00
~W
STRT.M 50.0000:
STOP.M 235.0000:
STEP.M 0.1250:
NULL. -999.2500:
UWI. DF33017:
~C
DEPT.M :
GR.API :
CALI.CM :
RXO.OHMM :
RI. :
RML.OHMM :
DEN.GM/CC :
SP.MV :
~A
# ...
   83.7500    74.9510    25.9410     8.7140     7.2370     9.9220     2.1900   -34.8980 
   83.8750    73.7260    25.7730     8.8660     7.3600    10.1390     2.1840   -35.2290 
   84.0000    72.3010    25.6950     9.0620     7.3680    10.2720     2.1790   -35.4470 
   84.1250    71.0170    25.6150     9.2080     7.2600    10.2930     2.1730   -35.5630 
   84.2500    70.5670    25.5550     9.1070     7.2380    10.2820     2.1670   -35.6450 
   84.3750    70.8200    25.5200     8.8880     7.3980    10.2920     2.1690   -35.7280 
   84.5000    72.1470    25.4680     9.0540     7.6690    10.3510     2.1760   -35.8370 
   84.6250    73.2520    25.4050    10.4170     7.8270    10.4630     2.1810   -35.9230 
   84.7500    73.1520    25.2630    12.5210     7.7680    10.5890     2.1810   -35.9990 
   84.8750    74.8280    25.0040    13.3520     7.5670    10.6850     2.1800   -36.0800 
   85.0000    79.1100    24.7110    12.1770     7.3910    10.7270     2.1790   -36.2100 
   85.1250    81.5460    24.5080    10.7890     7.3650    10.7010     2.1730   -36.3930 
   85.2500    79.9950    24.1930    10.1880     7.3840    10.6410     2.1640   -36.6060 
   85.3750    78.0680    23.8600     9.9230     7.3030    10.5790     2.1550   -36.8330 
   85.5000    80.3610    23.7670     9.6900     7.0490    10.5340     2.1510   -37.0640 
   85.6250    83.1640    23.8600     9.4470     6.6920    10.4960     2.1530   -37.2530 
   85.7500    81.7000    23.9550     9.2320     6.4360    10.4350     2.1600   -37.3690 
   85.8750    79.8110    23.9800     9.1930     6.3800    10.3470     2.1690   -37.4800 
   86.0000    81.6280    24.0420     9.2960     6.4800    10.2570     2.1760   -37.6190 
   86.1250    83.7350    24.0330     9.3670     6.5950    10.2260     2.1710   -37.8280 
   86.2500    82.8160    23.9180     9.4160     6.6590    10.2930     2.1580   -38.0460 
   86.3750    80.2470    23.8440     9.5820     6.7430    10.4800     2.1480   -38.2550 
   86.5000    76.8590    23.8360     9.9150     6.9490    10.7750     2.1490   -38.4790 
   86.6250    71.2740    23.7930    10.1810     7.2900    11.1110     2.1570   -38.7500 
   86.7500    67.1200    24.0170    10.3810     7.5870    11.3750     2.1660   -39.0250 
   86.8750    66.0200    24.2630    10.6070     7.6960    11.4950     2.1750   -39.2400 
   87.0000    66.1820    24.3460    10.8870     7.6090    11.4520     2.1880   -39.3630 
   87.1250    66.1560    24.3390    11.1910     7.4450    11.2630     2.2040   -39.3940 
   87.2500    65.3170    24.4990    11.2620     7.2870    11.0070     2.2110   -39.3720 
   87.3750    63.6320    24.9560    10.6980     7.0820    10.7250     2.2000   -39.2920 
   87.5000    63.3950    25.7460     9.6460     6.7830    10.4530     2.1710   -39.1560 
   87.6250    66.6630    26.3460     8.7000     6.4780    10.2500     2.1440   -38.9350 
   87.7500    69.7330    26.8680     8.2070     6.3310    10.1630     2.1330   -38.7010 
   87.8750    69.9690    27.3160     8.0210     6.3860    10.1960     2.1400   -38.4910 
   88.0000    68.4990    27.5820     8.0050     6.5340    10.2930     2.1580   -38.2780 
   88.1250    66.0370    27.6190     8.0510     6.5870    10.3460     2.1760   -38.0750 
   88.2500    64.3870    27.4610     8.0830     6.5290    10.2940     2.1840   -37.9080 
   88.3750    66.1840    27.1280     8.0810     6.4720    10.1460     2.1820   -37.7740 
   88.5000    69.3460    26.8700     8.0420     6.5090     9.9600     2.1730   -37.6070 
   88.6250    68.7360    26.9370     7.9970     6.6040     9.8270     2.1640   -37.3700 
   88.7500    68.0730    27.2480     8.0640     6.6230     9.7850     2.1570   -37.0940 
   88.8750    70.6600    27.5600     8.3560     6.5210     9.8190     2.1520   -36.8040 
   89.0000    72.4020    27.6690     8.7720     6.3660     9.8620     2.1480   -36.5150 
   89.1250    68.0040    27.5550     9.0100     6.2850     9.7880     2.1400   -36.1550 
   89.2500    63.7610    27.4230     8.9130     6.2730     9.5400     2.1270   -35.6940 
   89.3750    63.8760    27.3120     8.6240     6.2140     9.1200     2.1130   -35.1470 
   89.5000    67.8620    27.1910     8.0740     5.9750     8.5850     2.1090   -34.5320 
   89.6250    74.6640    27.0000     7.1310     5.4890     8.0320     2.1320   -33.9340 
   89.7500    82.5030    26.8130     6.1060     4.9070     7.5590     2.1770   -33.4250 
   89.8750    90.2610    26.7030     5.4440     4.3970     7.2240     2.2260   -32.9340 
   90.0000    96.3680    26.6160     5.2360     4.1040     7.0510     2.2590   -32.5010 
   90.1250    98.8520    26.4890     5.2760     4.1390     7.0470     2.2690   -32.2170 
   90.2500    99.3310    26.4430     5.3600     4.3990     7.1370     2.2700   -32.1010 
   90.3750   100.1620    26.4440     5.4870     4.7450     7.2550     2.2700   -32.1360 
   90.5000   100.1090    26.5130     5.7140     5.0120     7.3400     2.2670   -32.2990 
   90.6250    97.5480    26.1990     5.9910     5.0250     7.3540     2.2600   -32.5310 
   90.7500    94.2160    26.0370     6.1630     4.8290     7.3350     2.2530   -32.7630 
   90.8750    90.9050    26.0510     6.0730     4.5700     7.3490     2.2470   -33.0730 
   91.0000    88.4460    26.1170     5.8380     4.4450     7.4680     2.2430   -33.4100 
   91.1250    91.0130    26.1290     5.9790     4.6440     7.7650     2.2460   -33.7270 
   91.2500    95.8390    25.8900     6.5100     5.0720     8.1820     2.2490   -33.9830 
   91.3750    94.9970    25.5720     7.1730     5.5210     8.6050     2.2420   -34.1750 
   91.5000    88.2530    25.3110     7.5520     5.7400     8.8670     2.2200   -34.3000 
   91.6250    84.0260    25.3590     7.1960     5.5570     8.7890     2.1980   -34.3750 
   91.7500    84.8070    25.6600     6.4700     5.1800     8.4560     2.1960   -34.3550 
   91.8750    86.3650    26.1350     5.8120     4.8410     8.0120     2.2200   -34.2580 
   92.0000    87.0680    26.6610     5.5290     4.6820     7.6000     2.2580   -34.1170 
   92.1250    91.0320    26.8650     5.5050     4.6820     7.3220     2.2880   -33.9510 
   92.2500    95.4090    26.8660     5.4620     4.6690     7.1700     2.2980   -33.7880 
   92.3750    95.7550    26.7410     5.3750     4.5620     7.1190     2.2910   -33.6060 
   92.5000    93.5870    26.6340     5.2940     4.4020     7.1340     2.2800   -33.4340 
   92.6250    94.0230    26.5300     5.4640     4.3410     7.1850     2.2720   -33.2770 
   92.7500    94.0320    26.4200     5.7810     4.4300     7.2470     2.2680   -33.1840 
   92.8750    89.3870    26.4020     5.9730     4.5970     7.3120     2.2680   -33.1280 
   93.0000    83.8240    26.7580     5.8900     4.7040     7.3820     2.2720   -33.0740 
   93.1250    83.9470    27.2850     5.6720     4.6580     7.4680     2.2790   -32.9780 
   93.2500    86.3910    27.6690     5.5570     4.5500     7.5560     2.2830   -32.8550 
   93.3750    85.8360    27.9400     5.4980     4.4940     7.5940     2.2730   -32.7540 
   93.5000    81.9800    28.0810     5.4810     4.5300     7.5050     2.2480   -32.7080 
   93.6250    79.7400    28.1830     5.5060     4.5610     7.2240     2.2200   -32.7420 
   93.7500    81.3620    28.3280     5.4060     4.4760     6.8780     2.2130   -32.8520 
   93.8750    85.5930    28.4270     5.1470     4.3000     6.6470     2.2300   -32.9980 
   94.0000    88.5090    28.4070     4.9070     4.1870     6.6910     2.2670   -33.2080 
   94.1250    87.1050    28.3190     4.9980     4.3830     7.1680     2.3140   -33.4920 
   94.2500    82.6390    28.1150     5.5290     4.9320     7.9830     2.3650   -33.8280 
   94.3750    78.4820    27.6160     6.4060     5.7140     8.9660     2.4100   -34.1720 
   94.5000    77.3410    26.9530     7.3180     6.4520     9.8310     2.4300   -34.4830 
   94.6250    77.6250    26.2520     7.7900     6.7850    10.2220     2.4000   -34.7060 
   94.7500    76.3670    25.9500     8.0030     6.7480    10.1740     2.3350   -34.8100 
   94.8750    74.0480    25.9500     8.2120     6.5560     9.8690     2.2620   -34.7990 
