~V
VERS. 2.00: Ver 2.00
~W
STRT.M 55.0000:
STOP.M 245.0000:
STEP.M 0.1250:
NULL. -999.2500:
UWI. DF33016:
~C
DEPT.M :
GR.API :
CALI.CM :
RXO.OHMM :
RI. :
RML.OHMM :
DEN.GM/CC :
SP.MV :
~A
# ...
   66.2500    81.2510    25.0080     8.2820     5.4710     5.3900     2.1960   -30.9380 
   66.3750    79.3990    25.0270     8.8290     5.3920     5.3070     2.2020   -31.3800 
   66.5000    73.3430    25.0730     9.4790     5.3580     5.2720     2.2040   -31.7770 
   66.6250    67.9270    25.1300     9.6860     5.5720     5.4950     2.2010   -32.0140 
   66.7500    68.6200    25.1820     9.7820     6.1420     6.0880     2.2010   -32.1360 
   66.8750    74.9120    25.2310    11.0900     7.0790     7.0620     2.2240   -32.1670 
   67.0000    80.6330    25.2670    15.4090     8.2330     8.2620     2.2890   -32.1490 
   67.1250    79.4730    25.2340    21.7250     9.1310     9.1960     2.3950   -32.1140 
   67.2500    74.3240    25.0920    23.1320     9.3100     9.3830     2.5020   -32.0690 
   67.3750    70.2900    25.0880    18.0750     8.7070     8.7550     2.5280   -32.0340 
   67.5000    69.7570    25.2130    11.7200     7.6600     7.6660     2.4660   -31.9410 
   67.6250    71.6170    25.4770     9.0280     6.6770     6.6440     2.3600   -31.8090 
   67.7500    73.1420    25.5250     8.3150     6.0380     5.9800     2.2620   -31.6000 
   67.8750    74.7290    25.6250     8.2090     5.7840     5.7150     2.2040   -31.2850 
   68.0000    76.6300    25.7650     8.2210     5.8280     5.7620     2.1770   -30.8130 
   68.1250    77.0710    25.8970     8.2940     5.9690     6.1490     2.1730   -30.1310 
   68.2500    76.6890    25.9550     8.3190     5.9710     6.6300     2.1780   -29.3400 
   68.3750    77.5490    25.9710     7.8830     5.7330     6.6110     2.1880   -28.4430 
   68.5000    83.0780    26.0030     6.7470     5.2830     6.2460     2.2120   -27.5130 
   68.6250    96.1410    26.0890     5.3950     4.7740     5.7380     2.2540   -26.6800 
   68.7500   110.9370    26.1570     4.5270     4.3800     5.3410     2.2970   -25.9780 
   68.8750   118.8900    26.0710     4.2660     4.2010     5.2160     2.3240   -25.4280 
   69.0000   114.2780    25.8310     4.4490     4.2800     5.4310     2.3400   -25.0360 
   69.1250   100.9620    25.5380     5.1980     4.5960     5.9620     2.3430   -24.7750 
   69.2500    90.3090    25.2720     6.2900     4.9750     6.5500     2.3250   -24.5940 
   69.3750    83.5220    25.1550     7.0570     5.2420     6.9340     2.2880   -24.4760 
   69.5000    80.0990    25.2720     6.9730     5.2660     6.9290     2.2630   -24.4080 
   69.6250    84.4250    25.3950     6.0080     5.0070     6.5100     2.2690   -24.3710 
   69.7500    94.5890    25.5380     5.1150     4.6060     5.9240     2.3010   -24.3560 
   69.8750   104.0210    25.5780     4.6910     4.2000     5.3570     2.3360   -24.4000 
   70.0000   107.5680    25.5320     4.6190     3.9250     4.9930     2.3500   -24.5360 
   70.1250   109.0780    25.4930     4.6170     3.9700     5.0860     2.3440   -24.8500 
   70.2500   110.1170    25.4700     4.7550     4.3940     5.7360     2.3410   -25.3070 
   70.3750   107.0490    25.4390     5.9420     5.2500     7.0510     2.3720   -25.8880 
   70.5000    98.4290    25.3130    10.4500     6.5100     9.0310     2.4340   -26.5370 
   70.6250    86.8930    25.0670    16.4260     7.9060    11.2730     2.5020   -27.2260 
   70.7500    78.8930    24.9510    17.9230     8.8630    12.7330     2.5400   -27.9150 
   70.8750    76.4810    25.0510    14.1520     8.9770    12.6660     2.5070   -28.5680 
   71.0000    77.3790    25.1660    10.1390     8.3210    11.3120     2.4180   -29.1840 
   71.1250    77.7700    25.2070     9.2640     7.4410     9.7870     2.3140   -29.7270 
   71.2500    76.8920    25.2430     8.8940     6.9230     8.9970     2.2360   -30.2360 
   71.3750    75.9340    25.3070     8.6380     7.0150     9.2040     2.2070   -30.7270 
   71.5000    74.4190    25.3800     9.1540     7.7590    10.4110     2.2130   -31.2270 
   71.6250    70.6700    25.2860    13.4810     9.0660    12.5070     2.2580   -31.7430 
   71.7500    67.4780    24.9860    22.6410    10.3780    14.6510     2.3430   -32.2890 
   71.8750    65.7040    24.7630    28.8910    11.0690    15.7520     2.4310   -32.8490 
   72.0000    65.1320    24.8300    24.7530    10.7530    15.0890     2.4580   -33.3930 
   72.1250    65.5550    25.1210    15.4130     9.5860    13.0840     2.4010   -33.9250 
   72.2500    66.6030    25.2990    10.2960     8.3060    11.1100     2.2970   -34.3900 
   72.3750    67.4590    25.3790     8.8700     7.2740     9.7390     2.2160   -34.7590 
   72.5000    66.5900    25.4060     8.6320     6.6130     9.0740     2.1850   -35.0340 
   72.6250    66.6720    25.3460     8.5950     6.3160     8.9970     2.1910   -35.2110 
   72.7500    68.6050    25.1720     8.3940     6.1930     9.1280     2.2050   -35.3110 
   72.8750    69.4830    24.9500     8.1410     6.1570     9.2780     2.1990   -35.3570 
   73.0000    67.5010    24.8280     8.0130     6.1670     9.3780     2.1800   -35.3570 
   73.1250    64.3670    24.8090     8.0460     6.2210     9.4380     2.1620   -35.3010 
   73.2500    64.1190    24.8130     8.1470     6.3060     9.4940     2.1580   -35.2350 
   73.3750    65.2430    24.8450     8.2820     6.4070     9.5570     2.1740   -35.1700 
   73.5000    64.8450    24.9440     8.3830     6.5000     9.6120     2.1930   -35.0950 
   73.6250    63.6500    25.1770     8.3440     6.5450     9.6150     2.2050   -35.0260 
   73.7500    64.7310    25.3960     8.3430     6.5360     9.5520     2.2080   -34.9390 
   73.8750    67.5910    25.5950     8.6000     6.4740     9.4240     2.2100   -34.7930 
   74.0000    68.3320    25.6330     9.1220     6.3650     9.2530     2.2100   -34.5760 
   74.1250    66.5500    25.5150     9.5700     6.2340     9.0730     2.2020   -34.2350 
   74.2500    66.2990    25.4310     9.7480     6.1190     8.9120     2.1830   -33.7620 
   74.3750    68.7270    25.5590     9.6460     6.0350     8.7810     2.1630   -33.1840 
   74.5000    71.1070    25.5570     9.3500     5.9860     8.6820     2.1530   -32.5700 
   74.6250    69.7080    25.6790     8.9700     5.9560     8.6120     2.1550   -31.8620 
   74.7500    66.2800    25.7960     8.6400     5.9170     8.5530     2.1600   -31.0320 
   74.8750    63.5100    25.7540     8.3220     5.8650     8.4890     2.1580   -30.0750 
   75.0000    63.0650    25.6620     7.9530     5.8040     8.4100     2.1510   -29.0010 
   75.1250    65.0010    25.6230     7.5550     5.7480     8.3140     2.1440   -27.9430 
   75.2500    68.7630    25.6050     7.1140     5.6870     8.1920     2.1460   -26.8780 
   75.3750    73.4470    25.5340     6.7480     5.5950     8.0180     2.1570   -25.8230 
   75.5000    77.4480    25.3970     6.5080     5.4490     7.7690     2.1720   -24.7800 
   75.6250    82.1400    25.3620     6.3100     5.2400     7.4430     2.1900   -23.7580 
   75.7500    88.7370    25.4550     5.9740     5.0000     7.0950     2.2120   -22.8670 
   75.8750    94.6770    25.5960     5.4450     4.7630     6.7720     2.2400   -22.1420 
   76.0000    97.6260    25.7250     4.8840     4.5550     6.5130     2.2700   -21.6510 
   76.1250    98.0030    25.8850     4.6100     4.4010     6.3470     2.2960   -21.2890 
   76.2500    98.0860    25.9460     4.5620     4.2970     6.2480     2.3130   -21.1230 
   76.3750    98.4090    25.8460     4.5200     4.2360     6.1940     2.3280   -21.1260 
   76.5000   100.3190    25.5620     4.4300     4.2060     6.1600     2.3450   -21.2480 
   76.6250   103.5680    25.2700     4.3470     4.1880     6.1180     2.3630   -21.5010 
   76.7500   105.6300    25.1240     4.3660     4.1550     6.0500     2.3790   -21.8370 
   76.8750   106.6050    25.0860     4.4780     4.0990     5.9480     2.3920   -22.2590 
   77.0000   107.5310    25.0800     4.5760     4.0290     5.8210     2.3960   -22.7180 
   77.1250   107.6510    25.0580     4.6290     4.0390     5.7880     2.3870   -23.2440 
   77.2500   107.2840    24.9840     4.6970     4.2560     6.0540     2.3690   -23.8130 
   77.3750   106.9100    24.8950     4.9980     4.8090     6.8340     2.3460   -24.4230 
