~V
VERS. 2.00: Ver 2.00
~W
STRT.M 60.0000:
STOP.M 235.0000:
STEP.M 0.1250:
NULL. -999.2500:
UWI. DF33014:
~C
DEPT.M :
SP.MV :
GR.API :
RML.OHMM :
RI. :
RXO.OHMM :
CALI.CM :
DEN.GM/CC :
~A
# ...
  183.7500   -22.2020    82.7900     8.7380     6.7300     6.9300    24.1000     2.3930 
  183.8750   -22.7270    85.5260     8.6670     6.6570     7.1060    24.0370     2.3770 
  184.0000   -23.1930    86.0360     8.7800     6.7170     8.0240    23.9920     2.3580 
  184.1250   -23.8190    82.3740     9.1680     6.9960     9.7620    24.0240     2.3440 
  184.2500   -24.4170    77.1620     9.7640     7.4680    11.9830    23.9630     2.3370 
  184.3750   -25.0420    74.4460    10.4710     8.0810    13.9410    23.8280     2.3400 
  184.5000   -25.5860    75.7990    11.1510     8.7340    15.0620    23.7040     2.3510 
  184.6250   -25.9780    78.4460    11.6290     9.2750    15.5760    23.6630     2.3680 
  184.7500   -26.2390    78.9490    11.8660     9.6140    15.8460    23.6670     2.3840 
  184.8750   -26.2290    77.2640    11.8800     9.7210    15.3900    23.6930     2.3970 
  185.0000   -26.0980    76.6140    11.7210     9.6100    14.2800    23.7440     2.4060 
  185.1250   -25.6280    79.9320    11.4080     9.3020    13.4420    23.7870     2.4100 
  185.2500   -24.9050    84.0730    10.9800     8.8750    12.7690    23.8280     2.4130 
  185.3750   -23.9710    87.4700    10.4450     8.3670    11.5240    23.8930     2.4150 
  185.5000   -22.8320    90.1110     9.8440     7.8210     9.7720    24.0510     2.4160 
  185.6250   -21.6340    88.7940     9.2830     7.3140     8.2550    24.2670     2.4160 
  185.7500   -20.2990    83.4900     8.8880     6.9290     7.3710    24.4420     2.4190 
  185.8750   -18.9960    79.9240     8.7590     6.7340     7.1010    24.4980     2.4250 
  186.0000   -17.6200    81.7270     8.9290     6.7650     7.4230    24.4380     2.4330 
  186.1250   -16.3270    84.3770     9.3580     7.0330     8.3110    24.3920     2.4340 
  186.2500   -15.1630    82.5970     9.8310     7.4010     8.8640    24.3600     2.4230 
  186.3750   -14.0530    78.5730    10.1490     7.7320     8.5490    24.2780     2.4010 
  186.5000   -13.0540    76.8640    10.1600     7.8930     7.8520    24.0900     2.3740 
  186.6250   -12.1370    78.9850     9.7840     7.7700     7.3990    24.0200     2.3490 
  186.7500   -11.2840    79.2990     9.2190     7.4480     6.9830    24.2030     2.3310 
  186.8750   -10.4350    73.1870     8.6420     7.0390     6.5240    24.5350     2.3220 
  187.0000    -9.7210    62.5330     8.1810     6.6530     6.2800    24.7860     2.3240 
  187.1250    -8.9370    53.9820     7.8980     6.3750     6.2880    24.8230     2.3350 
  187.2500    -8.1980    49.8150     7.7300     6.1910     6.1000    24.6800     2.3550 
  187.3750    -7.4820    47.6710     7.6250     6.0710     5.6410    24.4390     2.3770 
  187.5000    -6.8090    45.9100     7.5530     5.9880     5.1040    24.2760     2.3980 
  187.6250    -6.2110    46.9000     7.5130     5.9340     4.7690    24.2470     2.4120 
  187.7500    -5.6710    53.0410     7.5060     5.9110     4.7630    24.2730     2.4170 
  187.8750    -5.2860    62.8880     7.5220     5.9180     5.0190    24.2860     2.4120 
  188.0000    -4.8800    70.2270     7.5350     5.9450     5.2780    24.2870     2.3990 
  188.1250    -4.6250    70.8490     7.4990     5.9570     5.2610    24.2840     2.3870 
  188.2500    -4.3800    69.9590     7.4010     5.9280     5.0560    24.2600     2.3810 
  188.3750    -4.1930    71.9070     7.2630     5.8560     4.8280    24.2020     2.3830 
  188.5000    -4.1170    77.2810     7.1360     5.7690     4.6470    24.1300     2.3900 
  188.6250    -4.0120    80.5670     7.0940     5.7220     4.5930    24.0760     2.3960 
  188.7500    -4.0190    79.4480     7.1500     5.7420     5.1010    23.9550     2.3980 
  188.8750    -3.9860    75.9190     7.2700     5.8230     6.3390    23.7300     2.3980 
  189.0000    -4.0620    74.5950     7.3890     5.9300     7.3110    23.5650     2.3970 
  189.1250    -4.0950    76.9980     7.4200     6.0040     6.6930    23.6680     2.3950 
  189.2500    -4.1590    79.8200     7.3550     6.0220     5.5490    23.8800     2.3910 
  189.3750    -4.2460    81.9220     7.2360     5.9940     4.9710    24.0700     2.3890 
  189.5000    -4.3300    81.6230     7.1360     5.9660     5.1440    24.1610     2.3920 
  189.6250    -4.4890    77.9800     7.1410     6.0030     5.7610    24.1990     2.4010 
  189.7500    -4.6440    75.7370     7.2550     6.1290     6.4520    24.2360     2.4130 
  189.8750    -4.8320    77.0240     7.4530     6.3340     6.9030    24.2710     2.4250 
  190.0000    -4.9520    81.1220     7.6890     6.5840     7.0550    24.2740     2.4330 
  190.1250    -5.1830    83.2060     7.9070     6.8190     7.1720    24.2420     2.4300 
  190.2500    -5.3760    83.8940     8.0730     7.0000     7.3510    24.2140     2.4160 
  190.3750    -5.6110    85.0720     8.1800     7.1100     7.4860    24.2220     2.3960 
  190.5000    -5.7820    85.6380     8.2310     7.1510     7.5220    24.2490     2.3770 
  190.6250    -5.9730    85.5530     8.2360     7.1390     7.4830    24.2250     2.3700 
  190.7500    -6.1270    85.9150     8.2300     7.1110     7.5650    24.1100     2.3770 
  190.8750    -6.2530    86.6790     8.2490     7.1020     8.0250    23.8820     2.3940 
  191.0000    -6.4770    85.7980     8.2380     7.1590     9.1030    23.6110     2.4140 
  191.1250    -6.6210    81.5500     8.4090     7.4150    10.5480    23.4950     2.4300 
  191.2500    -6.8740    77.7130     9.0540     8.0580    11.6110    23.4660     2.4400 
  191.3750    -7.1410    74.7920    10.9250     9.4160    13.2370    23.4640     2.4430 
  191.5000    -7.4780    71.7720    14.4530    11.8930    18.6480    23.4500     2.4380 
  191.6250    -7.8900    67.5720    20.8860    16.0310    35.9730    23.4050     2.4180 
  191.7500    -8.3140    63.7580    28.9470    21.3940    66.0190    23.3200     2.3860 
  191.8750    -8.8340    61.7450    36.4350    27.1740    79.1690    23.2370     2.3480 
  192.0000    -9.2910    63.9240    41.5810    32.1320    58.9450    23.1940     2.3140 
  192.1250    -9.8640    70.3960    43.3000    34.7810    45.6770    23.1900     2.2910 
  192.2500   -10.3950    73.8090    42.9120    35.6250    45.0920    23.1910     2.2760 
  192.3750   -10.9260    70.5270    42.6860    36.1780    48.1640    23.1680     2.2680 
  192.5000   -11.4630    64.6340    44.7540    38.2770    48.9620    23.1180     2.2630 
  192.6250   -11.9650    64.2610    51.1660    43.9080    53.6270    23.0940     2.2590 
  192.7500   -12.4820    66.1100    61.7800    53.0460    72.2870    23.0850     2.2580 
  192.8750   -12.9540    64.9980    75.9620    65.0070   101.7510    23.0640     2.2580 
  193.0000   -13.4590    62.9790    91.9150    78.1040   122.0770    22.9990     2.2570 
  193.1250   -13.9090    63.5810   106.3420    89.6320   127.7400    22.9330     2.2450 
  193.2500   -14.4040    64.2520   116.8620    98.0920   112.6810    22.9160     2.2240 
  193.3750   -14.8410    61.9660   123.2530   103.6160    87.3960    22.9580     2.1970 
  193.5000   -15.3200    57.8730   127.6920   107.8590    74.0110    23.0680     2.1720 
  193.6250   -15.6940    55.0480   134.0500   113.5370    78.5530    23.1490     2.1580 
  193.7500   -16.0890    53.7840   143.7180   121.6420    90.7740    23.1800     2.1550 
  193.8750   -16.4930    54.6560   155.5500   131.3230    98.5930    23.1840     2.1550 
  194.0000   -16.7900    57.2970   166.9840   140.6930    97.4250    23.1840     2.1580 
  194.1250   -17.1350    58.9800   174.5590   147.3730    91.9270    23.1840     2.1670 
  194.2500   -17.3670    58.3190   177.8840   151.1770    89.0760    23.1860     2.1870 
  194.3750   -17.5990    57.4290   178.6010   153.1770    93.0060    23.1930     2.2150 
  194.5000   -17.7670    58.5680   179.3840   155.1230   103.8070    23.1710     2.2430 
  194.6250   -17.9540    60.3640   182.4880   158.6350   119.0190    23.1030     2.2540 
  194.7500   -18.1510    59.7560   187.6280   163.6760   126.3360    23.1020     2.2460 
  194.8750   -18.2650    57.7850   193.8730   169.6660   119.4130    23.3310     2.2250 
