~V
VERS. 2.00: Ver 2.00
~W
STRT.M 63.0000:
STOP.M 272.0000:
STEP.M 0.1250:
NULL. -999.2500:
UWI. DF33040:
~C
DEPT.M :
SP.MV :
GR.API :
CALI.CM :
RXO.OHMM :
RI. :
RML.OHMM :
DEN.GM/CC :
~A
# ...
  108.0000   -20.7910    76.5950    23.4800     5.2320     5.2990     7.1710     2.2430 
  108.1250   -20.6200    77.2680    23.2510     5.3360     5.3090     7.2940     2.2240 
  108.2500   -20.3520    79.7700    22.8450     5.4530     5.3750     7.4770     2.2150 
  108.3750   -20.0160    80.8590    22.5230     5.4160     5.4220     7.5700     2.2190 
  108.5000   -19.6390    80.1530    22.4310     5.2990     5.3880     7.4770     2.2330 
  108.6250   -19.2560    81.6040    22.5130     5.1940     5.2430     7.1930     2.2540 
  108.7500   -18.8890    85.7030    22.6830     5.1370     5.0500     6.8690     2.2720 
  108.8750   -18.5510    89.3600    22.9520     5.1670     4.8620     6.5980     2.2780 
  109.0000   -18.2760    90.4770    23.2520     5.2270     4.7140     6.4090     2.2720 
  109.1250   -18.1560    87.5860    23.4460     5.1900     4.6220     6.2990     2.2660 
  109.2500   -18.2040    83.3930    23.4830     5.0710     4.5900     6.2670     2.2620 
  109.3750   -18.3930    81.9800    23.3800     4.9770     4.6420     6.3640     2.2620 
  109.5000   -18.6950    82.0740    23.1910     5.1290     4.8130     6.6610     2.2750 
  109.6250   -19.0950    78.7010    23.0170     5.9460     5.1580     7.2470     2.3090 
  109.7500   -19.5530    73.3850    22.9630     7.2800     5.6430     8.0430     2.3410 
  109.8750   -20.0460    71.2550    23.0140     8.3770     6.1940     8.9110     2.3420 
  110.0000   -20.5520    72.7720    23.0160     8.4590     6.6900     9.6360     2.3050 
  110.1250   -21.0220    73.4470    22.7830     7.6280     6.9530     9.9280     2.2520 
  110.2500   -21.4300    70.7980    22.4360     6.9730     6.9580     9.7990     2.2110 
  110.3750   -21.7770    67.4200    22.2350     6.8210     6.7680     9.4050     2.1890 
  110.5000   -22.0510    66.7050    22.3170     6.9440     6.5020     8.9660     2.1800 
  110.6250   -22.2400    69.1780    22.5820     7.0260     6.2730     8.6520     2.1730 
  110.7500   -22.3460    70.9110    22.8280     7.0320     6.1090     8.4580     2.1680 
  110.8750   -22.3810    71.4240    22.9990     7.0520     5.9930     8.3290     2.1720 
  111.0000   -22.3710    71.8230    23.1140     7.0790     5.9030     8.2170     2.1870 
  111.1250   -22.3410    70.6570    23.2220     6.9620     5.8390     8.1270     2.2000 
  111.2500   -22.3310    67.4700    23.3420     6.7750     5.8120     8.1070     2.2020 
  111.3750   -22.3590    65.8540    23.3940     6.7850     5.8390     8.1920     2.1980 
  111.5000   -22.4310    68.0720    23.2940     7.1250     5.9200     8.3670     2.1970 
  111.6250   -22.5430    69.7400    23.0950     7.5100     6.0370     8.5610     2.1960 
  111.7500   -22.6850    68.4000    22.9520     7.6200     6.1560     8.7040     2.1840 
  111.8750   -22.8340    67.0500    22.8880     7.5500     6.2630     8.7840     2.1630 
  112.0000   -22.9520    69.0580    22.8400     7.5180     6.3590     8.8410     2.1470 
  112.1250   -22.9950    72.1490    22.8120     7.5430     6.4610     8.9430     2.1490 
  112.2500   -22.9440    72.4600    22.8550     7.4920     6.5790     9.1020     2.1630 
  112.3750   -22.8030    70.9390    22.9540     7.3650     6.6980     9.2690     2.1780 
  112.5000   -22.5590    69.8810    23.0460     7.2470     6.7780     9.3520     2.1870 
  112.6250   -22.1960    72.5050    23.0740     7.2040     6.7470     9.2330     2.1910 
  112.7500   -21.7350    78.2590    23.0570     7.1180     6.5860     8.9000     2.1990 
  112.8750   -21.1870    84.6460    23.0160     6.8660     6.2960     8.3830     2.2160 
  113.0000   -20.5860    89.7110    22.9820     6.4240     5.9110     7.7580     2.2360 
  113.1250   -19.9590    93.8250    23.0040     5.8600     5.4950     7.1350     2.2490 
  113.2500   -19.3460    97.0930    23.1670     5.2970     5.1140     6.5990     2.2540 
  113.3750   -18.7620    97.8650    23.5280     4.8570     4.7990     6.1830     2.2560 
  113.5000   -18.2420    96.1550    24.0200     4.6330     4.5660     5.8980     2.2590 
  113.6250   -17.8340    94.2320    24.4290     4.5950     4.4350     5.7600     2.2630 
  113.7500   -17.5420    94.8200    24.6340     4.5680     4.3840     5.7280     2.2660 
  113.8750   -17.3620    98.1650    24.6850     4.5200     4.3970     5.7680     2.2640 
  114.0000   -17.2940    99.5050    24.6890     4.5480     4.4540     5.8430     2.2570 
  114.1250   -17.3440    95.9440    24.6350     4.7390     4.5520     5.9450     2.2590 
  114.2500   -17.4650    91.7310    24.3910     4.9040     4.6830     6.0730     2.2880 
  114.3750   -17.6430    90.9870    24.0250     5.0550     4.8440     6.2330     2.3430 
  114.5000   -17.8880    90.6930    23.8650     5.7000     5.0260     6.4260     2.3980 
  114.6250   -18.2040    88.5720    24.1220     7.1050     5.2250     6.6490     2.4120 
  114.7500   -18.5540    86.6660    24.4430     7.9610     5.4170     6.8640     2.3830 
  114.8750   -18.9110    84.8810    24.5040     7.5090     5.5760     7.0360     2.3320 
  115.0000   -19.2200    81.8660    24.2480     6.5030     5.6810     7.1450     2.2790 
  115.1250   -19.4190    80.2410    23.8500     6.1510     5.7000     7.1550     2.2390 
  115.2500   -19.4980    80.8890    23.5430     6.0840     5.6390     7.0700     2.2200 
  115.3750   -19.4580    83.5350    23.4370     5.8080     5.5080     6.9030     2.2270 
  115.5000   -19.2840    88.5120    23.5070     5.4080     5.3230     6.6670     2.2540 
  115.6250   -18.9610    93.4320    23.6650     5.1550     5.0850     6.3510     2.2820 
  115.7500   -18.5330    93.6590    23.8500     4.9700     4.8090     5.9600     2.2960 
  115.8750   -18.0470    89.6480    24.0400     4.8140     4.5130     5.5110     2.2960 
  116.0000   -17.5630    86.6950    24.2330     4.7320     4.2400     5.0790     2.2960 
  116.1250   -17.1760    90.6980    24.3910     4.6540     4.1250     4.9190     2.3150 
  116.2500   -16.9340    95.8800    24.4670     4.7010     4.3140     5.2920     2.3590 
  116.3750   -16.8450    95.6600    24.4720     6.0320     4.9800     6.4610     2.4290 
  116.5000   -16.9100    87.6650    24.4700    11.1980     6.2880     8.6540     2.5120 
  116.6250   -17.1330    78.1150    24.5130    23.9190     8.3770    12.0280     2.5730 
  116.7500   -17.4720    73.3310    24.5540    36.1560    10.6130    15.4120     2.5770 
  116.8750   -17.8960    73.2380    24.5010    35.9210    11.8750    16.7480     2.5170 
  117.0000   -18.3700    74.3520    24.2660    23.4460    11.3260    14.8970     2.4180 
  117.1250   -18.8610    73.6590    23.8890    12.5570     9.4400    11.4970     2.3250 
  117.2500   -19.3550    72.8250    23.6070     7.8110     7.6260     8.8440     2.2650 
  117.3750   -19.8510    73.1350    23.5560     6.3340     6.3800     7.3760     2.2380 
  117.5000   -20.3470    72.7610    23.6410     6.2680     5.7660     6.9350     2.2300 
  117.6250   -20.8520    68.2500    23.5530     6.8770     5.7380     7.3120     2.2270 
  117.7500   -21.3360    64.1560    23.2650     7.4990     6.0210     8.0380     2.2210 
  117.8750   -21.7840    63.8210    22.9690     7.7660     6.4260     8.7820     2.2100 
  118.0000   -22.2130    66.3160    22.8200     7.7010     6.7720     9.2580     2.1940 
  118.1250   -22.6300    69.8950    22.7690     7.5130     6.9110     9.2850     2.1800 
  118.2500   -23.0030    72.8630    22.6790     7.2950     6.8780     9.0490     2.1710 
  118.3750   -23.3130    73.7880    22.5670     7.0500     6.7530     8.7360     2.1660 
  118.5000   -23.5500    72.8030    22.4850     6.8090     6.6210     8.4900     2.1630 
  118.6250   -23.6580    71.7220    22.4410     6.6660     6.5470     8.4040     2.1570 
  118.7500   -23.6480    69.8930    22.3940     6.6530     6.5410     8.4530     2.1490 
  118.8750   -23.5260    65.5910    22.3400     6.6980     6.5880     8.5980     2.1420 
  119.0000   -23.2680    62.0870    22.3020     6.6960     6.6460     8.7570     2.1430 
  119.1250   -22.8190    64.9780    22.2980     6.6560     6.6290     8.7770     2.1600 
