~V
VERS. 2.00: Ver 2.00
~W
STRT.M 60.0000:
STOP.M 236.0000:
STEP.M 0.1250:
NULL. -999.2500:
UWI. DF33015:
~C
DEPT.M :
DEN.GM/CC :
GR.API :
RML.OHMM :
RI. :
RXO.OHMM :
CALI.CM :
SP.MV :
~A
# ...
  206.2500     2.2380    57.9550   163.4820   136.4960   112.5640    24.6520   -29.0600 
  206.3750     2.2250    58.9490   167.0060   140.1740   125.7220    24.5460   -28.9430 
  206.5000     2.2190    58.1300   169.9980   143.6780   133.4620    24.5630   -28.9140 
  206.6250     2.2310    57.8500   171.3960   146.1230   135.9660    24.8000   -28.7750 
  206.7500     2.2520    57.9360   170.6260   146.9810   142.3510    25.0310   -28.7100 
  206.8750     2.2700    56.5440   167.0540   145.7730   139.0470    25.1220   -28.5800 
  207.0000     2.2760    54.7190   160.1180   142.0930   124.7780    25.0900   -28.5600 
  207.1250     2.2730    55.8600   148.7890   135.0540   117.7110    25.0760   -28.4380 
  207.2500     2.2730    58.3800   133.9370   124.9500   119.4880    25.1650   -28.3250 
  207.3750     2.2760    59.2290   116.7800   112.1970   123.0980    25.2450   -28.2300 
  207.5000     2.2770    58.5890    99.4590    98.0410   120.7870    25.2030   -27.9860 
  207.6250     2.2630    58.5600    85.1090    84.8900   102.8350    25.1410   -27.8290 
  207.7500     2.2390    59.0770    75.0240    74.7580    79.9700    25.1010   -27.5620 
  207.8750     2.2210    58.5900    69.1630    68.4210    64.2340    25.0590   -27.2630 
  208.0000     2.2290    57.6970    66.0890    65.1740    58.4560    24.9970   -26.8200 
  208.1250     2.2830    58.5070    62.9680    62.6880    62.8950    24.8500   -26.3440 
  208.2500     2.3700    60.7010    57.0060    57.9300    74.3560    24.6400   -25.8320 
  208.3750     2.4660    62.1900    47.2580    49.4380    87.1250    24.4700   -25.2090 
  208.5000     2.5440    60.3910    35.1810    37.9630    76.5790    24.3880   -24.6780 
  208.6250     2.5720    56.5420    24.3720    26.6700    39.1090    24.4350   -24.0140 
  208.7500     2.5560    55.2080    16.7110    18.1400    17.7690    24.5840   -23.4090 
  208.8750     2.5180    56.6430    12.0510    12.7030     9.4020    24.7510   -22.8390 
  209.0000     2.4820    57.3280     9.5690     9.6480     6.9570    24.8160   -22.3530 
  209.1250     2.4680    54.5690     8.5820     8.2660     7.1000    24.8630   -21.9120 
  209.2500     2.4710    49.8890     8.2120     7.6290     7.4450    24.8970   -21.5500 
  209.3750     2.4770    46.2480     8.0610     7.3500     7.4590    24.9090   -21.2570 
  209.5000     2.4730    47.0510     7.8890     7.1830     7.0830    24.8790   -21.0590 
  209.6250     2.4550    51.5000     7.6320     7.0130     6.3910    24.8070   -20.9950 
  209.7500     2.4320    56.2190     7.4130     6.8790     5.8520    24.7980   -21.0100 
  209.8750     2.4150    62.0560     7.3620     6.8690     5.7440    24.8620   -21.1170 
  210.0000     2.4060    70.4890     7.5410     7.0410     6.2190    24.9520   -21.2540 
  210.1250     2.4050    77.7240     7.9450     7.4050     7.2540    25.0110   -21.5410 
  210.2500     2.4080    81.3240     8.4410     7.8440     8.3180    25.0290   -21.7700 
  210.3750     2.4140    82.9560     8.9230     8.2560     8.9240    25.0330   -22.1040 
  210.5000     2.4230    84.6060     9.3100     8.5510     9.0210    25.0340   -22.3890 
  210.6250     2.4290    85.2520     9.5360     8.6610     8.9840    25.0360   -22.6850 
  210.7500     2.4300    84.8570     9.6330     8.6250     8.9720    25.0340   -22.9720 
  210.8750     2.4250    85.1650     9.6260     8.4840     8.9540    25.0320   -23.1860 
  211.0000     2.4180    85.4740     9.5450     8.2740     8.9420    25.0320   -23.4330 
  211.1250     2.4110    87.2280     9.4150     8.0270     8.8850    25.0310   -23.5570 
  211.2500     2.4070    90.6390     9.3050     7.7970     8.7700    25.0270   -23.7600 
  211.3750     2.4050    93.9470     9.3120     7.6590     8.6700    25.0240   -23.8980 
  211.5000     2.4030    96.1970     9.5710     7.7200     8.6370    25.0230   -24.0560 
  211.6250     2.4000    95.7060    10.3140     8.1660     8.8920    25.0270   -24.1880 
  211.7500     2.3940    93.7990    11.5950     9.0520    10.3320    25.0320   -24.2880 
  211.8750     2.3850    89.1550    13.4750    10.4410    14.0740    25.0390   -24.4000 
  212.0000     2.3720    80.7280    15.9680    12.3600    19.7690    25.0460   -24.4100 
  212.1250     2.3560    74.5490    19.1330    14.8790    22.6050    25.0500   -24.3780 
  212.2500     2.3390    74.0580    22.7460    17.8200    22.0450    25.0430   -24.1990 
  212.3750     2.3210    76.1570    26.5270    20.9750    22.6300    25.0390   -23.9560 
  212.5000     2.3070    74.5330    29.9790    23.9580    26.9170    25.0370   -23.5610 
  212.6250     2.3080    68.2700    32.1410    25.9800    34.4650    25.0200   -23.0680 
  212.7500     2.3320    63.4170    32.3450    26.5210    40.7800    24.9830   -22.4230 
  212.8750     2.3760    61.1020    30.3760    25.3330    40.4330    24.9540   -21.7180 
  213.0000     2.4290    61.1080    26.5320    22.7100    32.7460    24.9480   -20.9370 
  213.1250     2.4690    64.7310    22.0800    19.4280    23.7540    24.9650   -20.2360 
  213.2500     2.4900    68.1360    17.9560    16.4330    17.9790    24.9850   -19.5660 
  213.3750     2.4920    67.5610    14.7180    14.0900    15.5420    24.9790   -18.9420 
  213.5000     2.4870    63.2020    13.0450    12.4610    14.8470    24.9410   -18.4830 
  213.6250     2.4780    60.2780    12.3030    11.5400    13.7080    24.9090   -18.0530 
  213.7500     2.4640    60.7080    11.9870    11.0700    11.9650    24.8600   -17.7690 
  213.8750     2.4410    62.3550    11.9210    10.8940    10.8930    24.7870   -17.4900 
  214.0000     2.4110    62.6010    11.9230    10.8430    11.1720    24.7180   -17.3600 
  214.1250     2.3780    64.0880    11.7870    10.7210    12.6370    24.6210   -17.2210 
  214.2500     2.3520    70.4870    11.4190    10.4140    13.4470    24.4550   -17.0980 
  214.3750     2.3390    79.8780    10.8320     9.9030    11.9650    24.2440   -16.9970 
  214.5000     2.3410    87.1720    10.1450     9.2630     9.1740    24.1170   -16.8290 
  214.6250     2.3590    86.1880     9.5590     8.6510     7.6490    24.0850   -16.7500 
  214.7500     2.3800    78.5030     9.1920     8.1950     7.6890    24.0860   -16.6150 
  214.8750     2.3950    69.2310     9.0580     7.9360     8.4120    24.1030   -16.5270 
  215.0000     2.3990    64.8020     9.1030     7.8530     9.0400    24.2060   -16.3350 
  215.1250     2.3910    65.5580     9.2460     7.8970     9.5500    24.4560   -16.1640 
  215.2500     2.3810    64.9720     9.4080     7.9900     9.4050    24.7200   -15.9810 
  215.3750     2.3740    63.2030     9.5800     8.1140     8.5240    24.8360   -15.8070 
  215.5000     2.3730    62.8210     9.7880     8.2790     7.7860    24.8520   -15.6390 
  215.6250     2.3810    64.0910    10.0750     8.5130     8.1660    24.8640   -15.4220 
  215.7500     2.3950    64.2600    10.4300     8.8110     9.0690    24.8990   -15.2450 
  215.8750     2.4100    63.1890    10.8230     9.1460     9.6370    24.9810   -15.0410 
  216.0000     2.4240    61.8620    11.2080     9.4800     9.8470    25.1160   -14.9550 
  216.1250     2.4320    61.7290    11.5230     9.7550    10.1280    25.2010   -14.7600 
  216.2500     2.4360    62.1500    11.7480     9.9480    10.6510    25.1930   -14.6530 
  216.3750     2.4390    63.0420    11.8760    10.0510    11.3590    25.1150   -14.5420 
  216.5000     2.4410    64.3880    11.9160    10.0720    12.1330    25.0570   -14.4360 
  216.6250     2.4410    65.1320    11.8760    10.0190    12.5290    25.0990   -14.4430 
  216.7500     2.4350    65.1130    11.7970     9.9280    12.1320    25.0990   -14.4060 
  216.8750     2.4170    66.4610    11.7120     9.8260    11.3010    25.0190   -14.4330 
  217.0000     2.3850    68.7510    11.6550     9.7460    10.5710    24.9250   -14.3940 
  217.1250     2.3430    70.3380    11.6650     9.7240    10.1460    24.8780   -14.4040 
  217.2500     2.3110    70.6240    11.7350     9.7610     9.8030    24.8420   -14.4580 
  217.3750     2.3070    71.2860    11.8490     9.8460     9.5010    24.7880   -14.4560 
