~V
VERS. 2.00: Ver 2.00
~W
STRT.M 60.0000:
STOP.M 233.0000:
STEP.M 0.1250:
NULL. -999.2500:
UWI. DF33019:
~C
DEPT.M :
GR.API :
RML.OHMM :
RI. :
RXO.OHMM :
CALI.CM :
DEN.GM/CC :
SP.MV :
~A
# ...
  183.7500    60.8730    60.2780    48.6620    58.3180    24.8360     2.3190   -24.4170 
  183.8750    59.0770    77.0120    62.3750    74.8200    24.8450     2.3060   -24.5160 
  184.0000    60.2430    93.9540    76.3900    80.3540    24.8450     2.3020   -24.5730 
  184.1250    62.0810   106.8470    87.4520    89.8430    24.8450     2.3170   -24.5070 
  184.2500    61.5070   113.7370    94.0770   110.3900    24.8450     2.3450   -24.3870 
  184.3750    58.7370   114.6560    96.1630   125.5090    24.8450     2.3700   -24.1840 
  184.5000    56.7440   111.3150    94.7590   121.2450    24.8450     2.3770   -23.9380 
  184.6250    56.7990   106.0010    91.3430    96.4370    24.8450     2.3550   -23.6190 
  184.7500    57.6340   100.9520    87.7450    86.6500    24.8450     2.3170   -23.2820 
  184.8750    58.2980    96.9600    84.7620    83.3730    24.8500     2.2790   -22.9490 
  185.0000    58.5070    94.1750    82.7020    84.6390    24.8850     2.2500   -22.6320 
  185.1250    59.7010    92.5770    81.6960    84.1650    24.9760     2.2350   -22.3770 
  185.2500    61.5590    91.8450    81.4980    77.6180    25.0800     2.2250   -22.1650 
  185.3750    62.8120    92.0100    82.1030    71.8130    25.1350     2.2160   -22.0120 
  185.5000    63.0520    93.0550    83.4800    68.8860    25.1160     2.2080   -21.9050 
  185.6250    63.1560    94.5120    85.2970    73.9130    25.0130     2.2020   -21.8520 
  185.7500    63.5900    95.1520    86.5800    79.1490    24.9300     2.2010   -21.8170 
  185.8750    63.5270    93.7610    86.3080    82.5970    24.8930     2.2030   -21.8050 
  186.0000    63.9460    89.6160    83.7440    80.9970    24.8750     2.2070   -21.8020 
  186.1250    65.2890    82.8650    78.6610    74.4910    24.8620     2.2080   -21.8080 
  186.2500    65.4790    75.5910    72.6040    68.2900    24.8610     2.2020   -21.7990 
  186.3750    65.7000    69.4620    67.0340    62.7500    24.8810     2.1910   -21.8260 
  186.5000    68.7340    65.5560    63.1570    53.8420    24.9050     2.1860   -21.7890 
  186.6250    70.6630    64.5470    61.9560    46.7970    24.8920     2.2110   -21.8020 
  186.7500    67.0370    65.5000    62.8440    48.7730    24.7730     2.2760   -21.7530 
  186.8750    62.0000    67.5070    65.1050    59.7530    24.5280     2.3770   -21.6990 
  187.0000    59.6150    69.5580    67.8030    73.8340    24.3140     2.4930   -21.6120 
  187.1250    58.0880    70.7430    69.9550    81.6180    24.2410     2.5860   -21.5550 
  187.2500    58.1050    71.0400    71.2160    83.2280    24.2300     2.6380   -21.4780 
  187.3750    60.4870    70.6160    71.5480    81.3140    24.2300     2.6550   -21.3970 
  187.5000    61.5760    69.2070    70.8020    76.4770    24.2300     2.6580   -21.3320 
  187.6250    61.7420    65.5990    67.8470    76.5170    24.2300     2.6670   -21.2980 
  187.7500    65.3990    58.8290    61.7870    78.9310    24.2300     2.6910   -21.2650 
  187.8750    68.7940    49.0160    52.2010    81.2680    24.2300     2.7250   -21.2260 
  188.0000    66.0140    37.3880    40.1680    95.2300    24.2300     2.7540   -21.1550 
  188.1250    60.6490    27.5450    28.5000    78.9680    24.2300     2.7500   -21.0430 
  188.2500    58.7580    20.2880    19.4100    37.2650    24.2300     2.7050   -20.8860 
  188.3750    57.7760    14.6400    13.3090    13.9530    24.2320     2.6270   -20.7150 
  188.5000    55.8230    10.6300     9.6640     7.5640    24.2360     2.5370   -20.5440 
  188.6250    53.8280     8.7310     7.9370     6.5690    24.2350     2.4570   -20.4240 
  188.7500    51.5180     7.9880     7.2620     6.7770    24.2260     2.3980   -20.3700 
  188.8750    49.1040     8.0280     7.2980     6.7230    24.2000     2.3630   -20.3900 
  189.0000    49.4090     8.5580     7.7800     6.8060    24.1420     2.3500   -20.5080 
  189.1250    53.7850     9.3300     8.4820     7.6670    24.0570     2.3560   -20.6690 
  189.2500    57.7540    10.0940     9.1770     9.5310    23.9970     2.3720   -20.9230 
  189.3750    59.3020    10.7430     9.7660    10.2910    24.0070     2.3890   -21.1990 
  189.5000    59.0380    11.2240    10.2040     9.1480    24.1160     2.4010   -21.5090 
  189.6250    57.1500    11.4840    10.4400     9.5500    24.2860     2.4050   -21.7100 
  189.7500    53.7630    11.5260    10.4780    14.0550    24.4660     2.4040   -21.8960 
  189.8750    51.5130    11.3160    10.2870    19.8870    24.6300     2.3990   -22.0140 
  190.0000    51.7140    10.8390     9.8540    19.4670    24.7480     2.3880   -22.1010 
  190.1250    52.3390    10.1180     9.1980    12.0550    24.8280     2.3690   -22.1330 
  190.2500    52.3640     9.3330     8.4850     8.8700    24.8700     2.3450   -22.1220 
  190.3750    52.8830     8.6370     7.8520     8.2630    24.8950     2.3160   -22.0570 
  190.5000    54.3980     8.1420     7.4030     8.5870    24.9040     2.2890   -21.9360 
  190.6250    54.3100     7.9210     7.2020     7.8640    24.9020     2.2710   -21.7190 
  190.7500    53.8350     7.8860     7.1620     7.2770    24.8950     2.2650   -21.4600 
  190.8750    54.8590     7.9350     7.2020     7.1910    24.8830     2.2690   -21.1460 
  191.0000    55.7810     7.9780     7.2400     7.7570    24.8870     2.2830   -20.7950 
  191.1250    54.2800     7.8760     7.1970     8.1390    24.8840     2.3020   -20.4190 
  191.2500    51.1010     7.6380     7.0510     7.7070    24.8640     2.3190   -20.0350 
  191.3750    49.1820     7.2600     6.8050     6.9280    24.7990     2.3320   -19.6460 
  191.5000    49.1410     6.8030     6.4900     6.4140    24.6570     2.3400   -19.2570 
  191.6250    50.1640     6.5330     6.1590     5.8210    24.4570     2.3480   -18.9510 
  191.7500    51.0530     6.3280     5.8700     5.4950    24.3230     2.3590   -18.6740 
  191.8750    49.2970     6.2120     5.6480     5.3830    24.2850     2.3730   -18.4600 
  192.0000    45.0730     6.1770     5.5000     5.3990    24.2970     2.3860   -18.2370 
  192.1250    42.7900     6.1960     5.4180     5.4150    24.3240     2.3930   -18.0600 
  192.2500    45.3990     6.2240     5.3670     5.3210    24.3610     2.3890   -17.8710 
  192.3750    50.2070     6.2430     5.3320     5.2660    24.4020     2.3770   -17.6910 
  192.5000    52.2170     6.2560     5.3080     5.2220    24.4260     2.3620   -17.4990 
  192.6250    51.1370     6.2870     5.3090     5.1990    24.4360     2.3510   -17.3340 
  192.7500    52.1960     6.3590     5.3470     5.2680    24.4570     2.3470   -17.1720 
  192.8750    54.7950     6.4850     5.4320     5.4360    24.5100     2.3480   -17.0240 
  193.0000    55.9670     6.6590     5.5630     5.6550    24.5490     2.3510   -16.9190 
  193.1250    55.6380     6.8670     5.7330     5.9730    24.5740     2.3540   -16.7770 
  193.2500    55.4710     7.0720     5.9130     6.1340    24.6010     2.3590   -16.6440 
  193.3750    54.7590     7.2440     6.0760     6.1860    24.6260     2.3650   -16.4930 
  193.5000    52.4850     7.3570     6.1980     6.4290    24.6260     2.3730   -16.3570 
  193.6250    50.5780     7.3840     6.2500     6.7230    24.5900     2.3800   -16.1090 
  193.7500    48.8400     7.3450     6.2410     6.5640    24.5270     2.3870   -15.8450 
  193.8750    46.6710     7.2670     6.1880     6.1060    24.4430     2.3960   -15.5300 
  194.0000    45.5440     7.1880     6.1200     5.8070    24.3860     2.4070   -15.2160 
  194.1250    45.4780     7.1580     6.0740     5.7760    24.3720     2.4190   -14.9280 
  194.2500    45.7390     7.1890     6.0680     5.7860    24.4010     2.4260   -14.7520 
  194.3750    46.8990     7.2760     6.1050     5.8980    24.4690     2.4270   -14.6640 
  194.5000    49.4580     7.3940     6.1720     6.0510    24.6280     2.4220   -14.6970 
  194.6250    53.4990     7.5030     6.2430     6.0610    24.8510     2.4160   -14.8730 
  194.7500    58.8610     7.5800     6.2990     5.9090    25.0190     2.4140   -15.1730 
  194.8750    63.6580     7.6220     6.3320     5.7400    24.9370     2.4170   -15.5930 
