~V
VERS. 2.00: Ver 2.00
~W
STRT.M 55.0000:
STOP.M 272.0000:
STEP.M 0.1250:
NULL. -999.2500:
UWI. DF33042:
~C
DEPT.M :
SP.MV :
GR.API :
RML.OHMM :
RI. :
RXO.OHMM :
CALI.CM :
DEN.GM/CC :
~A
# ...
  246.2500   -16.2460    65.8890    23.5410    20.4560    20.5940    24.3140     2.2410 
  246.3750   -16.1050    63.4250    23.7940    20.4470    20.6380    24.3140     2.2550 
  246.5000   -15.9480    59.8450    24.6160    20.9190    20.5530    24.3140     2.2710 
  246.6250   -15.8290    60.4050    25.9420    21.8090    20.5670    24.3110     2.2860 
  246.7500   -15.6400    62.4990    27.2620    22.7670    20.8110    24.2740     2.3040 
  246.8750   -15.5060    62.3620    28.0510    23.4670    21.4730    24.1640     2.3260 
  247.0000   -15.3450    62.1610    27.9410    23.6840    20.8450    24.0000     2.3530 
  247.1250   -15.2520    65.1450    26.9690    23.4390    16.9010    23.9740     2.3820 
  247.2500   -15.0990    67.7980    25.9900    23.2300    11.9350    23.9840     2.4110 
  247.3750   -14.9680    67.8060    25.6610    23.4630    11.4690    23.9810     2.4390 
  247.5000   -14.8090    68.9000    26.1630    24.2290    15.3630    23.9750     2.4660 
  247.6250   -14.6720    71.5110    26.9930    25.0970    23.0960    23.9610     2.4850 
  247.7500   -14.5540    68.9990    27.1550    25.2480    33.6580    23.9020     2.4900 
  247.8750   -14.3850    62.5450    25.8760    24.0350    33.6240    23.8260     2.4800 
  248.0000   -14.2060    57.0740    22.8660    21.2730    24.0180    23.7950     2.4640 
  248.1250   -13.9690    53.3590    18.6370    17.4200    17.7170    23.8260     2.4460 
  248.2500   -13.7520    51.4620    14.3160    13.6270    16.9600    23.8710     2.4250 
  248.3750   -13.5410    52.5750    10.5580    10.4930    13.3710    23.8630     2.3940 
  248.5000   -13.3590    56.7270     7.6890     8.2130     8.2800    23.7920     2.3530 
  248.6250   -13.2030    59.3780     5.9450     6.8600     6.2960    23.7580     2.3090 
  248.7500   -13.0910    60.3200     5.7100     6.1530     5.9220    23.8450     2.2760 
  248.8750   -13.0310    60.7230     5.9780     5.9710     5.9630    24.0150     2.2610 
  249.0000   -13.0130    59.4520     6.6120     6.2010     6.0910    24.1810     2.2670 
  249.1250   -13.0770    57.1010     7.4120     6.7340     6.2360    24.2550     2.2980 
  249.2500   -13.1320    54.8120     8.0800     7.3270     6.4870    24.2780     2.3380 
  249.3750   -13.1830    51.8400     8.4100     7.7840     7.0340    24.2310     2.3730 
  249.5000   -13.1970    49.5510     8.3130     7.9450     7.6850    24.1360     2.3910 
  249.6250   -13.2250    50.0210     7.8300     7.7020     7.4810    24.0860     2.3900 
  249.7500   -13.2620    52.4610     7.2670     7.2220     6.5100    24.0630     2.3800 
  249.8750   -13.2260    55.5620     6.8400     6.6810     6.0880    24.0650     2.3700 
  250.0000   -13.1800    58.6460     6.6630     6.2360     6.2740    24.0800     2.3600 
  250.1250   -13.0230    61.3270     6.7580     5.9940     6.6580    24.0740     2.3460 
  250.2500   -12.9670    61.9890     6.9780     5.9100     6.9470    24.0400     2.3240 
  250.3750   -12.8840    61.7350     7.2040     5.9240     7.0620    23.9860     2.2970 
  250.5000   -12.9070    61.9180     7.3430     5.9740     6.8990    23.9350     2.2750 
  250.6250   -12.8690    60.8230     7.3600     6.0140     6.5580    23.9210     2.2680 
  250.7500   -12.8310    57.6470     7.3360     6.0280     6.3780    23.9320     2.2780 
  250.8750   -12.8260    53.8120     7.3420     6.0160     6.3720    23.9300     2.3020 
  251.0000   -12.8410    53.7010     7.4130     5.9820     6.3410    23.8950     2.3290 
  251.1250   -12.8980    57.6220     7.5320     5.9430     6.2010    23.8550     2.3450 
  251.2500   -12.9330    58.9870     7.6450     5.9310     6.1500    23.8380     2.3530 
  251.3750   -12.9870    55.9420     7.7300     5.9680     6.2380    23.8410     2.3570 
  251.5000   -13.0190    52.9300     7.7970     6.0560     6.3510    23.8610     2.3630 
  251.6250   -13.0500    53.8640     7.8720     6.1750     6.6680    23.9040     2.3680 
  251.7500   -13.0960    55.0110     7.9580     6.2850     7.0520    23.9300     2.3670 
  251.8750   -13.1380    53.5130     8.0310     6.3610     7.1600    23.9610     2.3550 
  252.0000   -13.1730    51.3700     8.0740     6.3970     6.7870    24.0190     2.3350 
  252.1250   -13.2060    51.8710     8.1010     6.4040     6.3560    24.1030     2.3160 
  252.2500   -13.2230    53.5910     8.1560     6.4100     6.2740    24.2370     2.3050 
  252.3750   -13.1990    55.4950     8.2580     6.4290     6.4310    24.3320     2.3050 
  252.5000   -13.1750    58.1810     8.3900     6.4600     6.5360    24.3690     2.3140 
  252.6250   -13.1080    60.9050     8.5050     6.4920     6.5890    24.3760     2.3320 
  252.7500   -13.0230    60.7350     8.5660     6.5040     6.6720    24.3740     2.3510 
  252.8750   -12.9060    57.7210     8.5650     6.4830     6.7910    24.3740     2.3680 
  253.0000   -12.8040    54.8300     8.5100     6.4260     6.9120    24.3750     2.3780 
  253.1250   -12.7030    54.3550     8.4150     6.3340     6.9510    24.3750     2.3800 
  253.2500   -12.6120    54.9150     8.3040     6.2330     6.7880    24.3640     2.3770 
  253.3750   -12.5390    56.4390     8.2010     6.1450     6.5050    24.3410     2.3710 
  253.5000   -12.4210    56.4480     8.1440     6.0960     6.3240    24.3220     2.3650 
  253.6250   -12.3870    54.5020     8.1820     6.1130     6.5010    24.3180     2.3600 
  253.7500   -12.3110    53.8200     8.3130     6.1920     6.8620    24.3230     2.3580 
  253.8750   -12.3180    55.1310     8.5170     6.3230     7.3600    24.3210     2.3590 
  254.0000   -12.3060    56.9370     8.7600     6.4860     7.7490    24.3170     2.3630 
  254.1250   -12.3510    58.7650     8.9920     6.6580     7.5470    24.3140     2.3660 
  254.2500   -12.3620    60.5720     9.1750     6.8130     7.3020    24.3140     2.3660 
  254.3750   -12.4090    61.1540     9.2900     6.9340     7.2840    24.3100     2.3630 
  254.5000   -12.4540    59.8510     9.3270     7.0100     7.3360    24.3010     2.3590 
  254.6250   -12.5040    58.5510     9.2920     7.0270     7.2270    24.2910     2.3590 
  254.7500   -12.5580    58.7880     9.2240     7.0010     7.1960    24.2860     2.3620 
  254.8750   -12.5660    60.5520     9.1480     6.9480     7.1930    24.2800     2.3660 
  255.0000   -12.5650    61.7710     9.0820     6.8930     7.2120    24.2560     2.3700 
  255.1250   -12.5030    60.6240     9.0490     6.8650     7.2280    24.2440     2.3690 
  255.2500   -12.4220    59.0040     9.0660     6.8740     7.1820    24.2370     2.3660 
  255.3750   -12.2910    59.9490     9.1450     6.9230     7.1030    24.2360     2.3600 
  255.5000   -12.1510    62.0740     9.2710     6.9990     6.9350    24.2400     2.3560 
  255.6250   -11.9900    62.1050     9.4000     7.0780     7.1750    24.2520     2.3550 
  255.7500   -11.8010    60.4810     9.4790     7.1330     7.5480    24.2620     2.3540 
  255.8750   -11.6630    58.5450     9.4780     7.1520     7.7610    24.2530     2.3530 
  256.0000   -11.5000    57.7710     9.4120     7.1400     7.5680    24.2410     2.3500 
  256.1250   -11.4240    59.2470     9.3340     7.1260     7.2930    24.2360     2.3460 
  256.2500   -11.3570    62.2430     9.3090     7.1430     7.0900    24.2360     2.3460 
  256.3750   -11.3540    64.6390     9.3590     7.2020     7.1820    24.2420     2.3520 
  256.5000   -11.3910    65.2040     9.4720     7.2890     7.6450    24.2590     2.3590 
  256.6250   -11.4340    64.2600     9.5940     7.3650     8.0870    24.2890     2.3630 
  256.7500   -11.5530    61.7140     9.6710     7.3990     8.0360    24.2860     2.3600 
  256.8750   -11.6270    58.5040     9.6880     7.3830     7.8340    24.2600     2.3520 
  257.0000   -11.7280    57.5390     9.6610     7.3310     7.8430    24.2410     2.3450 
  257.1250   -11.7730    60.4490     9.6230     7.2690     7.9220    24.2340     2.3400 
  257.2500   -11.8420    62.9860     9.5930     7.2220     7.8100    24.2190     2.3370 
  257.3750   -11.8880    61.3870     9.5720     7.2010     7.4170    24.1780     2.3350 
