~V
VERS. 2.00: Ver 2.00
~W
STRT.M 60.0000:
STOP.M 236.0000:
STEP.M 0.1250:
NULL. -999.2500:
UWI. DF33015:
~C
DEPT.M :
DEN.GM/CC :
GR.API :
RML.OHMM :
RI. :
RXO.OHMM :
CALI.CM :
SP.MV :
~A
# ...
  105.0000     2.1720    61.2830     9.1760     7.9210     8.2300    23.1260   -31.6240 
  105.1250     2.1730    66.4380     9.1010     7.8950     8.1830    23.1110   -31.5770 
  105.2500     2.1730    72.1950     9.0230     7.8530     8.1190    23.0830   -31.5260 
  105.3750     2.1690    74.3810     8.9580     7.8000     7.9990    23.0530   -31.4030 
  105.5000     2.1630    72.3430     8.9140     7.7410     7.8610    23.0400   -31.3370 
  105.6250     2.1570    69.0680     8.8870     7.6810     7.7700    23.0400   -31.2000 
  105.7500     2.1540    67.6570     8.8660     7.6240     7.7290    23.0400   -31.1080 
  105.8750     2.1580    67.6930     8.8450     7.5750     7.7320    23.0400   -30.9850 
  106.0000     2.1670    69.0570     8.8340     7.5480     7.7800    23.0400   -30.9280 
  106.1250     2.1750    69.9340     8.8870     7.5800     7.9130    23.0400   -30.8630 
  106.2500     2.1790    69.8950     9.0720     7.7130     8.1110    23.0400   -30.8300 
  106.3750     2.1780    69.5400     9.4650     7.9970     8.2880    23.0400   -30.8300 
  106.5000     2.1770    68.6060    10.1060     8.4640     8.3870    23.0400   -30.7880 
  106.6250     2.1810    67.8510    10.9700     9.1120     8.4340    23.0400   -30.7790 
  106.7500     2.1910    67.2980    11.8250     9.7990     8.5630    23.0400   -30.7510 
  106.8750     2.2040    67.9770    12.4300    10.3630     8.9690    23.0400   -30.7420 
  107.0000     2.2130    70.2490    12.5880    10.6440     9.6500    23.0400   -30.7270 
  107.1250     2.2130    73.1370    12.1580    10.4920     9.9930    23.0400   -30.7540 
  107.2500     2.2040    75.3600    11.4310    10.0270     9.6800    23.0400   -30.7540 
  107.3750     2.1930    76.2590    10.6610     9.4040     9.1450    23.0400   -30.7910 
  107.5000     2.1820    75.3510    10.0520     8.7850     8.7780    23.0400   -30.7820 
  107.6250     2.1750    73.3150     9.7260     8.3120     8.5260    23.0400   -30.8660 
  107.7500     2.1710    73.3560     9.4720     7.9990     8.2580    23.0400   -30.9010 
  107.8750     2.1680    76.5770     9.3960     7.8220     8.0490    23.0400   -30.9860 
  108.0000     2.1660    78.5130     9.4230     7.7390     7.9580    23.0400   -31.0320 
  108.1250     2.1640    75.8570     9.4830     7.7100     7.9220    23.0400   -31.0790 
  108.2500     2.1620    73.1580     9.5190     7.6900     7.8430    23.0400   -31.1780 
  108.3750     2.1610    72.5790     9.5080     7.6610     7.7330    23.0400   -31.2130 
  108.5000     2.1610    72.0730     9.4560     7.6150     7.6910    23.0400   -31.3430 
  108.6250     2.1610    69.1360     9.3890     7.5550     7.7830    23.0400   -31.4100 
  108.7500     2.1600    66.9150     9.3470     7.5010     7.8540    23.0400   -31.5230 
  108.8750     2.1590    68.0720     9.3550     7.4730     7.8160    23.0400   -31.5900 
  109.0000     2.1600    71.6540     9.4210     7.4880     7.7770    23.0400   -31.6670 
  109.1250     2.1650    72.1270     9.5380     7.5520     7.9120    23.0400   -31.7600 
  109.2500     2.1730    67.0890     9.6690     7.6440     8.1790    23.0400   -31.7700 
  109.3750     2.1800    61.0030     9.7840     7.7440     8.4170    23.0400   -31.8270 
  109.5000     2.1860    58.8920     9.8600     7.8310     8.5130    23.0400   -31.7640 
  109.6250     2.1890    61.3020     9.8740     7.8840     8.4990    23.0400   -31.7150 
  109.7500     2.1940    65.0740     9.8350     7.8940     8.4890    23.0400   -31.6060 
  109.8750     2.2020    67.8470     9.7450     7.8540     8.5820    23.0400   -31.5090 
  110.0000     2.2140    68.7440     9.6050     7.7590     8.8130    23.0400   -31.3610 
  110.1250     2.2220    70.0470     9.4040     7.6000     8.9500    23.0400   -31.2320 
  110.2500     2.2210    73.4810     9.1620     7.4020     8.7540    23.0400   -31.1020 
  110.3750     2.2100    76.6880     8.9090     7.1940     8.3030    23.0430   -31.0040 
  110.5000     2.1920    76.7230     8.6860     7.0070     7.8770    23.0570   -30.9650 
  110.6250     2.1730    75.6540     8.5520     6.8830     7.6990    23.0900   -30.9270 
  110.7500     2.1590    75.8140     8.5140     6.8300     7.6840    23.1210   -30.9590 
  110.8750     2.1510    76.9940     8.5630     6.8460     7.7750    23.1360   -30.9950 
  111.0000     2.1490    77.1470     8.6710     6.9190     7.9370    23.1310   -31.1110 
  111.1250     2.1540    74.7720     8.8080     7.0300     8.1560    23.1050   -31.1540 
  111.2500     2.1640    71.0330     8.9390     7.1500     8.3810    23.0640   -31.2760 
  111.3750     2.1770    66.8380     9.0400     7.2590     8.5380    23.0440   -31.3070 
  111.5000     2.1910    63.6290     9.0870     7.3360     8.5850    23.0400   -31.3550 
  111.6250     2.1980    63.8820     9.0510     7.3620     8.5340    23.0370   -31.3660 
  111.7500     2.1950    66.0120     8.9440     7.3400     8.4210    23.0300   -31.2940 
  111.8750     2.1830    66.4840     8.7870     7.2790     8.2430    23.0230   -31.2130 
  112.0000     2.1630    64.7800     8.6180     7.1950     8.0270    23.0210   -31.0200 
  112.1250     2.1460    63.6680     8.4840     7.1130     7.8940    23.0270   -30.8110 
  112.2500     2.1380    63.4950     8.4110     7.0550     7.8910    23.0470   -30.4430 
  112.3750     2.1410    63.9280     8.4060     7.0370     7.9470    23.1020   -30.0710 
  112.5000     2.1520    64.4160     8.4580     7.0680     7.9250    23.1960   -29.5790 
  112.6250     2.1640    64.7760     8.5350     7.1450     7.6890    23.2770   -29.0070 
  112.7500     2.1740    63.9520     8.5770     7.2290     7.4100    23.3110   -28.3770 
  112.8750     2.1840    62.4270     8.5240     7.2700     7.3150    23.3290   -27.6230 
  113.0000     2.1970    61.9510     8.3250     7.2160     7.4800    23.3720   -27.4670 
  113.1250     2.2130    64.1030     7.9450     7.0140     7.6090    23.5230   -26.6100 
  113.2500     2.2310    67.9990     7.4650     6.7030     7.1840    23.7870   -25.7250 
  113.3750     2.2470    72.6240     6.9800     6.3420     6.2800    24.0450   -24.8580 
  113.5000     2.2600    76.3480     6.5840     5.9980     5.4550    24.1450   -24.0370 
  113.6250     2.2710    77.6710     6.3470     5.7350     5.1170    24.0900   -23.3250 
  113.7500     2.2780    77.5930     6.2020     5.5370     5.0710    24.0600   -22.6980 
  113.8750     2.2840    79.0930     6.0580     5.3610     5.0910    24.0930   -22.2210 
  114.0000     2.2900    82.8190     5.8190     5.1530     5.0080    24.2040   -21.8640 
  114.1250     2.3000    85.6940     5.4340     4.8740     4.7600    24.3580   -21.7930 
  114.2500     2.3170    85.1980     5.0220     4.5840     4.5170    24.4270   -21.7940 
  114.3750     2.3410    82.0120     4.7790     4.3950     4.3600    24.4240   -22.0200 
  114.5000     2.3730    78.2540     4.9280     4.4570     4.2490    24.3740   -22.3220 
  114.6250     2.4100    74.8710     5.7140     4.9550     4.4230    24.2710   -22.7980 
  114.7500     2.4400    71.6510     6.9960     5.8290     5.7200    24.1730   -23.3930 
  114.8750     2.4470    70.0000     8.5170     6.9320     8.8760    24.0940   -24.0750 
  115.0000     2.4190    71.2940     9.8690     8.0060    12.9920    23.9360   -24.9040 
  115.1250     2.3620    72.1900    10.5240     8.6870    13.2490    23.6580   -25.6560 
  115.2500     2.3100    69.3530    10.5100     8.9210    10.4440    23.4140   -26.4570 
  115.3750     2.2910    65.3100    10.1910     8.8790     8.4810    23.3250   -27.1120 
  115.5000     2.3220    63.3340    10.0550     8.8530     8.1990    23.3330   -27.7300 
  115.6250     2.3920    62.8080    10.4320     9.0980     9.5460    23.4030   -28.1890 
  115.7500     2.4560    62.2360    11.1060     9.5370    12.2870    23.5160   -28.5600 
  115.8750     2.4770    61.6860    11.7530     9.9780    14.7470    23.5740   -28.8350 
  116.0000     2.4410    61.4760    12.0640    10.2120    14.2830    23.5180   -29.0060 
  116.1250     2.3620    61.9710    11.8240    10.0570    12.4570    23.3860   -29.1380 
