~V
VERS. 2.00: Ver 2.00
~W
STRT.M 55.0000:
STOP.M 245.0000:
STEP.M 0.1250:
NULL. -999.2500:
UWI. DF33016:
~C
DEPT.M :
GR.API :
CALI.CM :
RXO.OHMM :
RI. :
RML.OHMM :
DEN.GM/CC :
SP.MV :
~A
# ...
   77.5000   105.8710    24.8150     5.8580     5.7890     8.2880     2.3330   -25.0850 
   77.6250    99.9810    24.8450     8.1310     7.2400    10.5180     2.3440   -25.7830 
   77.7500    89.8790    24.7230    13.0020     8.8090    12.9430     2.3880   -26.4820 
   77.8750    79.1420    24.6130    18.3360     9.9620    14.6160     2.4380   -27.1480 
   78.0000    73.0300    24.4540    19.0610    10.2190    14.6900     2.4410   -27.7810 
   78.1250    72.0090    24.1650    14.3170     9.5040    13.2190     2.3780   -28.3010 
   78.2500    72.9960    24.1320    10.2590     8.5000    11.4950     2.2790   -28.7480 
   78.3750    74.8070    24.1460     8.6400     7.6410    10.1850     2.1970   -29.1170 
   78.5000    75.7130    24.1520     8.2590     7.1330     9.5060     2.1530   -29.3670 
   78.6250    75.1770    24.1540     8.3400     7.0550     9.4600     2.1400   -29.5010 
   78.7500    74.8140    24.1630     8.5170     7.2230     9.7250     2.1450   -29.5500 
   78.8750    75.2630    24.1880     8.7150     7.5090    10.1060     2.1550   -29.5390 
   79.0000    76.3150    24.2400     9.1030     7.8140    10.4800     2.1660   -29.4650 
   79.1250    76.2680    24.3260     9.8750     8.0610    10.7470     2.1860   -29.3850 
   79.2500    75.9580    24.4390    10.4140     8.2250    10.8790     2.2150   -29.2720 
   79.3750    75.5610    24.5230    10.1180     8.3020    10.8850     2.2320   -29.1050 
   79.5000    74.9940    24.5540     9.2800     8.3140    10.8110     2.2230   -28.9160 
   79.6250    74.6310    24.5540     8.8890     8.2660    10.6950     2.1970   -28.6750 
   79.7500    75.0650    24.5540     8.7450     8.1430    10.5180     2.1710   -28.3820 
   79.8750    75.1810    24.5540     8.6520     7.8870    10.1930     2.1550   -28.0800 
   80.0000    73.0000    24.5540     8.5090     7.4470     9.6450     2.1450   -27.7440 
   80.1250    72.9390    24.5560     8.1550     6.8360     8.8810     2.1440   -27.4620 
   80.2500    80.5980    24.5860     7.4260     6.2000     8.1080     2.1600   -27.2080 
   80.3750    92.7380    24.6410     6.4040     5.6890     7.5330     2.2020   -27.0720 
   80.5000   101.1570    24.6750     5.6540     5.4260     7.3400     2.2490   -27.0190 
   80.6250   100.7720    24.4150     5.9350     5.5410     7.7100     2.2750   -27.0950 
   80.7500    94.9610    24.2390     6.8430     5.9570     8.4940     2.2710   -27.2720 
   80.8750    86.3130    24.2790     7.9910     6.5430     9.4590     2.2600   -27.4900 
   81.0000    78.9070    24.2830     9.3550     7.1240    10.2630     2.2650   -27.7870 
   81.1250    75.0430    24.0780    10.0580     7.5500    10.6200     2.2770   -28.0660 
   81.2500    73.2960    23.8800     9.5820     7.9670    10.8670     2.2790   -28.3480 
   81.3750    72.8840    24.1120     8.5630     8.7070    11.6180     2.2750   -28.5620 
   81.5000    74.3300    24.4150     8.3780    10.1820    13.5290     2.2930   -28.7690 
   81.6250    75.1210    24.6200    11.2110    12.9640    17.4560     2.3570   -28.9550 
   81.7500    71.3510    24.6420    20.8300    16.7540    23.0110     2.4670   -29.1410 
   81.8750    64.9150    24.4200    37.0490    20.3490    28.2820     2.5890   -29.3590 
   82.0000    60.7170    24.1310    48.1460    21.5720    29.5480     2.6670   -29.5620 
   82.1250    61.5820    24.0010    40.6100    19.0900    24.9870     2.6630   -29.8000 
   82.2500    65.6670    23.9560    25.9000    15.4160    19.2780     2.5730   -30.0200 
   82.3750    71.0490    24.0130    15.5060    12.2330    14.9460     2.4390   -30.2530 
   82.5000    73.9010    24.1140    10.8870    10.0770    12.4140     2.3370   -30.4160 
   82.6250    70.9210    24.2030     9.6520     8.9610    11.4420     2.3060   -30.5660 
   82.7500    67.7990    24.2310     9.2430     8.4400    11.2430     2.3350   -30.6850 
   82.8750    67.3690    24.2410     9.2520     8.2670    11.3820     2.3650   -30.7670 
   83.0000    67.9360    24.2410     9.6710     8.2340    11.5320     2.3510   -30.8130 
   83.1250    69.2340    24.2400     9.7350     8.2020    11.5040     2.3010   -30.8570 
   83.2500    71.2510    24.2420     9.4100     8.1400    11.3660     2.2440   -30.8740 
   83.3750    71.4040    24.2430     9.0420     8.0710    11.2070     2.2060   -30.8580 
   83.5000    68.2810    24.2440     8.9790     8.0130    11.0610     2.1820   -30.8430 
   83.6250    68.0770    24.2440     9.1740     7.9640    10.9130     2.1680   -30.8230 
   83.7500    70.8250    24.2440     9.3410     7.9080    10.7520     2.1630   -30.7550 
   83.8750    70.6730    24.2440     9.3340     7.8440    10.6060     2.1670   -30.6680 
   84.0000    67.6400    24.2440     9.1720     7.7780    10.5100     2.1720   -30.5990 
   84.1250    68.2830    24.2560     9.0820     7.7170    10.4900     2.1740   -30.4770 
   84.2500    72.9650    24.2870     9.0820     7.6620    10.5040     2.1730   -30.3860 
   84.3750    76.5840    24.3210     9.2590     7.6120    10.5070     2.1720   -30.2990 
   84.5000    76.1160    24.3400     9.6590     7.5660    10.4730     2.1690   -30.2270 
   84.6250    74.3900    24.3410    10.1680     7.5260    10.4070     2.1650   -30.1680 
   84.7500    73.5630    24.3410    10.2170     7.4950    10.3430     2.1630   -30.1360 
   84.8750    73.4610    24.3410     9.7610     7.4760    10.2980     2.1680   -30.1170 
   85.0000    73.5340    24.3390     9.2210     7.4640    10.2620     2.1750   -30.0620 
   85.1250    73.8110    24.3390     8.9330     7.4330    10.1900     2.1770   -30.0400 
   85.2500    73.4900    24.3400     8.7330     7.3610    10.0560     2.1770   -29.9680 
   85.3750    71.0010    24.3400     8.4950     7.2360     9.8590     2.1780   -29.8690 
   85.5000    67.2270    24.3440     8.3190     7.0620     9.6220     2.1820   -29.7570 
   85.6250    67.4260    24.3460     8.1190     6.8580     9.3850     2.1840   -29.5960 
   85.7500    72.2450    24.3470     7.8840     6.6640     9.1970     2.1830   -29.4070 
   85.8750    76.0320    24.3460     7.6410     6.5120     9.0810     2.1850   -29.2040 
   86.0000    76.4330    24.3350     7.4700     6.4100     9.0250     2.1930   -29.0500 
   86.1250    78.0600    24.3020     7.3810     6.3440     8.9810     2.2030   -28.8730 
   86.2500    82.0970    24.2630     7.1690     6.2840     8.9010     2.2080   -28.7750 
   86.3750    83.1830    24.2460     6.7140     6.2120     8.7900     2.2060   -28.7330 
   86.5000    80.4600    24.2440     6.2240     6.1430     8.6980     2.2080   -28.7630 
   86.6250    81.2180    24.2440     6.2130     6.1320     8.7370     2.2230   -28.8390 
   86.7500    86.0310    24.2450     6.5570     6.2260     8.9570     2.2480   -28.9980 
   86.8750    87.9060    24.2500     6.7540     6.4370     9.3580     2.2550   -29.1840 
   87.0000    82.7670    24.2660     6.9660     6.7410     9.8800     2.2400   -29.3910 
   87.1250    75.5580    24.2840     7.4960     7.0880    10.4150     2.2180   -29.5900 
   87.2500    72.6740    24.3090     8.1180     7.4010    10.8560     2.2070   -29.7820 
   87.3750    72.7080    24.3470     8.4210     7.6380    11.1530     2.2080   -29.9330 
   87.5000    71.6660    24.2850     8.4690     7.7960    11.3170     2.2060   -30.0440 
   87.6250    69.7010    24.0270     8.5000     7.8880    11.3870     2.2000   -30.1130 
   87.7500    69.4960    23.7950     8.6560     7.9480    11.4180     2.1980   -30.1050 
   87.8750    70.1990    24.0260     8.9130     7.9850    11.4270     2.2030   -30.0750 
   88.0000    69.6160    24.3240     9.1570     7.9960    11.4140     2.2100   -30.0260 
   88.1250    67.7800    24.4360     9.2310     7.9560    11.3470     2.2160   -29.9600 
   88.2500    67.3470    24.3840     9.0730     7.8510    11.1970     2.2210   -29.8700 
   88.3750    69.9350    24.1620     8.8260     7.6790    10.9520     2.2230   -29.7800 
   88.5000    74.2030    23.6630     8.6150     7.4570    10.6410     2.2180   -29.6840 
   88.6250    76.1380    23.4090     8.4200     7.2080    10.3250     2.2050   -29.6030 
