~V
VERS. 2.00: Ver 2.00
~W
STRT.M 55.0000:
STOP.M 272.0000:
STEP.M 0.1250:
NULL. -999.2500:
UWI. DF33042:
~C
DEPT.M :
SP.MV :
GR.API :
RML.OHMM :
RI. :
RXO.OHMM :
CALI.CM :
DEN.GM/CC :
~A
# ...
  167.5000   -24.2570    70.4750    64.3640    52.5160    71.8830    24.4120     2.2360 
  167.6250   -24.3450    68.3550    75.2290    62.9870    90.3500    24.4120     2.2210 
  167.7500   -24.4400    65.0860    78.0820    67.4410   104.0460    24.4120     2.2130 
  167.8750   -24.4850    61.0880    70.9310    63.7790   113.4440    24.4120     2.2160 
  168.0000   -24.5140    60.0840    56.9910    53.6100    79.5620    24.4120     2.2290 
  168.1250   -24.4990    64.9330    43.1950    41.8110    44.2380    24.4120     2.2470 
  168.2500   -24.4720    70.7300    33.1790    32.5160    25.0380    24.4120     2.2620 
  168.3750   -24.4360    72.8900    26.8660    26.4550    18.9450    24.4120     2.2670 
  168.5000   -24.3870    71.2880    23.3240    23.0630    17.5030    24.4120     2.2610 
  168.6250   -24.3800    69.0250    21.8280    21.7260    17.1260    24.4120     2.2480 
  168.7500   -24.3550    68.4400    21.2980    21.4100    16.7680    24.4130     2.2360 
  168.8750   -24.3700    69.0030    21.2290    21.6120    16.2940    24.4200     2.2300 
  169.0000   -24.4070    69.3870    21.2830    21.9390    16.1590    24.4400     2.2300 
  169.1250   -24.4760    71.0660    21.2610    22.0810    16.1390    24.4660     2.2360 
  169.2500   -24.5600    76.2480    21.1170    21.9500    15.7710    24.4780     2.2450 
  169.3750   -24.6540    81.4920    20.8390    21.5370    15.2360    24.4810     2.2570 
  169.5000   -24.7200    82.7780    20.4040    20.8550    14.8490    24.4830     2.2670 
  169.6250   -24.8340    80.1570    19.7490    19.8850    14.7460    24.4870     2.2730 
  169.7500   -24.9580    79.3300    18.9360    18.7240    14.8310    24.4870     2.2750 
  169.8750   -25.1140    81.8130    18.1090    17.4900    14.7950    24.4840     2.2780 
  170.0000   -25.3010    83.6950    17.5620    16.4090    14.1710    24.4810     2.2850 
  170.1250   -25.5590    81.7970    17.9810    16.1120    13.6910    24.4800     2.2980 
  170.2500   -25.8750    78.8070    20.2570    17.5450    14.0120    24.4800     2.3110 
  170.3750   -26.2600    76.1550    26.0290    22.2930    16.6300    24.4800     2.3140 
  170.5000   -26.7240    72.2790    37.2950    32.1810    26.0960    24.4800     2.3030 
  170.6250   -27.1900    67.4630    56.5170    49.2350    65.3260    24.4820     2.2760 
  170.7500   -27.6920    63.9860    81.0890    70.7570   115.8670    24.4840     2.2470 
  170.8750   -28.1720    61.4850   106.4450    92.4530   130.9240    24.4740     2.2240 
  171.0000   -28.6060    58.6230   125.9350   108.7730   125.0290    24.4270     2.2100 
  171.1250   -28.9400    57.1570   132.3550   114.4970   117.7070    24.3800     2.2070 
  171.2500   -29.2290    58.9840   130.2680   113.3710   109.4160    24.3580     2.2090 
  171.3750   -29.4630    60.2870   126.9150   110.6510   100.3160    24.3530     2.2160 
  171.5000   -29.6320    59.6350   127.1950   110.4230    87.5310    24.3530     2.2240 
  171.6250   -29.7640    60.4300   132.9620   114.7920    90.1210    24.3530     2.2290 
  171.7500   -29.8590    62.5380   142.3240   122.4420   103.8770    24.3530     2.2300 
  171.8750   -29.9540    62.8410   153.5730   132.0020   131.3620    24.3490     2.2270 
  172.0000   -30.0670    61.1700   164.7720   141.8890   148.8890    24.3250     2.2240 
  172.1250   -30.2090    63.2610   173.7810   150.3790   147.2780    24.2450     2.2230 
  172.2500   -30.3330    66.3790   180.1070   156.8860   139.8310    24.0990     2.2240 
  172.3750   -30.4200    66.0840   183.8990   161.3660   116.6250    23.8680     2.2240 
  172.5000   -30.5020    63.8960   185.4550   163.9500    87.1680    23.5360     2.2220 
  172.6250   -30.5630    62.5160   184.2110   164.1660    79.8140    23.3400     2.2130 
  172.7500   -30.6120    61.2320   180.0630   161.9520    89.3520    23.2710     2.2010 
  172.8750   -30.6480    59.8950   173.0130   157.1570    96.5940    23.2610     2.1910 
  173.0000   -30.6490    60.9000   163.7770   150.1930    87.6450    23.2530     2.1860 
  173.1250   -30.6410    62.5720   153.4460   142.2940    79.1920    23.2340     2.1910 
  173.2500   -30.5980    62.6350   145.2230   135.7640    78.5550    23.2180     2.2010 
  173.3750   -30.5420    62.3050   141.4690   132.8950    82.4020    23.2380     2.2100 
  173.5000   -30.4860    63.5150   146.5580   135.8100    79.4130    23.3200     2.2090 
  173.6250   -30.4210    64.4330   161.4000   146.8740    78.3610    23.5820     2.1940 
  173.7500   -30.3430    61.9850   184.5050   163.6330   102.8110    23.9860     2.1740 
  173.8750   -30.2290    57.5600   208.2780   181.9680   163.5480    24.2880     2.1560 
  174.0000   -30.1150    55.2280   216.9800   195.5200   214.5930    24.4050     2.1470 
  174.1250   -29.9520    57.4900   205.1390   195.0020   211.1210    24.4180     2.1510 
  174.2500   -29.8230    58.8230   177.2480   179.2060   189.6510    24.4210     2.1590 
  174.3750   -29.6930    58.1640   141.2870   151.4840   153.4320    24.4190     2.1700 
  174.5000   -29.5550    57.0580   107.1920   119.4050   113.5050    24.4050     2.1800 
  174.6250   -29.4150    57.3210    81.6630    91.3650    96.3780    24.2840     2.1950 
  174.7500   -29.2840    59.5020    63.1750    69.8770    58.1570    23.9990     2.2130 
  174.8750   -29.1580    62.6160    49.9210    54.3820    33.0660    23.6680     2.2360 
  175.0000   -29.0250    65.3760    40.3610    43.3910    27.9120    23.4880     2.2600 
  175.1250   -28.9100    66.7220    33.7900    35.9030    25.1560    23.4550     2.2820 
  175.2500   -28.7700    68.7540    29.1850    30.5270    20.3960    23.4550     2.3020 
  175.3750   -28.6660    73.5820    26.3700    26.9210    17.0080    23.4550     2.3180 
  175.5000   -28.6050    77.7590    25.3780    25.0160    14.8060    23.4550     2.3310 
  175.6250   -28.6010    77.1560    26.9560    25.9130    14.0620    23.4580     2.3380 
  175.7500   -28.6610    74.3610    32.3450    31.6070    20.8660    23.4730     2.3370 
  175.8750   -28.7940    71.7300    45.2460    45.9650    45.7050    23.5040     2.3230 
  176.0000   -28.9730    67.7850    71.0230    73.1990    96.6640    23.5260     2.2960 
  176.1250   -29.2280    62.2250   117.5900   117.4250   147.9220    23.5530     2.2600 
  176.2500   -29.5140    59.4770   180.7170   171.2490   158.7350    23.6460     2.2250 
  176.3750   -29.8090    59.9740   250.6920   223.8960   169.7020    23.8530     2.2000 
  176.5000   -30.1160    60.3860   310.6160   262.3480   183.3850    24.1250     2.1880 
  176.6250   -30.3980    59.6550   338.2690   275.0410   198.5500    24.2910     2.1880 
  176.7500   -30.6500    59.5570   339.0020   270.5520   205.1680    24.3460     2.1940 
  176.8750   -30.8610    57.9040   326.6740   258.3190   204.9250    24.3530     2.2020 
  177.0000   -31.0450    54.8610   310.0800   244.0820   198.6810    24.3530     2.2110 
  177.1250   -31.1400    52.7720   289.5380   228.5910   199.0100    24.3530     2.2210 
  177.2500   -31.2220    52.0840   265.2740   211.4500   210.8600    24.3560     2.2280 
  177.3750   -31.2870    55.0180   238.9900   193.0480   220.0250    24.3670     2.2320 
  177.5000   -31.2900    61.2150   213.3970   174.6070   218.1450    24.3860     2.2310 
  177.6250   -31.2660    65.6270   191.4560   158.0140   195.7250    24.3800     2.2270 
  177.7500   -31.2080    64.8700   173.3480   143.9690   152.1840    24.3630     2.2230 
  177.8750   -31.1280    61.3470   158.3760   132.4060   115.1240    24.3590     2.2220 
  178.0000   -31.0350    59.4410   145.4380   122.6750    96.5480    24.3780     2.2240 
  178.1250   -30.9700    60.5890   133.7990   114.0760   108.0900    24.4210     2.2280 
  178.2500   -30.8830    62.2210   123.0740   106.0070   105.0010    24.4540     2.2340 
  178.3750   -30.7650    63.6010   113.6620    98.6450    87.4260    24.4650     2.2410 
  178.5000   -30.6830    65.7700   106.2020    92.5270    72.0420    24.4630     2.2480 
  178.6250   -30.6220    68.7970   101.6900    88.5860    65.9650    24.4500     2.2530 
