~V
VERS. 2.00: Ver 2.00
~W
STRT.M 50.0000:
STOP.M 235.0000:
STEP.M 0.1250:
NULL. -999.2500:
UWI. DF33017:
~C
DEPT.M :
GR.API :
CALI.CM :
RXO.OHMM :
RI. :
RML.OHMM :
DEN.GM/CC :
SP.MV :
~A
# ...
  151.2500    82.5170    29.2110    19.2810    17.0750    19.1170     2.4330   -18.1600 
  151.3750    79.2510    29.2110    18.9490    15.7570    17.8050     2.4380   -18.1380 
  151.5000    72.6940    29.2110    17.4070    14.4980    16.2370     2.4590   -18.1110 
  151.6250    67.6160    29.2110    14.7850    13.5910    14.8960     2.4870   -18.1280 
  151.7500    65.8180    29.2150    12.4750    12.9630    13.9720     2.5000   -18.1570 
  151.8750    66.1920    29.2340    11.6090    12.4940    13.4550     2.4910   -18.2080 
  152.0000    69.7200    29.2790    11.6180    12.1240    13.2310     2.4590   -18.2510 
  152.1250    73.6730    29.3200    11.9000    11.9150    13.1230     2.4100   -18.3030 
  152.2500    74.0470    29.3650    12.1460    11.8890    12.9560     2.3610   -18.3270 
  152.3750    73.2000    29.3950    12.2200    12.0140    12.7180     2.3240   -18.3750 
  152.5000    74.4530    29.4070    12.0130    12.2350    12.5520     2.3030   -18.4280 
  152.6250    77.4850    29.4260    11.6170    12.6010    12.7860     2.2960   -18.4330 
  152.7500    79.6790    29.4670    11.5700    13.2320    13.5430     2.2930   -18.3920 
  152.8750    82.4140    29.5050    12.4950    14.1820    14.7170     2.2910   -18.3270 
  153.0000    84.7150    29.5210    14.9520    15.2340    15.8310     2.2870   -18.2700 
  153.1250    82.0570    29.5210    18.3130    15.6060    15.8830     2.2790   -18.2180 
  153.2500    76.8780    29.5210    19.4700    14.7990    14.6020     2.2750   -18.2020 
  153.3750    74.8780    29.5290    16.3700    12.9860    12.4890     2.2830   -18.1830 
  153.5000    78.6120    29.5520    11.0370    10.8720    10.3980     2.3030   -18.2090 
  153.6250    85.9820    29.5990     7.8100     9.2700     9.0430     2.3240   -18.2920 
  153.7500    92.3460    29.6250     7.3870     8.4430     8.4330     2.3360   -18.4490 
  153.8750    94.5670    29.6510     8.1370     8.3810     8.4610     2.3380   -18.6660 
  154.0000    90.9490    29.7050     8.8920     8.8960     8.9750     2.3380   -18.9340 
  154.1250    83.7150    29.7560     9.3510     9.7200     9.8360     2.3390   -19.2680 
  154.2500    79.1070    29.8040     9.9940    10.5960    10.8370     2.3370   -19.6540 
  154.3750    78.6720    29.8190    11.0130    11.5720    11.9380     2.3320   -20.1090 
  154.5000    78.5760    29.7900    12.5260    12.8730    13.2160     2.3230   -20.6000 
  154.6250    77.2170    29.7280    14.4180    14.8180    14.9010     2.3140   -21.1560 
  154.7500    75.9980    29.6980    16.3290    17.3050    17.0860     2.3050   -21.7280 
  154.8750    75.0400    29.6770    18.3500    20.0530    19.7550     2.2990   -22.3320 
  155.0000    72.9050    29.6290    21.2010    22.5400    22.5390     2.2950   -22.9790 
  155.1250    72.9690    29.6750    25.9410    23.8210    24.2830     2.2920   -23.6450 
  155.2500    76.9290    29.9170    29.6700    23.5670    24.1450     2.2880   -24.3510 
  155.3750    80.4000    30.0450    28.4960    22.0090    22.2520     2.2830   -25.0570 
  155.5000    80.3940    29.9080    22.1370    19.8710    19.6840     2.2780   -25.8090 
  155.6250    78.9430    29.7810    16.3610    18.0570    17.8050     2.2750   -26.5500 
  155.7500    77.1480    30.0390    14.1020    17.1570    17.1970     2.2710   -27.3250 
  155.8750    74.7670    30.4740    14.3340    17.6350    18.1420     2.2640   -28.1090 
  156.0000    73.4380    30.8030    15.5150    20.0120    20.9240     2.2530   -28.8960 
  156.1250    73.3030    31.0310    18.7740    25.3470    26.3670     2.2420   -29.6870 
  156.2500    71.6640    31.3310    27.5060    33.5840    34.4770     2.2360   -30.4970 
  156.3750    67.7910    31.6910    43.0280    44.3410    45.1120     2.2350   -31.3110 
  156.5000    64.3720    31.9710    59.0540    56.3680    57.2800     2.2330   -32.0920 
  156.6250    64.8230    32.2070    66.4630    67.7020    68.9040     2.2260   -32.8560 
  156.7500    66.7570    32.4330    68.6950    77.3290    78.4480     2.2180   -33.5900 
  156.8750    67.5310    32.6550    71.8470    85.2570    85.7610     2.2140   -34.2870 
  157.0000    65.8550    32.8690    76.2310    91.7730    91.4860     2.2110   -34.9410 
  157.1250    63.4290    33.0990    79.7180    96.6560    96.1610     2.2050   -35.5480 
  157.2500    62.1210    33.3330    81.4900   100.2260   100.4110     2.1940   -36.0690 
  157.3750    60.8660    33.5740    83.2400   103.3220   104.8780     2.1840   -36.5310 
  157.5000    60.2720    33.8080    86.1370   107.5760   110.6230     2.1830   -36.9600 
  157.6250    61.1200    34.0270    90.4030   115.6100   119.5290     2.1890   -37.3200 
  157.7500    62.4800    34.2380    97.8000   128.0610   132.2330     2.1940   -37.6280 
  157.8750    64.1020    34.4450   109.2100   144.5280   148.9490     2.1920   -37.8670 
  158.0000    66.0770    34.6400   123.8270   163.2090   168.8070     2.1830   -38.0330 
  158.1250    66.7720    34.8230   134.6170   180.5340   188.9520     2.1740   -38.1230 
  158.2500    63.9000    35.0150   135.5290   193.1740   204.8680     2.1670   -38.1800 
  158.3750    59.8800    35.1990   130.0830   199.2870   213.1120     2.1600   -38.2000 
  158.5000    58.7680    35.3450   125.8550   198.9310   212.7860     2.1500   -38.1860 
  158.6250    61.7600    35.4380   126.0700   193.2850   205.2150     2.1400   -38.1620 
  158.7500    65.0970    35.4940   121.9660   185.4040   194.8710     2.1370   -38.1220 
  158.8750    66.2120    35.5060   113.6850   176.7410   184.0860     2.1440   -38.0780 
  159.0000    66.2870    35.5020   103.9260   168.2330   174.3870     2.1530   -38.0400 
  159.1250    66.9000    35.5010    98.3760   161.0560   167.2990     2.1570   -38.0030 
  159.2500    68.4330    35.5010    95.7430   156.1410   163.1080     2.1570   -37.9630 
  159.3750    68.5900    35.5010    93.9050   156.4530   159.5090     2.1550   -37.9470 
  159.5000    66.3370    35.5010    92.7520   158.1860   160.0620     2.1520   -37.9050 
  159.6250    65.1900    35.4990    94.5870   160.9400   164.0390     2.1480   -37.8410 
  159.7500    66.8030    35.4670   100.1170   163.9530   168.7590     2.1420   -37.7530 
  159.8750    68.3250    35.3610   105.0540   166.0510   172.5200     2.1360   -37.6780 
  160.0000    66.9300    35.1620   105.6350   166.0430   173.8880     2.1320   -37.6310 
  160.1250    63.4410    35.0430   104.0860   162.3500   171.5910     2.1280   -37.5880 
  160.2500    62.3540    34.9790   102.7940   155.2430   166.3250     2.1250   -37.5580 
  160.3750    64.0330    34.9630    99.6210   145.4050   158.7380     2.1240   -37.5320 
  160.5000    65.2500    34.9610    92.3040   133.9790   149.5030     2.1240   -37.5090 
  160.6250    64.9570    34.9610    83.6190   121.5650   138.5050     2.1260   -37.5070 
  160.7500    64.2100    34.9610    76.8230   107.9280   125.3650     2.1250   -37.5610 
  160.8750    63.4910    34.9610    71.3850    92.7210   109.7220     2.1220   -37.6280 
  161.0000    62.2770    34.9610    66.9510    76.7970    92.4280     2.1190   -37.6610 
  161.1250    60.1540    34.9680    65.4390    62.4710    75.9610     2.1170   -37.7000 
  161.2500    59.0050    35.0390    59.9960    51.1320    62.3880     2.1120   -37.7500 
  161.3750    60.1410    35.2600    49.3170    43.2060    52.5740     2.1030   -37.8000 
  161.5000    63.7690    35.5920    38.7760    38.5760    46.6630     2.0910   -37.8810 
  161.6250    65.1150    35.9110    36.0710    37.4670    45.2160     2.0870   -38.0000 
  161.7500    63.3190    36.1310    38.6910    39.2250    47.6230     2.0970   -38.1220 
  161.8750    64.4980    36.3520    45.2240    43.8780    53.8980     2.1170   -38.2580 
  162.0000    68.9430    36.5760    55.9790    51.4220    63.7030     2.1340   -38.4790 
  162.1250    69.9220    36.7370    72.2330    61.5940    75.9820     2.1290   -38.7670 
  162.2500    65.9880    36.8730    87.3870    72.0850    87.8090     2.1100   -39.0890 
  162.3750    62.6830    37.0590    95.6340    80.2100    96.6310     2.0960   -39.4430 
