~V
VERS. 2.00: Ver 2.00
~W
STRT.M 60.0000:
STOP.M 235.0000:
STEP.M 0.1250:
NULL. -999.2500:
UWI. DF33014:
~C
DEPT.M :
SP.MV :
GR.API :
RML.OHMM :
RI. :
RXO.OHMM :
CALI.CM :
DEN.GM/CC :
~A
# ...
  228.7500   -21.0250    58.2050    11.3050     9.1570    20.0490    23.5830     2.5220 
  228.8750   -21.3480    58.2050    12.1510     9.9390    18.8780    23.5610     2.5420 
  229.0000   -21.5650    58.2050    13.1930    10.8830    21.6360    23.6130     2.5580 
  229.1250   -21.5830    58.2050    14.3200    11.8980    26.8100    23.7100     2.5630 
  229.2500   -21.4520    58.2050    15.3430    12.8340    26.9150    23.8110     2.5500 
  229.3750   -21.1100    58.2050    16.1300    13.5820    21.0390    23.8960     2.5200 
  229.5000   -20.5270    58.2050    16.6260    14.0840    14.9120    23.9210     2.4780 
  229.6250   -19.6600    58.2050    16.8190    14.3000    12.9080    23.9500     2.4360 
  229.7500   -18.6840    58.2050    16.9080    14.4050    12.6530    23.9540     2.4120 
  229.8750   -17.7760    58.2050    16.9620    14.4490    12.7410    24.0240     2.4250 
  230.0000   -17.0480    58.2050    17.0060    14.4590    13.3150    23.9560     2.4660 
  230.1250   -16.4270    58.2050    17.0370    14.4610    14.3460    23.8040     2.5110 
  230.2500   -15.8510    58.2050    17.0440    14.4630    14.3800    23.6940     2.5320 
  230.3750   -15.5280    58.2050    17.0250    14.4680    13.0750    23.7130     2.5090 
  230.5000   -15.4360    58.2050    17.0000    14.4730    11.9100    23.7360     2.4620 
  230.6250   -15.5150    58.2050    16.9800    14.4770    10.6440    23.6480     2.4160 
  230.7500   -15.6310    58.2050    16.9700    14.4790     8.8500    23.4880     2.3890 
  230.8750   -15.6560    58.2050    16.9690    14.4790     7.5480    23.3530     2.3930 
  231.0000   -15.6600    58.2050    16.9690    14.4790     7.1420    23.2550     2.4150 
  231.1250   -15.6800    58.2050    16.9690    14.4790     7.2210    23.1750     2.4410 
  231.2500  -999.2500    58.2050    16.9690    14.4790     7.3220    23.1490     2.4590 
  231.3750  -999.2500    58.2050    16.9690    14.4790     7.4710    23.1300     2.4650 
  231.5000  -999.2500    58.2050    16.9690    14.4790     7.6480    23.1200     2.4640 
  231.6250  -999.2500    58.2050    16.9690    14.4790     7.6320    23.0980     2.4610 
  231.7500  -999.2500    58.2050    16.9690    14.4790     7.6030    22.9980     2.4580 
  231.8750  -999.2500    58.2050    16.9690    14.4790     8.2420    22.8640     2.4590 
  232.0000  -999.2500    58.2050    16.9690    14.4790     9.2270    22.7530     2.4630 
  232.1250  -999.2500    58.2050    16.9690    14.4790     9.6270    22.7150     2.4730 
  232.2500  -999.2500    58.2050    16.9690    14.4790     9.1420    22.7230     2.4850 
  232.3750  -999.2500    58.2050    16.9690    14.4790     8.3780    22.7330     2.4980 
  232.5000  -999.2500    58.2050    16.9690    14.4790     7.7790    22.7050     2.5080 
  232.6250  -999.2500    58.2050    16.9690    14.4790     7.3560    22.6890     2.5150 
  232.7500  -999.2500    58.2050    16.9690    14.4790     7.3220    22.6860     2.5230 
  232.8750  -999.2500    58.2050    16.9690    14.4790     8.0950    22.6830     2.5360 
  233.0000  -999.2500    58.2050    16.9690    14.4790     9.5080    22.6780     2.5520 
  233.1250  -999.2500    58.2050    16.9690    14.4790    11.2970    22.6720     2.5670 
  233.2500  -999.2500    58.2050    16.9690    14.4790    13.2320    22.6410     2.5750 
  233.3750  -999.2500    58.2050    16.9690    14.4790    15.1930    22.6190     2.5680 
  233.5000  -999.2500    58.2050    16.9690    14.4790    16.2540    22.5960     2.5390 
  233.6250  -999.2500    58.2050    16.9690    14.4790    15.2870    22.5270     2.4860 
  233.7500  -999.2500    58.2050    16.9690    14.4790    12.1440    22.2200     2.4110 
  233.8750  -999.2500    58.2050    16.9690    14.4790     8.1560    21.3330     2.3210 
  234.0000  -999.2500    58.2050    16.9690    14.4790     5.1940    19.9370     2.2340 
  234.1250  -999.2500    58.2050    16.9690    14.4790     3.6540    18.3150     2.1630 
  234.2500  -999.2500    58.2050    16.9690    14.4790     3.1440    16.6340     2.1120 
  234.3750  -999.2500    58.2050    16.9690    14.4790     3.0790    15.3670     2.0850 
  234.5000  -999.2500    58.2050    16.9690    14.4790     3.0770    14.7490     2.0730 
  234.6250  -999.2500    58.2050    16.9690    14.4790     3.0810    14.5790     2.0680 
  234.7500  -999.2500    58.2050    16.9690    14.4790     3.0840    14.5610     2.0660 
  234.8750  -999.2500    58.2050    16.9690    14.4790     3.0850    14.5610     2.0630 
  235.0000  -999.2500    58.2050    16.9690    14.4790     3.0860    14.5610     2.0610 
