~V
VERS. 2.00: Ver 2.00
~W
STRT.M 55.0000:
STOP.M 272.0000:
STEP.M 0.1250:
NULL. -999.2500:
UWI. DF33042:
~C
DEPT.M :
SP.MV :
GR.API :
RML.OHMM :
RI. :
RXO.OHMM :
CALI.CM :
DEN.GM/CC :
~A
# ...
  201.2500   -19.2600    84.6870    10.1940     7.9300     8.0790    24.1480     2.4510 
  201.3750   -19.1150    81.2910    11.2820     8.7610     9.9270    24.2220     2.4850 
  201.5000   -18.9770    77.0210    12.3460     9.6560    11.8660    24.2400     2.5170 
  201.6250   -18.7910    77.2770    12.8370    10.1920    12.6710    24.2520     2.5380 
  201.7500   -18.6050    80.4120    12.5680    10.1650    12.2850    24.2540     2.5480 
  201.8750   -18.3780    82.8390    11.6320     9.5700    11.2710    24.1950     2.5460 
  202.0000   -18.1110    85.0200    10.3690     8.6080     9.9630    24.0430     2.5310 
  202.1250   -17.7420    84.7140     9.2110     7.5880     8.4470    23.9190     2.5020 
  202.2500   -17.2970    78.8050     8.3820     6.7530     7.3380    23.8670     2.4640 
  202.3750   -16.8200    69.0950     7.9220     6.1870     6.4970    23.8290     2.4240 
  202.5000   -16.3000    61.8410     7.7870     5.8940     5.9120    23.7610     2.3970 
  202.6250   -15.7920    58.9070     7.9140     5.8490     6.0900    23.6820     2.3920 
  202.7500   -15.2810    55.5920     8.1430     5.9270     6.3350    23.6910     2.4030 
  202.8750   -14.8210    53.1590     8.3750     6.0510     6.3840    23.7170     2.4160 
  203.0000   -14.4030    54.5190     8.5360     6.1570     6.2190    23.7280     2.4160 
  203.1250   -14.1470    61.0360     8.5830     6.2090     6.1090    23.7280     2.3930 
  203.2500   -14.0220    67.2970     8.5520     6.2200     6.0440    23.6740     2.3610 
  203.3750   -13.9800    69.9220     8.4760     6.2100     6.0160    23.5090     2.3360 
  203.5000   -14.0380    70.9130     8.3910     6.1920     6.1640    23.3360     2.3310 
  203.6250   -14.2200    74.5320     8.3300     6.1760     6.4130    23.3430     2.3510 
  203.7500   -14.4840    78.3820     8.3120     6.1650     6.4050    23.4260     2.3800 
  203.8750   -14.7990    79.1600     8.3510     6.1740     6.3860    23.4660     2.4020 
  204.0000   -15.1560    77.4760     8.4520     6.2210     6.5130    23.4770     2.4090 
  204.1250   -15.5120    76.7400     8.6200     6.3280     6.7100    23.4970     2.4020 
  204.2500   -15.8440    76.9940     8.8340     6.4800     6.8430    23.4990     2.3940 
  204.3750   -16.1660    78.0240     9.0730     6.6490     6.8850    23.4780     2.3910 
  204.5000   -16.4640    79.9220     9.3090     6.7980     6.8880    23.4610     2.3950 
  204.6250   -16.7470    82.1820     9.4960     6.8840     6.8030    23.4550     2.4010 
  204.7500   -17.0020    85.5970     9.6170     6.9090     6.6730    23.4550     2.4050 
  204.8750   -17.2390    88.9320     9.6710     6.8830     6.6880    23.4590     2.4080 
  205.0000   -17.4720    89.9000     9.6620     6.8270     6.7670    23.4720     2.4090 
  205.1250   -17.6650    87.1920     9.5880     6.7590     6.8280    23.4990     2.4070 
  205.2500   -17.8580    83.9840     9.4740     6.6930     6.9990    23.5100     2.4010 
  205.3750   -18.0500    82.7130     9.3310     6.6530     7.0860    23.5130     2.3920 
  205.5000   -18.2790    83.2230     9.2770     6.6930     7.2900    23.5130     2.3840 
  205.6250   -18.4740    84.1570     9.6790     7.0010     7.7040    23.5140     2.3790 
  205.7500   -18.6890    83.0630    10.9510     7.7910     8.0350    23.5150     2.3790 
  205.8750   -18.8950    78.5470    13.5220     9.3360     8.6180    23.5180     2.3820 
  206.0000   -19.0800    73.2110    17.7260    11.8390    10.7320    23.5190     2.3790 
  206.1250   -19.2670    69.5620    23.2670    15.3770    17.8840    23.5640     2.3620 
  206.2500   -19.4350    66.9180    28.7070    19.2720    28.0810    23.6830     2.3310 
  206.3750   -19.6260    64.8190    32.4630    22.7390    31.1280    23.7990     2.2970 
  206.5000   -19.8020    64.2560    34.0840    25.0360    30.3190    23.7200     2.2710 
  206.6250   -20.0300    66.0060    33.6250    25.8090    27.6990    23.6700     2.2690 
  206.7500   -20.2300    67.4430    33.0100    26.0840    26.5690    23.6500     2.2840 
  206.8750   -20.4390    66.4430    33.7410    26.9410    24.7710    23.6740     2.3040 
  207.0000   -20.6450    64.9700    36.6520    29.2090    23.3430    23.7220     2.3140 
  207.1250   -20.8590    66.3850    41.9920    33.3820    29.4630    23.8270     2.3010 
  207.2500   -21.0730    68.0740    48.2360    38.5220    44.2260    24.0010     2.2750 
  207.3750   -21.2460    66.2290    53.5170    43.2940    56.6060    24.1820     2.2450 
  207.5000   -21.3670    60.5500    55.7550    46.0430    58.9230    24.2540     2.2200 
  207.6250   -21.4190    55.6890    53.0200    44.9600    54.3240    24.2540     2.2070 
  207.7500   -21.4380    54.6630    47.1940    41.0070    50.8080    24.2590     2.2060 
  207.8750   -21.4340    56.7040    40.7740    35.9050    46.3520    24.2730     2.2140 
  208.0000   -21.4290    60.5460    35.8160    31.4750    31.7880    24.2930     2.2290 
  208.1250   -21.4390    62.6520    33.7440    29.2360    19.9350    24.2900     2.2420 
  208.2500   -21.4730    62.7970    34.4040    29.3060    22.5890    24.3040     2.2470 
  208.3750   -21.5340    62.8510    37.7820    31.7320    34.0660    24.3230     2.2420 
  208.5000   -21.6570    63.5360    43.6550    36.3820    43.0220    24.3370     2.2330 
  208.6250   -21.8030    63.3790    51.6160    43.0760    44.1130    24.3290     2.2240 
  208.7500   -22.0110    60.8530    60.1620    50.6050    53.6550    24.3250     2.2170 
  208.8750   -22.2240    59.1040    68.0730    57.8930    59.1770    24.3250     2.2080 
  209.0000   -22.4330    60.4620    74.4660    64.0220    58.8680    24.3260     2.1950 
  209.1250   -22.6000    60.7460    78.8660    68.3340    60.5420    24.3300     2.1840 
  209.2500   -22.7360    57.6970    81.9230    71.2900    62.1080    24.3400     2.1880 
  209.3750   -22.8630    55.5840    84.1160    73.3370    61.4380    24.3200     2.2130 
  209.5000   -22.9230    56.7710    85.9420    74.9750    62.2820    24.2120     2.2540 
  209.6250   -22.9960    56.9140    87.7660    76.5920    68.4620    24.0290     2.2860 
  209.7500   -23.0300    54.6530    89.7260    78.3470    68.5920    24.0000     2.2880 
  209.8750   -23.0960    54.6360    92.0230    80.3870    69.1630    24.0320     2.2570 
  210.0000   -23.1930    58.8970    94.8840    82.9470    72.7760    24.0540     2.2100 
  210.1250   -23.3210    62.4760    98.0470    86.1910    73.5480    24.0600     2.1770 
  210.2500   -23.4620    62.7770   100.9690    89.5120    68.2940    24.0620     2.1730 
  210.3750   -23.6070    61.3280   102.2170    91.8250    64.9320    24.0610     2.1980 
  210.5000   -23.7980    60.0030   101.2270    91.7250    65.6510    24.0650     2.2380 
  210.6250   -23.9860    59.0750    95.7880    87.5050    68.6100    24.0690     2.2690 
  210.7500   -24.1960    58.4750    88.6470    80.0620    68.1400    24.0890     2.2760 
  210.8750   -24.4000    58.4640    81.1070    71.0180    65.1140    24.1140     2.2620 
  211.0000   -24.5870    59.2400    71.8430    62.4770    52.4330    24.1190     2.2390 
  211.1250   -24.7990    59.1340    65.7750    56.7410    39.6720    24.0770     2.2190 
  211.2500   -25.0060    56.7680    63.8090    54.3510    35.8170    24.0260     2.2060 
  211.3750   -25.2070    53.5450    65.8260    55.3990    41.9450    24.0050     2.1990 
  211.5000   -25.3760    52.6860    71.3660    59.5580    48.9070    24.0020     2.1950 
  211.6250   -25.5830    55.5430    79.8170    66.4260    49.6330    24.0010     2.1960 
  211.7500   -25.7450    58.7340    89.2160    74.4150    51.1580    24.0000     2.2080 
  211.8750   -25.8980    60.0200    97.9780    82.2410    54.4080    23.9960     2.2340 
  212.0000   -26.0300    58.3050   104.7870    88.7430    59.1390    23.9930     2.2680 
  212.1250   -26.1280    54.9960   108.6460    92.8720    66.8440    24.0040     2.2940 
  212.2500   -26.1830    52.5750   110.3990    95.0450    78.4290    24.0400     2.2990 
  212.3750   -26.1970    52.4090   110.9680    95.8740    81.9710    24.1010     2.2800 
