~V
VERS. 2.00: Ver 2.00
~W
STRT.M 55.0000:
STOP.M 252.0000:
STEP.M 0.1250:
NULL. -999.2500:
UWI. DF33023:
~C
DEPT.M :
GR.API :
CALI.CM :
RXO.OHMM :
RI. :
RML.OHMM :
DEN.GM/CC :
SP.MV :
~A
# ...
  156.2500    80.8270    24.3880     5.9220     6.4570     7.3490     2.3440   -18.5180 
  156.3750    78.4760    24.2990     6.0810     6.3270     7.2790     2.3390   -18.4830 
  156.5000    78.3770    24.4490     6.1560     6.0590     6.9650     2.3340   -18.4260 
  156.6250    82.4490    24.7610     6.0460     5.7010     6.4980     2.3300   -18.3590 
  156.7500    87.5500    24.9880     5.7800     5.4130     6.1600     2.3350   -18.2990 
  156.8750    90.4150    25.0730     5.5990     5.3450     6.2110     2.3460   -18.2570 
  157.0000    89.1630    25.0940     6.1590     5.6290     6.8660     2.3520   -18.2500 
  157.1250    84.3680    25.0960     8.8440     6.4810     8.4420     2.3460   -18.3270 
  157.2500    78.7960    25.0970    13.4280     7.9570    10.9200     2.3340   -18.4570 
  157.3750    73.1490    25.1050    17.7090    10.1380    14.2730     2.3230   -18.6390 
  157.5000    66.5110    25.1160    19.6200    13.0050    18.3060     2.3140   -18.8650 
  157.6250    62.1550    25.1280    20.9200    16.4740    22.7310     2.2990   -19.1280 
  157.7500    63.4820    25.1360    25.6690    20.2410    27.2030     2.2800   -19.4260 
  157.8750    68.4970    25.1270    33.7600    24.1050    31.4990     2.2590   -19.7270 
  158.0000    71.3870    25.0990    41.6740    27.7170    35.1690     2.2460   -19.9970 
  158.1250    71.1910    25.0850    46.0350    30.0950    36.9300     2.2430   -20.1960 
  158.2500    72.3020    25.1140    45.8470    30.4590    36.0670     2.2440   -20.3460 
  158.3750    73.8590    25.1750    40.0220    28.6260    32.7530     2.2420   -20.4560 
  158.5000    72.9580    25.2200    30.4980    25.3520    28.2160     2.2390   -20.5340 
  158.6250    70.3960    25.2090    22.8330    21.8420    23.9630     2.2440   -20.5780 
  158.7500    70.9010    25.1770    18.8370    18.8830    20.6360     2.2570   -20.5950 
  158.8750    75.9770    25.1610    17.0570    16.6300    18.2620     2.2690   -20.6050 
  159.0000    81.3790    25.1610    15.8470    15.0070    16.6410     2.2720   -20.6360 
  159.1250    82.2490    25.1490    14.8150    13.9380    15.5990     2.2730   -20.7100 
  159.2500    81.2240    25.1320    14.2540    13.2890    15.0030     2.2870   -20.8220 
  159.3750    83.6210    25.1520    13.8070    13.1710    15.0770     2.3140   -20.9780 
  159.5000    88.9490    25.2320    12.9020    13.8240    16.2310     2.3440   -21.1830 
  159.6250    87.5610    25.3270    12.9270    16.0470    19.4670     2.3610   -21.4620 
  159.7500    78.6970    25.3770    17.4660    20.7150    25.5090     2.3530   -21.8080 
  159.8750    67.8030    25.3840    30.9780    29.2960    35.6470     2.3180   -22.2040 
  160.0000    59.7790    25.3910    54.6270    43.3390    51.5550     2.2660   -22.6370 
  160.1250    56.3520    25.4460    77.4840    64.2260    75.8360     2.2300   -23.1260 
  160.2500    55.1920    25.5290    89.8830    87.9560   105.0700     2.2230   -23.6550 
  160.3750    56.2630    25.5910    96.4170   108.9140   131.7200     2.2300   -24.2050 
  160.5000    59.0550    25.5860   104.0850   122.4430   147.9870     2.2290   -24.7700 
  160.6250    62.9870    25.5260   108.0830   127.3370   152.6120     2.2180   -25.3410 
  160.7500    65.7000    25.4850   103.9170   127.9680   152.7820     2.2090   -25.8990 
  160.8750    65.4880    25.4920    96.0970   126.5640   151.3740     2.2080   -26.4540 
  161.0000    62.7360    25.5160    93.6640   124.3590   149.4850     2.2160   -26.9900 
  161.1250    58.0200    25.4960   102.2630   122.1820   147.6510     2.2250   -27.4770 
  161.2500    54.7270    25.4470   112.9930   120.6090   146.2600     2.2270   -27.9250 
  161.3750    54.8530    25.4350   114.7120   120.1170   145.8090     2.2190   -28.3580 
  161.5000    58.0320    25.4920   104.8620   121.2790   147.0120     2.2110   -28.7860 
  161.6250    60.5750    25.5470    93.2680   125.2280   151.2420     2.2110   -29.1850 
  161.7500    59.8660    25.5380    88.7500   132.2640   158.9020     2.2160   -29.5590 
  161.8750    59.3980    25.4810    91.1290   142.8100   170.4760     2.2180   -29.9080 
  162.0000    62.0680    25.4150    97.3750   157.0530   186.1560     2.2130   -30.2300 
  162.1250    65.4510    25.3440   100.7310   174.5350   205.0180     2.2060   -30.5150 
  162.2500    64.4430    25.2630    95.8770   190.4760   220.2160     2.1970   -30.7770 
  162.3750    60.0930    25.1980    86.6440   197.3120   220.7440     2.1900   -30.9950 
  162.5000    58.7020    25.1950    83.4810   187.9490   199.1880     2.1900   -31.1670 
  162.6250    63.3630    25.2670    88.8830   161.4350   162.5640     2.2000   -31.2820 
  162.7500    68.5160    25.3340    85.9610   131.1630   129.2240     2.2120   -31.3580 
  162.8750    72.0510    25.3250    70.4380   106.3660   106.0160     2.2240   -31.4080 
  163.0000    74.4500    25.2630    55.6820    91.3300    93.6160     2.2390   -31.4700 
  163.1250    75.1490    25.2350    60.1840    87.8500    91.8160     2.2640   -31.5880 
  163.2500    73.0470    25.2590    86.5320    92.1480    96.9860     2.2870   -31.7630 
  163.3750    69.2710    25.2940   130.2200   101.1390   106.4240     2.2940   -31.9850 
  163.5000    66.6330    25.3100   167.1550   110.4430   115.5310     2.2850   -32.2310 
  163.6250    66.2580    25.3000   159.2430   114.1310   117.5290     2.2700   -32.5130 
  163.7500    66.8620    25.2480   121.9100   111.6210   112.9030     2.2570   -32.7970 
  163.8750    67.8240    25.0500    87.1980   106.4830   106.7200     2.2510   -33.0740 
  164.0000    69.3090    24.7230    72.2570   103.8920   104.3030     2.2530   -33.3190 
  164.1250    70.9970    24.5250    79.4460   109.1280   109.9890     2.2660   -33.4950 
  164.2500    68.6780    24.5770   103.7620   122.3100   123.4110     2.2780   -33.5880 
  164.3750    62.2760    24.7320   144.9290   141.3860   142.7540     2.2790   -33.6220 
  164.5000    57.0650    24.8130   196.0300   160.4600   161.7560     2.2680   -33.6170 
  164.6250    59.0930    24.8160   230.0750   167.8080   166.5260     2.2530   -33.5670 
  164.7500    64.3580    24.8130   220.3600   159.3140   153.9030     2.2450   -33.5100 
  164.8750    68.5590    24.7960   171.8820   139.1170   131.4820     2.2460   -33.4600 
  165.0000    70.4530    24.7480   117.4550   115.9350   109.3400     2.2570   -33.4320 
  165.1250    69.8800    24.6800    88.0270    97.9640    94.2830     2.2710   -33.4190 
  165.2500    68.5090    24.6500    77.1580    87.2630    86.5100     2.2830   -33.4490 
  165.3750    68.2420    24.6550    75.8010    84.0890    85.8730     2.2830   -33.5180 
  165.5000    68.5890    24.6420    80.6700    88.6900    92.5870     2.2690   -33.6270 
  165.6250    65.9650    24.5730   101.1570   104.0470   109.5080     2.2530   -33.7930 
  165.7500    60.5260    24.4760   150.3430   131.0780   137.9090     2.2450   -34.0030 
  165.8750    55.3510    24.4160   230.7040   171.4970   180.8140     2.2400   -34.2340 
  166.0000    53.0780    24.5300   312.1490   224.2300   239.5470     2.2270   -34.4760 
  166.1250    53.9360    24.9590   356.0260   281.4060   307.9580     2.2090   -34.7420 
  166.2500    56.3550    25.4840   369.8190   327.6940   365.0990     2.2030   -34.9840 
  166.3750    58.7910    25.8220   368.2690   353.7380   396.2980     2.2120   -35.1740 
  166.5000    60.0240    25.8380   359.2470   360.4170   402.7640     2.2250   -35.3150 
  166.6250    61.6600    25.5630   356.2690   352.8970   391.9610     2.2260   -35.3840 
  166.7500    63.6140    25.2520   360.5270   335.8740   368.7100     2.2160   -35.3400 
  166.8750    64.4340    25.1530   362.6960   307.3180   330.4040     2.2050   -35.1600 
  167.0000    65.3860    25.3600   348.4120   267.2780   279.4560     2.2030   -34.8520 
  167.1250    68.2590    25.5780   297.2510   221.3990   226.5660     2.2170   -34.4060 
  167.2500    70.7000    25.4090   222.5550   179.6120   182.6280     2.2400   -33.8660 
  167.3750    70.9070    24.8470   153.0330   147.2130   151.2370     2.2630   -33.2960 
