~V
VERS. 2.00: Ver 2.00
~W
STRT.M 63.0000:
STOP.M 272.0000:
STEP.M 0.1250:
NULL. -999.2500:
UWI. DF33040:
~C
DEPT.M :
SP.MV :
GR.API :
CALI.CM :
RXO.OHMM :
RI. :
RML.OHMM :
DEN.GM/CC :
~A
# ...
  186.7500   -24.3910    58.5780    24.7200   164.7680   103.6340   109.4350     2.1840 
  186.8750   -24.8130    55.9290    24.7980   241.3880   143.3010   150.3700     2.1790 
  187.0000   -25.2410    52.1630    24.8890   278.1030   189.8490   201.2230     2.1820 
  187.1250   -25.6460    53.0670    24.9370   278.6040   228.6340   246.8100     2.1900 
  187.2500   -26.0090    56.7050    24.9400   280.0880   245.2040   266.7100     2.1940 
  187.3750   -26.2990    58.7010    24.9020   274.1590   237.4610   257.1050     2.1980 
  187.5000   -26.5180    57.5820    24.8450   249.5740   213.7410   229.3240     2.2080 
  187.6250   -26.6660    54.7580    24.8040   205.2570   183.1310   195.1610     2.2310 
  187.7500   -26.7520    52.9240    24.7920   161.5190   153.5290   163.5290     2.2550 
  187.8750   -26.8040    53.9930    24.7960   127.2570   128.9190   138.3970     2.2670 
  188.0000   -26.8420    60.1170    24.7950   101.6290   111.1100   120.9680     2.2650 
  188.1250   -26.9020    65.7800    24.7780    86.7260   101.0290   111.5710     2.2550 
  188.2500   -27.0090    65.8910    24.7610    84.1320    96.3550   107.5610     2.2510 
  188.3750   -27.1830    64.0910    24.7630    92.2270    95.9970   107.8280     2.2540 
  188.5000   -27.4100    65.0310    24.7770   102.1560    99.2080   111.6660     2.2580 
  188.6250   -27.6740    66.5370    24.7740   106.4550   105.8590   118.9930     2.2520 
  188.7500   -27.9780    64.5810    24.7430   113.0180   114.4990   128.2930     2.2380 
  188.8750   -28.2950    61.5760    24.6930   132.2190   123.4570   137.6440     2.2220 
  189.0000   -28.5930    61.7240    24.6490   161.1080   130.3010   144.1520     2.2120 
  189.1250   -28.8390    64.3300    24.6680   173.5450   131.7650   143.9970     2.2150 
  189.2500   -29.0200    67.4110    24.7560   157.2610   128.0880   137.9860     2.2230 
  189.3750   -29.1170    69.2620    24.8590   126.6170   121.0470   128.7660     2.2300 
  189.5000   -29.1440    68.6080    24.9100   103.4380   113.3670   119.6580     2.2330 
  189.6250   -29.1060    66.7940    24.9220    98.6690   107.6170   113.2670     2.2320 
  189.7500   -29.0050    65.7220    24.9520   103.3200   104.0110   109.2480     2.2290 
  189.8750   -28.8620    65.4050    25.0000   107.7620   101.6100   106.3300     2.2280 
  190.0000   -28.7170    64.4260    25.0390   106.1900    99.0360   103.0060     2.2320 
  190.1250   -28.5860    63.0180    25.0550    99.6400    95.0900    98.1990     2.2400 
  190.2500   -28.4840    61.8070    25.0610    91.9560    90.0700    92.5430     2.2410 
  190.3750   -28.4330    61.6980    25.0610    83.3010    84.7260    87.0110     2.2360 
  190.5000   -28.4300    63.8770    25.0680    75.1570    79.8990    82.4900     2.2310 
  190.6250   -28.4960    67.3340    25.0960    72.1840    76.6960    80.0010     2.2320 
  190.7500   -28.6310    68.8430    25.1410    73.4230    75.7320    79.9550     2.2320 
  190.8750   -28.8400    67.6920    25.1970    75.1590    77.8660    83.2820     2.2250 
  191.0000   -29.1090    65.3860    25.2270    78.6790    84.3460    91.4250     2.2100 
  191.1250   -29.4390    63.4860    25.1920    97.7840    98.3310   107.8310     2.1920 
  191.2500   -29.8160    60.5310    25.1320   144.7350   120.8510   133.7700     2.1770 
  191.3750   -30.2120    55.9210    25.0980   216.8530   152.5190   170.6190     2.1700 
  191.5000   -30.6300    52.3810    25.0990   290.6900   191.2030   217.0980     2.1650 
  191.6250   -31.0680    52.6880    25.1070   337.8330   229.3390   264.8860     2.1600 
  191.7500   -31.5050    54.4190    25.1100   354.8330   257.1020   299.8990     2.1580 
  191.8750   -31.9060    54.7100    25.1080   343.6680   270.0770   315.3780     2.1650 
  192.0000   -32.2520    53.7620    25.0930   315.7190   270.5260   314.8470     2.1720 
  192.1250   -32.5160    54.1710    25.0640   293.6460   262.3850   303.7400     2.1730 
  192.2500   -32.6900    55.4080    25.0410   284.5010   248.7820   285.2530     2.1740 
  192.3750   -32.7580    56.4740    25.0260   280.4190   229.2380   258.7830     2.1810 
  192.5000   -32.7180    56.9760    25.0170   262.6370   204.0430   225.8520     2.1980 
  192.6250   -32.5360    57.3460    25.0070   215.5460   175.4240   191.0280     2.2160 
  192.7500   -32.2350    58.2060    24.9910   161.4570   147.8380   159.4950     2.2250 
  192.8750   -31.8480    58.6470    24.9700   122.8920   124.0790   133.4530     2.2250 
  193.0000   -31.4190    60.1860    24.9550   102.4080   105.5800   113.3980     2.2180 
  193.1250   -30.9750    63.9470    24.9490    90.4900    93.5550   100.0240     2.2130 
  193.2500   -30.5400    68.0260    24.9400    80.5190    86.7110    92.0000     2.2180 
  193.3750   -30.1490    69.0610    24.9320    74.4380    84.4240    88.8540     2.2280 
  193.5000   -29.8140    66.6370    24.9350    76.2110    85.6740    89.6810     2.2320 
  193.6250   -29.5450    64.6830    24.9480    89.5110    88.9590    93.0120     2.2200 
  193.7500   -29.3250    63.8660    24.9540   104.5640    91.8060    96.0860     2.2080 
  193.8750   -29.1440    61.7090    24.9530   107.0510    92.5360    97.0060     2.2090 
  194.0000   -28.9730    59.7260    24.9530    93.6560    90.3840    94.9660     2.2220 
  194.1250   -28.8030    61.8010    24.9530    78.1920    85.6000    90.3610     2.2370 
  194.2500   -28.6400    64.5760    24.9530    71.5350    80.0970    85.1420     2.2420 
  194.3750   -28.4890    62.4450    24.9530    70.4750    75.1690    80.5150     2.2420 
  194.5000   -28.3620    58.3640    24.9520    69.0180    71.5470    77.1360     2.2440 
  194.6250   -28.2870    60.3910    24.9540    65.2690    69.5720    75.2650     2.2550 
  194.7500   -28.2810    64.4130    24.9500    63.8750    68.7000    74.3750     2.2650 
  194.8750   -28.3450    65.2180    24.9370    67.3000    68.7140    74.3650     2.2670 
  195.0000   -28.4690    64.0210    24.9280    72.5020    69.8610    75.6530     2.2580 
  195.1250   -28.6480    62.9250    24.9350    73.3440    73.3930    79.6970     2.2470 
  195.2500   -28.8340    61.6120    24.9480    71.8860    79.7750    86.9980     2.2410 
  195.3750   -28.9810    59.8510    24.9540    78.2210    88.2900    96.8530     2.2370 
  195.5000   -29.0580    58.7850    24.9540   110.0660    95.7440   105.4210     2.2330 
  195.6250   -29.0190    56.5850    24.9400   178.8510    94.7530   102.9310     2.2370 
  195.7500   -28.8300    53.7670    24.9150   193.6920    83.1030    87.4910     2.2670 
  195.8750   -28.4840    56.0110    24.8810   130.2190    64.8530    66.1170     2.3240 
  196.0000   -28.0160    63.3060    24.7760    54.2360    47.1530    47.4240     2.3800 
  196.1250   -27.4400    68.5870    24.6270    27.1880    35.3880    35.9990     2.3940 
  196.2500   -26.8190    67.1840    24.5890    18.7770    28.8570    30.0860     2.3750 
  196.3750   -26.2040    62.2610    24.7020    17.9940    26.2640    28.2650     2.3480 
  196.5000   -25.6210    59.8400    24.8400    21.3990    26.4100    29.3250     2.3280 
  196.6250   -25.1060    60.6090    24.8750    28.6740    28.4620    32.2870     2.3120 
  196.7500   -24.6840    59.7560    24.8690    36.2220    30.9860    35.4710     2.2950 
  196.8750   -24.3760    57.9990    24.8520    38.8590    32.9780    37.7270     2.2830 
  197.0000   -24.1780    58.2140    24.8240    35.4820    33.9490    38.6850     2.2830 
  197.1250   -24.0930    61.0890    24.8000    31.5750    34.2520    39.1110     2.2870 
  197.2500   -24.1010    63.6840    24.7900    31.5630    34.8520    40.2190     2.2830 
  197.3750   -24.1720    65.6850    24.7830    34.8210    36.2490    42.4960     2.2700 
  197.5000   -24.2930    67.5410    24.7780    39.6960    38.4790    45.8200     2.2580 
  197.6250   -24.4330    68.0680    24.7830    44.9330    41.0730    49.4110     2.2510 
  197.7500   -24.5700    67.1020    24.7890    49.2500    43.1720    52.1440     2.2480 
  197.8750   -24.6700    64.5960    24.7930    51.3380    44.2750    53.4520     2.2510 
