~V
VERS. 2.00: Ver 2.00
~W
STRT.M 55.0000:
STOP.M 245.0000:
STEP.M 0.1250:
NULL. -999.2500:
UWI. DF33016:
~C
DEPT.M :
GR.API :
CALI.CM :
RXO.OHMM :
RI. :
RML.OHMM :
DEN.GM/CC :
SP.MV :
~A
   55.0000  -999.2500  -999.2500  -999.2500  -999.2500  -999.2500  -999.2500    77.2300 
   55.1250  -999.2500  -999.2500  -999.2500  -999.2500  -999.2500  -999.2500    77.0490 
   55.2500  -999.2500  -999.2500  -999.2500  -999.2500  -999.2500  -999.2500    76.9070 
   55.3750  -999.2500  -999.2500  -999.2500  -999.2500  -999.2500     1.9630    76.8430 
   55.5000  -999.2500  -999.2500  -999.2500  -999.2500  -999.2500     1.9630    76.8460 
   55.6250  -999.2500  -999.2500  -999.2500  -999.2500  -999.2500     1.9780    76.8510 
   55.7500  -999.2500  -999.2500  -999.2500  -999.2500  -999.2500     1.9900    76.8490 
   55.8750  -999.2500  -999.2500  -999.2500  -999.2500  -999.2500     1.9830    76.8430 
   56.0000  -999.2500  -999.2500  -999.2500  -999.2500  -999.2500     1.9800    76.8400 
   56.1250  -999.2500  -999.2500  -999.2500  -999.2500  -999.2500     1.9970    76.8070 
   56.2500  -999.2500  -999.2500  -999.2500  -999.2500  -999.2500     2.0310    76.7330 
   56.3750  -999.2500  -999.2500  -999.2500  -999.2500  -999.2500     2.0600    76.5460 
   56.5000     0.0000     7.2250     0.1500     0.1500     0.0910     2.0650    76.2850 
   56.6250     0.0000     7.2250     0.1500     0.1500     0.0910     2.0480    75.9970 
   56.7500    23.4660    12.1070     0.7920     0.0320    -0.2350     2.0260    75.6720 
   56.8750    47.4700    25.3130     1.6150     0.0680    -0.2290     2.0170    75.3700 
   57.0000    48.7850    25.3130     1.6470     0.0730    -0.2240     2.0200    75.1080 
   57.1250    48.7690    25.3130     1.6560     0.0760    -0.2210     2.0260    74.8590 
   57.2500    48.7180    25.3130     1.6780     0.0800    -0.2170     2.0290    74.6010 
   57.3750    49.8650    25.3130     1.7190     0.0830    -0.2130     2.0230    74.3530 
   57.5000    51.4900    25.3130     1.7680     0.0850    -0.2120     2.0050    74.1560 
   57.6250    50.6220    25.3130     1.8040     0.0850    -0.2110     1.9760    73.9110 
   57.7500    47.6810    25.3130     1.8330     0.0840    -0.2130     1.9450    73.6830 
   57.8750    45.5190    25.3130     1.8880     0.0870    -0.2100     1.9310    73.3920 
   58.0000    46.9950    25.3130     1.9870     0.0930    -0.2040     1.9400    73.0520 
   58.1250    51.9550    25.3130     2.0720     0.0990    -0.1970     1.9620    72.6590 
   58.2500    55.3210    25.3130     2.0870     0.1030    -0.1930     1.9810    72.2040 
   58.3750    55.5020    25.3130     2.0260     0.0980    -0.1980     1.9870    71.6990 
   58.5000    53.5510    25.3130     1.9490     0.0870    -0.2090     1.9870    71.1670 
   58.6250    53.5020    25.3130     1.9260     0.0790    -0.2180     1.9810    70.6560 
   58.7500    55.0650    25.3130     1.9430     0.0760    -0.2210     1.9640    70.1850 
   58.8750    55.6500    25.3130     1.9560     0.0790    -0.2180     1.9400    69.8240 
   59.0000    53.8300    25.3130     1.9450     0.0890    -0.2080     1.9260    69.5450 
   59.1250    52.1370    25.3130     1.9470     0.0980    -0.1990     1.9300    69.4000 
   59.2500    52.9230    25.3130     2.0110     0.0980    -0.1980     1.9490    69.3520 
   59.3750    53.5620    25.3130     2.0850     0.0900    -0.2060     1.9670    69.3550 
   59.5000    51.0850    25.3130     2.0830     0.0820    -0.2150     1.9810    69.1720 
   59.6250    46.8170    25.3130     1.9750     0.0730    -0.2240     1.9930    68.6620 
   59.7500    44.7770    25.3130     1.8800     0.0590    -0.2380     2.0010    67.6350 
   59.8750    46.1400    25.3130     1.8160     0.0390    -0.2590     1.9860    65.8450 
   60.0000    49.9060    25.3130     1.7570     0.0130    -0.2870     1.9570    63.0540 
   60.1250    53.4160    25.3130     1.6830    -0.0140    -0.3150     1.9410    58.7380 
   60.2500    54.7270    25.3130     1.6010    -0.0330    -0.3340     1.9380    52.9490 
   60.3750    53.5040    25.3130     1.5140    -0.0400    -0.3420     1.9060    45.5960 
   60.5000    52.2650    25.3130     1.5700    -0.0340    -0.3350     1.8770    36.9830 
   60.6250    55.5090    25.3140     2.0570     0.0210    -0.2780     1.9360    27.6760 
   60.7500    62.5770    25.2840     3.2670     0.1860    -0.1070     2.1050    18.3530 
   60.8750    70.6660    25.1720     4.8260     0.5440     0.2660     2.2610     9.3700 
   61.0000    77.0500    25.0560     6.0160     1.1780     0.9250     2.3010     1.0900 
   61.1250    79.0250    24.7970     6.7900     2.1490     1.9350     2.2490    -6.0770 
   61.2500    77.3790    24.4310     7.6380     3.2790     3.1100     2.1850   -12.0220 
   61.3750    74.8360    24.0660     9.0220     4.4050     4.2820     2.1740   -16.5800 
   61.5000    75.6210    24.0190    11.2330     5.4110     5.3280     2.2120   -19.8810 
   61.6250    78.7570    24.1280    14.4020     6.1510     6.0970     2.2700   -22.2120 
   61.7500    78.3300    24.3440    14.5620     6.5590     6.5210     2.3140   -24.0510 
   61.8750    74.6860    24.5190    11.8730     6.6290     6.5940     2.3100   -25.5190 
   62.0000    72.5600    24.6080     9.5600     6.4820     6.4410     2.2720   -26.7440 
   62.1250    74.6860    24.6920     8.9410     6.2920     6.2430     2.2250   -27.6150 
   62.2500    76.9090    24.8140     8.9690     6.1510     6.0970     2.1930   -28.1410 
   62.3750    77.9260    24.9540     9.0870     6.0440     5.9860     2.1840   -28.3420 
   62.5000    78.2330    25.0580     9.0980     5.9280     5.8650     2.1860   -28.3060 
   62.6250    79.4570    25.0900     8.7630     5.7610     5.6920     2.1880   -28.1910 
   62.7500    81.5280    25.0840     8.1590     5.6050     5.5290     2.1920   -28.0400 
   62.8750    82.1600    25.0380     7.6310     5.5300     5.4520     2.1990   -27.9030 
   63.0000    81.6250    24.9920     7.4350     5.5630     5.4860     2.2050   -27.7990 
   63.1250    81.8400    24.9940     7.5490     5.6890     5.6170     2.2000   -27.6940 
   63.2500    81.6200    25.0110     7.7190     5.8230     5.7560     2.1890   -27.5980 
   63.3750    79.2490    25.0400     7.8960     5.8810     5.8160     2.1830   -27.4970 
   63.5000    77.6570    25.0720     7.9280     5.7960     5.7280     2.1860   -27.3540 
   63.6250    80.4960    25.0900     7.6540     5.5590     5.4810     2.1940   -27.1540 
   63.7500    82.6230    25.0980     7.4090     5.3110     5.2240     2.2000   -26.8960 
   63.8750    81.2230    25.1190     7.3200     5.2170     5.1260     2.1980   -26.5660 
   64.0000    81.1130    25.1810     7.4610     5.4470     5.3650     2.1990   -26.1100 
   64.1250    84.0590    25.3230     8.6380     6.2340     6.1830     2.2210   -25.6170 
   64.2500    85.0820    25.4820    12.2380     7.5250     7.5260     2.2800   -25.2560 
   64.3750    81.3600    25.5560    18.8260     9.1020     9.1660     2.3790   -25.0770 
   64.5000    75.7570    25.4510    26.5310    10.4530    10.5710     2.4890   -25.0540 
   64.6250    74.9680    25.0760    29.0800    10.7250    10.8540     2.5760   -25.1500 
   64.7500    78.2560    24.8460    24.4460     9.9250    10.0220     2.6030   -25.3620 
   64.8750    82.2140    24.7650    16.2690     8.5650     8.6070     2.5430   -25.6700 
   65.0000    84.0590    24.9260    10.0530     7.2160     7.2050     2.4340   -26.0910 
   65.1250    83.5520    24.9560     7.8840     6.2660     6.2170     2.3220   -26.5700 
   65.2500    82.7220    24.9880     7.3910     5.6920     5.6200     2.2370   -27.0400 
   65.3750    82.3730    24.9890     7.2750     5.4040     5.3200     2.1960   -27.4910 
   65.5000    83.0860    24.9910     7.1620     5.2980     5.2100     2.1860   -27.9270 
   65.6250    83.5350    24.9910     7.0850     5.2910     5.2030     2.1940   -28.3800 
   65.7500    81.5740    24.9920     7.0240     5.3260     5.2390     2.2030   -28.8520 
   65.8750    78.4970    24.9940     7.0560     5.3880     5.3040     2.2010   -29.3500 
   66.0000    77.5670    24.9990     7.3190     5.4590     5.3770     2.1940   -29.8730 
   66.1250    79.5500    25.0020     7.8140     5.4990     5.4190     2.1920   -30.4270 
