~V
VERS. 2.00: Ver 2.00
~W
STRT.M 60.0000:
STOP.M 235.0000:
STEP.M 0.1250:
NULL. -999.2500:
UWI. DF33014:
~C
DEPT.M :
SP.MV :
GR.API :
RML.OHMM :
RI. :
RXO.OHMM :
CALI.CM :
DEN.GM/CC :
~A
# ...
  105.0000   -18.1560    57.6170     9.1520     7.8920     8.0160    24.0780     2.1810 
  105.1250   -18.1490    57.8910     8.8840     7.6460     7.6780    24.0860     2.1710 
  105.2500   -18.1890    61.4490     8.7550     7.4800     7.6900    24.0990     2.1670 
  105.3750   -18.2060    65.8750     8.7430     7.3970     7.8360    24.1280     2.1700 
  105.5000   -18.2410    66.9250     8.8000     7.3760     8.1330    24.1510     2.1790 
  105.6250   -18.2910    63.3620     8.8670     7.3870     8.4060    24.1570     2.1900 
  105.7500   -18.2960    60.5460     8.9090     7.3940     8.5390    24.1380     2.1990 
  105.8750   -18.3460    61.7740     8.9350     7.3920     8.5730    24.0990     2.2050 
  106.0000   -18.3020    65.0750     8.9690     7.3870     8.5700    24.0710     2.2060 
  106.1250   -18.3730    67.1620     9.0370     7.3890     8.5570    24.0640     2.2030 
  106.2500   -18.4140    69.1580     9.1140     7.3980     8.5630    24.0680     2.1970 
  106.3750   -18.4510    71.2880     9.1560     7.3990     8.5820    24.0710     2.1910 
  106.5000   -18.4960    71.5750     9.1240     7.3770     8.5480    24.0720     2.1860 
  106.6250   -18.5480    70.5790     9.0130     7.3230     8.4240    24.0720     2.1870 
  106.7500   -18.6150    70.5530     8.9010     7.2600     8.3640    24.0720     2.1940 
  106.8750   -18.6550    70.3530     8.8620     7.2160     8.5670    24.0730     2.2090 
  107.0000   -18.7590    69.0760     8.9390     7.2170     9.3970    24.0890     2.2280 
  107.1250   -18.7200    66.9830     9.1190     7.2770    10.7360    24.1390     2.2420 
  107.2500   -18.7310    65.2670     9.3010     7.3660    11.1270    24.2060     2.2420 
  107.3750   -18.7140    63.1760     9.4100     7.4490    10.0260    24.2400     2.2270 
  107.5000   -18.7030    62.3920     9.4030     7.4950     8.5800    24.2480     2.2040 
  107.6250   -18.6990    64.2610     9.2750     7.4740     8.0710    24.2480     2.1840 
  107.7500   -18.6570    66.8150     9.0840     7.4010     8.1430    24.2480     2.1740 
  107.8750   -18.6340    68.2030     8.8650     7.2950     8.2580    24.2480     2.1720 
  108.0000   -18.5380    68.7500     8.6420     7.1800     8.3050    24.2480     2.1750 
  108.1250   -18.4920    68.9760     8.4480     7.0810     8.2950    24.2480     2.1770 
  108.2500   -18.4190    67.8730     8.3080     7.0090     8.2960    24.2480     2.1740 
  108.3750   -18.3050    64.9260     8.2340     6.9680     8.3560    24.2480     2.1690 
  108.5000   -18.2330    61.9860     8.2180     6.9540     8.4480    24.2480     2.1640 
  108.6250   -18.0330    62.5780     8.2360     6.9580     8.4660    24.2500     2.1620 
  108.7500   -17.9340    64.0600     8.2580     6.9680     8.3970    24.2530     2.1620 
  108.8750   -17.7840    63.9430     8.2740     6.9780     8.3260    24.2560     2.1630 
  109.0000   -17.6590    64.6100     8.2830     6.9830     8.3050    24.2660     2.1640 
  109.1250   -17.5400    67.0100     8.2810     6.9770     8.2920    24.2920     2.1630 
  109.2500   -17.3530    68.6720     8.2660     6.9560     8.2200    24.3420     2.1590 
  109.3750   -17.2310    68.4490     8.2340     6.9190     8.0690    24.3990     2.1540 
  109.5000   -17.0480    68.6360     8.1890     6.8730     7.8880    24.4330     2.1500 
  109.6250   -16.9210    70.3900     8.1610     6.8390     7.8080    24.4270     2.1530 
  109.7500   -16.6940    69.5840     8.1880     6.8450     7.8460    24.3900     2.1630 
  109.8750   -16.4620    67.0570     8.3020     6.9170     7.9440    24.3520     2.1840 
  110.0000   -16.1260    65.5920     8.5120     7.0690     8.2410    24.3360     2.2140 
  110.1250   -15.8240    66.7030     8.7990     7.2990     9.0100    24.3390     2.2510 
  110.2500   -15.5340    69.9010     9.0900     7.5610    10.1210    24.3620     2.2880 
  110.3750   -15.2030    73.1910     9.3390     7.8180    11.0280    24.4230     2.3170 
  110.5000   -14.9360    76.7910     9.5260     8.0420    11.0410    24.5000     2.3340 
  110.6250   -14.6390    79.7080     9.6570     8.2180    10.5440    24.5090     2.3370 
  110.7500   -14.4810    79.5800     9.7500     8.3590    10.9250    24.4210     2.3330 
  110.8750   -14.3080    76.4660     9.7790     8.4600    12.0510    24.2490     2.3250 
  111.0000   -14.1910    71.1030     9.6790     8.4910    12.4360    24.0940     2.3170 
  111.1250   -14.0380    67.8660     9.3410     8.3730    11.7160    24.0240     2.3110 
  111.2500   -13.7880    67.9950     8.7930     8.0880    11.1440    24.0310     2.3050 
  111.3750   -13.5140    69.9880     8.1030     7.6500    10.0220    24.0580     2.3000 
  111.5000   -13.1400    71.7220     7.3730     7.1230     7.9300    24.0690     2.2960 
  111.6250   -12.7090    72.4160     6.7340     6.6070     6.5910    24.0680     2.2990 
  111.7500   -12.2190    72.3650     6.2550     6.1910     6.4020    24.0910     2.3060 
  111.8750   -11.7060    71.9700     5.9610     5.9130     6.2500    24.1860     2.3170 
  112.0000   -11.2910    72.1790     5.8480     5.7760     5.5710    24.3930     2.3240 
  112.1250   -10.9400    73.4850     5.9040     5.7730     5.2340    24.5740     2.3230 
  112.2500   -10.7780    72.9140     6.0470     5.8380     5.5080    24.6490     2.3180 
  112.3750   -10.6990    70.7840     6.1990     5.9150     5.8640    24.7010     2.3130 
  112.5000   -10.6800    70.8820     6.2770     5.9400     5.8940    24.8270     2.3120 
  112.6250   -10.7640    74.1950     6.1740     5.8340     5.3860    25.1380     2.3120 
  112.7500   -10.7960    76.8450     5.8840     5.5890     4.5220    25.2940     2.3100 
  112.8750   -10.9510    79.3810     5.4460     5.2260     3.6760    25.3720     2.3030 
  113.0000   -11.0770    82.6020     4.9610     4.8130     3.1870    25.5390     2.2910 
  113.1250   -11.3470    83.1710     4.5930     4.4620     3.0620    25.6580     2.2760 
  113.2500   -11.6990    80.9700     4.4460     4.2620     3.1060    25.5500     2.2590 
  113.3750   -12.1470    79.2700     4.5820     4.2700     3.5120    25.2070     2.2410 
  113.5000   -12.7970    78.6580     5.0190     4.5110     4.5590    24.7990     2.2220 
  113.6250   -13.5130    73.4460     5.7470     4.9960     6.1870    24.3340     2.2070 
  113.7500   -14.3870    65.7620     6.5970     5.6070     7.6140    23.9520     2.1990 
  113.8750   -15.2390    60.1520     7.4100     6.2360     8.3130    23.7530     2.2010 
  114.0000   -16.0440    57.3260     8.0320     6.7720     8.3740    23.7010     2.2100 
  114.1250   -16.7510    56.7590     8.3330     7.1060     8.2070    23.7010     2.2240 
  114.2500   -17.2740    57.0680     8.4080     7.2690     8.0960    23.7010     2.2360 
  114.3750   -17.6870    58.1630     8.3740     7.3180     8.1380    23.7010     2.2450 
  114.5000   -17.9360    57.1360     8.3420     7.3210     8.3190    23.7010     2.2490 
  114.6250   -18.0790    55.4440     8.3720     7.3300     8.4910    23.7010     2.2490 
  114.7500   -18.1650    57.9490     8.4420     7.3600     8.6080    23.7010     2.2490 
  114.8750   -18.1770    62.9000     8.5180     7.4060     8.7480    23.7010     2.2500 
  115.0000   -18.2590    66.2230     8.5770     7.4590     8.9480    23.6930     2.2500 
  115.1250   -18.2790    64.9570     8.6050     7.5070     9.1370    23.6670     2.2500 
  115.2500   -18.3320    63.1380     8.6070     7.5420     9.3230    23.6290     2.2490 
  115.3750   -18.4360    63.2880     8.5840     7.5530     9.6820    23.6090     2.2440 
  115.5000   -18.5090    63.3320     8.5310     7.5290    10.0700    23.6040     2.2370 
  115.6250   -18.6680    62.3450     8.4320     7.4550     9.9110    23.6040     2.2280 
  115.7500   -18.7040    61.2840     8.2920     7.3430     9.3010    23.6040     2.2190 
  115.8750   -18.7730    61.6900     8.1290     7.2080     8.7240    23.6040     2.2110 
  116.0000   -18.7590    62.9460     7.9710     7.0740     8.4560    23.6040     2.2060 
  116.1250   -18.7150    63.1840     7.8640     6.9720     8.4020    23.6150     2.2040 
