~V
VERS. 2.00: Ver 2.00
~W
STRT.M 60.0000:
STOP.M 235.0000:
STEP.M 0.1250:
NULL. -999.2500:
UWI. DF33014:
~C
DEPT.M :
SP.MV :
GR.API :
RML.OHMM :
RI. :
RXO.OHMM :
CALI.CM :
DEN.GM/CC :
~A
# ...
   93.7500   -21.5140    56.9330     9.0630     7.0490     8.4690    23.5720     2.1850 
   93.8750   -21.4860    55.4300     9.0280     7.0420     8.5460    23.6700     2.1880 
   94.0000   -21.3790    55.5110     9.0020     7.0430     8.3280    23.8650     2.1850 
   94.1250   -21.3090    57.3000     8.9940     7.0520     7.9920    23.9700     2.1750 
   94.2500   -21.2600    59.1020     9.0070     7.0690     7.8530    24.0030     2.1660 
   94.3750   -21.1520    59.9240     9.0390     7.0900     7.8890    24.0100     2.1630 
   94.5000   -21.0620    60.4780     9.0690     7.1050     7.9790    24.0100     2.1690 
   94.6250   -20.8820    61.2870     9.0440     7.0860     8.1510    23.9750     2.1850 
   94.7500   -20.7750    61.1940     8.9400     7.0170     8.4270    23.9000     2.2010 
   94.8750   -20.5580    61.2520     8.7600     6.8980     8.5460    23.8410     2.2100 
   95.0000   -20.3960    62.2820     8.5500     6.7520     8.2250    23.8510     2.2090 
   95.1250   -20.2650    64.6580     8.4010     6.6240     7.8840    23.9380     2.2000 
   95.2500   -20.1370    64.7350     8.3680     6.5560     7.9550    24.0210     2.1910 
   95.3750   -20.1040    60.6250     8.4570     6.5590     8.2080    24.0450     2.1850 
   95.5000   -20.0600    55.8960     8.6150     6.6160     8.2470    23.9840     2.1840 
   95.6250   -20.1010    55.5640     8.7440     6.6830     8.0540    23.8600     2.1870 
   95.7500   -20.1120    58.5760     8.7700     6.7150     7.8640    23.7670     2.1910 
   95.8750   -20.1220    60.3940     8.6790     6.6940     7.7930    23.6940     2.1940 
   96.0000   -20.1820    60.1750     8.5140     6.6320     7.9750    23.6330     2.1950 
   96.1250   -20.1270    61.4540     8.3740     6.5730     8.3150    23.6160     2.1940 
   96.2500   -20.1110    62.5910     8.3520     6.5710     8.3310    23.6630     2.1920 
   96.3750   -19.9950    62.1340     8.5060     6.6680     8.0180    23.7650     2.1960 
   96.5000   -19.8820    61.1810     8.8480     6.8790     7.9140    23.8590     2.2060 
   96.6250   -19.7370    60.7590     9.3270     7.1860     8.8250    23.8890     2.2220 
   96.7500   -19.5860    60.5540     9.7660     7.4860    10.3110    23.8970     2.2330 
   96.8750   -19.4440    61.2030     9.9950     7.6770    11.0020    23.8970     2.2340 
   97.0000   -19.2660    63.3400     9.8850     7.6690    10.0030    23.9000     2.2290 
   97.1250   -19.0560    65.0750     9.3830     7.4010     8.3360    23.9030     2.2220 
   97.2500   -18.7500    64.3230     8.7230     6.9830     7.3970    23.9130     2.2210 
   97.3750   -18.5020    62.2090     8.1290     6.5400     7.0560    23.9490     2.2240 
   97.5000   -18.2030    60.7590     7.7670     6.1920     6.8030    24.0140     2.2240 
   97.6250   -17.9970    63.1810     7.7340     6.0430     6.9330    24.0680     2.2160 
   97.7500   -17.7970    68.7210     7.9200     6.0660     7.6080    24.0940     2.2010 
   97.8750   -17.6380    72.6010     8.2170     6.2160     8.4770    24.1150     2.1860 
   98.0000   -17.5010    71.6890     8.5170     6.4260     8.8990    24.1490     2.1730 
   98.1250   -17.3360    67.7270     8.7320     6.6350     8.7690    24.1670     2.1670 
   98.2500   -17.2540    64.1510     8.8690     6.8190     8.6150    24.1970     2.1650 
   98.3750   -17.0610    62.4310     8.9780     6.9920     8.5230    24.3130     2.1690 
   98.5000   -16.8540    62.4810     9.1210     7.1830     8.5020    24.5330     2.1810 
   98.6250   -16.5270    62.1150     9.3290     7.4030     8.3530    24.7710     2.2020 
   98.7500   -16.0630    61.5300     9.5300     7.6100     7.9440    24.8080     2.2280 
   98.8750   -15.5760    63.4700     9.6040     7.7340     7.3380    24.7990     2.2560 
   99.0000   -14.9370    68.9270     9.4340     7.6990     6.9890    24.7990     2.2800 
   99.1250   -14.3690    74.1450     8.9340     7.4270     7.1740    24.8250     2.2940 
   99.2500   -13.7710    76.5590     8.2590     6.9960     6.9630    24.9270     2.2970 
   99.3750   -13.1910    78.1420     7.5780     6.5050     5.9630    25.1500     2.2880 
   99.5000   -12.6970    79.9020     7.0440     6.0650     5.0100    25.3790     2.2700 
   99.6250   -12.2590    80.7280     6.7860     5.7880     5.1850    25.4520     2.2470 
   99.7500   -12.0190    81.0280     6.7550     5.6780     5.8620    25.3500     2.2290 
   99.8750   -11.7980    81.3210     6.8720     5.7050     6.1210    25.0440     2.2200 
  100.0000   -11.7140    80.8020     7.0380     5.8090     5.8900    24.7740     2.2210 
  100.1250   -11.5850    79.3170     7.1420     5.9220     5.5770    24.6840     2.2330 
  100.2500   -11.4970    80.5100     7.1460     5.9920     5.4310    24.6940     2.2500 
  100.3750   -11.4310    86.0560     7.0610     6.0070     5.4500    24.7170     2.2680 
  100.5000   -11.3720    90.3920     6.9280     5.9800     5.8170    24.7210     2.2820 
  100.6250   -11.2750    87.4460     6.7870     5.9290     6.4660    24.7240     2.2910 
  100.7500   -11.0570    81.8260     6.6530     5.8690     6.6070    24.7440     2.2930 
  100.8750   -10.8800    80.2280     6.5270     5.8030     5.8950    24.8060     2.2900 
  101.0000   -10.6140    83.5180     6.4280     5.7350     4.9410    24.8980     2.2810 
  101.1250   -10.4780    88.5830     6.4040     5.6880     4.6260    25.1320     2.2700 
  101.2500   -10.3850    90.7620     6.4830     5.6800     4.7920    25.2840     2.2580 
  101.3750   -10.2970    88.2230     6.6690     5.7210     4.9930    25.0700     2.2490 
  101.5000   -10.2600    83.4180     6.9270     5.7990     5.0510    24.7730     2.2440 
  101.6250   -10.2570    81.5840     7.1500     5.8660     4.9850    24.5690     2.2460 
  101.7500   -10.3480    84.2540     7.2180     5.8620     4.9480    24.4930     2.2510 
  101.8750   -10.4490    88.8710     7.0490     5.7450     4.9460    24.4260     2.2570 
  102.0000   -10.5710    92.6910     6.6400     5.5050     4.8190    24.3730     2.2640 
  102.1250   -10.7040    94.0860     6.1160     5.1970     4.5000    24.4550     2.2770 
  102.2500   -10.7910    94.0540     5.7630     4.9720     4.2230    24.6460     2.3070 
  102.3750   -11.0240    93.2400     5.8570     4.9950     4.3940    24.7710     2.3580 
  102.5000   -11.2730    90.1130     6.5990     5.4130     5.9870    24.8020     2.4250 
  102.6250   -11.7010    85.5440     8.1030     6.3520    10.6940    24.7370     2.4790 
  102.7500   -12.2090    81.9350     9.9560     7.6020    16.3460    24.6450     2.4910 
  102.8750   -12.8270    77.3060    11.6470     8.8700    16.8630    24.5010     2.4510 
  103.0000   -13.5920    69.3060    12.6030     9.7870    12.0980    24.3340     2.3780 
  103.1250   -14.3560    62.3240    12.3220     9.9510     8.9010    24.2690     2.3040 
  103.2500   -15.1780    61.3870    11.2920     9.5210     8.1600    24.2480     2.2510 
  103.3750   -15.8950    65.3000    10.1190     8.8160     8.2410    24.2480     2.2210 
  103.5000   -16.5820    70.0070     9.2430     8.1640     8.2030    24.2480     2.2090 
  103.6250   -17.0590    71.3900     8.8440     7.7870     8.0230    24.2480     2.2050 
  103.7500   -17.4670    69.9590     8.7570     7.6450     7.8350    24.2480     2.2020 
  103.8750   -17.6910    67.5990     8.8700     7.6720     7.6240    24.2480     2.1980 
  104.0000   -17.8210    67.5540     9.1120     7.8060     7.4530    24.2480     2.1950 
  104.1250   -17.9370    70.8950     9.4510     8.0120     7.4040    24.2480     2.1930 
  104.2500   -17.9640    74.1950     9.8160     8.2420     7.4620    24.2430     2.1940 
  104.3750   -18.0370    74.8980    10.1250     8.4520     7.9000    24.2170     2.1990 
  104.5000   -18.0100    71.7180    10.2880     8.5860     9.4060    24.1550     2.2050 
  104.6250   -18.0520    67.0750    10.2050     8.5750    11.2360    24.0980     2.2080 
  104.7500   -18.0430    63.1540     9.9270     8.4270    11.2160    24.0780     2.2050 
  104.8750   -18.0610    59.9350     9.5390     8.1790     9.5100    24.0750     2.1950 
