~V
VERS. 2.00: Ver 2.00
~W
STRT.M 63.0000:
STOP.M 272.0000:
STEP.M 0.1250:
NULL. -999.2500:
UWI. DF33040:
~C
DEPT.M :
SP.MV :
GR.API :
CALI.CM :
RXO.OHMM :
RI. :
RML.OHMM :
DEN.GM/CC :
~A
# ...
  220.5000   -20.9580    65.1870    23.9320    36.3700    45.5500    46.7690     2.2560 
  220.6250   -21.0370    63.5690    23.8970    33.2770    44.0960    45.1520     2.2750 
  220.7500   -21.1200    66.0010    23.7930    32.5110    43.6910    44.6860     2.2830 
  220.8750   -21.2260    70.5190    23.6720    33.9060    44.4750    45.6360     2.2760 
  221.0000   -21.3340    72.3230    23.6150    35.4690    46.4080    48.0400     2.2590 
  221.1250   -21.4350    68.9090    23.6130    35.7140    49.2870    51.6640     2.2450 
  221.2500   -21.5450    64.7000    23.5750    36.2140    52.3550    55.4750     2.2400 
  221.3750   -21.6710    63.2950    23.5080    37.7670    54.9940    58.6490     2.2360 
  221.5000   -21.7950    65.0780    23.4880    38.8360    56.8990    60.8790     2.2320 
  221.6250   -21.9320    66.8620    23.5020    37.8810    58.4160    62.8320     2.2320 
  221.7500   -22.0870    65.6580    23.4860    36.9220    60.6390    65.9360     2.2380 
  221.8750   -22.2530    63.5720    23.4660    38.4740    64.7140    71.4720     2.2390 
  222.0000   -22.4270    62.9250    23.5060    44.6400    71.6200    80.3870     2.2300 
  222.1250   -22.6340    62.7320    23.6290    57.3580    82.1950    93.4570     2.2150 
  222.2500   -22.8580    61.6290    23.7530    72.4000    94.7850   108.6900     2.2030 
  222.3750   -23.0890    59.5950    23.8240    83.6580   106.9780   123.1100     2.1930 
  222.5000   -23.3530    58.8850    23.8490    88.0480   115.9370   133.2520     2.1870 
  222.6250   -23.6480    58.8480    23.8740    88.2220   119.2650   136.6980     2.1850 
  222.7500   -23.9430    57.9560    23.9120    88.5270   118.9320   136.5170     2.1840 
  222.8750   -24.2310    57.4960    23.9380    88.3560   117.1680   135.4940     2.1820 
  223.0000   -24.5150    58.5980    23.9310    85.8070   115.6050   135.1230     2.1790 
  223.1250   -24.7650    59.2720    23.8820    82.1820   114.8180   135.4310     2.1830 
  223.2500   -24.9820    57.2310    23.7840    80.8930   114.2910   135.5100     2.1940 
  223.3750   -25.1810    55.7520    23.6620    80.5360   113.5470   134.8490     2.2060 
  223.5000   -25.3480    57.5040    23.5540    77.1820   112.3860   133.4720     2.2120 
  223.6250   -25.4880    59.8180    23.4210    71.5630   110.8810   131.5990     2.2030 
  223.7500   -25.6510    60.5360    23.2330    69.4200   109.2120   129.4470     2.1880 
  223.8750   -25.8450    59.4620    23.0470    72.3080   107.3300   127.0690     2.1770 
  224.0000   -26.0820    57.7360    22.9540    77.5520   105.1890   124.5410     2.1770 
  224.1250   -26.3990    57.4270    22.9240    81.4050   102.8400   121.9280     2.1820 
  224.2500   -26.7840    58.7260    22.7640    81.0520   100.2920   119.0020     2.1780 
  224.3750   -27.2080    59.6480    22.4630    77.5870    97.2720   115.2790     2.1630 
  224.5000   -27.6490    58.9460    22.2890    79.2070    93.4510   110.4220     2.1530 
  224.6250   -28.0490    58.6880    22.7130    92.1460    88.6260   104.4890     2.1710 
  224.7500   -28.3470    59.1720    23.4490    97.9290    83.3020    98.2720     2.2100 
  224.8750   -28.5330    60.8260    23.9240    85.1750    78.0750    92.4090     2.2440 
  225.0000   -28.5930    63.2430    23.9310    64.7500    73.5740    87.4400     2.2510 
  225.1250   -28.4830    64.3320    23.7920    56.0100    70.4400    83.9320     2.2340 
  225.2500   -28.2280    62.5700    23.8090    55.9490    68.5670    81.7670     2.2160 
  225.3750   -27.8380    60.9900    23.8770    57.1450    67.8300    80.8940     2.2090 
  225.5000   -27.3420    61.1980    23.8900    56.8090    68.0000    81.1310     2.2100 
  225.6250   -26.7730    61.2220    23.8750    56.1420    68.8310    82.2190     2.2120 
  225.7500   -26.1990    61.0680    23.8660    56.1840    69.9620    83.6860     2.2100 
  225.8750   -25.6520    61.5350    23.8850    57.3030    71.3380    85.4530     2.2090 
  226.0000   -25.1210    60.7890    23.9570    59.2320    72.9680    87.5320     2.2100 
  226.1250   -24.6400    57.5500    24.0430    60.8520    74.7470    89.7930     2.2040 
  226.2500   -24.2100    55.4740    24.0710    61.6410    76.3140    91.7930     2.1920 
  226.3750   -23.8210    56.2550    24.0320    62.2310    77.2280    92.9470     2.1880 
  226.5000   -23.4730    57.0660    23.9730    63.0460    77.0570    92.6220     2.2030 
  226.6250   -23.1820    57.0390    23.9410    63.1180    75.3690    90.1660     2.2270 
  226.7500   -22.9220    59.2210    23.9100    61.5080    72.6030    86.1960     2.2410 
  226.8750   -22.6760    62.2600    23.8720    58.2340    69.2670    81.4520     2.2370 
  227.0000   -22.4610    60.9840    23.8370    54.0900    65.9700    76.7920     2.2230 
  227.1250   -22.2610    56.5750    23.8040    50.6700    63.4180    73.1250     2.2100 
  227.2500   -22.0510    56.6260    23.7680    49.1790    61.8960    70.8080     2.2080 
  227.3750   -21.8310    61.8840    23.7300    49.6190    61.6690    70.2650     2.2140 
  227.5000   -21.5860    66.3010    23.6710    51.1040    63.1490    72.1070     2.2220 
  227.6250   -21.2830    65.4950    23.6050    52.4760    67.3810    77.5580     2.2460 
  227.7500   -20.9220    63.2850    23.5950    53.6800    73.7000    85.4390     2.3050 
  227.8750   -20.4900    61.5980    23.6030    56.6920    79.0630    91.2220     2.4030 
  228.0000   -19.9800    60.4410    23.5240    64.9370    77.0160    85.9320     2.5130 
  228.1250   -19.4310    60.5220    23.3450    74.8400    61.0720    64.0350     2.5940 
  228.2500   -18.9000    62.0360    23.1910    66.6030    40.3000    39.9080     2.6230 
  228.3750   -18.4290    65.4480    23.0840    40.3910    23.4740    22.3840     2.5950 
  228.5000   -18.0760    70.3160    22.8890    15.9330    13.1730    12.2050     2.5160 
  228.6250   -17.9020    76.2850    22.4580     7.0500     8.3830     7.5620     2.4170 
  228.7500   -17.9030    80.4720    21.9700     4.3220     6.1220     5.4840     2.3420 
  228.8750   -18.0800    81.3770    21.7020     4.0050     5.2600     4.9050     2.3170 
  229.0000   -18.4000    80.2180    21.8640     4.7460     5.2660     5.2440     2.3440 
  229.1250   -18.7880    78.0510    22.4740     5.9190     5.9440     6.1760     2.3940 
  229.2500   -19.1920    77.9730    23.2240     6.8770     6.9140     7.2260     2.4240 
  229.3750   -19.5940    81.4960    23.8310     7.3070     7.8580     8.0590     2.4250 
  229.5000   -19.9500    86.9560    24.1200     7.3150     8.4910     8.4700     2.4160 
  229.6250   -20.2260    91.8910    24.1430     7.2160     8.6460     8.4220     2.4210 
  229.7500   -20.4330    95.4910    24.1310     7.1670     8.5080     8.1550     2.4300 
  229.8750   -20.6010    97.6640    24.1390     7.1450     8.2230     7.8160     2.4280 
  230.0000   -20.7660    98.8160    24.1470     7.1140     7.8960     7.5020     2.4120 
  230.1250   -20.9730   102.7380    24.1480     7.0840     7.6220     7.3420     2.3960 
  230.2500   -21.2460   109.7290    24.1470     7.0850     7.4860     7.4420     2.3910 
  230.3750   -21.5900   114.6510    24.1450     7.2230     7.5700     7.9030     2.3900 
  230.5000   -21.9740   111.9220    24.1390     7.8250     7.9260     8.7660     2.3840 
  230.6250   -22.4050   102.2540    24.1140     9.3900     8.5980    10.0200     2.3740 
  230.7500   -22.8430    93.5450    24.0730    11.5090     9.4770    11.4490     2.3700 
  230.8750   -23.2420    88.7550    24.0330    13.2930    10.4740    12.9060     2.3700 
  231.0000   -23.6100    85.5550    24.0070    14.0880    11.5220    14.3250     2.3710 
  231.1250   -23.9440    80.4150    23.9900    14.4290    12.6320    15.7870     2.3690 
  231.2500   -24.2250    75.1270    23.9690    15.7050    13.8680    17.4440     2.3640 
  231.3750   -24.4410    73.2950    23.9450    18.3860    15.2900    19.3850     2.3530 
  231.5000   -24.6170    74.6580    23.9300    21.6270    16.8790    21.5440     2.3390 
  231.6250   -24.7430    75.3950    23.9280    23.6890    18.4820    23.6440     2.3280 
