~V
VERS. 2.00: Ver 2.00
~W
STRT.M 63.0000:
STOP.M 272.0000:
STEP.M 0.1250:
NULL. -999.2500:
UWI. DF33040:
~C
DEPT.M :
SP.MV :
GR.API :
CALI.CM :
RXO.OHMM :
RI. :
RML.OHMM :
DEN.GM/CC :
~A
# ...
  130.5000   -21.2870    69.5440    22.4400     7.2670     7.0370     9.2240     2.2550 
  130.6250   -21.0340    70.1830    22.4600     7.3580     7.1000     9.3490     2.2640 
  130.7500   -20.7060    68.5140    22.5730     7.3680     7.1360     9.3850     2.2630 
  130.8750   -20.3140    63.4480    22.7390     7.4230     7.1390     9.3210     2.2680 
  131.0000   -19.8820    57.6060    22.9490     7.5080     7.1270     9.2090     2.2880 
  131.1250   -19.4210    55.1430    23.3180     7.4200     7.1570     9.1640     2.3160 
  131.2500   -18.9490    56.3470    23.8010     7.2540     7.2750     9.2580     2.3370 
  131.3750   -18.4710    57.8400    24.1880     7.4530     7.5060     9.5260     2.3540 
  131.5000   -18.0030    55.8290    24.3260     8.3690     7.8590     9.9740     2.3750 
  131.6250   -17.5840    51.6350    24.3330     9.5820     8.3460    10.6160     2.4030 
  131.7500   -17.2110    50.5890    24.3780    10.1760     8.9270    11.3860     2.4330 
  131.8750   -16.8900    52.3600    24.4540    10.1520     9.5430    12.1680     2.4620 
  132.0000   -16.6150    53.6000    24.4910    10.2520    10.0510    12.7060     2.4860 
  132.1250   -16.3890    55.0860    24.4590    11.0020    10.1320    12.4980     2.5010 
  132.2500   -16.1800    60.0080    24.4050    11.4710     9.6760    11.4900     2.5100 
  132.3750   -15.9830    65.8320    24.3580    10.6510     8.7980    10.0050     2.5040 
  132.5000   -15.7910    70.0130    24.3550     8.5580     7.8340     8.6320     2.4740 
  132.6250   -15.5990    70.5720    24.4460     6.7030     7.2360     8.0280     2.4220 
  132.7500   -15.4070    67.0770    24.5830     6.6520     7.1800     8.2950     2.3830 
  132.8750   -15.2150    61.8530    24.6960     9.2670     7.6830     9.3490     2.3890 
  133.0000   -15.0270    58.5130    24.7340    14.4930     8.5670    10.8090     2.4480 
  133.1250   -14.8540    60.6510    24.7030    19.1240     9.2550    11.6460     2.5180 
  133.2500   -14.7020    65.8780    24.6920    18.6940     9.1370    11.0440     2.5410 
  133.3750   -14.5760    71.4120    24.7500    13.5990     8.1870     9.2710     2.5020 
  133.5000   -14.4680    75.1320    24.8520     8.1320     6.9510     7.3920     2.4290 
  133.6250   -14.3760    75.0680    24.8870     5.7100     6.1200     6.4070     2.3640 
  133.7500   -14.3100    72.5110    24.8200     5.7080     5.9440     6.4520     2.3370 
  133.8750   -14.2660    66.5280    24.7210     7.9920     6.5400     7.5660     2.3630 
  134.0000   -14.2240    58.4770    24.6600    12.8350     7.9820     9.7640     2.4330 
  134.1250   -14.1630    53.6670    24.6270    18.6620    10.3370    12.9920     2.5040 
  134.2500   -14.0880    52.9380    24.5730    21.8000    13.0140    16.3230     2.5510 
  134.3750   -13.9960    54.2400    24.5410    21.5690    15.2570    18.6900     2.5840 
  134.5000   -13.9000    55.2240    24.5720    20.0660    16.5060    19.5550     2.6190 
  134.6250   -13.8000    55.6780    24.5650    19.2880    16.8160    19.4190     2.6490 
  134.7500   -13.6820    54.8900    24.4570    19.6770    16.9630    19.4110     2.6580 
  134.8750   -13.5670    52.2360    24.3480    21.3680    17.2770    19.8460     2.6450 
  135.0000   -13.4850    49.7550    24.3490    23.3290    17.6280    20.3800     2.6220 
  135.1250   -13.4580    50.9730    24.4040    23.5400    17.3030    19.9250     2.5950 
  135.2500   -13.4960    56.1900    24.4020    21.5630    15.8510    17.9120     2.5650 
  135.3750   -13.6240    63.2540    24.3800    17.7250    13.4280    14.6900     2.5270 
  135.5000   -13.8440    69.7110    24.3690    12.8450    10.7020    11.2570     2.4780 
  135.6250   -14.1760    75.5780    24.2860     8.6380     8.4390     8.6160     2.4220 
  135.7500   -14.6110    80.0870    24.1450     6.2020     6.8430     6.9000     2.3680 
  135.8750   -15.1320    80.5900    24.1480     5.3390     5.8790     5.9890     2.3240 
  136.0000   -15.7100    77.0880    24.4180     5.2300     5.4350     5.6990     2.2960 
  136.1250   -16.3340    72.4760    24.6790     5.3920     5.4330     5.8910     2.2810 
  136.2500   -16.9660    69.4240    24.5610     5.8630     5.6690     6.3040     2.2670 
  136.3750   -17.5490    68.6390    24.1230     6.6580     6.0200     6.7820     2.2510 
  136.5000   -18.0500    69.5550    23.6830     7.4030     6.3850     7.2140     2.2350 
  136.6250   -18.4120    72.1220    23.4710     7.5770     6.7140     7.5700     2.2250 
  136.7500   -18.6330    74.3770    23.4260     7.5080     7.0460     7.9510     2.2290 
  136.8750   -18.7030    74.3930    23.5180     7.7880     7.4480     8.4710     2.2530 
  137.0000   -18.6480    71.6370    23.7590     8.6930     7.9780     9.2040     2.2990 
  137.1250   -18.4810    66.8080    24.0420    10.0890     8.6610    10.1610     2.3580 
  137.2500   -18.2550    63.0320    24.1780    11.5410     9.4220    11.2280     2.4060 
  137.3750   -18.0030    60.9440    24.1080    12.6950    10.2140    12.3560     2.4250 
  137.5000   -17.7550    59.4240    23.9220    13.2810    11.0210    13.5390     2.4170 
  137.6250   -17.5370    58.6170    23.8440    13.7750    11.8120    14.7310     2.4090 
  137.7500   -17.3560    57.9240    24.0010    15.2620    12.4610    15.6790     2.4240 
  137.8750   -17.2210    56.9530    24.3090    17.5380    12.7430    15.9810     2.4580 
  138.0000   -17.1020    55.7070    24.5640    18.5650    12.4820    15.3660     2.4880 
  138.1250   -16.9790    56.0660    24.5290    16.2780    11.7160    14.0180     2.4910 
  138.2500   -16.8140    57.9550    24.2360    12.6760    10.9250    12.7980     2.4810 
  138.3750   -16.5880    60.1510    23.9230    10.3880    10.5020    12.3090     2.4810 
  138.5000   -16.3120    61.3420    23.9110    10.9780    10.7250    12.8780     2.5040 
  138.6250   -16.0060    60.4150    24.3010    14.5010    11.8160    14.6440     2.5460 
  138.7500   -15.6910    57.0020    24.6870    18.3180    13.3730    16.8330     2.5900 
  138.8750   -15.3890    54.9570    24.8410    20.6320    14.6510    18.2470     2.6210 
  139.0000   -15.1170    60.2410    24.8370    20.6150    14.6730    17.6000     2.6240 
  139.1250   -14.8700    71.3070    24.8260    17.5210    12.8890    14.6250     2.5810 
  139.2500   -14.6550    77.9630    24.8110    12.7320    10.4540    11.2310     2.5080 
  139.3750   -14.4790    78.2940    24.7860     8.4410     8.2580     8.5330     2.4280 
  139.5000   -14.3310    78.6640    24.7770     5.9690     6.6800     6.8260     2.3630 
  139.6250   -14.2180    83.6240    24.7980     5.1500     5.7950     6.0420     2.3300 
  139.7500   -14.1280    85.3440    24.8200     5.1330     5.3300     5.7300     2.3180 
  139.8750   -14.0540    80.8490    24.8260     5.6840     5.1240     5.6330     2.3080 
  140.0000   -13.9940    76.1140    24.8320     6.2290     5.0440     5.5710     2.2900 
  140.1250   -13.9720    78.6210    24.8690     5.9790     5.0600     5.5490     2.2770 
  140.2500   -14.0170    83.5670    24.9170     5.4910     5.2390     5.7540     2.2860 
  140.3750   -14.1320    82.5100    24.9230     5.9350     5.7190     6.4170     2.3050 
  140.5000   -14.3220    74.8870    24.8750     8.0610     6.6510     7.7370     2.3050 
  140.6250   -14.5760    68.2650    24.8350    11.7830     8.3000     9.9870     2.2730 
  140.7500   -14.8410    67.1220    24.8520    15.6770    10.6120    12.9600     2.2380 
  140.8750   -15.1000    68.6020    24.9040    18.5920    13.2880    16.1190     2.2180 
  141.0000   -15.3470    69.7220    24.9480    19.9280    15.4990    18.3330     2.2110 
  141.1250   -15.5510    71.3840    24.9540    19.7680    15.8370    17.9950     2.2050 
  141.2500   -15.6950    73.8810    24.9350    18.4080    14.3860    15.6360     2.2020 
  141.3750   -15.7780    76.7470    24.9060    15.4620    12.0000    12.5040     2.2130 
  141.5000   -15.8040    78.9860    24.8600    11.3570     9.6160     9.7070     2.2370 
  141.6250   -15.7820    80.7460    24.7370     7.9300     7.8560     7.8760     2.2600 
