~V
VERS. 2.00: Ver 2.00
~W
STRT.M 55.0000:
STOP.M 246.0000:
STEP.M 0.1250:
NULL. -999.2500:
UWI. DF33025:
~C
DEPT.M :
SP.MV :
GR.API :
CALI.CM :
RXO.OHMM :
RI. :
RML.OHMM :
DEN.GM/CC :
~A
# ...
  111.2500   -16.3420    98.0920    25.0390     7.6810     6.0590     8.1820     2.1970 
  111.3750   -16.3250    97.2460    25.2670     8.6320     5.8730     7.9170     2.1990 
  111.5000   -16.3110   102.3790    25.3880     9.1570     5.4630     7.3680     2.2150 
  111.6250   -16.3140   111.0560    25.3570     8.1020     4.9900     6.7780     2.2490 
  111.7500   -16.3390   114.0030    25.4520     6.3980     4.6260     6.3380     2.2840 
  111.8750   -16.4180   110.1830    25.4350     5.3230     4.4170     6.0940     2.3000 
  112.0000   -16.6100   104.9500    25.3510     5.0820     4.3410     6.0230     2.2930 
  112.1250   -16.9520   104.8040    25.1390     5.1840     4.3500     6.0960     2.2820 
  112.2500   -17.4400   108.0700    25.0570     5.2500     4.3980     6.2540     2.2880 
  112.3750   -18.0790   112.8640    25.0040     5.3490     4.5050     6.4950     2.3060 
  112.5000   -18.8310   115.5530    24.9490     5.6600     4.7120     6.8400     2.3190 
  112.6250   -19.6650   111.4460    24.8310     6.2350     5.0540     7.3200     2.3090 
  112.7500   -20.5480   103.8090    24.7570     6.8610     5.4520     7.8720     2.2870 
  112.8750   -21.4670    97.7280    24.8710     7.4030     5.8190     8.4140     2.2650 
  113.0000   -22.3810    94.9150    24.8550     7.9420     6.1010     8.8670     2.2500 
  113.1250   -23.2700    93.2170    24.7070     8.4290     6.2960     9.1680     2.2360 
  113.2500   -24.0950    90.1250    24.6090     8.7500     6.4710     9.3650     2.2170 
  113.3750   -24.8420    87.0590    24.6940     8.9810     6.6520     9.5160     2.1950 
  113.5000   -25.4670    84.5400    24.7750     9.5000     6.8180     9.6580     2.1760 
  113.6250   -25.9550    82.8240    24.8440    10.3540     6.9110     9.7780     2.1690 
  113.7500   -26.3250    81.2250    24.9550    10.9770     6.9310     9.8430     2.1680 
  113.8750   -26.5650    79.5000    24.9760    11.0130     6.8980     9.8270     2.1670 
  114.0000   -26.6570    78.0630    24.8210    10.5100     6.8330     9.7300     2.1610 
  114.1250   -26.6370    78.6020    24.8500     9.8090     6.7330     9.5810     2.1500 
  114.2500   -26.5440    81.2520    24.9510     9.3730     6.6010     9.4350     2.1410 
  114.3750   -26.3920    85.9660    25.0180     9.2330     6.4490     9.3210     2.1370 
  114.5000   -26.1870    90.1940    25.0370     9.2610     6.3070     9.2460     2.1360 
  114.6250   -25.9750    88.6300    25.0240     9.3560     6.2330     9.2120     2.1360 
  114.7500   -25.7510    82.7060    24.9110     9.4180     6.2410     9.2060     2.1380 
  114.8750   -25.5320    76.2150    24.7350     9.3570     6.3060     9.2180     2.1450 
  115.0000   -25.3390    74.6850    24.9280     9.2000     6.3790     9.2350     2.1550 
  115.1250   -25.1750    79.4080    24.9800     9.0270     6.3980     9.2320     2.1580 
  115.2500   -25.0280    84.7390    24.8980     8.9880     6.3540     9.1960     2.1550 
  115.3750   -24.8860    86.3630    24.8310     9.0510     6.2820     9.1270     2.1530 
  115.5000   -24.7600    83.0930    24.8570     9.1360     6.2310     9.0420     2.1560 
  115.6250   -24.5970    81.0490    24.8970     9.1820     6.2260     8.9630     2.1590 
  115.7500   -24.4120    81.6710    24.8970     9.1970     6.2370     8.9070     2.1580 
  115.8750   -24.2050    82.5920    24.8980     9.1840     6.2390     8.8870     2.1550 
  116.0000   -23.9550    81.1120    24.9030     9.1300     6.2360     8.9050     2.1540 
  116.1250   -23.6560    79.1420    24.9170     9.0500     6.2530     8.9530     2.1570 
  116.2500   -23.2810    80.2670    24.9400     8.9750     6.2780     8.9840     2.1590 
  116.3750   -22.8690    83.4240    24.9760     8.8860     6.2570     8.9390     2.1580 
  116.5000   -22.4240    85.8130    25.0380     8.7520     6.1280     8.7650     2.1570 
  116.6250   -21.9680    85.8840    25.0960     8.4320     5.8640     8.4250     2.1600 
  116.7500   -21.5330    87.4010    25.1690     7.7870     5.5550     7.9940     2.1690 
  116.8750   -21.1670    91.8980    25.2280     6.8980     5.2950     7.5690     2.1840 
  117.0000   -20.9410    97.3220    25.2490     6.0750     5.1490     7.2680     2.2120 
  117.1250   -20.9020    99.1320    25.3620     5.7680     5.1590     7.2300     2.2530 
  117.2500   -21.0850    97.2100    25.5820     6.1980     5.2950     7.4540     2.2920 
  117.3750   -21.4050    93.6070    25.4390     7.2170     5.5510     7.9040     2.3130 
  117.5000   -21.8320    89.9820    24.8060     8.2990     5.9120     8.4800     2.3140 
  117.6250   -22.3490    88.4150    24.4970     8.8990     6.3240     9.0110     2.3040 
  117.7500   -22.8900    87.7350    24.6280     9.1420     6.6670     9.3660     2.2880 
  117.8750   -23.4040    85.7230    24.6900     9.3360     6.8570     9.5120     2.2670 
  118.0000   -23.8020    82.9990    24.6300     9.4760     6.8650     9.4940     2.2420 
  118.1250   -24.0600    81.4250    24.7830     9.3580     6.7390     9.3880     2.2160 
  118.2500   -24.1620    80.1760    24.8670     9.0800     6.6130     9.2900     2.1950 
  118.3750   -24.2000    79.4900    24.8960     8.9610     6.5510     9.2340     2.1880 
  118.5000   -24.2170    81.4850    24.8970     9.1510     6.5500     9.2090     2.1950 
  118.6250   -24.2260    85.8630    24.8950     9.3850     6.5380     9.1610     2.2010 
  118.7500   -24.2380    89.2380    24.8930     9.4950     6.4470     9.0290     2.1970 
  118.8750   -24.2550    90.4410    24.8940     9.5520     6.2740     8.7860     2.1890 
  119.0000   -24.3210    89.5610    24.8960     9.6060     6.0900     8.4880     2.1890 
  119.1250   -24.3970    87.5060    24.8970     9.5450     6.0490     8.3300     2.1910 
  119.2500   -24.5130    86.6210    24.8970     9.4520     6.2320     8.4680     2.1870 
  119.3750   -24.6520    86.9210    24.9040     9.7280     6.6420     8.9680     2.1780 
  119.5000   -24.8150    86.9730    24.9390    11.0660     7.2030     9.7730     2.1780 
  119.6250   -24.9960    86.4780    24.9110    14.2890     7.7500    10.6290     2.1960 
  119.7500   -25.2270    84.4520    24.7600    16.5750     8.0880    11.1130     2.2200 
  119.8750   -25.5030    82.2280    24.5490    15.4870     8.0970    10.9590     2.2320 
  120.0000   -25.8030    82.4380    24.1500    12.1890     7.7880    10.2370     2.2260 
  120.1250   -26.0840    84.7780    23.7020    10.1570     7.2740     9.3060     2.2150 
  120.2500   -26.3340    84.7490    23.4590     9.5490     6.7690     8.5500     2.2070 
  120.3750   -26.5060    79.7420    23.4060     9.4370     6.3980     8.1050     2.1990 
  120.5000   -26.5900    72.0620    23.4060     9.4500     6.2200     7.9590     2.1870 
  120.6250   -26.5780    67.0830    23.4450     9.5010     6.2280     8.0190     2.1740 
  120.7500   -26.4710    67.5350    23.5490     9.5260     6.2970     8.1210     2.1650 
  120.8750   -26.2640    70.3150    23.6710     9.5610     6.3600     8.2100     2.1610 
  121.0000   -25.9800    73.0640    23.7320     9.6260     6.4030     8.2830     2.1620 
  121.1250   -25.6790    75.1690    23.7100     9.6010     6.4610     8.3570     2.1650 
  121.2500   -25.3360    76.8200    23.7120     9.5070     6.5610     8.4420     2.1680 
  121.3750   -24.9890    77.8450    23.9290     9.4200     6.6840     8.5380     2.1710 
  121.5000   -24.6260    79.5180    24.3320     9.4330     6.7830     8.6320     2.1760 
  121.6250   -24.2350    79.5740    24.7090     9.5590     6.8080     8.7020     2.1810 
  121.7500   -23.8110    75.3140    24.8540     9.6360     6.7780     8.7350     2.1880 
  121.8750   -23.3830    72.1940    24.8850     9.5440     6.7160     8.7010     2.1970 
  122.0000   -22.9480    75.6530    24.8850     9.3560     6.6260     8.5640     2.2060 
  122.1250   -22.4910    83.3940    24.8850     9.2200     6.4830     8.3000     2.2050 
  122.2500   -22.0640    86.7560    24.8850     9.1400     6.3100     8.0100     2.1960 
  122.3750   -21.6500    84.6890    24.8850     8.9300     6.1950     7.8430     2.1870 
