~V
VERS. 2.00: Ver 2.00
~W
STRT.M 63.0000:
STOP.M 272.0000:
STEP.M 0.1250:
NULL. -999.2500:
UWI. DF33040:
~C
DEPT.M :
SP.MV :
GR.API :
CALI.CM :
RXO.OHMM :
RI. :
RML.OHMM :
DEN.GM/CC :
~A
# ...
  198.0000   -24.7030    62.8360    24.7960    50.8780    44.4060    53.5200     2.2700 
  198.1250   -24.6300    64.5250    24.7930    49.4560    44.1090    53.2080     2.3180 
  198.2500   -24.4400    66.3820    24.7650    48.8670    44.2070    53.6170     2.3840 
  198.3750   -24.1320    64.8830    24.7130    48.7720    45.2450    55.4590     2.4560 
  198.5000   -23.7120    61.6950    24.6370    47.9190    47.3870    58.8200     2.5270 
  198.6250   -23.1780    61.1580    24.5630    47.2450    49.5610    61.8820     2.5880 
  198.7500   -22.5530    60.9610    24.5240    50.2250    49.0400    60.6320     2.6340 
  198.8750   -21.8600    59.2210    24.5050    57.2870    43.5650    52.3660     2.6510 
  199.0000   -21.1290    58.5200    24.4720    57.1830    33.8320    39.2210     2.6230 
  199.1250   -20.4040    61.8500    24.4260    40.5680    23.7370    26.9450     2.5640 
  199.2500   -19.7240    64.7200    24.4160    21.1600    16.1560    18.2510     2.5160 
  199.3750   -19.1180    63.8810    24.4280    10.5260    11.3300    12.8850     2.4900 
  199.5000   -18.6140    61.4950    24.4420     7.0990     8.5840     9.9030     2.4780 
  199.6250   -18.2740    60.9290    24.4830     6.6530     7.2670     8.5970     2.4750 
  199.7500   -18.1120    60.6230    24.5160     6.6720     6.7210     8.1960     2.4820 
  199.8750   -18.1320    60.0460    24.4430     7.2730     6.9020     8.4330     2.4910 
  200.0000   -18.3190    60.1510    24.3190     8.1690     7.2280     8.7450     2.4960 
  200.1250   -18.6630    60.6680    24.2140     8.5440     7.6080     9.0790     2.5010 
  200.2500   -19.1090    60.3160    24.1320     8.4950     8.0170     9.4720     2.5130 
  200.3750   -19.6190    59.0060    24.0520     8.9660     8.4820     9.9880     2.5230 
  200.5000   -20.1300    57.2720    23.9860    10.5580     9.0150    10.6320     2.5250 
  200.6250   -20.5860    55.3370    24.0040    12.1590     9.5500    11.3080     2.5180 
  200.7500   -20.9560    53.2290    24.0870    12.3100     9.9230    11.7910     2.5110 
  200.8750   -21.2100    53.0770    24.1630    11.1350     9.9730    11.8550     2.5110 
  201.0000   -21.3470    54.4750    24.1870     9.4780     9.6440    11.4060     2.5210 
  201.1250   -21.3490    54.7090    24.2070     7.8510     9.0170    10.5680     2.5340 
  201.2500   -21.2380    55.3080    24.2610     6.6710     8.3120     9.6980     2.5350 
  201.3750   -21.0270    57.0810    24.3280     6.4000     7.6090     8.9390     2.5190 
  201.5000   -20.7570    57.9160    24.3910     6.9290     6.9100     8.2760     2.4960 
  201.6250   -20.4500    54.6620    24.4160     7.2600     6.2140     7.6250     2.4850 
  201.7500   -20.1340    51.6410    24.3290     6.6680     5.5820     6.9840     2.4850 
  201.8750   -19.8440    53.5190    24.1280     5.4620     5.1070     6.4900     2.4840 
  202.0000   -19.5960    60.7130    23.9340     4.5430     4.8720     6.3170     2.4750 
  202.1250   -19.4150    71.8840    23.8960     4.8600     4.9560     6.6540     2.4760 
  202.2500   -19.3080    82.3680    23.9660     6.0400     5.2750     7.3760     2.4940 
  202.3750   -19.2800    90.3550    24.0660     7.2340     5.7310     8.2760     2.5070 
  202.5000   -19.3310    95.5600    24.1370     7.7400     6.1810     9.0670     2.4950 
  202.6250   -19.4780    98.5050    24.1390     7.5300     6.4610     9.4310     2.4610 
  202.7500   -19.7070    99.8790    24.0990     7.2810     6.5710     9.4370     2.4350 
  202.8750   -20.0120    98.2370    24.0730     7.3410     6.5940     9.3020     2.4310 
  203.0000   -20.3900    94.7660    24.0920     7.7040     6.6350     9.2380     2.4440 
  203.1250   -20.8410    93.9180    24.1300     8.0620     6.7690     9.3690     2.4550 
  203.2500   -21.3740    95.1830    24.1270     8.2640     6.9710     9.6160     2.4590 
  203.3750   -22.0040    95.2790    24.0630     8.5320     7.1960     9.8900     2.4570 
  203.5000   -22.7300    92.3810    23.9500     9.0420     7.3980    10.1470     2.4450 
  203.6250   -23.5340    88.4620    23.8120     9.5300     7.5410    10.3820     2.4210 
  203.7500   -24.3950    83.9350    23.6900     9.8000     7.6340    10.6120     2.3970 
  203.8750   -25.3110    80.5420    23.6120    10.1780     7.6830    10.7980     2.3830 
  204.0000   -26.2310    79.5760    23.5750    10.9890     7.6880    10.8720     2.3820 
  204.1250   -27.1100    79.8690    23.5380    11.9000     7.6550    10.7870     2.3830 
  204.2500   -27.8880    80.5580    23.4720    12.2910     7.6330    10.6780     2.3740 
  204.3750   -28.4930    81.1440    23.3930    12.2490     7.7110    10.7990     2.3550 
  204.5000   -28.8870    81.1330    23.3360    12.3870     8.0200    11.4590     2.3360 
  204.6250   -29.0070    78.0320    23.3210    13.4850     8.7940    13.0600     2.3340 
  204.7500   -28.8340    73.3140    23.3000    15.8460    10.0440    15.4670     2.3500 
  204.8750   -28.3440    70.3340    23.2480    19.7790    11.6050    18.2180     2.3770 
  205.0000   -27.6150    70.4590    23.2570    24.7290    12.9550    20.2760     2.4100 
  205.1250   -26.6970    73.1300    23.4460    26.5260    13.1020    19.9080     2.4410 
  205.2500   -25.6870    74.5570    23.6770    22.5710    11.9710    17.3910     2.4640 
  205.3750   -24.7030    74.7790    23.8170    15.3160    10.1670    14.0880     2.4750 
  205.5000   -23.8150    76.6660    23.8760     9.4370     8.4460    11.3230     2.4670 
  205.6250   -23.1310    81.0560    23.9220     7.2090     7.3430     9.8350     2.4400 
  205.7500   -22.7110    84.0610    23.9290     7.0230     6.8560     9.3680     2.4090 
  205.8750   -22.5500    84.3090    23.8870     7.7790     6.9190     9.6610     2.3880 
  206.0000   -22.5760    83.2520    23.8160     9.0030     7.4020    10.4320     2.3800 
  206.1250   -22.7150    80.9790    23.5920    10.8610     8.1290    11.4390     2.3800 
  206.2500   -22.8520    78.5770    23.2400    12.6910     8.8500    12.4580     2.3790 
  206.3750   -22.8860    77.2840    22.9670    13.1670     9.4040    13.3260     2.3830 
  206.5000   -22.7730    76.7550    22.9260    12.2870     9.6620    13.8150     2.4030 
  206.6250   -22.4620    77.6200    22.9830    12.3960     9.4630    13.5740     2.4450 
  206.7500   -21.9490    81.0080    22.9150    13.5720     8.8680    12.6160     2.4890 
  206.8750   -21.2430    84.1130    22.8470    12.9920     7.9690    11.0950     2.5140 
  207.0000   -20.4070    82.3670    23.0430     9.6940     6.9460     9.3580     2.5080 
  207.1250   -19.5180    79.2890    23.5160     6.3970     6.0350     7.8440     2.4800 
  207.2500   -18.6610    80.7280    23.9080     4.9300     5.3440     6.7560     2.4520 
  207.3750   -17.8960    84.0490    24.0730     4.5740     4.8990     6.1430     2.4330 
  207.5000   -17.2520    84.1890    24.1070     4.5610     4.6850     5.9530     2.4210 
  207.6250   -16.7390    83.3550    24.1370     4.6710     4.6780     6.0530     2.4130 
  207.7500   -16.3660    87.2090    24.1600     4.7950     4.7710     6.2150     2.4110 
  207.8750   -16.1520    91.9000    24.1700     4.8880     4.9190     6.3800     2.4160 
  208.0000   -16.0770    91.2280    24.1730     5.0240     5.1040     6.5680     2.4260 
  208.1250   -16.1290    88.0980    24.1710     5.2710     5.3210     6.8100     2.4340 
  208.2500   -16.2930    89.7270    24.1710     5.5960     5.5490     7.0810     2.4330 
  208.3750   -16.5570    93.5950    24.1710     5.9680     5.7790     7.3580     2.4270 
  208.5000   -16.9060    93.1920    24.1710     6.3060     6.0070     7.6260     2.4210 
  208.6250   -17.3300    89.2130    24.1710     6.5430     6.2290     7.8840     2.4130 
  208.7500   -17.7900    87.3360    24.1720     6.8470     6.4440     8.1400     2.4010 
  208.8750   -18.2560    85.8960    24.1700     7.3260     6.6530     8.4120     2.3900 
  209.0000   -18.7160    83.4590    24.1670     7.8180     6.8690     8.7570     2.3840 
  209.1250   -19.1500    81.6400    24.1760     7.9960     7.1130     9.2380     2.3860 
