~V
VERS. 2.00: Ver 2.00
~W
STRT.M 55.0000:
STOP.M 245.0000:
STEP.M 0.1250:
NULL. -999.2500:
UWI. DF33016:
~C
DEPT.M :
GR.API :
CALI.CM :
RXO.OHMM :
RI. :
RML.OHMM :
DEN.GM/CC :
SP.MV :
~A
# ...
  235.0000    71.4820    23.3920    12.1300     8.6200    10.5390     2.3870    -9.5500 
  235.1250    71.4820    23.1100    13.6840     8.5070    10.5160     2.3960    -9.5330 
  235.2500    71.4820    22.9600    15.8540     8.4350    10.7140     2.4340    -9.4550 
  235.3750    71.4820    22.9050    15.6070     8.4330    10.9290     2.4660    -9.3180 
  235.5000    71.4820    22.9210    12.4740     8.4950    10.9250     2.4680    -9.1720 
  235.6250    71.4820    22.9750     9.2970     8.5790    10.5880     2.4460    -8.9990 
  235.7500    71.4820    23.1030     8.3510     8.6440    10.1370     2.4200    -8.8150 
  235.8750    71.4820    23.2150     8.2780     8.6770     9.8270     2.4120    -8.6670 
  236.0000    71.4820    23.2710     8.4620     8.6730     9.7710     2.4240    -8.4880 
  236.1250    71.4820    23.2750     8.5690     8.6460     9.8640     2.4500    -8.2690 
  236.2500    71.4820    23.2800     8.4270     8.6330     9.9240     2.4730    -8.1410 
  236.3750    71.4820    23.2590     8.1810     8.6330     9.9240     2.4730    -8.0720 
  236.5000    71.4820    23.1950     8.0940     8.6330     9.9240     2.4590    -8.0490 
  236.6250    71.4820    23.1180     8.1680     8.6330     9.9240     2.4470    -8.0460 
  236.7500    71.4820    23.0830     8.1890     8.6330     9.9240     2.4500    -8.0280 
  236.8750    71.4820    23.0730     8.1040     8.6330     9.9240     2.4660    -8.0050 
  237.0000    71.4820    23.0770     8.0130     8.6330     9.9240     2.4680    -7.9880 
  237.1250    71.4820    23.0830     7.8840     8.6330     9.9240     2.4460    -7.9990 
  237.2500    71.4820    23.0830     7.7330     8.6330     9.9240     2.4110    -8.0310 
  237.3750    71.4820    23.0810     7.6310     8.6330     9.9240     2.4000    -8.0540 
  237.5000    71.4820    23.0970     7.6840     8.6330     9.9240     2.4180    -8.0190 
  237.6250    71.4820    23.1400     7.6230     8.6330     9.9240     2.4470    -8.0380 
  237.7500    71.4820    23.1660     7.0900     8.6330     9.9240     2.4660    -8.0460 
  237.8750    71.4820    23.1740     6.4250     8.6330     9.9240     2.4660    -8.0630 
  238.0000    71.4820    23.1740     6.1170     8.6330     9.9240     2.4540    -8.0740 
  238.1250    71.4820    23.1700     6.2630     8.6330     9.9240     2.4380    -8.0800 
  238.2500    71.4820    23.1480     6.7370     8.6330     9.9240     2.4300    -8.0700 
  238.3750    71.4820    23.0980     7.9590     8.6330     9.9240     2.4360    -8.0250 
  238.5000    71.4820    23.0500    10.5320     8.6330     9.9240     2.4470    -8.0190 
  238.6250    71.4820    23.0330    12.7640     8.6330     9.9240     2.4530    -8.0260 
  238.7500    71.4820    23.0100    13.6240     8.6330     9.9240     2.4530    -8.0220 
  238.8750    71.4820    22.9510    13.0420     8.6330     9.9240     2.4530    -7.9760 
  239.0000    71.4820    22.9270    12.7110     8.6330     9.9240     2.4470    -7.9700 
  239.1250    71.4820    22.9710    14.6870     8.6330     9.9240     2.4250    -7.9580 
  239.2500    71.4820    23.0160    18.7040     8.6330     9.9240     2.3870    -7.9060 
  239.3750    71.4820    23.0030    20.6690     8.6330     9.9240     2.3600    -7.9180 
  239.5000    71.4820    22.9870    17.8090     8.6330     9.9240     2.3680    -7.9330 
  239.6250    71.4820    23.0010    13.7220     8.6330     9.9240     2.4010    -7.8910 
  239.7500    71.4820    23.0710     9.2870     8.6330     9.9240     2.4260    -7.9270 
  239.8750    71.4820    23.0340     8.3300     8.6330     9.9240     2.3980    -8.0050 
  240.0000    71.4820    22.2690     8.4970     8.6330     9.9240     2.3100    -8.0430 
  240.1250    71.4820    20.1120     9.3650     8.6330     9.9240     2.1830    -8.1120 
  240.2500    71.4820    17.4290    10.2090     8.6330     9.9240     2.0660    -8.1740 
  240.3750    71.4820    16.2660    10.5170     8.6330     9.9240     2.0120    -8.2280 
  240.5000    71.4820    15.9990    10.5750     8.6330     9.9240     2.0090    -8.3050 
  240.6250    71.4820    15.9950    10.5760     8.6330     9.9240     2.0240    -8.4240 
  240.7500    71.4820    15.9900    10.5800     8.6330     9.9240     2.0350    -8.3850 
  240.8750    71.4820    15.9880    10.5810     8.6330     9.9240     2.0370    -8.3130 
  241.0000    71.4820    15.9870    10.5800     8.6330     9.9240     2.0380    -8.2440 
  241.1250    71.4820    15.9890    10.5760     8.6330     9.9240     2.0400    -8.0720 
  241.2500  -999.2500  -999.2500  -999.2500  -999.2500  -999.2500     2.0420    -7.9640 
  241.3750  -999.2500  -999.2500  -999.2500  -999.2500  -999.2500     2.0420    -7.8460 
  241.5000  -999.2500  -999.2500  -999.2500  -999.2500  -999.2500     2.0410    -7.6650 
  241.6250  -999.2500  -999.2500  -999.2500  -999.2500  -999.2500     2.0440    -7.5240 
  241.7500  -999.2500  -999.2500  -999.2500  -999.2500  -999.2500     2.0520    -7.5240 
  241.8750  -999.2500  -999.2500  -999.2500  -999.2500  -999.2500     2.0590    -7.5240 
  242.0000  -999.2500  -999.2500  -999.2500  -999.2500  -999.2500     2.0610  -999.2500 
  242.1250  -999.2500  -999.2500  -999.2500  -999.2500  -999.2500     2.0580  -999.2500 
  242.2500  -999.2500  -999.2500  -999.2500  -999.2500  -999.2500     2.0550  -999.2500 
  242.3750  -999.2500  -999.2500  -999.2500  -999.2500  -999.2500     2.0530  -999.2500 
  242.5000  -999.2500  -999.2500  -999.2500  -999.2500  -999.2500     2.0550  -999.2500 
  242.6250  -999.2500  -999.2500  -999.2500  -999.2500  -999.2500     2.0590  -999.2500 
  242.7500  -999.2500  -999.2500  -999.2500  -999.2500  -999.2500     2.0640  -999.2500 
  242.8750  -999.2500  -999.2500  -999.2500  -999.2500  -999.2500     2.0650  -999.2500 
  243.0000  -999.2500  -999.2500  -999.2500  -999.2500  -999.2500     2.0630  -999.2500 
  243.1250  -999.2500  -999.2500  -999.2500  -999.2500  -999.2500     2.0600  -999.2500 
  243.2500  -999.2500  -999.2500  -999.2500  -999.2500  -999.2500     2.0620  -999.2500 
  243.3750  -999.2500  -999.2500  -999.2500  -999.2500  -999.2500     2.0640  -999.2500 
  243.5000  -999.2500  -999.2500  -999.2500  -999.2500  -999.2500     2.0620  -999.2500 
  243.6250  -999.2500  -999.2500  -999.2500  -999.2500  -999.2500     2.0750  -999.2500 
  243.7500  -999.2500  -999.2500  -999.2500  -999.2500  -999.2500     2.1410  -999.2500 
  243.8750  -999.2500  -999.2500  -999.2500  -999.2500  -999.2500     2.2860  -999.2500 
  244.0000  -999.2500  -999.2500  -999.2500  -999.2500  -999.2500     2.7690  -999.2500 
  244.1250  -999.2500  -999.2500  -999.2500  -999.2500  -999.2500     3.1710  -999.2500 
  244.2500  -999.2500  -999.2500  -999.2500  -999.2500  -999.2500     2.4970  -999.2500 
  244.3750  -999.2500  -999.2500  -999.2500  -999.2500  -999.2500     0.9010  -999.2500 
  244.5000  -999.2500  -999.2500  -999.2500  -999.2500  -999.2500     0.2790  -999.2500 
  244.6250  -999.2500  -999.2500  -999.2500  -999.2500  -999.2500     1.0900  -999.2500 
  244.7500  -999.2500  -999.2500  -999.2500  -999.2500  -999.2500     2.1320  -999.2500 
  244.8750  -999.2500  -999.2500  -999.2500  -999.2500  -999.2500     2.3360  -999.2500 
  245.0000  -999.2500  -999.2500  -999.2500  -999.2500  -999.2500     2.2480  -999.2500 
