~V
VERS. 2.00: Ver 2.00
~W
STRT.M 50.0000:
STOP.M 235.0000:
STEP.M 0.1250:
NULL. -999.2500:
UWI. DF33017:
~C
DEPT.M :
GR.API :
CALI.CM :
RXO.OHMM :
RI. :
RML.OHMM :
DEN.GM/CC :
SP.MV :
~A
# ...
  162.5000    63.6140    37.2700    93.3260    83.6880   100.6630     2.0940   -39.8270 
  162.6250    66.9660    37.4180    82.9560    81.4910    98.7560     2.0960   -40.2040 
  162.7500    68.5970    37.5100    73.6750    76.5490    93.2020     2.0950   -40.5830 
  162.8750    67.8120    37.5780    68.5490    71.0800    86.0840     2.0910   -40.9680 
  163.0000    67.4990    37.6170    64.1120    66.4550    79.2870     2.0890   -41.3210 
  163.1250    69.2660    37.6280    57.4970    63.4650    74.4080     2.0900   -41.6750 
  163.2500    69.6640    37.6290    50.9220    61.9590    71.7420     2.0940   -42.0320 
  163.3750    68.2430    37.6290    48.2800    61.9070    71.2770     2.0980   -42.3840 
  163.5000    67.4560    37.6290    49.4460    63.2820    72.6900     2.0970   -42.7000 
  163.6250    67.2720    37.6290    50.8240    66.3990    75.8820     2.0890   -42.9990 
  163.7500    65.7700    37.6290    51.4430    71.2360    80.7140     2.0890   -43.2890 
  163.8750    64.7880    37.6290    54.3640    78.1370    87.7770     2.0990   -43.5920 
  164.0000    65.9480    37.6290    60.4540    87.5420    97.8570     2.1100   -43.9020 
  164.1250    67.4480    37.6290    66.6930   100.0940   111.8750     2.1080   -44.1850 
  164.2500    66.1190    37.6290    69.2070   114.3870   127.8770     2.0940   -44.4480 
  164.3750    61.9470    37.6290    69.9600   127.6860   142.4280     2.0750   -44.6780 
  164.5000    57.1510    37.6290    72.9540   135.6100   150.9200     2.0600   -44.9140 
  164.6250    54.8180    37.6290    78.9490   132.9710   148.4650     2.0530   -45.1490 
  164.7500    55.1730    37.6290    81.5350   122.7750   138.0570     2.0580   -45.3500 
  164.8750    57.5090    37.6290    77.0190   109.8740   124.2920     2.0740   -45.5060 
  165.0000    61.9170    37.6290    66.0520    98.6300   111.8120     2.0940   -45.6280 
  165.1250    67.4880    37.6240    56.9780    92.1230   104.2520     2.1040   -45.7160 
  165.2500    70.1860    37.5910    52.7350    90.3690   101.7540     2.1050   -45.7990 
  165.3750    68.8970    37.5050    53.8170    93.4920   104.4160     2.1010   -45.8720 
  165.5000    66.7180    37.4000    59.3680   101.6160   112.4370     2.0970   -45.9030 
  165.6250    67.2890    37.3060    67.9250   115.7700   127.0440     2.0920   -45.8960 
  165.7500    68.1850    37.2410    78.7880   134.7480   146.6420     2.0890   -45.8840 
  165.8750    67.4210    37.1750    91.4340   156.9410   168.8400     2.0890   -45.8450 
  166.0000    65.3510    37.0390   106.0510   179.1180   189.7050     2.0890   -45.7320 
  166.1250    62.1920    36.8120   118.7130   196.1670   204.0120     2.0820   -45.5870 
  166.2500    59.9380    36.6430   123.8130   206.6170   211.2930     2.0730   -45.3750 
  166.3750    60.4530    36.6270   113.6400   212.0010   213.7790     2.0670   -45.1220 
  166.5000    63.4990    36.8230    92.3030   215.9690   215.6690     2.0660   -44.8170 
  166.6250    65.6170    37.3020    79.9280   222.6120   221.6010     2.0680   -44.4450 
  166.7500    64.9770    37.7750    83.4210   231.6390   230.8840     2.0700   -44.0120 
  166.8750    63.6450    37.9920    96.4780   237.9740   238.3700     2.0700   -43.5420 
  167.0000    63.5860    38.0370   115.4110   233.2160   236.4790     2.0670   -43.0720 
  167.1250    64.2140    38.0430   133.1000   211.2230   218.6250     2.0600   -42.5750 
  167.2500    64.3220    38.0430   137.6600   182.7120   192.0440     2.0530   -42.0600 
  167.3750    63.4700    38.0430   121.0670   157.1210   165.4500     2.0490   -41.5300 
  167.5000    62.1880    38.0430    94.1220   138.5450   145.0120     2.0510   -40.9860 
  167.6250    61.4230    38.0430    84.1930   127.0170   132.8150     2.0560   -40.4400 
  167.7500    60.2220    38.0410    92.0790   118.1220   124.2670     2.0550   -39.8670 
  167.8750    59.6670    38.0300   107.5300   108.7200   115.5540     2.0480   -39.2930 
  168.0000    60.1440    38.0190   111.7850    97.1560   104.4810     2.0420   -38.7050 
  168.1250    60.8850    38.0370    94.3380    84.1200    91.3050     2.0540   -38.1160 
  168.2500    61.2580    38.0920    73.3320    72.0580    78.7270     2.0770   -37.5490 
  168.3750    61.8390    38.1190    58.8880    62.3440    68.6280     2.1020   -37.0360 
  168.5000    63.3140    38.1220    51.1210    55.3550    61.6780     2.1230   -36.5630 
  168.6250    63.8190    38.1060    48.1350    51.1340    57.7240     2.1430   -36.1730 
  168.7500    63.4230    38.0610    47.4890    48.6960    55.3410     2.1690   -35.8280 
  168.8750    64.1560    37.9880    47.4110    47.5800    53.9700     2.1940   -35.5250 
  169.0000    66.9240    37.9230    46.7450    47.3840    53.4190     2.2110   -35.2890 
  169.1250    70.8840    37.8660    46.7620    47.5450    53.5080     2.2120   -35.1130 
  169.2500    71.8530    37.8430    49.0320    47.0400    53.2520     2.2010   -34.9590 
  169.3750    68.0470    37.8360    53.2010    44.8820    51.3660     2.1870   -34.7730 
  169.5000    62.3940    37.8330    56.9910    40.5620    46.9270     2.1770   -34.6180 
  169.6250    61.9370    37.8100    56.6360    34.5650    40.2330     2.1790   -34.4470 
  169.7500    66.1200    37.7460    48.3300    28.6710    33.5210     2.1940   -34.3250 
  169.8750    70.7350    37.6410    33.0380    23.9360    28.2290     2.2180   -34.2210 
  170.0000    74.1260    37.5190    18.9760    20.8080    24.9320     2.2430   -34.1360 
  170.1250    75.5530    37.3980    12.8020    19.5770    23.7950     2.2630   -34.0620 
  170.2500    75.6190    37.2960    12.0050    19.7660    24.0480     2.2780   -34.0140 
  170.3750    74.5320    37.2150    14.1520    21.0130    25.1920     2.2980   -34.0200 
  170.5000    72.4330    37.1360    17.6890    22.6690    26.5840     2.3260   -34.0380 
  170.6250    69.7400    37.0820    23.9370    23.4850    27.1230     2.3610   -34.0940 
  170.7500    67.7320    37.0360    27.5020    22.6450    26.0920     2.3850   -34.1510 
  170.8750    68.3730    37.0100    25.6090    20.2620    23.5180     2.3850   -34.2210 
  171.0000    71.6140    36.9790    19.6120    17.2220    20.1360     2.3640   -34.2880 
  171.1250    75.9830    36.9310    14.0770    14.5730    16.9490     2.3380   -34.3670 
  171.2500    79.4010    36.8880    11.5400    12.7040    14.5430     2.3230   -34.4560 
  171.3750    80.8800    36.8420    10.5470    11.6370    13.1100     2.3230   -34.5210 
  171.5000    80.3830    36.8120    10.3340    11.2490    12.5940     2.3290   -34.5990 
  171.6250    78.4340    36.8040    10.5940    11.4580    12.8250     2.3320   -34.6370 
  171.7500    76.9920    36.8040    11.2560    12.0810    13.4050     2.3310   -34.6910 
  171.8750    77.2950    36.8000    12.3670    13.1300    14.2810     2.3290   -34.7210 
  172.0000    77.7380    36.7830    13.7710    14.6920    15.6390     2.3270   -34.7640 
  172.1250    75.0660    36.7450    15.7980    17.0430    17.9640     2.3180   -34.7810 
  172.2500    71.7090    36.6960    19.8620    20.2410    21.3230     2.3060   -34.7940 
  172.3750    70.8920    36.6480    27.1310    24.3320    25.5900     2.2900   -34.7940 
  172.5000    71.9430    36.6130    35.7520    29.1490    30.3460     2.2730   -34.7700 
  172.6250    72.8140    36.5780    40.6000    34.1640    34.9070     2.2550   -34.7290 
  172.7500    72.4150    36.5180    42.2940    38.6100    38.8220     2.2460   -34.6750 
  172.8750    71.2980    36.4360    43.2260    42.0940    42.0200     2.2470   -34.6310 
  173.0000    69.9210    36.3660    44.9700    44.7230    44.6550     2.2510   -34.5750 
  173.1250    69.9850    36.2960    47.4470    46.9150    46.8040     2.2540   -34.5140 
  173.2500    72.0200    36.2170    50.0690    49.0340    48.4650     2.2580   -34.4560 
  173.3750    75.6530    36.1010    52.3340    50.9730    49.4820     2.2640   -34.3840 
  173.5000    78.6130    35.9630    53.9970    52.3820    49.8190     2.2670   -34.3130 
  173.6250    76.9620    35.8230    55.0060    52.6590    49.5560     2.2640   -34.2760 
