~V
VERS. 2.00: Ver 2.00
~W
STRT.M 60.0000:
STOP.M 236.0000:
STEP.M 0.1250:
NULL. -999.2500:
UWI. DF33015:
~C
DEPT.M :
DEN.GM/CC :
GR.API :
RML.OHMM :
RI. :
RXO.OHMM :
CALI.CM :
SP.MV :
~A
# ...
  116.2500     2.2840    62.7450    11.3010     9.6640    11.9570    23.3210   -29.2250 
  116.3750     2.2260    63.0290    10.7530     9.1960    11.5330    23.2720   -29.2980 
  116.5000     2.1950    63.0010    10.3410     8.7800     9.8660    23.2630   -29.3230 
  116.6250     2.1890    60.7010    10.1110     8.4870     8.2300    23.1620   -29.3000 
  116.7500     2.1940    58.4390     9.8690     8.1680     7.5900    23.0740   -29.2370 
  116.8750     2.2020    58.0570     9.7250     7.9730     7.6050    23.0420   -29.1470 
  117.0000     2.2090    59.6530     9.6170     7.8590     7.6940    23.0380   -28.9990 
  117.1250     2.2120    62.3180     9.5270     7.8010     7.7610    23.0360   -28.8300 
  117.2500     2.2160    64.4290     9.4790     7.7810     7.8010    23.0320   -28.6880 
  117.3750     2.2200    65.5560     9.4970     7.8020     7.8510    23.0310   -28.5600 
  117.5000     2.2220    66.0200     9.5870     7.8650     7.9070    23.0300   -28.4810 
  117.6250     2.2190    66.9650     9.7270     7.9610     7.9830    23.0300   -28.4820 
  117.7500     2.2110    68.0090     9.8630     8.0520     8.1120    23.0300   -28.4840 
  117.8750     2.2010    68.7380     9.9520     8.1070     8.2580    23.0300   -28.5220 
  118.0000     2.1950    67.8310     9.9700     8.1080     8.3200    23.0310   -28.5050 
  118.1250     2.1960    64.1960     9.9040     8.0440     8.2560    23.0340   -28.5630 
  118.2500     2.1990    60.3620     9.7810     7.9420     8.1970    23.0380   -28.5200 
  118.3750     2.2000    59.3060     9.6250     7.8210     8.2310    23.0400   -28.4910 
  118.5000     2.1960    61.0140     9.4720     7.7080     8.3610    23.0400   -28.4010 
  118.6250     2.1920    60.9700     9.4130     7.6680     8.4860    23.0400   -28.2720 
  118.7500     2.1990    60.1020     9.5480     7.7660     8.5510    23.0400   -28.0900 
  118.8750     2.2220    61.5280     9.9650     8.0690     8.7500    23.0400   -27.8530 
  119.0000     2.2590    64.6730    10.6700     8.5920     9.6160    23.0400   -27.6320 
  119.1250     2.2940    64.8130    11.5220     9.2570    11.8280    23.0560   -27.3260 
  119.2500     2.3120    63.6620    12.1870     9.8310    14.1510    23.0900   -26.9700 
  119.3750     2.3130    63.9310    12.3590    10.0920    14.0460    23.1210   -26.5370 
  119.5000     2.3050    64.9650    11.8600     9.8860    11.3740    23.1570   -26.0030 
  119.6250     2.3040    66.2260    10.7190     9.1640     9.1200    23.2220   -25.3950 
  119.7500     2.3130    68.0540     9.4110     8.2260     7.9200    23.3020   -24.7540 
  119.8750     2.3250    69.9740     8.2730     7.3140     7.0020    23.3660   -24.1500 
  120.0000     2.3300    72.0640     7.4880     6.6020     6.2320    23.4580   -23.5610 
  120.1250     2.3200    74.8930     7.1450     6.2050     6.0930    23.5940   -23.0420 
  120.2500     2.3000    77.1440     7.1030     6.0600     6.3100    23.6470   -22.6180 
  120.3750     2.2800    77.0360     7.2640     6.1150     6.4490    23.6720   -22.3080 
  120.5000     2.2660    75.7930     7.5330     6.3110     6.4540    23.7110   -22.1210 
  120.6250     2.2610    75.3960     7.8300     6.5980     6.5630    23.7840   -22.0810 
  120.7500     2.2600    74.7720     8.0910     6.9080     6.7340    23.8290   -22.1330 
  120.8750     2.2580    73.7590     8.2960     7.2030     6.9170    23.8470   -22.2210 
  121.0000     2.2530    71.6800     8.4500     7.4570     7.1480    23.8450   -22.3470 
  121.1250     2.2440    68.6630     8.5700     7.6530     7.3210    23.8000   -22.4670 
  121.2500     2.2340    67.1580     8.6770     7.7980     7.3740    23.6980   -22.5720 
  121.3750     2.2280    66.9930     8.7660     7.8870     7.3960    23.5690   -22.5950 
  121.5000     2.2260    66.5450     8.8090     7.9060     7.4910    23.4530   -22.6030 
  121.6250     2.2310    65.2290     8.7150     7.8000     7.6310    23.4150   -22.4210 
  121.7500     2.2380    65.3720     8.4290     7.5480     7.4850    23.4420   -22.1880 
  121.8750     2.2410    67.9800     7.9270     7.1370     6.9220    23.5680   -21.8540 
  122.0000     2.2400    71.8780     7.2600     6.6060     6.2140    23.8220   -21.4860 
  122.1250     2.2410    75.1060     6.5890     6.0850     5.7820    23.9570   -21.0340 
  122.2500     2.2570    76.0950     6.2550     5.7790     5.6560    24.0260   -20.6280 
  122.3750     2.3010    75.6030     6.5350     5.8980     5.9630    24.0310   -20.2590 
  122.5000     2.3750    74.3840     7.7490     6.6100     7.6350    24.0090   -19.9170 
  122.6250     2.4590    71.2490     9.8970     8.0500    12.6880    23.9510   -19.6840 
  122.7500     2.5200    65.9740    12.5760     9.8850    20.3590    23.8980   -19.5180 
  122.8750     2.5410    61.0490    15.0460    11.6900    24.7350    23.8650   -19.4340 
  123.0000     2.5280    58.1370    16.1950    12.9590    20.5750    23.8570   -19.3930 
  123.1250     2.5000    59.3150    15.8170    13.1640    14.3900    23.8650   -19.4640 
  123.2500     2.4730    63.2050    14.5880    12.5350    11.9760    23.8700   -19.5600 
  123.3750     2.4460    65.6450    13.1070    11.4550    13.2100    23.9030   -19.7070 
  123.5000     2.4100    64.6200    11.7780    10.2910    14.9970    23.9700   -19.8810 
  123.6250     2.3660    65.9860    10.7370     9.2560    12.0930    24.0130   -20.1450 
  123.7500     2.3220    73.2590     9.9010     8.3800     8.0460    23.9750   -20.4700 
  123.8750     2.2860    79.4580     9.2750     7.6920     6.1290    23.9210   -20.8360 
  124.0000     2.2610    77.1340     8.9240     7.2490     6.0470    23.8340   -21.2240 
  124.1250     2.2450    71.1950     9.0040     7.1840     6.5090    23.6910   -21.5300 
  124.2500     2.2330    69.8160     9.4980     7.4910     7.0180    23.5210   -21.8310 
  124.3750     2.2220    72.8030    10.3660     8.1580     7.9780    23.4050   -22.0540 
  124.5000     2.2170    75.5770    11.5110     9.1130     9.4940    23.3170   -22.2550 
  124.6250     2.2280    73.5450    12.8140    10.2600    11.0520    23.2270   -22.2670 
  124.7500     2.2600    69.0400    14.1200    11.4390    12.0630    23.1180   -22.1480 
  124.8750     2.3110    65.8270    15.3350    12.5490    12.6230    23.0760   -21.8920 
  125.0000     2.3670    64.4910    16.3890    13.5090    13.1110    23.1290   -21.5530 
  125.1250     2.4070    61.4960    17.2090    14.2380    13.8210    23.2870   -21.1660 
  125.2500     2.4240    57.4140    17.8280    14.7670    14.3730    23.4490   -20.7570 
  125.3750     2.4220    55.6380    18.2730    15.1280    14.2710    23.5840   -20.3610 
  125.5000     2.4130    57.1350    18.5930    15.3760    13.9380    23.7010   -19.9780 
  125.6250     2.4090    59.7190    18.8660    15.5940    14.5510    23.8360   -19.7050 
  125.7500     2.4210    61.1250    19.1800    15.8740    15.7250    23.9930   -19.5210 
  125.8750     2.4490    60.5550    19.5500    16.2470    16.8010    24.0930   -19.4410 
  126.0000     2.4890    58.4970    19.8980    16.6680    17.6000    24.1240   -19.4410 
  126.1250     2.5300    56.5590    19.9830    16.9650    18.2390    24.1250   -19.5500 
  126.2500     2.5550    55.6710    19.5810    16.9330    17.4160    24.1270   -19.6980 
  126.3750     2.5520    56.3520    18.5250    16.3850    15.2800    24.1260   -19.8960 
  126.5000     2.5200    57.9810    16.8190    15.2460    13.7510    24.1100   -20.1130 
  126.6250     2.4610    60.3890    14.6690    13.5640    12.5780    24.0600   -20.3680 
  126.7500     2.3940    64.0940    12.5450    11.7180    10.2470    23.9960   -20.6320 
  126.8750     2.3310    69.6430    10.7490    10.0010     7.6060    23.9810   -20.9000 
  127.0000     2.2820    74.4870     9.4410     8.6210     6.0640    24.0150   -21.1500 
  127.1250     2.2550    77.2600     8.6920     7.7140     5.8990    24.0090   -21.3690 
  127.2500     2.2460    79.2780     8.2900     7.1470     5.9810    23.9630   -21.5710 
  127.3750     2.2500    79.1960     8.0770     6.8030     5.7920    23.9330   -21.7610 
