~V
VERS. 2.00: Ver 2.00
~W
STRT.M 55.0000:
STOP.M 245.0000:
STEP.M 0.1250:
NULL. -999.2500:
UWI. DF33016:
~C
DEPT.M :
GR.API :
CALI.CM :
RXO.OHMM :
RI. :
RML.OHMM :
DEN.GM/CC :
SP.MV :
~A
# ...
  201.2500    71.4540    23.5060    26.6250    28.1260    30.7240     2.2280   -16.5100 
  201.3750    69.8050    23.5110    25.5060    27.2320    29.6200     2.2320   -16.4750 
  201.5000    68.0040    23.4950    24.1970    26.2750    28.4230     2.2400   -16.3630 
  201.6250    69.5810    23.4330    22.6570    25.4800    27.4340     2.2480   -16.3070 
  201.7500    71.9700    23.3600    21.5050    24.9510    26.7920     2.2530   -16.2690 
  201.8750    73.8920    23.2890    21.6840    24.6770    26.4720     2.2540   -16.2080 
  202.0000    74.7430    23.2880    22.8770    24.5670    26.3510     2.2520   -16.1130 
  202.1250    73.9010    23.3460    23.5140    24.5410    26.3090     2.2490   -16.0890 
  202.2500    72.1490    23.4040    22.9090    24.5500    26.2690     2.2470   -16.0250 
  202.3750    71.9220    23.4340    21.6080    24.6120    26.2470     2.2500   -15.9520 
  202.5000    72.6590    23.4630    21.2180    24.7760    26.3110     2.2590   -15.9430 
  202.6250    70.0180    23.4910    22.2460    25.0520    26.5640     2.2750   -15.9210 
  202.7500    66.4460    23.4700    23.0800    25.3670    26.9520     2.2970   -15.8850 
  202.8750    65.8550    23.4270    22.8730    25.6660    27.3460     2.3150   -15.8340 
  203.0000    67.4440    23.3900    22.6150    25.9030    27.5890     2.3110   -15.9060 
  203.1250    67.8980    23.4110    24.2950    26.0870    27.6060     2.2780   -15.9900 
  203.2500    68.0390    23.4160    28.4150    26.2860    27.5640     2.2340   -16.0830 
  203.3750    68.5210    23.3690    32.9910    26.5280    27.6330     2.2060   -16.2670 
  203.5000    68.2370    23.2350    34.2240    26.8140    27.8940     2.1980   -16.5160 
  203.6250    67.6200    23.1010    30.4520    27.0810    28.2920     2.2030   -16.8070 
  203.7500    67.5760    23.1580    26.9140    27.2800    28.6620     2.2160   -17.1440 
  203.8750    67.5830    23.3550    25.5700    27.4220    28.9620     2.2350   -17.5730 
  204.0000    65.9610    23.5450    25.9040    27.5260    29.2320     2.2460   -17.9550 
  204.1250    63.5890    23.6080    26.8610    27.6090    29.4960     2.2420   -18.2800 
  204.2500    62.7630    23.6080    27.1500    27.6730    29.7050     2.2300   -18.6510 
  204.3750    63.8460    23.5700    26.8070    27.7520    29.8650     2.2260   -18.9530 
  204.5000    66.7530    23.5410    26.1690    28.0020    30.1280     2.2310   -19.1880 
  204.6250    68.8460    23.5310    26.2120    28.7520    30.8670     2.2370   -19.5170 
  204.7500    69.7840    23.5260    27.2850    30.1690    32.3210     2.2410   -19.8590 
  204.8750    69.8430    23.5050    29.4280    32.3420    34.6260     2.2450   -20.1180 
  205.0000    70.0350    23.4470    32.8370    35.1610    37.6930     2.2540   -20.3890 
  205.1250    70.4070    23.3680    36.4180    38.2990    41.1400     2.2650   -20.7980 
  205.2500    69.3430    23.2720    38.3780    41.1650    44.2350     2.2660   -21.1790 
  205.3750    67.7950    23.2230    38.6400    43.2800    46.4100     2.2470   -21.6150 
  205.5000    66.1550    23.2270    38.5140    44.3380    47.3510     2.2210   -22.1770 
  205.6250    65.1840    23.2810    39.1080    44.1220    47.0250     2.2030   -22.6810 
  205.7500    63.4800    23.3620    40.1540    43.1760    46.1700     2.2000   -23.1470 
  205.8750    60.5520    23.4420    40.1740    42.0410    45.3370     2.2090   -23.6800 
  206.0000    59.7720    23.5270    38.1060    41.2470    44.9590     2.2220   -24.2080 
  206.1250    64.6570    23.5980    35.4190    41.4310    45.5560     2.2350   -24.7140 
  206.2500    70.7900    23.6580    36.1000    42.7260    47.2750     2.2430   -25.2600 
  206.3750    71.6490    23.7430    39.6050    45.1490    50.2000     2.2410   -25.7830 
  206.5000    68.2670    23.8220    42.7510    48.4980    54.1680     2.2310   -26.2760 
  206.6250    67.7240    23.8360    44.0690    52.4790    58.8740     2.2190   -26.7110 
  206.7500    69.5830    23.7600    44.5860    56.8520    63.9130     2.2110   -27.1020 
  206.8750    69.6690    23.6160    45.1030    61.9130    69.5330     2.2090   -27.4760 
  207.0000    67.1610    23.4870    46.2390    68.4370    76.6220     2.2070   -27.8560 
  207.1250    64.9840    23.3840    51.3510    78.1680    87.2490     2.2060   -28.1090 
  207.2500    64.0140    23.3570    65.5830    91.6770   102.4420     2.2070   -28.3220 
  207.3750    63.5310    23.3400    92.1940   108.9360   122.7300     2.2090   -28.4990 
  207.5000    63.3100    23.3210   122.1940   128.5030   146.9860     2.2070   -28.5510 
  207.6250    62.5140    23.2890   136.0850   147.1550   171.1540     2.1990   -28.5680 
  207.7500    61.7890    23.2540   130.8990   162.1060   190.2830     2.1870   -28.5910 
  207.8750    63.3290    23.2210   116.2410   172.5750   202.7080     2.1790   -28.5680 
  208.0000    66.2650    23.2010   102.5970   179.6140   210.2320     2.1800   -28.4540 
  208.1250    67.8790    23.1900    98.3960   184.4820   215.3350     2.1830   -28.3300 
  208.2500    67.3090    23.2270   106.6530   187.5350   218.3470     2.1750   -28.2160 
  208.3750    66.2180    23.3300   122.9660   187.3190   216.7000     2.1600   -28.0330 
  208.5000    66.6020    23.5340   137.7400   182.3240   208.1940     2.1570   -27.7890 
  208.6250    67.9330    23.6950   141.9020   171.6850   192.3180     2.1730   -27.5830 
  208.7500    67.7780    23.7290   136.1040   158.1640   173.3730     2.1940   -27.3310 
  208.8750    66.0600    23.6660   127.0890   144.4610   154.9770     2.2070   -26.9930 
  209.0000    64.5460    23.6070   115.1290   133.1740   138.2010     2.2160   -26.6850 
  209.1250    64.4650    23.5480   101.4060   126.3580   131.1120     2.2310   -26.2990 
  209.2500    63.0360    23.4830    92.1120   121.8730   126.4480     2.2580   -25.8250 
  209.3750    61.3050    23.3780    93.6060   116.2750   120.6260     2.3090   -25.3230 
  209.5000    62.0080    23.2160   108.4320   105.8100   109.7430     2.3850   -24.7690 
  209.6250    63.5390    23.1060   122.0900    87.3690    90.5640     2.4690   -24.1470 
  209.7500    62.6300    23.0780   121.7780    64.9960    67.2960     2.5340   -23.5490 
  209.8750    60.1270    23.1410   102.9290    44.1680    45.6350     2.5620   -22.9190 
  210.0000    58.2940    23.2050    73.1140    28.5510    29.3930     2.5700   -22.2070 
  210.1250    59.4510    23.2560    41.9270    19.0870    19.5500     2.5670   -21.6080 
  210.2500    63.4050    23.3160    20.0370    13.2840    13.5160     2.5510   -21.0020 
  210.3750    66.9360    23.3800     9.6660     9.9060    10.0020     2.5180   -20.4570 
  210.5000    66.1730    23.4270     6.8380     8.0790     8.1020     2.4840   -20.0780 
  210.6250    61.7740    23.4680     6.5490     7.3100     7.3030     2.4590   -19.7030 
  210.7500    59.6480    23.5030     6.7380     7.0090     6.9900     2.4400   -19.3160 
  210.8750    59.8420    23.4980     6.8130     6.8900     6.8660     2.4250   -19.0340 
  211.0000    59.2510    23.4560     6.5550     6.7560     6.7260     2.4140   -18.7970 
  211.1250    58.9180    23.4340     6.0810     6.5330     6.4950     2.4090   -18.5270 
  211.2500    60.5700    23.4270     5.6720     6.3200     6.2730     2.4060   -18.3890 
  211.3750    62.8360    23.4270     5.4790     6.2100     6.1590     2.4060   -18.3230 
  211.5000    64.9420    23.4270     5.5890     6.2700     6.2210     2.4130   -18.2610 
  211.6250    69.0960    23.4270     6.1030     6.5590     6.5210     2.4310   -18.3780 
  211.7500    74.2240    23.4270     6.8950     7.0080     6.9880     2.4550   -18.6570 
  211.8750    78.4880    23.4380     7.7190     7.5310     7.5320     2.4670   -18.9680 
  212.0000    81.7570    23.4680     8.3570     8.0120     8.0330     2.4660   -19.3280 
  212.1250    85.2670    23.5050     8.7180     8.3320     8.3650     2.4640   -19.8070 
  212.2500    87.7890    23.4810     8.7880     8.4880     8.2780     2.4730   -20.2280 
  212.3750    88.7220    23.4540     8.7180     8.5360     8.1800     2.4900   -20.6260 
