~V
VERS. 2.00: Ver 2.00
~W
STRT.M 60.0000:
STOP.M 233.0000:
STEP.M 0.1250:
NULL. -999.2500:
UWI. DF33019:
~C
DEPT.M :
GR.API :
RML.OHMM :
RI. :
RXO.OHMM :
CALI.CM :
DEN.GM/CC :
SP.MV :
~A
# ...
  172.5000    60.6500   123.1910   115.1630   124.6930    24.8840     2.2210   -20.9110 
  172.6250    60.3190   116.1300   110.9940   132.1780    24.9140     2.2150   -20.9180 
  172.7500    60.9410   101.1410    99.4070   142.1830    24.9950     2.2090   -20.9040 
  172.8750    60.6420    80.7520    81.7370   146.3540    25.0520     2.2090   -20.8720 
  173.0000    60.9970    59.9630    62.0400   120.4140    25.1190     2.2190   -20.8310 
  173.1250    64.4400    43.8420    45.5510    65.8630    25.1310     2.2430   -20.7790 
  173.2500    69.0960    32.7090    33.8190    31.6510    25.1330     2.2750   -20.7180 
  173.3750    72.9630    25.5950    26.3000    18.1200    25.1360     2.3070   -20.6570 
  173.5000    75.0180    21.2430    21.7410    16.0520    25.1440     2.3310   -20.6540 
  173.6250    75.9680    18.7820    19.1630    17.4770    25.1960     2.3440   -20.6150 
  173.7500    76.3340    17.2110    17.4920    16.3840    25.2330     2.3510   -20.6020 
  173.8750    76.2130    16.2000    16.3800    12.9750    25.2700     2.3560   -20.6040 
  174.0000    75.8210    15.6110    15.6740    11.4860    25.3230     2.3600   -20.6480 
  174.1250    76.2240    15.4690    15.3770    11.0280    25.3310     2.3620   -20.6880 
  174.2500    77.8760    15.6800    15.4060    11.1870    25.3330     2.3600   -20.7730 
  174.3750    79.0750    16.1700    15.6990    12.0290    25.3330     2.3530   -20.8630 
  174.5000    79.4620    16.8050    16.1500    13.4200    25.3300     2.3440   -20.9590 
  174.6250    79.3640    17.5940    16.6740    14.6290    25.3110     2.3360   -21.0780 
  174.7500    79.1640    18.8070    17.3400    15.3330    25.2650     2.3310   -21.2310 
  174.8750    78.7520    20.7420    18.5170    15.8050    25.2140     2.3270   -21.3790 
  175.0000    77.4300    24.1790    20.9380    16.4020    25.1470     2.3210   -21.5270 
  175.1250    76.6840    30.0760    26.2670    20.5440    25.1350     2.3090   -21.6740 
  175.2500    75.3550    39.6390    35.3240    34.2720    25.1260     2.2910   -21.8320 
  175.3750    71.9790    53.2320    48.4720    62.7000    25.0890     2.2690   -22.0000 
  175.5000    67.1230    70.4380    64.8290    90.9020    25.0670     2.2480   -22.1560 
  175.6250    63.8050    91.7130    81.7990   101.3920    25.0570     2.2310   -22.3070 
  175.7500    64.8980   110.8930    96.0010   109.1200    25.0550     2.2200   -22.4300 
  175.8750    67.4660   124.9050   105.7130   110.3350    25.0680     2.2140   -22.5630 
  176.0000    67.2360   133.1710   111.2800   114.6090    25.0800     2.2120   -22.6560 
  176.1250    62.5970   137.6190   114.4880   121.7040    25.0350     2.2100   -22.7340 
  176.2500    59.4280   141.5250   117.6580   124.8700    24.9660     2.2080   -22.7750 
  176.3750    60.7830   145.9950   121.7040   124.2400    24.9300     2.2060   -22.8070 
  176.5000    63.3590   151.1470   126.9210   126.9200    24.9230     2.2040   -22.8150 
  176.6250    63.5440   155.6620   132.7850   137.7790    24.9230     2.2010   -22.8360 
  176.7500    62.8480   156.7520   137.1830   148.9320    24.9230     2.1990   -22.8520 
  176.8750    63.0120   150.9890   137.1740   156.6810    24.9230     2.1960   -22.8620 
  177.0000    64.4990   135.6590   129.6760   158.1420    24.9230     2.1910   -22.8700 
  177.1250    65.6610   110.0040   111.7570   153.8790    24.9230     2.1870   -22.8520 
  177.2500    65.8450    81.3240    87.5720   143.2560    24.9160     2.1850   -22.8300 
  177.3750    65.3750    56.0920    62.5970   117.6550    24.8920     2.1920   -22.7900 
  177.5000    66.3310    37.6700    41.9760    64.2680    24.8170     2.2120   -22.7900 
  177.6250    71.3240    26.6500    28.8050    28.8720    24.6880     2.2460   -22.7780 
  177.7500    76.8780    20.0160    20.8500    14.3440    24.5520     2.2870   -22.7690 
  177.8750    79.9500    16.2470    16.3400    11.0030    24.4700     2.3230   -22.7420 
  178.0000    80.1220    14.2730    13.8940     9.7340    24.4070     2.3470   -22.7540 
  178.1250    78.9280    13.4920    12.7740     9.4480    24.3070     2.3570   -22.7750 
  178.2500    78.5490    13.2970    12.3130     9.1400    24.1660     2.3580   -22.8150 
  178.3750    78.9290    13.5620    12.3390     9.0250    23.9750     2.3560   -22.8410 
  178.5000    80.1530    14.3600    12.8490     9.0480    23.7990     2.3560   -22.8700 
  178.6250    80.4710    16.1300    14.1590     9.3460    23.8260     2.3580   -22.8680 
  178.7500    79.5060    19.1890    16.5310    10.8480    24.0400     2.3570   -22.8360 
  178.8750    78.2650    24.0100    20.3780    14.3550    24.3540     2.3500   -22.8090 
  179.0000    77.7870    31.0360    26.0690    20.3400    24.6570     2.3360   -22.7420 
  179.1250    76.3170    40.8380    34.0270    29.7380    24.8710     2.3130   -22.6670 
  179.2500    71.6360    52.5110    43.4530    41.5430    24.9730     2.2870   -22.5590 
  179.3750    65.3620    64.8330    53.3800    55.2130    25.0220     2.2620   -22.4360 
  179.5000    60.3220    76.0780    62.5730    68.8810    25.0430     2.2410   -22.2660 
  179.6250    58.3410    83.9390    69.5400    77.3940    25.0500     2.2270   -22.0500 
  179.7500    58.4020    88.1180    74.1220    86.5430    25.0500     2.2210   -21.8200 
  179.8750    59.3030    89.0380    76.5130    92.5200    25.0500     2.2190   -21.5390 
  180.0000    59.8690    87.5480    77.0990    94.1620    25.0500     2.2180   -21.2100 
  180.1250    60.6430    83.8550    75.7310    90.2570    25.0400     2.2160   -20.8300 
  180.2500    61.8210    77.9370    72.2430    84.2740    25.0160     2.2160   -20.3890 
  180.3750    62.4550    69.1480    65.9350    78.3000    24.9880     2.2260   -19.9390 
  180.5000    61.6500    57.3700    56.4430    71.9410    24.9560     2.2580   -19.4150 
  180.6250    60.4780    43.7950    44.3370    65.0450    24.9050     2.3200   -18.8740 
  180.7500    61.2290    31.2320    32.3050    52.7360    24.8520     2.4000   -18.3170 
  180.8750    65.1080    21.3700    22.3350    31.5560    24.8170     2.4730   -17.7830 
  181.0000    73.3890    14.6250    15.2530    13.8230    24.8100     2.5190   -17.3100 
  181.1250    83.2210    10.8520    11.1280     6.9310    24.8290     2.5250   -16.9360 
  181.2500    88.2640     8.8280     8.7670     5.2640    24.8370     2.5090   -16.6900 
  181.3750    88.3000     7.9790     7.5970     5.2270    24.8370     2.4910   -16.5500 
  181.5000    87.0910     7.8810     7.2220     5.5040    24.8320     2.4820   -16.5650 
  181.6250    89.1980     8.2650     7.4220     5.6240    24.8170     2.4830   -16.7950 
  181.7500    93.2850     8.8410     7.9100     5.5690    24.7870     2.4870   -17.1780 
  181.8750    96.1680     9.5190     8.5780     5.7100    24.7560     2.4850   -17.6800 
  182.0000    96.2720    10.2960     9.3930     6.4200    24.7660     2.4720   -18.2310 
  182.1250    92.8840    11.2830    10.4200     7.2500    24.7900     2.4460   -18.8340 
  182.2500    87.0120    12.5880    11.7100     8.7570    24.8210     2.4150   -19.4270 
  182.3750    80.5850    14.3270    13.3330    11.5850    24.8520     2.3850   -20.0440 
  182.5000    75.3730    16.5420    15.2900    15.8720    24.8740     2.3600   -20.6480 
  182.6250    72.2000    19.1440    17.4540    18.1220    24.8610     2.3360   -21.2330 
  182.7500    70.9240    21.7230    19.4780    23.6670    24.8610     2.3110   -21.7470 
  182.8750    71.7890    23.8940    21.0410    29.1530    24.8710     2.2860   -22.2150 
  183.0000    73.5360    25.4150    21.9640    28.6370    24.8530     2.2680   -22.6620 
  183.1250    71.2600    26.4230    22.3930    22.8230    24.7980     2.2670   -23.0710 
  183.2500    66.7280    27.8120    23.1150    19.9570    24.7240     2.2830   -23.4620 
  183.3750    64.1880    30.6960    25.0770    20.9120    24.6880     2.3070   -23.7750 
  183.5000    64.2490    36.2870    29.3200    28.1950    24.7150     2.3270   -24.0720 
  183.6250    63.5340    46.3010    37.3100    36.9930    24.7970     2.3290   -24.2490 
