~V
VERS. 2.00: Ver 2.00
~W
STRT.M 55.0000:
STOP.M 246.0000:
STEP.M 0.1250:
NULL. -999.2500:
UWI. DF33025:
~C
DEPT.M :
SP.MV :
GR.API :
CALI.CM :
RXO.OHMM :
RI. :
RML.OHMM :
DEN.GM/CC :
~A
# ...
  178.7500   -18.2510    90.4900    25.0650    11.9340    11.0250    12.4800     2.4240 
  178.8750   -18.3380    89.7400    25.0160    12.6000    11.7270    13.1360     2.4110 
  179.0000   -18.4340    91.5760    25.0060    12.8980    12.2420    13.5860     2.4180 
  179.1250   -18.5270    92.5580    25.0230    13.4110    12.5220    13.8200     2.4280 
  179.2500   -18.6200    90.7370    25.0320    13.8490    12.6390    13.9250     2.4220 
  179.3750   -18.7040    90.2350    25.0350    13.7550    12.6140    13.9200     2.4120 
  179.5000   -18.7820    92.5830    25.0350    13.3230    12.4270    13.7850     2.4140 
  179.6250   -18.8890    94.2690    25.0360    13.2020    12.0090    13.4360     2.4260 
  179.7500   -18.9890    94.3950    25.0420    13.0670    11.4110    12.8950     2.4360 
  179.8750   -19.0810    93.3760    25.0500    12.3250    10.7320    12.2530     2.4380 
  180.0000   -19.1300    91.2600    25.0390    11.0500    10.1090    11.6500     2.4390 
  180.1250   -19.1950    89.9300    24.9760     9.9270     9.6890    11.2530     2.4430 
  180.2500   -19.2640    92.6710    24.8930     9.7170     9.4900    11.1080     2.4480 
  180.3750   -19.3510    97.1650    24.8980    10.1590     9.5000    11.2100     2.4500 
  180.5000   -19.4280    99.1870    24.9960    10.6490     9.6560    11.4850     2.4450 
  180.6250   -19.4790    96.9640    25.1950    10.6450     9.8410    11.7830     2.4410 
  180.7500   -19.5260    93.2260    25.3570    10.5560     9.9360    11.9500     2.4430 
  180.8750   -19.5830    89.0770    25.2870    10.4810     9.8890    11.9160     2.4470 
  181.0000   -19.6910    87.1740    25.1190    10.2500     9.7050    11.6840     2.4440 
  181.1250   -19.7960    89.2110    24.9290     9.8770     9.4310    11.3170     2.4340 
  181.2500   -19.9200    93.6500    24.8930     9.5290     9.1610    10.9500     2.4280 
  181.3750   -20.0340    98.0940    24.7070     9.3380     8.9620    10.6750     2.4260 
  181.5000   -20.1540   100.0600    24.6590     9.3150     8.8970    10.5820     2.4260 
  181.6250   -20.2700    99.0200    24.5780     9.5940     9.0550    10.7990     2.4270 
  181.7500   -20.3740    97.2210    24.7590    10.2520     9.4200    11.3020     2.4320 
  181.8750   -20.4410    97.1560    24.8880    11.2180     9.9420    12.0100     2.4420 
  182.0000   -20.4590    98.9690    24.9090    12.3740    10.5140    12.7590     2.4520 
  182.1250   -20.4900    98.6550    24.9500    13.6410    10.9550    13.2680     2.4490 
  182.2500   -20.4930    94.6430    24.9770    14.2690    11.1620    13.4140     2.4350 
  182.3750   -20.4870    89.8470    24.9440    13.6040    11.1390    13.2520     2.4190 
  182.5000   -20.4650    88.3400    24.8690    12.1170    10.9730    12.9660     2.4130 
  182.6250   -20.4430    90.1360    24.8130    11.2480    10.7630    12.7440     2.4220 
  182.7500   -20.4290    90.6690    24.7640    11.0950    10.5570    12.6110     2.4360 
  182.8750   -20.4290    89.1740    24.7270    11.5400    10.3520    12.4990     2.4420 
  183.0000   -20.4650    88.0550    24.7080    11.8810    10.1600    12.3540     2.4350 
  183.1250   -20.4690    89.5950    24.7050    11.4510    10.0930    12.3020     2.4210 
  183.2500   -20.4690    92.6280    24.7200    10.7940    10.2680    12.7640     2.4160 
  183.3750   -20.4590    94.8760    24.7340    10.7780    10.7540    13.7130     2.4160 
  183.5000   -20.4530    93.6220    24.7690    12.0520    11.5140    14.9270     2.4130 
  183.6250   -20.4300    89.2910    24.8310    14.8620    12.3630    16.2980     2.4060 
  183.7500   -20.3980    87.2340    24.8460    17.5760    13.0070    17.3110     2.3990 
  183.8750   -20.3850    90.5150    24.8160    17.3630    13.2750    17.6450     2.3910 
  184.0000   -20.3620    96.0030    24.7480    14.4880    13.1920    17.3480     2.3800 
  184.1250   -20.3630    98.5110    24.6550    13.0830    13.0540    16.9370     2.3670 
  184.2500   -20.3710   100.2380    24.6760    14.7750    13.2700    17.1010     2.3530 
  184.3750   -20.3790   101.8800    24.8130    17.8870    14.1620    18.3030     2.3360 
  184.5000   -20.3860   101.7950    24.9960    19.6860    16.0530    20.9250     2.3250 
  184.6250   -20.4090    97.8150    25.1100    23.6670    19.7400    25.8310     2.3280 
  184.7500   -20.4500    92.8760    25.1370    36.1830    25.6960    33.4150     2.3290 
  184.8750   -20.5140    87.1040    25.2120    54.8450    34.5570    44.3560     2.3130 
  185.0000   -20.5940    78.5560    25.3500    70.6970    46.5020    58.9200     2.2840 
  185.1250   -20.6620    71.2470    25.2070    82.7340    60.3070    75.6620     2.2630 
  185.2500   -20.7460    69.9880    25.1230    93.0820    72.1060    89.4160     2.2590 
  185.3750   -20.8480    72.6230    25.0710    94.3670    79.0040    96.1920     2.2670 
  185.5000   -20.9530    73.1760    25.0240    83.7420    80.8970    96.4820     2.2830 
  185.6250   -21.0890    71.6050    25.0180    69.6950    79.6810    93.7470     2.3010 
  185.7500   -21.2160    72.5180    25.1050    68.3530    77.8050    90.9490     2.3100 
  185.8750   -21.3240    74.9460    25.2580    75.0060    76.2940    88.9690     2.3070 
  186.0000   -21.3870    75.9970    25.5870    80.4100    75.6620    88.0430     2.2960 
  186.1250   -21.4770    75.4250    25.9260    81.0640    75.9370    87.7680     2.2810 
  186.2500   -21.5540    74.8850    25.9740    78.0900    76.3130    86.9730     2.2640 
  186.3750   -21.6090    73.5800    25.9010    73.8200    75.8610    84.4760     2.2480 
  186.5000   -21.6430    71.6470    25.7490    74.2930    73.7520    77.1840     2.2390 
  186.6250   -21.6090    70.4790    25.4610    79.1900    69.6360    72.8600     2.2430 
  186.7500   -21.5540    70.4220    25.3340    76.3850    64.7840    67.7620     2.2520 
  186.8750   -21.4630    70.9060    25.3120    62.9860    60.3170    63.0690     2.2600 
  187.0000   -21.3930    71.2480    25.3030    48.4140    56.9010    59.4800     2.2670 
  187.1250   -21.2430    70.5550    25.2710    43.4350    54.4140    56.8680     2.2770 
  187.2500   -21.0600    68.2960    25.2600    45.3560    51.4730    53.7780     2.2860 
  187.3750   -20.8640    65.4530    25.2800    46.9400    46.6130    48.6710     2.2960 
  187.5000   -20.6730    64.4350    25.3540    41.4120    39.1940    40.8770     2.3100 
  187.6250   -20.4930    66.1040    25.3880    30.1020    30.3850    31.6220     2.3220 
  187.7500   -20.3530    68.0870    25.4410    19.7540    22.5510    23.3920     2.3260 
  187.8750   -20.2580    72.6350    25.5490    13.3050    16.6710    17.2150     2.3250 
  188.0000   -20.2150    82.2600    25.6950     9.9410    12.7660    13.1120     2.3360 
  188.1250   -20.2730    92.8560    25.6030     8.5350    10.6590    10.8980     2.3630 
  188.2500   -20.4080    98.4580    25.5490     8.2980     9.7260     9.9180     2.3880 
  188.3750   -20.6060    99.1190    25.5380     8.7890     9.8350    10.0330     2.3970 
  188.5000   -20.8500    97.7950    25.5830    10.2760    11.0040    11.2610     2.3930 
  188.6250   -21.1580    94.0770    25.6670    14.5280    13.6400    14.0300     2.3820 
  188.7500   -21.4630    88.2810    25.7260    21.9400    17.8540    18.4580     2.3640 
  188.8750   -21.7540    81.8600    25.7090    31.3950    23.8660    24.7730     2.3370 
  189.0000   -22.0150    76.5290    25.6440    39.2590    31.5330    32.8280     2.3090 
  189.1250   -22.2100    77.7250    25.5450    43.5630    40.0880    41.8170     2.2920 
  189.2500   -22.3410    82.7380    25.5190    49.2340    48.1810    50.3190     2.2830 
  189.3750   -22.4040    85.4840    25.5420    58.9920    55.1300    57.6190     2.2760 
  189.5000   -22.4240    82.4960    25.5500    66.8730    60.7090    63.4810     2.2710 
  189.6250   -22.3550    78.4720    25.6090    68.8550    64.5050    67.4690     2.2700 
  189.7500   -22.2680    79.3880    25.5590    71.6150    66.5290    69.5950     2.2690 
  189.8750   -22.1260    82.9060    25.4680    77.4100    66.8410    69.9230     2.2650 
