~V
VERS. 2.00: Ver 2.00
~W
STRT.M 60.0000:
STOP.M 236.0000:
STEP.M 0.1250:
NULL. -999.2500:
UWI. DF33015:
~C
DEPT.M :
DEN.GM/CC :
GR.API :
RML.OHMM :
RI. :
RXO.OHMM :
CALI.CM :
SP.MV :
~A
# ...
  127.5000     2.2640    77.4950     7.9090     6.5650     5.4620    23.9860   -22.0050 
  127.6250     2.2810    77.8070     7.6950     6.3560     5.3340    24.0640   -22.2470 
  127.7500     2.2940    81.7470     7.4880     6.1830     5.4010    24.0560   -22.5540 
  127.8750     2.2980    88.2220     7.4430     6.1460     5.5110    23.9840   -22.8880 
  128.0000     2.2870    92.4790     7.7700     6.4040     5.7880    23.8880   -23.3050 
  128.1250     2.2640    90.5000     8.7950     7.2350     6.9190    23.7380   -23.7660 
  128.2500     2.2400    83.9090    10.5330     8.6840     9.3300    23.5910   -24.2480 
  128.3750     2.2260    76.2690    12.8900    10.7160    13.1330    23.5380   -24.7300 
  128.5000     2.2240    70.5470    15.5380    13.0920    17.1910    23.5570   -25.1420 
  128.6250     2.2250    68.1080    17.8310    15.2930    18.8380    23.5150   -25.5400 
  128.7500     2.2280    67.3520    19.2590    16.8150    18.5730    23.3690   -25.8530 
  128.8750     2.2230    66.6710    19.6770    17.4400    17.4920    23.1700   -26.0970 
  129.0000     2.2080    66.7480    19.3510    17.2960    15.8760    23.0550   -26.2410 
  129.1250     2.1870    69.4790    18.7170    16.7000    14.5400    23.0300   -26.2800 
  129.2500     2.1670    71.8910    18.0510    15.9760    14.2840    23.0300   -26.2470 
  129.3750     2.1520    72.6620    17.2700    15.1350    14.6930    23.0300   -26.1450 
  129.5000     2.1440    72.3180    16.2290    14.1090    14.3030    23.0300   -26.0030 
  129.6250     2.1430    71.6300    14.8920    12.8820    12.2020    23.0250   -25.7620 
  129.7500     2.1480    71.8950    13.5790    11.6770    10.0180    22.9950   -25.4750 
  129.8750     2.1580    74.7940    12.6660    10.7660     8.7570    22.9270   -25.1330 
  130.0000     2.1710    80.1930    12.4790    10.4050     8.7120    22.8600   -24.7640 
  130.1250     2.1900    82.7300    13.3280    10.8780    10.4150    22.8140   -24.3330 
  130.2500     2.2150    80.1070    14.9570    12.0420    13.4320    22.7770   -23.8910 
  130.3750     2.2480    74.9610    17.0220    13.6790    16.3540    22.7600   -23.3980 
  130.5000     2.2890    70.7600    19.0140    15.4160    17.5550    22.7690   -22.8530 
  130.6250     2.3330    68.7420    20.2710    16.7180    17.4460    22.8260   -22.2700 
  130.7500     2.3730    66.9800    20.6780    17.3790    16.9000    22.9900   -21.6690 
  130.8750     2.4070    64.6180    20.4920    17.4990    15.7980    23.2830   -21.0860 
  131.0000     2.4360    61.7960    20.2170    17.4220    14.8110    23.6420   -20.5340 
  131.1250     2.4670    59.4320    20.3780    17.5780    15.0250    23.7740   -20.0850 
  131.2500     2.5010    57.8980    21.0150    18.0910    16.2710    23.7670   -19.6550 
  131.3750     2.5370    55.0350    21.9360    18.8690    18.1730    23.7100   -19.3350 
  131.5000     2.5670    51.6950    22.8280    19.6940    19.9510    23.6760   -19.0930 
  131.6250     2.5840    51.6950    23.3020    20.2560    19.9970    23.6520   -18.9960 
  131.7500     2.5890    53.9880    23.2980    20.4470    18.7890    23.6230   -18.9590 
  131.8750     2.5870    54.6300    22.9530    20.3190    17.8680    23.5820   -19.0000 
  132.0000     2.5830    53.3220    22.5080    20.0340    17.7340    23.5000   -19.0630 
  132.1250     2.5770    52.8920    22.1560    19.7520    17.4880    23.3310   -19.1300 
  132.2500     2.5710    52.9440    21.8660    19.4990    16.9100    23.1830   -19.2490 
  132.3750     2.5610    53.3060    21.5110    19.2000    16.6050    23.1250   -19.3680 
  132.5000     2.5470    55.2380    20.9830    18.7700    16.5790    23.1180   -19.4780 
  132.6250     2.5310    58.5130    20.2780    18.1900    16.1140    23.1180   -19.5540 
  132.7500     2.5160    61.0410    19.5910    17.6070    15.3830    23.1180   -19.6340 
  132.8750     2.5060    60.6430    19.1180    17.1840    15.1620    23.1180   -19.6760 
  133.0000     2.5050    58.2250    19.0300    17.0710    15.7160    23.1180   -19.7160 
  133.1250     2.5130    57.6010    19.5590    17.4800    16.4950    23.1180   -19.7470 
  133.2500     2.5250    59.8520    20.6890    18.4160    16.8310    23.1180   -19.7830 
  133.3750     2.5360    62.3570    22.3570    19.8530    17.1630    23.1180   -19.7830 
  133.5000     2.5460    61.6270    24.3220    21.6190    18.4480    23.1180   -19.7950 
  133.6250     2.5520    58.4870    26.0210    23.2820    21.2010    23.1180   -19.7680 
  133.7500     2.5540    56.3170    26.8710    24.3170    23.5240    23.1140   -19.7370 
  133.8750     2.5510    56.7600    26.5130    24.3530    23.0020    23.0900   -19.6930 
  134.0000     2.5440    60.3470    25.0000    23.3330    19.4410    23.0300   -19.6310 
  134.1250     2.5370    63.6550    22.8350    21.5540    15.6670    22.9710   -19.5630 
  134.2500     2.5310    63.9560    20.8680    19.7550    13.6680    22.9360   -19.4110 
  134.3750     2.5250    61.8920    19.5370    18.3730    13.5560    22.9000   -19.3040 
  134.5000     2.5160    59.2480    18.9670    17.6060    14.4940    22.8570   -19.1540 
  134.6250     2.4990    56.0050    19.1280    17.5130    15.1400    22.8200   -19.0640 
  134.7500     2.4810    53.1510    19.6570    17.8190    15.3010    22.7830   -18.9230 
  134.8750     2.4660    52.4830    20.3130    18.3280    15.5660    22.7630   -18.8040 
  135.0000     2.4620    52.8430    20.8970    18.8590    16.0560    22.7750   -18.6910 
  135.1250     2.4690    53.1770    21.2420    19.2520    16.5710    22.9160   -18.6100 
  135.2500     2.4820    52.7840    21.3660    19.4780    17.0100    23.2650   -18.5750 
  135.3750     2.4920    51.9610    21.3530    19.5810    16.8950    23.7210   -18.5210 
  135.5000     2.4960    53.0130    21.3540    19.6680    16.0330    24.0320   -18.4770 
  135.6250     2.4960    55.7280    21.6240    19.9320    15.5580    24.0500   -18.4250 
  135.7500     2.4970    56.7340    22.2900    20.5020    16.5210    23.9800   -18.3880 
  135.8750     2.5020    54.8790    23.3510    21.4090    19.0750    23.8950   -18.3700 
  136.0000     2.5110    53.0560    24.6430    22.5520    22.4830    23.8960   -18.3550 
  136.1250     2.5180    53.3100    25.7940    23.6530    24.8990    24.0580   -18.3350 
  136.2500     2.5210    52.2920    26.4530    24.3920    24.8220    24.1710   -18.3030 
  136.3750     2.5210    49.3790    26.4380    24.5620    22.9550    24.2110   -18.3080 
  136.5000     2.5200    46.3560    25.7840    24.1320    21.0070    24.2170   -18.3180 
  136.6250     2.5210    45.9610    24.6960    23.2150    19.4890    24.2160   -18.3750 
  136.7500     2.5240    47.4260    23.5470    22.1530    18.2640    24.2110   -18.4010 
  136.8750     2.5320    48.5670    22.5250    21.1410    17.3660    24.1910   -18.4170 
  137.0000     2.5460    48.7870    21.7070    20.2880    16.7560    24.1510   -18.3790 
  137.1250     2.5620    48.6530    21.1200    19.6550    16.3150    24.1310   -18.3960 
  137.2500     2.5710    49.4340    20.6920    19.1930    15.9710    24.1090   -18.3880 
  137.3750     2.5670    52.5700    20.4080    18.8890    15.6280    24.0730   -18.4080 
  137.5000     2.5490    57.4860    20.2880    18.7450    15.2050    24.0450   -18.4280 
  137.6250     2.5290    61.5810    20.4190    18.8220    14.8580    24.0360   -18.3960 
  137.7500     2.5180    63.4820    20.8070    19.1150    14.9410    24.0410   -18.4250 
  137.8750     2.5230    63.0990    21.4260    19.6090    15.5010    24.0540   -18.4590 
  138.0000     2.5380    59.9020    22.1690    20.2280    16.1460    24.0590   -18.5320 
  138.1250     2.5530    55.8050    22.8190    20.8030    16.5850    23.9730   -18.5520 
  138.2500     2.5580    54.0450    23.1770    21.1550    16.7370    23.8360   -18.5990 
  138.3750     2.5540    54.5540    23.1450    21.1800    16.4460    23.7200   -18.5870 
  138.5000     2.5450    54.4400    22.7590    20.8820    15.7690    23.6550   -18.5750 
  138.6250     2.5380    51.4190    22.2060    20.3830    15.2780    23.6580   -18.5850 
