~V
VERS. 2.00: Ver 2.00
~W
STRT.M 55.0000:
STOP.M 272.0000:
STEP.M 0.1250:
NULL. -999.2500:
UWI. DF33042:
~C
DEPT.M :
SP.MV :
GR.API :
RML.OHMM :
RI. :
RXO.OHMM :
CALI.CM :
DEN.GM/CC :
~A
   55.0000    83.5520  -999.2500  -999.2500  -999.2500  -999.2500  -999.2500  -999.2500 
   55.1250    83.2250  -999.2500  -999.2500  -999.2500  -999.2500  -999.2500  -999.2500 
   55.2500    82.9650  -999.2500  -999.2500  -999.2500  -999.2500  -999.2500  -999.2500 
   55.3750    82.7970  -999.2500  -999.2500  -999.2500  -999.2500  -999.2500  -999.2500 
   55.5000    82.7140  -999.2500  -999.2500  -999.2500  -999.2500  -999.2500  -999.2500 
   55.6250    82.7520  -999.2500  -999.2500  -999.2500  -999.2500  -999.2500  -999.2500 
   55.7500    82.8690  -999.2500  -999.2500  -999.2500  -999.2500  -999.2500  -999.2500 
   55.8750    83.0280  -999.2500  -999.2500  -999.2500  -999.2500  -999.2500  -999.2500 
   56.0000    83.2260  -999.2500  -999.2500  -999.2500  -999.2500  -999.2500  -999.2500 
   56.1250    83.4410  -999.2500  -999.2500  -999.2500  -999.2500  -999.2500  -999.2500 
   56.2500    83.6160  -999.2500  -999.2500  -999.2500  -999.2500  -999.2500  -999.2500 
   56.3750    83.7090  -999.2500  -999.2500  -999.2500  -999.2500  -999.2500  -999.2500 
   56.5000    83.6330  -999.2500  -999.2500  -999.2500  -999.2500  -999.2500  -999.2500 
   56.6250    83.3140  -999.2500  -999.2500  -999.2500  -999.2500  -999.2500    -0.0200 
   56.7500    82.8550  -999.2500  -999.2500  -999.2500  -999.2500  -999.2500    -0.0200 
   56.8750    82.3310    46.0650   148.2250     0.5790  1035.5160    25.5360    -0.0460 
   57.0000    81.6850    46.0650   148.2250     0.5790  1035.5160    25.5360    -0.0700 
   57.1250    80.9160    46.9300   150.5370     0.5730  1035.5160    25.5370    -0.0320 
   57.2500    80.1070    48.1220   129.1800     0.5720  1035.5160    25.5380     0.2280 
   57.3750    79.2880    49.0510    97.3780     0.5740  1035.5160    25.5360     0.7220 
   57.5000    78.5470    48.6150    64.3790     0.5820  1035.5160    25.5350     1.3710 
   57.6250    77.8950    45.8120    38.1460     0.5970  1035.5160    25.5350     2.0470 
   57.7500    77.2610    44.1850    24.5440     0.6160  1035.5160    25.5350     2.0540 
   57.8750    76.6410    45.4670    18.8000     0.6370  1035.5160    25.5350     2.0690 
   58.0000    76.0920    47.1160    16.7740     0.6550  1035.5160    25.5350     2.0870 
   58.1250    75.6300    46.1870    16.7860     0.6690  1035.5160    25.5350     2.1020 
   58.2500    75.2060    45.2620    17.4420     0.6820  1035.5160    25.5350     2.1090 
   58.3750    74.8550    47.7010    17.9370     0.6950  1035.5160    25.5350     2.1070 
   58.5000    74.6500    52.1870    18.0770     0.7040  1035.5160    25.5350     2.0960 
   58.6250    74.6530    55.1790    18.7370     0.7010  1035.5160    25.5350     2.0810 
   58.7500    74.7160    56.6140    20.2940     0.6800  1035.5160    25.5350     2.0690 
   58.8750    74.6660    57.3260    21.8810     0.6410  1035.5160    25.5350     2.0620 
   59.0000    74.3620    57.9490    21.9530     0.5890  1035.5160    25.5350     2.0610 
   59.1250    73.6690    59.4140    18.7210     0.5280  1035.5160    25.5350     2.0760 
   59.2500    72.5050    60.1120    11.7660     0.4610  1035.5160    25.5350     2.1190 
   59.3750    70.5960    58.2180     3.8680     0.3810  1035.5160    25.5350     2.2120 
   59.5000    67.5850    55.8370     0.0840     0.2840  1035.5160    25.5350     2.3630 
   59.6250    62.8950    56.9730    -0.6780     0.1840  1035.5160    25.5350     2.5490 
   59.7500    56.5770    59.5560    -0.9240     0.1020   522.9310    25.5350     2.6840 
   59.8750    48.8220    59.2990    -1.0170     0.0500     0.7880    25.5350     2.6980 
   60.0000    40.1300    57.3120    -1.0010     0.0420    -3.2470    25.6120     2.5840 
   60.1250    31.0710    60.2670    -0.7510     0.1380    -3.5110    26.6300     2.3890 
   60.2500    22.1310    68.5150    -0.1720     0.3910    -3.5410    29.4160     2.1840 
   60.3750    13.6340    77.0350     0.7730     0.8570    -3.6580    33.3670     2.0080 
   60.5000     5.9130    81.3580     1.9740     1.5570    -3.7110    36.0760     1.8940 
   60.6250    -0.4640    82.6580     3.0540     2.4680    -1.4430    34.9910     1.8750 
   60.7500    -5.3910    85.3400     3.6520     3.4290     5.3470    30.8060     1.9350 
   60.8750    -8.9230    89.8700     3.8510     4.3220     5.7020    26.4500     2.0500 
   61.0000   -11.4220    94.4650     4.0120     5.0810     6.6430    24.3450     2.1780 
   61.1250   -13.3180    98.8380     4.3030     5.6470     8.3420    24.0160     2.2630 
   61.2500   -15.0060   102.4720     4.6030     6.0290     8.5630    23.9200     2.2940 
   61.3750   -16.5880   101.9110     4.8150     6.2400     6.8860    23.8220     2.2910 
   61.5000   -18.0340    95.8970     4.9390     6.3420     6.0640    23.6950     2.2780 
   61.6250   -19.2980    90.1510     5.0660     6.4270     6.4730    23.5770     2.2710 
   61.7500   -20.4060    89.8640     5.2620     6.5490     6.7540    23.5250     2.2710 
   61.8750   -21.3540    91.1470     5.5120     6.7050     6.7860    23.5300     2.2700 
   62.0000   -22.1550    86.9890     5.7630     6.8630     7.4090    23.5460     2.2630 
   62.1250   -22.8330    80.8420     5.9580     6.9870     7.8280    23.5770     2.2490 
   62.2500   -23.4070    78.6910     6.0990     7.0740     7.6560    23.6560     2.2320 
   62.3750   -23.8890    80.2610     6.1820     7.1360     6.8170    23.7800     2.2190 
   62.5000   -24.3350    81.5550     6.1920     7.1820     6.4160    23.8640     2.2100 
   62.6250   -24.7420    82.0830     6.1280     7.2100     6.9720    23.8720     2.2040 
   62.7500   -25.1170    82.7090     6.0580     7.2090     7.3890    23.8660     2.1990 
   62.8750   -25.4790    82.4240     6.0450     7.1700     6.8240    23.8800     2.1940 
   63.0000   -25.8440    81.2600     6.1090     7.0900     6.4800    23.8800     2.1910 
   63.1250   -26.2090    80.4440     6.2060     6.9770     6.8860    23.7970     2.1960 
   63.2500   -26.5620    79.9890     6.2600     6.8640     7.3440    23.7260     2.2090 
   63.3750   -26.8740    80.4700     6.2450     6.7700     7.1790    23.6820     2.2230 
   63.5000   -27.1090    80.2110     6.1980     6.7150     7.0800    23.6350     2.2310 
   63.6250   -27.3490    76.6690     6.2270     6.7380     8.0200    23.5800     2.2270 
   63.7500   -27.7020    72.8280     6.4290     6.8650     8.4260    23.5570     2.2150 
   63.8750   -28.1600    72.4390     6.8750     7.1240     7.8560    23.5480     2.1990 
   64.0000   -28.7090    74.7590     7.5790     7.5180     6.9530    23.5290     2.1840 
   64.1250   -29.3280    74.4670     8.4700     8.0100     7.1000    23.4840     2.1710 
   64.2500   -29.9400    71.8280     9.3140     8.4880     7.9650    23.4450     2.1620 
   64.3750   -30.5480    68.6390     9.9100     8.8550     8.6270    23.4280     2.1560 
   64.5000   -31.1640    65.3000    10.1350     9.0500     8.9810    23.4320     2.1540 
   64.6250   -31.7030    64.3680     9.9340     9.0500     9.2220    23.4620     2.1570 
   64.7500   -32.0930    65.3700     9.4980     8.9480     9.2630    23.5090     2.1590 
   64.8750   -32.3630    64.1050     8.9920     8.8120     9.0220    23.5430     2.1570 
   65.0000   -32.5020    59.7110     8.5660     8.6760     8.9530    23.5620     2.1500 
   65.1250   -32.4890    58.1580     8.3280     8.5470     8.9870    23.5920     2.1400 
   65.2500   -32.3870    61.4190     8.2620     8.4390     8.9260    23.6370     2.1390 
   65.3750   -32.2120    65.8180     8.3500     8.3930     8.7520    23.6710     2.1580 
   65.5000   -32.0460    68.5780     8.5640     8.4570     8.3890    23.6870     2.2080 
   65.6250   -31.9180    69.1190     8.8850     8.6550     8.5820    23.6930     2.2850 
   65.7500   -31.8390    68.5560     9.2260     8.8970    10.2300    23.6790     2.3560 
   65.8750   -31.7780    67.7150     9.4650     9.0670    12.3570    23.6120     2.3890 
   66.0000   -31.7180    66.7670     9.4750     9.0550    10.6350    23.4630     2.3670 
   66.1250   -31.6770    65.8710     9.1940     8.7820     8.9720    23.3780     2.2990 
