~V
VERS. 2.00: Ver 2.00
~W
STRT.M 55.0000:
STOP.M 252.0000:
STEP.M 0.1250:
NULL. -999.2500:
UWI. DF33023:
~C
DEPT.M :
GR.API :
CALI.CM :
RXO.OHMM :
RI. :
RML.OHMM :
DEN.GM/CC :
SP.MV :
~A
# ...
  190.0000    47.4530    27.2830     4.8680     3.8490     4.3430     2.4670   -20.9390 
  190.1250    49.8870    28.1530     4.5570     3.6370     4.2640     2.4150   -20.8510 
  190.2500    51.3980    28.4210     4.4930     3.6220     4.4550     2.3850   -20.7580 
  190.3750    51.6240    28.3930     4.4620     3.7510     4.7950     2.3790   -20.6840 
  190.5000    49.3970    28.5360     4.4160     3.9580     5.1650     2.3900   -20.6220 
  190.6250    45.8590    28.9660     4.3870     4.1740     5.4570     2.4180   -20.5690 
  190.7500    43.8600    29.4170     4.4200     4.3520     5.6510     2.4490   -20.5290 
  190.8750    44.2130    29.9390     4.4590     4.4770     5.7560     2.4680   -20.4920 
  191.0000    43.8450    30.6640     4.4490     4.5490     5.7940     2.4610   -20.4510 
  191.1250    39.9440    31.2830     4.4390     4.5750     5.7830     2.4360   -20.4110 
  191.2500    36.7070    31.3980     4.5150     4.5730     5.7490     2.4170   -20.3830 
  191.3750    36.6840    31.0690     4.7040     4.5520     5.7000     2.4220   -20.3580 
  191.5000    38.0070    30.7250     4.9790     4.5210     5.6490     2.4480   -20.3340 
  191.6250    38.0120    30.6250     5.1420     4.5060     5.6380     2.4790   -20.3240 
  191.7500    39.1370    30.5200     5.0050     4.5280     5.7030     2.4990   -20.3260 
  191.8750    42.4390    30.2200     4.7310     4.5990     5.8690     2.5100   -20.3360 
  192.0000    45.9650    29.5440     4.7040     4.7130     6.1260     2.5150   -20.3530 
  192.1250    47.5440    28.3370     5.0130     4.8460     6.4150     2.5050   -20.3700 
  192.2500    48.8270    27.0850     5.1620     4.9470     6.6310     2.4750   -20.3800 
  192.3750    50.1250    26.5350     4.9190     4.9860     6.7070     2.4390   -20.3790 
  192.5000    50.9310    27.0400     4.4800     4.9470     6.6250     2.4140   -20.3730 
  192.6250    50.7240    28.2210     4.1920     4.8420     6.4280     2.4090   -20.3730 
  192.7500    50.9930    29.3380     4.0970     4.7300     6.2440     2.4110   -20.3750 
  192.8750    51.2010    30.0820     4.1070     4.6710     6.1800     2.4060   -20.3890 
  193.0000    51.3370    30.2360     4.1750     4.7140     6.3080     2.3960   -20.4220 
  193.1250    54.9330    29.4130     4.4990     4.8980     6.6780     2.3920   -20.4870 
  193.2500    63.5030    27.9030     5.3580     5.1840     7.2040     2.3980   -20.5880 
  193.3750    74.8710    26.2950     6.6180     5.5290     7.7890     2.4090   -20.7390 
  193.5000    83.8000    25.1570     7.5180     5.8650     8.3190     2.4270   -20.9390 
  193.6250    86.1250    24.7860     7.4190     6.1140     8.6800     2.4490   -21.1670 
  193.7500    86.5770    24.8520     7.1420     6.2680     8.8990     2.4650   -21.4100 
  193.8750    88.7960    25.0920     7.3580     6.3500     9.0390     2.4700   -21.6640 
  194.0000    93.2710    25.3050     7.9060     6.4010     9.1600     2.4610   -21.9100 
  194.1250    94.8590    25.3690     8.2750     6.4550     9.2920     2.4410   -22.1640 
  194.2500    92.2790    25.3520     8.4640     6.5080     9.4130     2.4250   -22.4350 
  194.3750    90.4220    25.2840     8.5630     6.5350     9.4880     2.4210   -22.7270 
  194.5000    91.2180    25.1820     8.4840     6.5190     9.5020     2.4290   -23.0710 
  194.6250    91.3950    25.0630     8.1240     6.4550     9.4540     2.4410   -23.5130 
  194.7500    89.4730    24.8480     7.7120     6.3730     9.3780     2.4470   -24.0890 
  194.8750    89.0890    24.4880     7.5110     6.3010     9.3090     2.4420   -24.8220 
  195.0000    91.9970    24.1300     7.6140     6.2780     9.3090     2.4220   -25.7120 
  195.1250    93.6310    24.1230     7.8670     6.3580     9.4800     2.3960   -26.7400 
  195.2500    92.8160    24.3800     8.2230     6.5540     9.8430     2.3780   -27.8540 
  195.3750    91.3860    24.4950     9.0090     6.8620    10.3910     2.3610   -28.9930 
  195.5000    91.1070    24.2210    10.4660     7.2510    11.0630     2.3410   -30.0790 
  195.6250    88.7710    23.7700    12.1830     7.6590    11.7420     2.3280   -30.9930 
  195.7500    83.5860    23.4970    13.2910     8.0040    12.2850     2.3390   -31.6630 
  195.8750    78.9700    23.4020    13.4720     8.2170    12.5830     2.3700   -32.0430 
  196.0000    78.4170    23.3930    13.0260     8.2520    12.5690     2.3980   -32.1530 
  196.1250    81.0680    23.5700    12.4940     8.0740    12.2000     2.4100   -31.9970 
  196.2500    84.1070    23.9360    11.9800     7.7490    11.6020     2.4190   -31.6600 
  196.3750    87.1680    24.3580    11.2350     7.3430    10.8980     2.4260   -31.2320 
  196.5000    89.0710    24.6900    10.1790     6.9470    10.2540     2.4170   -30.8010 
  196.6250    88.9580    24.8690     9.0220     6.6850     9.9000     2.3830   -30.5120 
  196.7500    88.6250    24.9730     8.1460     6.6180     9.9230     2.3460   -30.4380 
  196.8750    87.6200    25.0330     8.0960     6.7800    10.3540     2.3250   -30.6010 
  197.0000    85.8460    24.9820     9.3670     7.1590    11.1290     2.3250   -30.9720 
  197.1250    85.0750    24.7020    11.6050     7.6880    12.0520     2.3430   -31.5050 
  197.2500    84.6550    24.3260    13.2180     8.1970    12.7990     2.3690   -32.1040 
  197.3750    82.2720    24.0400    13.6190     8.5560    13.1500     2.3920   -32.7000 
  197.5000    78.2530    23.9090    13.3520     8.6980    13.0420     2.4060   -33.2410 
  197.6250    78.0750    23.9310    13.0990     8.6320    12.5930     2.4170   -33.6700 
  197.7500    81.1390    24.0710    12.9340     8.4980    12.1220     2.4320   -33.9490 
  197.8750    83.8340    24.2280    12.8640     8.3980    11.8220     2.4450   -34.0530 
  198.0000    85.4020    24.2340    13.0520     8.4220    11.8400     2.4470   -33.9730 
  198.1250    85.8680    24.0890    13.7440     8.7090    12.4060     2.4360   -33.6940 
  198.2500    84.1210    24.0140    14.6870     9.3050    13.5220     2.4300   -33.2340 
  198.3750    78.9750    24.0700    15.5770    10.1830    15.0560     2.4450   -32.5870 
  198.5000    72.7310    24.1680    16.8340    11.1270    16.5460     2.4900   -31.7630 
  198.6250    69.6730    24.2400    19.1340    11.5680    16.9200     2.5490   -30.7090 
  198.7500    71.4150    24.2470    19.9930    11.1170    15.6400     2.5840   -29.4450 
  198.8750    76.5710    24.0470    16.7520     9.8160    13.0330     2.5770   -27.9940 
  199.0000    80.0120    23.6960    10.8570     8.1340    10.1000     2.5370   -26.4240 
  199.1250    76.9020    23.6750     6.8830     6.6530     7.8450     2.4950   -24.8220 
  199.2500    72.7290    24.1130     5.4120     5.6030     6.4400     2.4710   -23.2940 
  199.3750    71.2900    24.6600     5.0860     5.0000     5.7740     2.4640   -21.9040 
  199.5000    70.9380    24.9390     5.0230     4.7730     5.6410     2.4590   -20.6850 
  199.6250    71.3560    24.9300     4.9810     4.8420     5.8360     2.4500   -19.6910 
  199.7500    75.1330    24.8640     4.9980     5.0350     6.0990     2.4480   -18.9210 
  199.8750    80.9170    24.8050     5.1300     5.2640     6.3300     2.4610   -18.3740 
  200.0000    84.5480    24.7850     5.3800     5.4790     6.5020     2.4770   -18.0010 
  200.1250    84.3330    24.7830     5.6580     5.6440     6.6040     2.4690   -17.7710 
  200.2500    83.5210    24.7650     5.8360     5.7440     6.6340     2.4410   -17.6080 
  200.3750    81.6980    24.7400     5.8560     5.7690     6.5860     2.4170   -17.4750 
  200.5000    78.9880    24.7100     5.7060     5.7200     6.4690     2.4170   -17.3470 
  200.6250    78.6130    24.6670     5.4880     5.6090     6.3120     2.4400   -17.2340 
  200.7500    80.9870    24.6260     5.3950     5.4740     6.1590     2.4590   -17.1370 
  200.8750    84.7150    24.6160     5.4530     5.3370     6.0280     2.4590   -17.0740 
  201.0000    89.4640    24.6360     5.5300     5.2200     5.9380     2.4490   -17.0590 
  201.1250    95.2420    24.6540     5.5280     5.1760     5.9580     2.4490   -17.0850 
