~V
VERS. 2.00: Ver 2.00
~W
STRT.M 55.0000:
STOP.M 245.0000:
STEP.M 0.1250:
NULL. -999.2500:
UWI. DF33016:
~C
DEPT.M :
GR.API :
CALI.CM :
RXO.OHMM :
RI. :
RML.OHMM :
DEN.GM/CC :
SP.MV :
~A
# ...
  212.5000    89.4290    23.4740     8.7550     8.5350     8.4040     2.4960   -20.9690 
  212.6250    90.7490    23.5500     8.9300     8.5030     8.6990     2.4810   -21.2020 
  212.7500    92.2160    23.5770     8.9730     8.4270     8.9710     2.4510   -21.3140 
  212.8750    93.7290    23.5270     8.8180     8.2730     9.0700     2.4280   -21.3750 
  213.0000    95.0900    23.4200     8.5890     8.0230     8.9020     2.4180   -21.5000 
  213.1250    99.3420    23.2870     8.4010     7.7180     8.5560     2.4140   -21.5440 
  213.2500   106.5970    23.2320     8.2040     7.5180     8.3490     2.4100   -21.6060 
  213.3750   111.9550    23.3410     8.0270     7.6090     8.5440     2.4090   -21.7190 
  213.5000   111.4980    23.3170     8.1730     8.1810     9.3370     2.4150   -21.8900 
  213.6250   108.2510    23.2880     9.8900     9.5810    11.0480     2.4170   -22.0360 
  213.7500   105.3540    23.2900    14.2750    11.9180    13.7730     2.4060   -22.1890 
  213.8750   100.7750    23.4470    20.4840    15.2880    17.6220     2.3870   -22.3730 
  214.0000    92.5360    23.5470    25.8470    19.4700    22.3500     2.3730   -22.4330 
  214.1250    84.8630    23.6330    28.7860    23.5050    26.8030     2.3620   -22.4050 
  214.2500    80.5760    23.5160    30.9760    26.1110    29.4640     2.3460   -22.3020 
  214.3750    77.8180    23.4510    32.5250    26.7800    29.8010     2.3290   -22.0010 
  214.5000    75.4700    23.4360    32.5200    26.0300    28.5450     2.3210   -21.5360 
  214.6250    76.3600    23.4300    30.0920    24.9180    27.0590     2.3270   -21.0340 
  214.7500    78.2020    23.4200    26.7940    24.2470    26.2240     2.3450   -20.4500 
  214.8750    77.1510    23.4160    25.0480    24.1140    26.0970     2.3760   -19.7290 
  215.0000    72.4210    23.4050    26.4070    24.1960    26.2370     2.4170   -19.0290 
  215.1250    68.2220    23.3740    29.5640    23.6980    25.6770     2.4660   -18.3550 
  215.2500    66.5390    23.3350    29.9830    22.1210    23.8740     2.5120   -17.6080 
  215.3750    66.6660    23.3340    25.6390    19.5030    20.9130     2.5320   -16.9340 
  215.5000    68.8980    23.3880    18.5980    16.3380    17.3890     2.5200   -16.3450 
  215.6250    71.5050    23.4370    13.6990    13.3270    14.0870     2.4830   -15.6860 
  215.7500    74.6490    23.4430    11.0340    10.8490    11.4020     2.4410   -15.0550 
  215.8750    79.7550    23.4010     9.2850     8.9920     9.4090     2.4100   -14.5110 
  216.0000    85.9540    23.3350     7.4880     7.7160     8.0550     2.3890   -14.0150 
  216.1250    89.8690    23.4390     6.2670     6.9780     7.3370     2.3690   -13.5990 
  216.2500    89.2560    23.6010     6.2190     6.5830     7.0300     2.3520   -13.3040 
  216.3750    83.7100    23.5220     6.9060     6.4540     7.0300     2.3470   -13.0920 
  216.5000    75.9780    23.3260     7.4120     6.5440     7.2670     2.3540   -12.8990 
  216.6250    73.4620    23.1880     7.2410     6.8370     7.6870     2.3690   -12.8650 
  216.7500    76.1410    23.1730     7.2910     7.2490     8.1820     2.3840   -12.8960 
  216.8750    76.9300    23.2510     8.4220     7.7450     8.7240     2.4000   -12.8990 
  217.0000    72.9510    23.3840    10.2830     8.2890     9.3470     2.4220   -12.9110 
  217.1250    71.1770    23.5370    10.9140     8.8490    10.1050     2.4450   -12.9140 
  217.2500    74.3480    23.4980    10.5890     9.3850    10.9320     2.4620   -12.8800 
  217.3750    77.2970    23.4090    10.7510     9.8700    11.7130     2.4630   -12.8380 
  217.5000    77.8210    23.4270    11.7960    10.2810    12.2810     2.4590   -12.8560 
  217.6250    80.2930    23.6150    12.2740    10.5680    12.4830     2.4560   -12.8150 
  217.7500    84.3270    23.4210    11.9530    10.7160    12.4100     2.4580   -12.7250 
  217.8750    84.5500    23.3810    11.5380    10.6920    12.1310     2.4590   -12.7170 
  218.0000    80.4340    23.6020    11.3580    10.5140    11.7130     2.4500   -12.6970 
  218.1250    78.1030    23.9290    10.9850    10.2500    11.2860     2.4320   -12.6610 
  218.2500    79.9300    23.7500    10.4470     9.9990    11.0260     2.4170   -12.6970 
  218.3750    82.6040    23.4290    10.1710     9.8170    11.0510     2.4240   -12.6930 
  218.5000    82.9560    23.2500    10.4060     9.7220    11.3590     2.4440   -12.6300 
  218.6250    81.9870    23.3900    11.0960     9.7120    11.7900     2.4560   -12.6070 
  218.7500    81.2440    23.7600    11.7640     9.7350    12.0890     2.4440   -12.6090 
  218.8750    81.6380    24.1340    11.6610     9.7490    12.1580     2.4120   -12.6060 
  219.0000    82.0370    24.3860    10.7260     9.7280    12.0310     2.3910   -12.6120 
  219.1250    82.0710    24.3120     9.7170     9.6290    11.8460     2.3890   -12.6120 
  219.2500    83.0590    24.0010     9.2260     9.4580    11.7490     2.3890   -12.6000 
  219.3750    84.4150    23.6490     8.9570     9.2380    11.7740     2.3780   -12.5780 
  219.5000    84.2080    23.5370     8.7930     9.0350    11.9130     2.3630   -12.6000 
  219.6250    81.7630    23.6400     8.8880     8.9850    12.1520     2.3510   -12.6520 
  219.7500    80.6380    23.5490     9.2170     9.1380    12.4250     2.3430   -12.6850 
  219.8750    81.7930    23.6580    10.2070     9.4700    12.6650     2.3460   -12.6870 
  220.0000    83.3420    23.6720    12.5730     9.8550    12.8140     2.3680   -12.6790 
  220.1250    83.9690    23.8040    17.2100    10.0740    12.7990     2.4020   -12.6390 
  220.2500    83.2540    23.6860    18.3330    10.0280    12.5710     2.4360   -12.5840 
  220.3750    81.4700    23.4710    15.5370     9.7470    12.1470     2.4610   -12.5710 
  220.5000    79.1170    23.5100    12.8920     9.3630    11.6730     2.4740   -12.4840 
  220.6250    78.0370    23.8270    11.7810     9.0290    11.3410     2.4780   -12.3600 
  220.7500    79.5220    23.9130    11.1150     8.8170    11.1960     2.4750   -12.2580 
  220.8750    82.6860    24.0660    10.0770     8.7180    11.1830     2.4720   -12.1470 
  221.0000    85.0050    24.1330     9.3230     8.6730    11.1590     2.4730   -12.0570 
  221.1250    82.9790    24.0940     9.0860     8.5940    10.9310     2.4760   -11.9550 
  221.2500    78.4010    24.0740     9.0050     8.4480    10.5080     2.4780   -11.8010 
  221.3750    74.7790    24.2990     8.7790     8.2820    10.0460     2.4700   -11.6470 
  221.5000    74.4670    24.3400     8.4050     8.1580     9.7600     2.4600   -11.5020 
  221.6250    77.3230    23.9990     8.2280     8.1410     9.7740     2.4630   -11.2620 
  221.7500    77.8310    23.6100     8.3260     8.2240     9.9310     2.4810   -11.0440 
  221.8750    74.7950    23.6480     8.6480     8.3710    10.0740     2.4910   -10.8540 
  222.0000    70.8240    23.9950     9.0070     8.5420    10.1210     2.4750   -10.6170 
  222.1250    70.6210    23.8730     9.6100     8.6910    10.1160     2.4470   -10.4830 
  222.2500    72.4630    23.5190    11.2720     8.7970    10.1690     2.4310   -10.3400 
  222.3750    73.5860    23.4020    14.5310     8.8340    10.3030     2.4410   -10.1690 
  222.5000    74.9670    23.4880    17.5300     8.7710    10.4380     2.4640   -10.0440 
  222.6250    76.5730    23.4500    16.7240     8.5950    10.4220     2.4890   -10.0350 
  222.7500    75.3400    23.7140    13.0130     8.3420    10.2430     2.5050    -9.9950 
  222.8750    71.1270    24.0260     9.5120     8.0620     9.9340     2.5030    -9.9600 
  223.0000    68.2580    24.1770     7.5600     7.8200     9.5700     2.4930    -9.9770 
  223.1250    69.8930    24.2080     6.8900     7.6700     9.3120     2.4860    -9.9140 
  223.2500    71.1370    24.2130     6.9300     7.6350     9.3010     2.4860    -9.9070 
  223.3750    69.8420    24.0320     7.4900     7.7310     9.5430     2.4910    -9.9400 
  223.5000    67.3440    23.5190     8.2350     7.9510     9.9110     2.5000    -9.9400 
  223.6250    66.2700    23.2520     8.6490     8.2620    10.2200     2.5130    -9.9080 
