~V
VERS. 2.00: Ver 2.00
~W
STRT.M 55.0000:
STOP.M 272.0000:
STEP.M 0.1250:
NULL. -999.2500:
UWI. DF33042:
~C
DEPT.M :
SP.MV :
GR.API :
RML.OHMM :
RI. :
RXO.OHMM :
CALI.CM :
DEN.GM/CC :
~A
# ...
  235.0000   -25.3780    64.5820    73.0510    63.1200    71.7440    23.8420     2.2720 
  235.1250   -25.3920    66.7110    69.6260    60.1800    62.6740    23.8200     2.2800 
  235.2500   -25.4420    67.9070    67.5520    58.1780    52.8590    23.7910     2.2850 
  235.3750   -25.5110    68.5680    66.9220    57.4980    52.0170    23.7790     2.2880 
  235.5000   -25.5860    67.0820    67.5410    58.1900    62.9750    23.7770     2.2860 
  235.6250   -25.6860    64.1130    69.1810    60.1480    69.4040    23.7770     2.2790 
  235.7500   -25.8400    61.9400    71.3040    62.7090    66.9200    23.7770     2.2740 
  235.8750   -26.0090    60.7820    73.5970    65.4100    62.8870    23.7770     2.2730 
  236.0000   -26.2100    62.9350    75.7900    67.8480    62.6820    23.7770     2.2800 
  236.1250   -26.3390    67.1120    77.5240    69.6050    65.4390    23.7780     2.2960 
  236.2500   -26.4280    68.7540    78.5800    70.5540    67.5120    23.7860     2.3160 
  236.3750   -26.4710    68.8630    78.7440    70.5470    68.3420    23.8030     2.3310 
  236.5000   -26.5110    70.3050    77.9170    69.5270    70.8630    23.8120     2.3350 
  236.6250   -26.4820    72.2260    76.1300    67.5720    71.4090    23.7920     2.3230 
  236.7500   -26.4230    71.5870    74.0460    65.4010    67.1470    23.7800     2.3040 
  236.8750   -26.2860    68.7540    72.5020    63.8440    61.7200    23.7770     2.2850 
  237.0000   -26.1030    65.0260    72.6340    63.9160    61.8170    23.7770     2.2730 
  237.1250   -25.8730    63.3540    76.3410    67.1890    59.5560    23.7860     2.2700 
  237.2500   -25.6340    65.3240    83.9020    73.8250    64.4920    23.7990     2.2690 
  237.3750   -25.3490    66.6710    94.7000    83.4020    79.6650    23.7970     2.2670 
  237.5000   -25.0490    64.7550   106.5480    94.2930   105.4570    23.7860     2.2620 
  237.6250   -24.6900    63.2900   114.8820   103.0160   143.5360    23.7780     2.2530 
  237.7500   -24.2740    65.2290   116.1930   106.5040   148.4890    23.7820     2.2380 
  237.8750   -23.8810    67.8960   109.0780   103.0700   118.8330    23.7970     2.2190 
  238.0000   -23.4570    68.5540    95.1400    93.0810    91.9800    23.8270     2.1990 
  238.1250   -23.0770    69.4150    78.2650    78.6400    81.3750    23.8350     2.1880 
  238.2500   -22.6700    70.9670    62.8140    63.9060    72.0050    23.8070     2.1910 
  238.3750   -22.3130    72.1680    50.4990    51.2090    57.0440    23.7430     2.2120 
  238.5000   -21.9630    72.7820    41.6610    41.6380    40.3620    23.6920     2.2450 
  238.6250   -21.7040    72.7150    36.2570    35.6400    28.9230    23.6970     2.2800 
  238.7500   -21.4630    72.7800    32.9330    31.9550    23.8170    23.6930     2.3040 
  238.8750   -21.2500    73.4520    30.8950    29.7490    24.8920    23.6490     2.3160 
  239.0000   -21.1160    75.2650    29.4710    28.2740    29.8070    23.5750     2.3200 
  239.1250   -21.0200    76.9650    28.3060    27.0640    30.2260    23.4720     2.3200 
  239.2500   -20.9790    77.2230    27.4800    26.0660    27.8450    23.4300     2.3200 
  239.3750   -20.9570    78.5840    27.4950    25.6790    22.8950    23.4430     2.3200 
  239.5000   -20.9580    81.3680    29.0340    26.5140    19.1020    23.5310     2.3170 
  239.6250   -20.9470    80.7280    33.0730    29.4950    24.0950    23.7270     2.3080 
  239.7500   -20.9960    74.8550    39.2800    34.4620    39.3090    23.9750     2.2950 
  239.8750   -21.0310    67.8070    46.8990    40.8810    55.0910    24.1490     2.2830 
  240.0000   -21.0390    64.0820    54.5160    47.6020    62.4430    24.2250     2.2750 
  240.1250   -20.9390    62.6350    59.8900    52.7290    65.7220    24.2400     2.2730 
  240.2500   -20.7960    60.5140    62.0700    55.2510    66.6530    24.2450     2.2750 
  240.3750   -20.5890    58.3840    61.1970    55.0760    66.3730    24.2460     2.2760 
  240.5000   -20.3450    57.8720    58.3140    52.9440    65.6060    24.2460     2.2730 
  240.6250   -20.0470    60.1040    54.5990    49.8450    64.3000    24.2460     2.2630 
  240.7500   -19.6680    63.0890    51.0350    46.7700    59.2440    24.2460     2.2540 
  240.8750   -19.2560    66.0850    48.0150    44.1110    50.6470    24.2460     2.2580 
  241.0000   -18.8080    67.9120    45.5590    41.9020    44.4880    24.2460     2.2880 
  241.1250   -18.3960    65.9800    43.1690    39.7460    43.1870    24.2440     2.3520 
  241.2500   -17.9760    62.9060    40.0970    37.0410    45.5720    24.2350     2.4270 
  241.3750   -17.6140    61.7070    35.9610    33.4750    47.7090    24.2220     2.4870 
  241.5000   -17.2960    63.4720    30.9600    29.1780    42.7510    24.2320     2.5080 
  241.6250   -17.0460    65.4900    25.9970    24.8130    31.4310    24.2410     2.4800 
  241.7500   -16.8510    66.7320    22.0890    21.1900    21.4880    24.2460     2.4310 
  241.8750   -16.7240    67.3050    19.8080    18.7970    16.8310    24.2460     2.3810 
  242.0000   -16.6500    67.0700    19.3370    17.8490    16.2040    24.2460     2.3470 
  242.1250   -16.6370    65.1440    20.6810    18.4870    17.1520    24.2540     2.3410 
  242.2500   -16.6900    62.4430    22.9090    20.0470    17.6510    24.2740     2.3580 
  242.3750   -16.7620    60.3370    25.1390    21.8470    20.0480    24.2910     2.3850 
  242.5000   -16.8410    59.5560    26.4320    23.0610    27.2070    24.2960     2.4060 
  242.6250   -16.9450    58.6660    25.8420    22.7580    35.3130    24.3020     2.3990 
  242.7500   -17.0700    57.3900    23.7900    21.1440    25.6430    24.3000     2.3650 
  242.8750   -17.1680    58.5810    21.1100    18.8940    16.9880    24.3040     2.3190 
  243.0000   -17.2570    63.8040    18.7910    16.8690    14.3460    24.3100     2.2770 
  243.1250   -17.3410    67.6990    17.7730    15.8510    14.4670    24.3140     2.2540 
  243.2500   -17.4280    65.3390    18.1210    15.8740    14.7320    24.3140     2.2450 
  243.3750   -17.4470    60.3360    19.6750    16.7870    15.9240    24.3140     2.2450 
  243.5000   -17.4410    58.2720    21.9720    18.2470    18.9810    24.3140     2.2460 
  243.6250   -17.3610    59.0550    24.2170    19.7060    23.5050    24.3140     2.2460 
  243.7500   -17.2710    58.4460    25.6230    20.6260    24.6290    24.3140     2.2450 
  243.8750   -17.2040    58.0970    25.7940    20.7190    22.7850    24.3140     2.2430 
  244.0000   -17.1070    60.8780    24.7910    19.9770    21.6250    24.3120     2.2420 
  244.1250   -17.0170    67.5490    23.0860    18.6500    22.4150    24.3090     2.2450 
  244.2500   -16.8610    73.4400    21.5220    17.3300    20.4270    24.3070     2.2530 
  244.3750   -16.8040    75.3300    20.6740    16.4700    17.6960    24.3040     2.2680 
  244.5000   -16.7480    72.4740    21.0280    16.4850    16.8560    24.2940     2.2900 
  244.6250   -16.8050    69.0400    23.3270    18.0060    18.6520    24.2910     2.3220 
  244.7500   -16.8340    69.6470    27.5030    21.0600    22.9800    24.2990     2.3600 
  244.8750   -16.8730    73.8670    33.2150    25.4800    33.1500    24.3090     2.3960 
  245.0000   -16.9390    78.2100    39.4650    30.5590    45.4000    24.3120     2.4210 
  245.1250   -17.0030    77.5330    44.3130    34.7500    44.5550    24.3130     2.4240 
  245.2500   -17.0830    74.8880    46.1370    36.7260    44.3810    24.3180     2.4120 
  245.3750   -17.0850    74.9410    44.5680    35.9870    45.6870    24.3190     2.3910 
  245.5000   -17.0620    77.2150    40.2620    33.1230    41.7460    24.3170     2.3650 
  245.6250   -16.9400    76.0460    35.2150    29.4410    34.2660    24.3180     2.3340 
  245.7500   -16.8430    70.8410    30.3880    26.1750    28.2550    24.3210     2.2990 
  245.8750   -16.7140    65.7030    26.4390    23.6830    23.6120    24.3210     2.2660 
  246.0000   -16.5750    63.8310    24.5950    21.9570    21.0910    24.3170     2.2420 
  246.1250   -16.4060    65.1750    23.8160    20.9530    20.5730    24.3150     2.2340 
