~V
VERS. 2.00: Ver 2.00
~W
STRT.M 55.0000:
STOP.M 245.0000:
STEP.M 0.1250:
NULL. -999.2500:
UWI. DF33016:
~C
DEPT.M :
GR.API :
CALI.CM :
RXO.OHMM :
RI. :
RML.OHMM :
DEN.GM/CC :
SP.MV :
~A
# ...
  167.5000    90.2220    26.0390    12.8620    17.3570    18.0570     2.3760   -29.2650 
  167.6250    92.1080    25.7610    11.5830    15.6800    16.2430     2.3710   -29.0090 
  167.7500    92.9520    25.1790    12.0710    15.2590    15.7880     2.3760   -28.8260 
  167.8750    93.6060    24.4740    13.4580    15.7510    16.3200     2.3850   -28.6660 
  168.0000    91.2700    23.9530    14.9050    16.8690    17.5300     2.3820   -28.4170 
  168.1250    87.3190    23.8540    15.9460    18.3640    19.1470     2.3660   -28.1180 
  168.2500    85.9810    24.0170    16.5050    19.8850    20.7910     2.3540   -27.8560 
  168.3750    85.5240    24.4710    17.1260    21.2000    22.2140     2.3520   -27.6120 
  168.5000    83.6210    25.2290    18.2410    22.0720    23.1570     2.3440   -27.3680 
  168.6250    82.4280    25.8360    19.4380    22.1680    23.2610     2.3210   -27.1730 
  168.7500    82.2370    26.0590    19.2900    21.5520    22.5940     2.2960   -27.0690 
  168.8750    81.3220    26.1020    17.8280    20.4400    21.3910     2.2930   -26.9840 
  169.0000    79.0230    26.1140    16.5290    19.3070    20.1670     2.3060   -26.9410 
  169.1250    79.1070    26.1190    16.7440    18.8970    19.7230     2.3240   -27.0860 
  169.2500    81.6340    26.0810    17.7070    19.7120    20.6050     2.3410   -27.2670 
  169.3750    83.4130    26.0540    20.1900    22.3990    23.5110     2.3540   -27.4210 
  169.5000    82.0530    26.0720    28.3030    27.9120    29.4730     2.3520   -27.6360 
  169.6250    77.1580    26.0840    50.4080    38.4590    40.8820     2.3200   -27.8420 
  169.7500    72.3710    26.0730    81.6200    54.3870    58.1080     2.2620   -27.9900 
  169.8750    70.2350    26.0350   106.9670    74.5740    79.9440     2.2060   -28.1970 
  170.0000    71.2530    25.9430   116.3070    94.8660   101.8910     2.1760   -28.4470 
  170.1250    73.9100    25.5850   108.9020   108.6210   116.7680     2.1710   -28.5860 
  170.2500    73.9630    24.8560    87.4580   115.3670   124.0650     2.1760   -28.6950 
  170.3750    71.0260    23.9420    57.4420   117.1590   126.0030     2.1770   -28.8350 
  170.5000    69.3940    23.0040    32.2980   115.0650   123.7380     2.1820   -28.8930 
  170.6250    71.8660    22.0770    21.0630   107.5370   115.5960     2.1980   -28.9170 
  170.7500    74.6280    21.2970    16.6260    95.6800   102.7720     2.2190   -28.9660 
  170.8750    74.2780    20.8600    14.9060    82.0130    87.9890     2.2350   -28.9230 
  171.0000    72.3860    20.7720    14.9740    69.5940    74.5570     2.2430   -28.7830 
  171.1250    71.5540    21.1340    17.9550    61.0020    65.2640     2.2490   -28.7070 
  171.2500    71.6220    21.6800    24.8940    55.9560    59.8060     2.2520   -28.6610 
  171.3750    72.7280    22.4440    34.3380    53.7680    57.4390     2.2460   -28.5010 
  171.5000    73.8880    23.1800    41.1050    53.5280    57.1800     2.2330   -28.3380 
  171.6250    75.3740    23.5890    41.5410    54.3310    58.0480     2.2220   -28.2720 
  171.7500    76.5780    23.6930    40.0230    54.8360    58.5940     2.2250   -28.1730 
  171.8750    75.5510    23.5790    39.8240    54.1820    57.8870     2.2420   -28.0650 
  172.0000    71.7680    23.3190    40.8700    52.1440    55.6830     2.2570   -27.9600 
  172.1250    68.1890    23.2210    41.0390    49.1150    52.4070     2.2660   -27.8500 
  172.2500    69.6130    23.2490    37.9790    46.0200    49.0590     2.2740   -27.7550 
  172.3750    74.1330    23.2140    31.7540    43.2680    46.0830     2.2880   -27.6650 
  172.5000    77.5690    23.0290    27.0550    40.9060    43.5280     2.3020   -27.5940 
  172.6250    77.5330    22.9850    28.9850    38.5810    41.0130     2.3060   -27.4390 
  172.7500    76.6370    22.9090    35.7070    35.9000    38.1130     2.3020   -27.2610 
  172.8750    77.2330    22.8910    37.5210    32.9310    34.9020     2.3010   -27.0920 
  173.0000    78.9780    22.9320    29.6930    30.1480    31.8920     2.3180   -26.9100 
  173.1250    80.3830    22.9950    20.6200    28.3770    29.9770     2.3450   -26.7140 
  173.2500    81.0200    23.0480    16.4660    27.9360    29.4990     2.3670   -26.4960 
  173.3750    81.5820    23.0790    17.5910    28.9510    30.5970     2.3690   -26.2770 
  173.5000    83.3140    23.1030    23.5250    31.2130    33.0440     2.3600   -26.0500 
  173.6250    83.3190    23.1040    32.0220    33.8200    35.8640     2.3470   -25.9180 
  173.7500    80.7990    23.2480    38.2310    35.1910    37.3470     2.3330   -25.8250 
  173.8750    79.1250    23.3330    38.4980    34.4980    36.5970     2.3190   -25.7310 
  174.0000    80.7860    23.5180    32.0200    32.2960    34.2150     2.3070   -25.6840 
  174.1250    83.8920    23.5680    22.9880    30.2440    31.9960     2.3060   -25.6750 
  174.2500    85.5430    23.5920    20.2330    29.5800    31.2780     2.3210   -25.6990 
  174.3750    85.5290    23.3260    28.0030    30.5010    32.2740     2.3430   -25.7560 
  174.5000    83.2490    23.0540    46.5640    32.3870    34.3140     2.3460   -25.8610 
  174.6250    78.1980    23.1070    62.5850    33.6800    35.7130     2.3220   -25.9800 
  174.7500    73.8820    23.2240    58.5940    33.2960    35.2970     2.2840   -26.0410 
  174.8750    74.1850    23.3190    40.5460    31.6260    33.4910     2.2590   -26.1020 
  175.0000    78.5920    23.4000    25.0650    30.1390    31.8820     2.2570   -26.2450 
  175.1250    82.5970    23.5350    23.7100    31.0270    32.8430     2.2760   -26.4330 
  175.2500    82.8460    23.7220    31.9190    35.4790    37.6580     2.3000   -26.5750 
  175.3750    80.1320    23.7790    42.4410    44.6320    47.5580     2.3020   -26.7580 
  175.5000    76.1850    23.7320    48.8180    59.1700    63.2820     2.2760   -26.9900 
  175.6250    72.0660    23.5710    49.7390    77.8180    83.4520     2.2390   -27.2030 
  175.7500    68.5600    23.6260    49.1290    93.5840   100.5040     2.2170   -27.4170 
  175.8750    66.2520    23.7720    47.3030    99.6700   107.0880     2.2230   -27.6480 
  176.0000    63.9550    23.9900    44.7670    93.7940   100.7320     2.2400   -27.8980 
  176.1250    64.1070    24.0330    41.6120    78.3210    83.9960     2.2520   -28.1000 
  176.2500    68.3600    23.9140    36.9960    60.4220    64.6370     2.2560   -28.3860 
  176.3750    73.3380    23.8540    30.6640    44.5150    47.4310     2.2710   -28.7240 
  176.5000    74.8590    23.8570    24.1000    32.9110    34.8810     2.3110   -29.0450 
  176.6250    71.2790    23.8770    19.2910    26.4340    27.8740     2.3660   -29.4660 
  176.7500    68.6340    23.9520    16.7140    23.5460    24.7510     2.4130   -30.0210 
  176.8750    69.4120    24.0880    16.5710    24.0310    25.2760     2.4270   -30.6450 
  177.0000    70.8120    24.1070    22.1690    28.6410    30.2620     2.4120   -31.3140 
  177.1250    69.4350    23.8240    40.2170    40.7500    43.3590     2.3720   -32.0750 
  177.2500    67.2960    23.4320    66.4470    62.5670    66.9570     2.3150   -32.7510 
  177.3750    66.0040    23.2760    91.3570    95.8040   102.9060     2.2630   -33.3530 
  177.5000    64.8080    23.1820   108.7870   137.1170   147.5900     2.2460   -33.9190 
  177.6250    62.5240    23.0550   120.2010   173.4240   186.8590     2.2730   -34.2940 
  177.7500    61.1820    23.0400   132.7860   193.8260   208.9270     2.3310   -34.4560 
  177.8750    61.9390    22.9430   149.9320   197.4230   212.8170     2.3860   -34.4260 
  178.0000    62.8160    22.7320   161.7340   188.7280   203.4120     2.4060   -34.2060 
  178.1250    62.0080    22.6720   153.2430   172.6950   186.0710     2.3780   -33.7670 
  178.2500    60.4980    22.8310   131.1520   156.1370   168.1610     2.3110   -33.1930 
  178.3750    61.2590    23.1310   111.5580   143.3190   154.2980     2.2440   -32.5600 
  178.5000    64.6330    23.4950   102.4890   137.0910   147.5620     2.2150   -31.8880 
  178.6250    66.7350    23.9980   102.0700   140.5060   151.2550     2.2210   -31.1880 
