~V
VERS. 2.00: Ver 2.00
~W
STRT.M 60.0000:
STOP.M 268.0000:
STEP.M 0.1250:
NULL. -999.2500:
UWI. DF33031:
~C
DEPT.M :
SP.MV :
GR.API :
CALI.CM :
RXO.OHMM :
RI. :
RML.OHMM :
DEN.GM/CC :
~A
# ...
  183.7500   -40.3330    63.3510    23.7250   320.1860   295.5800   323.6890     2.4310 
  183.8750   -40.0430    61.6030    23.7250   325.8580   291.5460   310.3700     2.4290 
  184.0000   -39.6930    60.6410    23.7340   296.4360   257.1440   265.6920     2.3870 
  184.1250   -39.3210    61.1990    23.7940   252.1780   199.3400   216.7840     2.3330 
  184.2500   -38.9240    64.3020    23.9080   203.5380   151.6790   169.9200     2.2980 
  184.3750   -38.5600    68.7120    24.0000   144.8840   117.6000   133.1690     2.2890 
  184.5000   -38.2780    72.7470    24.0350    91.2110    95.0800   108.1740     2.2950 
  184.6250   -38.0200    74.3980    24.0350    65.9290    81.4950    93.6980     2.2940 
  184.7500   -37.7930    75.0180    24.0350    60.5150    71.9840    84.1250     2.2810 
  184.8750   -37.5740    75.6410    24.0350    60.1580    64.3080    76.5820     2.2630 
  185.0000   -37.4110    75.6170    24.0350    55.8400    57.1230    69.3250     2.2510 
  185.1250   -37.2730    76.5380    24.0350    45.1440    50.0810    61.7090     2.2550 
  185.2500   -37.1950    78.9090    24.0350    33.1330    43.6810    54.3210     2.2700 
  185.3750   -37.1440    80.4690    24.0350    24.5540    38.4980    47.9860     2.2900 
  185.5000   -37.0760    80.3040    24.0350    22.0700    34.6500    43.0760     2.3040 
  185.6250   -37.0610    79.8500    24.0350    25.0240    31.9990    39.6280     2.3070 
  185.7500   -37.1090    79.6300    24.0350    28.9290    30.1450    37.2160     2.3050 
  185.8750   -37.2400    78.1770    24.0350    30.8150    29.1620    35.8840     2.3050 
  186.0000   -37.4170    76.4170    24.0350    28.7910    29.3580    35.9220     2.3090 
  186.1250   -37.6450    76.3140    24.0350    26.8050    31.7780    38.5850     2.3030 
  186.2500   -37.8870    75.9860    24.0340    32.0880    37.2850    45.2650     2.2820 
  186.3750   -38.1750    73.0580    24.0270    54.8850    47.2670    57.9990     2.2520 
  186.5000   -38.5210    68.7250    24.0160    98.0760    63.3290    78.4190     2.2270 
  186.6250   -38.8740    66.4170    24.0810   133.2150    87.9240   107.2740     2.2180 
  186.7500   -39.2500    65.5130    24.2460   145.2640   118.0500   139.1490     2.2130 
  186.8750   -39.6000    64.8030    24.4230   143.6960   148.0650   168.4670     2.2020 
  187.0000   -39.9430    63.3930    24.5090   141.9940   172.3860   191.7900     2.1830 
  187.1250   -40.2430    61.7600    24.5180   155.7990   188.4920   207.3100     2.1710 
  187.2500   -40.5680    61.2570    24.5180   190.2890   196.0430   213.9470     2.1720 
  187.3750   -40.8750    62.4990    24.5180   215.8110   190.5930   207.8440     2.1850 
  187.5000   -41.2050    64.4450    24.5180   196.8890   172.0270   188.7180     2.2020 
  187.6250   -41.5410    66.9930    24.5180   139.7520   147.8590   162.4340     2.2130 
  187.7500   -41.8610    70.5060    24.5180    93.3190   127.4170   138.7770     2.2190 
  187.8750   -42.1680    73.1050    24.5180    74.9560   114.0750   122.5320     2.2270 
  188.0000   -42.4740    73.1980    24.5180    73.7670   108.6110   115.5210     2.2400 
  188.1250   -42.7880    70.1770    24.5180    79.0480   112.3380   119.7110     2.2480 
  188.2500   -43.0900    67.0170    24.5180    86.5300   124.3550   134.0620     2.2390 
  188.3750   -43.3920    65.1710    24.5180   100.9200   145.7170   159.7100     2.2140 
  188.5000   -43.6520    65.3860    24.5180   133.4470   177.8420   197.6350     2.1870 
  188.6250   -43.8990    65.9760    24.5180   186.5850   222.4350   246.9800     2.1690 
  188.7500   -44.1030    64.5990    24.5180   234.8580   269.6790   294.8840     2.1610 
  188.8750   -44.2800    62.5180    24.5180   256.5610   299.7930   323.0430     2.1560 
  189.0000   -44.4200    60.6930    24.5180   252.0940   293.7790   317.1050     2.1580 
  189.1250   -44.4920    59.7790    24.5180   221.5050   256.8870   280.1740     2.1750 
  189.2500   -44.5270    60.4410    24.5180   177.7450   219.5090   239.1620     2.2010 
  189.3750   -44.5120    62.6200    24.5180   138.1030   193.6060   208.2130     2.2230 
  189.5000   -44.4750    65.2420    24.5180   119.3880   181.3480   192.3420     2.2330 
  189.6250   -44.3560    66.5400    24.5180   134.8870   183.1630   193.1330     2.2270 
  189.7500   -44.1820    65.5020    24.5180   167.2130   194.5060   204.6140     2.2120 
  189.8750   -43.9260    62.8540    24.5180   196.8800   211.6900   221.7380     2.1940 
  190.0000   -43.6030    61.8270    24.5180   208.1950   228.4100   237.6650     2.1780 
  190.1250   -43.2150    64.8240    24.5180   208.5230   234.3050   243.1850     2.1750 
  190.2500   -42.7790    67.6840    24.5180   202.2650   227.5290   237.0770     2.1850 
  190.3750   -42.2840    66.4900    24.5180   182.2210   213.0460   223.1990     2.2010 
  190.5000   -41.6940    63.5640    24.5180   151.6010   197.7920   207.5600     2.2110 
  190.6250   -41.0270    64.4480    24.5180   129.4660   186.3520   194.9410     2.2140 
  190.7500   -40.3000    68.5820    24.5180   122.9900   178.6320   185.9820     2.2160 
  190.8750   -39.5360    71.7670    24.5180   132.6580   173.6220   179.8940     2.2220 
  191.0000   -38.7110    70.4800    24.5180   146.8300   169.7210   175.1400     2.2260 
  191.1250   -37.9250    65.9000    24.5180   144.8600   166.8060   168.5790     2.2260 
  191.2500   -37.1060    62.2500    24.5180   134.3820   161.7150   163.7520     2.2270 
  191.3750   -36.2740    61.9180    24.5180   127.0620   158.0360   160.5350     2.2370 
  191.5000   -35.4290    63.8660    24.5180   127.4890   157.7670   161.0740     2.2530 
  191.6250   -34.6010    65.3110    24.5180   132.0110   162.8420   167.4450     2.2640 
  191.7500   -33.7730    63.7380    24.5180   142.7270   171.7650   178.2510     2.2590 
  191.8750   -32.9450    59.2220    24.5180   171.9920   181.9890   190.8600     2.2390 
  192.0000   -32.1530    55.3870    24.5180   203.1090   190.0540   201.0400     2.2160 
  192.1250   -31.3400    55.0850    24.5180   192.4460   192.9100   204.5420     2.1970 
  192.2500   -30.5030    55.9220    24.5180   168.0890   192.5620   203.7850     2.1860 
  192.3750   -29.6570    56.4410    24.5180   163.2290   192.1500   202.8350     2.1890 
  192.5000   -28.8100    57.1820    24.5180   185.9950   193.9800   204.8220     2.2180 
  192.6250   -27.9470    57.2950    24.5070   213.3450   195.4430   206.2210     2.2890 
  192.7500   -27.0930    54.8460    24.4300   217.5240   186.6320   192.0640     2.3890 
  192.8750   -26.2570    52.0300    24.2450   196.4810   159.2270   153.9060     2.4970 
  193.0000   -25.4310    51.3780    24.0250   156.2220   117.9130   106.6180     2.5920 
  193.1250   -24.6360    52.9830    23.9040   107.3760    79.8090    71.6350     2.6490 
  193.2500   -23.8820    55.7950    23.8400    61.2640    53.6560    49.8440     2.6710 
  193.3750   -23.1720    58.8400    23.8200    35.0470    38.5130    37.4050     2.6650 
  193.5000   -22.4970    62.7750    23.8170    26.1420    30.9060    30.9960     2.6450 
  193.6250   -21.8720    67.1900    23.8170    25.1960    27.9620    28.6520     2.6230 
  193.7500   -21.2340    70.1380    23.8170    25.5810    26.4540    27.7060     2.6090 
  193.8750   -20.6520    70.3700    23.8170    27.9420    24.6180    26.2700     2.5980 
  194.0000   -20.1000    68.5810    23.8170    31.5690    21.2950    22.9460     2.5730 
  194.1250   -19.5790    68.1430    23.8170    29.4430    16.6550    17.8800     2.5360 
  194.2500   -19.0930    66.6490    23.8170    20.7920    12.2720    13.0380     2.5100 
  194.3750   -18.6250    63.6630    23.8170    11.5980     8.9050     9.3940     2.4950 
  194.5000   -18.2090    60.7770    23.8170     6.6030     6.6500     7.0720     2.4770 
  194.6250   -17.8350    60.3550    23.8360     5.2330     5.3960     5.9150     2.4420 
  194.7500   -17.5500    60.9650    23.9010     4.7300     4.6840     5.3550     2.4010 
  194.8750   -17.3100    61.0550    24.0200     4.4500     4.2610     5.0810     2.3640 
