~V
VERS. 2.00: Ver 2.00
~W
STRT.M 63.0000:
STOP.M 272.0000:
STEP.M 0.1250:
NULL. -999.2500:
UWI. DF33040:
~C
DEPT.M :
SP.MV :
GR.API :
CALI.CM :
RXO.OHMM :
RI. :
RML.OHMM :
DEN.GM/CC :
~A
# ...
  141.7500   -15.7570    81.8090    24.5620     6.1760     6.7010     6.8310     2.2680 
  141.8750   -15.7260    82.7000    24.4000     5.8350     6.0360     6.3600     2.2650 
  142.0000   -15.6800    85.0280    24.2500     6.1390     5.7000     6.2160     2.2630 
  142.1250   -15.6280    88.5140    24.1560     6.3140     5.5340     6.1410     2.2760 
  142.2500   -15.5480    92.1060    24.2330     6.0750     5.3900     5.9830     2.3000 
  142.3750   -15.4450    93.4460    24.4940     5.6020     5.2740     5.8160     2.3210 
  142.5000   -15.3300    92.0000    24.7870     5.2780     5.2890     5.8430     2.3330 
  142.6250   -15.2020    87.9790    24.9140     5.8800     5.6510     6.4040     2.3510 
  142.7500   -15.0720    80.0400    24.9220     8.0490     6.4890     7.6510     2.3950 
  142.8750   -14.9450    68.9060    24.8940    11.9510     7.9470     9.7340     2.4620 
  143.0000   -14.8350    58.4660    24.8690    16.6380    10.1080    12.6980     2.5320 
  143.1250   -14.7440    55.2230    24.8490    20.6730    12.9190    16.3800     2.5880 
  143.2500   -14.6830    57.5900    24.8140    23.7000    15.7610    19.9530     2.6280 
  143.3750   -14.6350    59.0160    24.7730    25.3780    17.9780    22.5880     2.6490 
  143.5000   -14.5870    55.7890    24.7530    25.1480    19.1540    23.8140     2.6510 
  143.6250   -14.5220    50.4200    24.7480    23.3490    19.2180    23.6550     2.6390 
  143.7500   -14.4230    47.1630    24.7050    21.6520    18.7040    22.8650     2.6300 
  143.8750   -14.2980    46.2490    24.6160    20.5140    17.9160    21.8420     2.6260 
  144.0000   -14.1520    46.1400    24.5560    19.5460    17.0820    20.8600     2.6230 
  144.1250   -13.9960    47.4230    24.6060    18.3320    16.3990    20.1400     2.6170 
  144.2500   -13.8400    48.5810    24.7020    17.4180    15.9400    19.7180     2.6130 
  144.3750   -13.7000    48.2780    24.7720    17.5050    15.7210    19.5750     2.6170 
  144.5000   -13.5790    47.1790    24.8010    18.4380    15.7190    19.6500     2.6260 
  144.6250   -13.5010    46.7680    24.8090    18.8590    15.9130    19.8960     2.6320 
  144.7500   -13.4680    46.6470    24.8030    18.4140    16.2330    20.2640     2.6280 
  144.8750   -13.4870    47.5410    24.7950    18.1130    16.6560    20.7570     2.6130 
  145.0000   -13.5540    49.5570    24.7970    18.6860    17.1430    21.3330     2.5930 
  145.1250   -13.6680    49.5040    24.7970    19.6780    17.5630    21.7930     2.5830 
  145.2500   -13.8230    47.0260    24.7800    20.5190    17.7410    21.8630     2.5890 
  145.3750   -14.0000    46.5920    24.7520    21.0320    17.5450    21.3680     2.5980 
  145.5000   -14.1860    51.0240    24.7330    20.5450    16.9820    20.3820     2.5910 
  145.6250   -14.3700    56.1360    24.7320    18.4190    16.2400    19.2680     2.5670 
  145.7500   -14.5420    57.0630    24.7260    16.3210    15.6300    18.4720     2.5520 
  145.8750   -14.6950    56.1660    24.6960    15.9280    15.3280    18.2040     2.5550 
  146.0000   -14.8220    55.9590    24.6420    17.1880    15.3810    18.4610     2.5690 
  146.1250   -14.9110    56.7670    24.5680    18.3920    15.7030    19.0300     2.5750 
  146.2500   -14.9560    57.5040    24.4790    18.7090    16.0130    19.4960     2.5720 
  146.3750   -14.9770    58.0210    24.3800    18.5570    16.1280    19.6200     2.5680 
  146.5000   -14.9840    58.7750    24.3070    17.9780    15.9810    19.3610     2.5660 
  146.6250   -14.9610    59.5550    24.3520    16.5490    15.6300    18.8430     2.5530 
  146.7500   -14.9240    60.5530    24.4960    15.3160    15.2530    18.3190     2.5310 
  146.8750   -14.8720    60.1890    24.6520    15.3140    14.9420    17.9010     2.5120 
  147.0000   -14.8010    58.6590    24.7390    16.0640    14.7130    17.5970     2.5090 
  147.1250   -14.7150    58.5170    24.7450    15.9940    14.5360    17.3590     2.5150 
  147.2500   -14.6300    57.7930    24.7280    15.2460    14.3720    17.1390     2.5130 
  147.3750   -14.5350    55.1220    24.6980    14.7230    14.2230    16.9460     2.5020 
  147.5000   -14.4250    52.1720    24.6760    14.4920    14.1110    16.8170     2.4880 
  147.6250   -14.3250    52.6930    24.6910    13.9980    14.0890    16.8280     2.4740 
  147.7500   -14.2310    55.6910    24.7220    13.6350    14.1700    16.9900     2.4610 
  147.8750   -14.1530    57.8430    24.7410    13.9950    14.3410    17.2690     2.4560 
  148.0000   -14.1090    59.1130    24.7360    14.8140    14.5320    17.5570     2.4680 
  148.1250   -14.0960    59.8500    24.7230    15.3480    14.6170    17.6660     2.4940 
  148.2500   -14.1070    60.5050    24.7130    15.4780    14.5240    17.5020     2.5130 
  148.3750   -14.1560    62.1250    24.7010    15.2230    14.2540    17.0850     2.5160 
  148.5000   -14.2460    62.4110    24.6860    14.3540    13.8910    16.5610     2.5070 
  148.6250   -14.3730    60.6730    24.6570    13.1720    13.6050    16.2220     2.4960 
  148.7500   -14.5230    59.7420    24.6090    12.8120    13.5470    16.2660     2.4960 
  148.8750   -14.6900    61.2930    24.5560    13.6980    13.7810    16.7420     2.5030 
  149.0000   -14.8600    63.1950    24.5520    15.0990    14.2780    17.5450     2.5080 
  149.1250   -15.0390    60.4810    24.6420    16.0110    14.9170    18.4450     2.5040 
  149.2500   -15.2230    56.4220    24.7570    16.5370    15.4810    19.1560     2.4970 
  149.3750   -15.3890    55.0740    24.8250    16.8840    15.8190    19.5170     2.5000 
  149.5000   -15.5140    55.8270    24.8430    16.8360    15.8710    19.5020     2.5130 
  149.6250   -15.5800    55.3800    24.8510    16.3020    15.6490    19.1690     2.5310 
  149.7500   -15.5950    54.6170    24.8600    15.8320    15.2870    18.6770     2.5440 
  149.8750   -15.5550    56.1680    24.8480    15.6390    14.8690    18.1270     2.5440 
  150.0000   -15.4670    58.8790    24.8240    15.4460    14.4960    17.6600     2.5360 
  150.1250   -15.3350    58.2690    24.8250    14.9310    14.3180    17.4870     2.5340 
  150.2500   -15.1550    56.0350    24.8470    14.6410    14.3730    17.6560     2.5380 
  150.3750   -14.9430    55.6800    24.8680    15.5090    14.6450    18.1220     2.5350 
  150.5000   -14.7280    56.8770    24.8730    17.7450    15.0380    18.7070     2.5210 
  150.6250   -14.5360    56.1420    24.8670    19.5640    15.3340    19.0420     2.5110 
  150.7500   -14.3780    52.8790    24.8700    19.3130    15.3390    18.8760     2.5160 
  150.8750   -14.2620    51.4270    24.8830    17.5520    14.9920    18.1900     2.5360 
  151.0000   -14.1900    56.1790    24.8920    15.7670    14.3950    17.2110     2.5560 
  151.1250   -14.1670    64.0480    24.8780    14.6580    13.7720    16.3210     2.5610 
  151.2500   -14.1960    68.1000    24.8640    14.0360    13.3280    15.7670     2.5510 
  151.3750   -14.2810    67.3270    24.8690    13.9080    13.1280    15.5820     2.5340 
  151.5000   -14.4040    66.0870    24.8930    14.1330    13.1310    15.6500     2.5130 
  151.6250   -14.5350    65.5020    24.9170    14.1940    13.2320    15.7780     2.4890 
  151.7500   -14.6530    63.5780    24.9280    13.9280    13.3040    15.8030     2.4740 
  151.8750   -14.7530    62.0340    24.9360    13.5720    13.2990    15.6980     2.4680 
  152.0000   -14.8260    62.4660    24.9440    13.3360    13.2320    15.5260     2.4700 
  152.1250   -14.8560    64.2130    24.9310    13.2970    13.1600    15.4050     2.4710 
  152.2500   -14.8390    65.2520    24.9100    13.4150    13.1250    15.3680     2.4700 
  152.3750   -14.7680    66.3260    24.9130    13.6110    13.1000    15.3420     2.4660 
  152.5000   -14.6430    68.6820    24.9620    13.6820    13.0060    15.1960     2.4660 
  152.6250   -14.4810    70.8750    25.0250    13.3650    12.7370    14.7890     2.4780 
  152.7500   -14.3140    70.3730    25.0260    12.7270    12.3090    14.1790     2.4950 
  152.8750   -14.1490    67.7050    24.9560    11.9410    11.7890    13.4870     2.5120 
