~V
VERS. 2.00: Ver 2.00
~W
STRT.M 60.0000:
STOP.M 233.0000:
STEP.M 0.1250:
NULL. -999.2500:
UWI. DF33019:
~C
DEPT.M :
GR.API :
RML.OHMM :
RI. :
RXO.OHMM :
CALI.CM :
DEN.GM/CC :
SP.MV :
~A
# ...
  150.0000    71.6930    17.9880    12.8120    13.0720    24.1130     2.2630   -14.3250 
  150.1250    73.9570    18.5410    13.3180    12.8710    24.1130     2.2700   -14.2720 
  150.2500    74.9570    18.7600    13.6230    12.8730    24.1130     2.2740   -14.2060 
  150.3750    75.0350    18.6830    13.7180    13.5600    24.1130     2.2730   -14.1400 
  150.5000    73.9260    18.3760    13.6320    13.8260    24.1140     2.2690   -14.0380 
  150.6250    71.0440    17.9120    13.4020    13.2830    24.1120     2.2650   -13.8870 
  150.7500    68.4470    17.4290    13.1220    12.3210    24.0960     2.2630   -13.6600 
  150.8750    68.8900    17.0170    12.8520    11.6520    24.0480     2.2630   -13.4230 
  151.0000    71.1510    16.7130    12.6250    11.6550    23.9870     2.2620   -13.2020 
  151.1250    71.6680    16.4970    12.4460    12.3480    23.8820     2.2570   -12.9620 
  151.2500    72.2210    16.2790    12.2710    12.8100    23.8490     2.2490   -12.7470 
  151.3750    75.1610    16.0220    12.0740    12.4070    23.9980     2.2440   -12.5270 
  151.5000    78.2110    15.7580    11.8680    11.2830    24.3640     2.2460   -12.4080 
  151.6250    78.0890    15.6150    11.7240    10.5570    24.6280     2.2600   -12.3030 
  151.7500    77.0120    15.6620    11.7030    10.8620    24.7450     2.2790   -12.2680 
  151.8750    77.0380    15.8700    11.8140    11.4250    24.7830     2.2930   -12.2380 
  152.0000    76.4900    16.1070    12.0020    11.7270    24.8100     2.2930   -12.2310 
  152.1250    73.9080    16.1550    12.1460    12.1230    24.8450     2.2730   -12.1760 
  152.2500    70.9280    15.9550    12.1700    12.0580    24.8570     2.2430   -12.1430 
  152.3750    69.3320    15.6220    12.1050    11.6330    24.8470     2.2150   -12.0680 
  152.5000    70.2850    15.4160    12.0890    10.7260    24.8140     2.2010   -11.9450 
  152.6250    72.4060    15.6860    12.3540     9.5480    24.7850     2.2080   -11.8060 
  152.7500    72.9830    16.4260    12.9510    11.2690    24.7580     2.2270   -11.6490 
  152.8750    70.7620    17.4280    13.7900    17.1720    24.7390     2.2500   -11.4960 
  153.0000    67.7560    18.2890    14.6220    22.5970    24.7400     2.2670   -11.2980 
  153.1250    67.5000    18.4040    15.0100    18.5910    24.7570     2.2760   -11.0990 
  153.2500    68.4930    17.6240    14.7390    14.8060    24.7790     2.2780   -10.8400 
  153.3750    68.4230    16.0920    13.8050    12.6040    24.7920     2.2730   -10.6030 
  153.5000    67.0940    14.2040    12.4270    11.0590    24.7990     2.2640   -10.3700 
  153.6250    66.6200    12.4540    10.9640     9.0630    24.8020     2.2550   -10.1440 
  153.7500    67.7940    11.1080     9.7190     7.9800    24.8190     2.2500    -9.9430 
  153.8750    70.0510    10.2340     8.8100     7.0590    24.9160     2.2500    -9.7690 
  154.0000    72.3130     9.7980     8.2510     6.4680    25.1020     2.2580    -9.6500 
  154.1250    72.7830     9.7500     8.0260     7.0250    25.1770     2.2750    -9.5820 
  154.2500    70.9770     9.8800     7.9700     8.4170    25.3000     2.2970    -9.5370 
  154.3750    69.2710    10.0410     7.9700     9.4210    25.4130     2.3200    -9.5140 
  154.5000    69.9240    10.1060     7.9280     9.0810    25.4360     2.3370    -9.4480 
  154.6250    73.1550     9.9860     7.7730     7.8630    25.3040     2.3420    -9.4100 
  154.7500    75.7040     9.7360     7.5340     7.2590    24.9630     2.3390    -9.3350 
  154.8750    75.6940     9.4510     7.2740     7.6980    24.7870     2.3330    -9.2830 
  155.0000    74.6360     9.2790     7.0970     8.1990    24.7890     2.3270    -9.2220 
  155.1250    76.1420     9.5030     7.2010     8.2320    24.7930     2.3250    -9.2100 
  155.2500    79.5500    10.3510     7.7480     7.2980    24.7920     2.3220    -9.2250 
  155.3750    81.0050    12.0610     8.9190     7.7920    24.7820     2.3150    -9.2770 
  155.5000    78.7100    14.7180    10.8150    11.3560    24.7790     2.3010    -9.3510 
  155.6250    76.2930    18.1340    13.3810    18.3940    24.7830     2.2810    -9.4510 
  155.7500    74.9990    21.4430    16.0300    21.6900    24.7860     2.2600    -9.5550 
  155.8750    72.6780    23.7800    18.1300    22.7960    24.7870     2.2400    -9.6270 
  156.0000    69.8250    24.5090    19.1450    23.2180    24.7870     2.2260    -9.6680 
  156.1250    69.5180    23.4970    18.8130    22.0000    24.7870     2.2210    -9.6850 
  156.2500    71.0980    21.8860    17.8530    19.1530    24.7880     2.2220    -9.6830 
  156.3750    71.2670    20.5160    16.8850    16.5460    24.7970     2.2290    -9.6730 
  156.5000    68.7670    19.8750    16.3470    15.3110    24.8120     2.2400    -9.6370 
  156.6250    66.7910    20.2690    16.5630    15.7260    24.8320     2.2510    -9.6240 
  156.7500    67.0130    21.4590    17.4360    17.6340    24.8760     2.2590    -9.6310 
  156.8750    69.3780    23.1980    18.8260    21.0650    24.9830     2.2600    -9.6570 
  157.0000    73.1700    25.1130    20.4690    23.2120    25.0780     2.2550    -9.7050 
  157.1250    75.4850    26.6490    21.9400    25.9310    25.1060     2.2470    -9.7320 
  157.2500    75.0240    27.4240    22.8740    25.9260    24.9850     2.2410    -9.7780 
  157.3750    72.3800    27.2350    23.0480    24.2570    24.7770     2.2400    -9.7870 
  157.5000    70.4190    26.0920    22.4040    21.1080    24.5810     2.2430    -9.8390 
  157.6250    69.0680    24.1310    20.9770    22.1010    24.4970     2.2480    -9.8140 
  157.7500    66.6710    21.8710    19.1830    23.0120    24.4460     2.2510    -9.8050 
  157.8750    65.9710    19.6970    17.3430    20.1600    24.4110     2.2520    -9.7730 
  158.0000    68.4370    17.9400    15.7520    14.9200    24.3920     2.2540    -9.7720 
  158.1250    69.2220    16.9420    14.7150    13.0110    24.3860     2.2610    -9.7550 
  158.2500    67.5920    16.6540    14.2430    13.1160    24.3860     2.2720    -9.7690 
  158.3750    66.2570    16.9680    14.2940    13.5930    24.3860     2.2860    -9.7550 
  158.5000    66.1220    17.6640    14.7310    13.8750    24.4430     2.2990    -9.7780 
  158.6250    66.0890    18.4390    15.3470    16.3560    24.4000     2.3100    -9.7810 
  158.7500    66.1040    19.0150    15.8890    18.7960    24.3610     2.3140    -9.8080 
  158.8750    66.3300    19.2970    16.2300    18.0090    24.2940     2.3060    -9.8310 
  159.0000    66.6000    19.3290    16.3530    17.9900    24.2700     2.2900    -9.8750 
  159.1250    68.4070    19.2200    16.3000    15.3040    24.2660     2.2750    -9.9180 
  159.2500    69.8410    19.0760    16.1700    15.7020    24.2600     2.2740    -9.9460 
  159.3750    68.3370    18.8950    15.9910    18.5160    24.2190     2.2930   -10.0140 
  159.5000    66.8580    18.6500    15.7640    20.4480    24.1930     2.3260   -10.0650 
  159.6250    68.9860    18.3330    15.4980    17.7630    24.1360     2.3550   -10.1440 
  159.7500    72.7550    18.0330    15.2560    16.9940    24.0950     2.3630   -10.2260 
  159.8750    75.0030    17.8610    15.1120    15.6320    24.0270     2.3480   -10.3270 
  160.0000    76.3160    17.8930    15.1280    15.0830    24.0030     2.3160   -10.4000 
  160.1250    78.1280    18.1400    15.3260    14.6310    24.0000     2.2820   -10.4980 
  160.2500    78.7510    18.4470    15.6050    14.7910    24.0000     2.2560   -10.5620 
  160.3750    76.9670    18.6780    15.8630    14.8340    24.0000     2.2430   -10.6120 
  160.5000    73.6880    18.7390    16.0130    14.7990    24.0000     2.2400   -10.6200 
  160.6250    71.3890    18.5870    15.9910    14.5760    24.0060     2.2440   -10.6690 
  160.7500    71.5370    18.3240    15.8540    14.4050    24.0420     2.2480   -10.6690 
  160.8750    73.5190    18.0330    15.6590    14.3570    24.1150     2.2510   -10.6510 
  161.0000    76.5000    17.7810    15.4660    14.2590    24.1890     2.2530   -10.6080 
  161.1250    77.2490    17.6370    15.3400    13.9270    24.2250     2.2550   -10.5710 
