~V
VERS. 2.00: Ver 2.00
~W
STRT.M 60.0000:
STOP.M 268.0000:
STEP.M 0.1250:
NULL. -999.2500:
UWI. DF33031:
~C
DEPT.M :
SP.MV :
GR.API :
CALI.CM :
RXO.OHMM :
RI. :
RML.OHMM :
DEN.GM/CC :
~A
# ...
  206.2500   -21.5820    84.6230    24.3230     9.2410     8.6920    11.0860     2.3630 
  206.3750   -21.8640    83.7840    24.3230     9.1200     8.9630    11.4570     2.3800 
  206.5000   -22.1550    81.2190    24.3230    10.0480     9.6620    12.3400     2.3890 
  206.6250   -22.5070    78.3520    24.3230    12.3420    10.8650    13.8750     2.3800 
  206.7500   -22.8690    77.3640    24.3230    14.5610    12.4260    15.8810     2.3680 
  206.8750   -23.2710    76.3750    24.3220    16.2950    14.2600    18.1860     2.3650 
  207.0000   -23.6980    74.3170    24.3200    19.3970    16.2620    20.5640     2.3640 
  207.1250   -24.1740    72.3750    24.3170    23.5390    18.2650    22.7100     2.3450 
  207.2500   -24.6260    72.4040    24.3180    25.2910    20.1250    24.5160     2.3090 
  207.3750   -25.0590    73.4450    24.3190    24.3920    21.8970    26.1170     2.2780 
  207.5000   -25.4610    74.5090    24.3180    23.9720    23.8250    27.8670     2.2690 
  207.6250   -25.8500    75.4090    24.3160    25.3070    26.3780    30.3980     2.2790 
  207.7500   -26.2060    74.6170    24.3150    28.6040    29.8060    34.0650     2.2860 
  207.8750   -26.5110    72.7260    24.3140    35.1190    34.1650    38.9540     2.2780 
  208.0000   -26.7730    70.5700    24.3120    43.2580    38.9510    44.3710     2.2610 
  208.1250   -27.0020    70.3270    24.3110    46.6410    42.3510    47.8760     2.2480 
  208.2500   -27.2330    71.4930    24.3110    44.1590    42.7410    47.5400     2.2460 
  208.3750   -27.4560    73.3160    24.3110    38.4630    39.8640    43.4670     2.2540 
  208.5000   -27.6940    76.2580    24.3110    31.9820    35.0020    37.5650     2.2700 
  208.6250   -27.9410    80.6550    24.3110    26.0870    30.1720    32.2000     2.2880 
  208.7500   -28.2340    84.8330    24.3110    21.7670    26.7240    28.5640     2.3000 
  208.8750   -28.5860    86.3130    24.3110    19.8970    25.1430    27.0760     2.2970 
  209.0000   -29.0050    84.2290    24.3110    20.6540    25.7040    27.9980     2.2800 
  209.1250   -29.4750    81.3950    24.3110    25.6480    29.6500    32.4240     2.2520 
  209.2500   -29.9630    78.7740    24.3110    39.1670    38.0580    41.0060     2.2280 
  209.3750   -30.4690    74.0900    24.3110    61.5350    52.5190    55.2100     2.2140 
  209.5000   -30.9640    68.0790    24.3110    82.5340    73.4010    76.1730     2.2110 
  209.6250   -31.4850    65.4250    24.3110    91.5890    97.4810   102.4670     2.2080 
  209.7500   -31.9850    65.6750    24.3110    92.5130   117.0830   125.2330     2.2020 
  209.8750   -32.4630    65.6010    24.3110    92.0160   127.7610   137.2830     2.1960 
  210.0000   -32.8790    63.2490    24.3110    91.4770   130.2980   139.0700     2.1940 
  210.1250   -33.2310    61.6790    24.3110    90.9390   128.5690   136.5760     2.1940 
  210.2500   -33.5070    62.2090    24.3110    90.4390   126.2950   134.4830     2.1950 
  210.3750   -33.7190    64.1700    24.3110    89.6860   124.1940   133.2330     2.1960 
  210.5000   -33.8980    66.8310    24.3110    88.8980   122.5030   132.5600     2.1970 
  210.6250   -33.9820    66.8980    24.3110    88.4660   121.6700   132.4470     2.1950 
  210.7500   -34.0070    64.4630    24.3110    88.4460   121.7270   132.8840     2.1890 
  210.8750   -33.9790    62.2410    24.2850    88.2860   122.5110   133.8200     2.1800 
  211.0000   -33.8980    63.6530    24.2000    87.6780   123.6520   134.9590     2.1710 
  211.1250   -33.7880    67.9060    24.0250    85.7550   124.5120   135.5050     2.1650 
  211.2500   -33.7060    69.9120    23.9360    83.6130   124.4090   134.6740     2.1650 
  211.3750   -33.6320    70.1020    23.9100    82.6240   122.8680   132.0680     2.1720 
  211.5000   -33.5810    70.6080    23.9090    83.3120   119.9140   127.9640     2.1840 
  211.6250   -33.5360    71.8970    23.9090    83.7530   116.2210   123.2720     2.1980 
  211.7500   -33.5470    71.5880    23.9090    82.9120   113.0260   119.2380     2.2050 
  211.8750   -33.5710    67.9350    23.9090    80.5720   111.0670   116.6080     2.2020 
  212.0000   -33.6230    63.7090    23.9090    78.2790   110.5930   115.6800     2.1930 
  212.1250   -33.6540    62.9560    23.9090    81.2030   111.7440   116.5950     2.1850 
  212.2500   -33.6660    64.9050    23.9090    88.6440   114.1190   118.7340     2.1810 
  212.3750   -33.6510    66.1950    23.9090    95.2130   117.5310   121.7240     2.1820 
  212.5000   -33.6050    64.3150    23.9090    97.6260   121.6160   125.2090     2.1910 
  212.6250   -33.5710    62.0510    23.9090    98.5900   125.7970   128.8510     2.2040 
  212.7500   -33.5040    62.6870    23.9090   100.1530   129.4780   132.1790     2.2110 
  212.8750   -33.4460    65.4530    23.9090    99.8200   131.8460   134.7400     2.2070 
  213.0000   -33.3790    67.0820    23.9080    96.9950   132.1100   135.6450     2.2010 
  213.1250   -33.3580    65.3790    23.9040    93.8660   129.1050   133.5850     2.1970 
  213.2500   -33.3300    64.1010    23.9000    90.9210   123.3730   128.8100     2.1910 
  213.3750   -33.3080    64.8250    23.9000    86.4920   115.8670   122.0420     2.1810 
  213.5000   -33.2630    65.7190    23.9020    80.7820   107.8670   114.5590     2.1750 
  213.6250   -33.2020    64.5920    23.8990    76.4600   100.6580   107.7910     2.1800 
  213.7500   -33.1140    63.8690    23.8980    73.5290    94.7250   102.2580     2.1880 
  213.8750   -33.0030    65.5560    23.8930    70.6280    90.1920    98.0030     2.1910 
  214.0000   -32.8730    66.4270    23.8780    68.0810    87.0020    94.9730     2.1870 
  214.1250   -32.7130    61.6340    23.8450    68.0690    85.1360    93.2280     2.1860 
  214.2500   -32.5470    57.4720    23.8240    69.8330    84.1070    92.3560     2.1950 
  214.3750   -32.3890    59.0360    23.8170    71.8840    83.6480    92.1080     2.2080 
  214.5000   -32.2570    64.5770    23.8170    73.2850    83.5370    92.2120     2.2170 
  214.6250   -32.1170    67.5450    23.8170    73.9120    83.6440    92.4790     2.2230 
  214.7500   -31.9670    66.1940    23.8170    74.1970    83.8540    92.8260     2.2300 
  214.8750   -31.8130    63.5640    23.8170    73.5860    84.1150    93.2730     2.2360 
  215.0000   -31.6830    63.9300    23.8060    71.8430    84.3230    93.7830     2.2390 
  215.1250   -31.5870    67.5540    23.7750    69.1930    84.2780    94.2080     2.2440 
  215.2500   -31.5030    68.5380    23.7340    68.3840    83.9540    94.4420     2.2460 
  215.3750   -31.4380    65.7720    23.7160    68.4950    83.4730    94.4720     2.2360 
  215.5000   -31.3600    65.0390    23.7130    67.9630    83.0610    94.4230     2.2150 
  215.6250   -31.3220    69.8310    23.7130    68.1500    82.9360    94.5280     2.1960 
  215.7500   -31.2930    73.6460    23.7130    68.8640    82.7980    94.5520     2.1880 
  215.8750   -31.2730    72.3980    23.7130    69.1510    81.8300    93.6020     2.1860 
  216.0000   -31.2500    67.0310    23.7130    66.9340    79.0160    90.5310     2.1860 
  216.1250   -31.2490    62.7470    23.7130    61.5240    73.7550    84.6030     2.1970 
  216.2500   -31.2410    61.7380    23.7130    57.0190    67.5820    77.5340     2.2190 
  216.3750   -31.2200    63.8440    23.7130    53.1450    62.0890    71.1640     2.2430 
  216.5000   -31.2200    67.4210    23.7130    47.5610    58.5230    66.9630     2.2510 
  216.6250   -31.2020    69.9550    23.7130    45.2100    58.0570    66.2490     2.2350 
  216.7500   -31.1860    70.7150    23.7130    48.3500    60.4540    68.7540     2.2150 
  216.8750   -31.1620    69.9240    23.7130    56.0460    65.5340    74.2980     2.2050 
  217.0000   -31.1340    68.3360    23.7130    63.1330    72.7080    82.2170     2.2100 
  217.1250   -31.0730    66.3270    23.7130    65.7660    80.7700    91.0790     2.2180 
  217.2500   -31.0250    64.3410    23.7130    69.5090    87.7930    98.7210     2.2140 
  217.3750   -30.9800    62.9110    23.7130    76.9670    92.3830   103.7090     2.1980 
