~V
VERS. 2.00: Ver 2.00
~W
STRT.M 60.0000:
STOP.M 233.0000:
STEP.M 0.1250:
NULL. -999.2500:
UWI. DF33019:
~C
DEPT.M :
GR.API :
RML.OHMM :
RI. :
RXO.OHMM :
CALI.CM :
DEN.GM/CC :
SP.MV :
~A
# ...
  105.0000    68.5140     6.9480     5.9260     7.0790    23.6540     2.1140   -25.5740 
  105.1250    67.3340     6.8040     5.8250     6.9720    23.6540     2.1180   -24.8170 
  105.2500    62.7600     6.6490     5.7230     6.8670    23.6570     2.1310   -24.0780 
  105.3750    60.8830     6.5430     5.6460     6.7440    23.6750     2.1510   -23.3900 
  105.5000    64.5250     6.5530     5.6250     6.5740    23.7060     2.1780   -22.8390 
  105.6250    70.0290     6.7310     5.6920     6.1850    23.6880     2.2080   -22.4870 
  105.7500    74.0110     7.0020     5.8200     6.0100    23.5940     2.2420   -22.2500 
  105.8750    75.8660     7.2630     5.9660     6.1100    23.5000     2.2750   -22.1470 
  106.0000    75.2480     7.4020     6.0730     6.2840    23.4280     2.3050   -22.2050 
  106.1250    72.5370     7.3290     6.0850     6.3410    23.3280     2.3170   -22.3780 
  106.2500    69.8820     7.1210     6.0140     6.3120    23.1910     2.3100   -22.6170 
  106.3750    69.2380     6.8860     5.9000     6.3300    23.1220     2.2850   -22.8820 
  106.5000    69.6520     6.7240     5.7960     6.4020    23.1210     2.2520   -23.1810 
  106.6250    69.4220     6.6940     5.7460     6.5330    23.1560     2.2240   -23.3920 
  106.7500    68.6310     6.7450     5.7460     6.6870    23.1700     2.2050   -23.6210 
  106.8750    68.4680     6.8190     5.7750     6.8170    23.1720     2.1920   -23.7900 
  107.0000    68.4090     6.8650     5.8060     6.9000    23.1670     2.1840   -23.9010 
  107.1250    66.7920     6.8530     5.8180     6.8520    23.1710     2.1760   -23.9440 
  107.2500    63.9970     6.8030     5.8140     6.7690    23.1700     2.1700   -23.9710 
  107.3750    61.8450     6.7470     5.8060     6.7120    23.1590     2.1630   -23.9350 
  107.5000    61.9450     6.7250     5.8100     6.7090    23.1330     2.1590   -23.8590 
  107.6250    64.6610     6.8040     5.8530     6.6990    23.0840     2.1570   -23.8020 
  107.7500    68.0900     7.0010     5.9460     6.6730    23.0420     2.1570   -23.7240 
  107.8750    70.8250     7.3050     6.0850     6.6800    22.9980     2.1570   -23.6370 
  108.0000    71.6450     7.6560     6.2460     7.0350    22.9190     2.1560   -23.5290 
  108.1250    69.5700     7.9110     6.3710     7.2970    22.8140     2.1500   -23.4160 
  108.2500    67.0750     7.9450     6.4050     7.4450    22.8030     2.1420   -23.2570 
  108.3750    67.2650     7.6940     6.3130     7.4980    22.9240     2.1350   -23.1080 
  108.5000    69.9860     7.2030     6.1020     7.4420    23.1740     2.1330   -22.9060 
  108.6250    70.7060     6.6650     5.8490     7.1220    23.4030     2.1410   -22.7770 
  108.7500    70.2990     6.3610     5.6920     6.4190    23.4910     2.1580   -22.6810 
  108.8750    71.0620     6.4840     5.7460     5.6200    23.5120     2.1830   -22.6620 
  109.0000    72.6140     7.1050     6.0750     5.5750    23.5270     2.2110   -22.7110 
  109.1250    72.5670     8.1540     6.6860     6.6620    23.5460     2.2370   -22.8330 
  109.2500    70.7000     9.2360     7.3790     8.6860    23.5420     2.2560   -23.0320 
  109.3750    68.5110     9.9760     7.9470    10.7210    23.5490     2.2650   -23.2850 
  109.5000    67.5010    10.0800     8.1990    12.2040    23.5880     2.2620   -23.5780 
  109.6250    68.0770     9.4260     7.9940    10.7720    23.6050     2.2480   -23.7790 
  109.7500    69.8010     8.4530     7.5160     8.8110    23.5890     2.2270   -23.9500 
  109.8750    70.1210     7.5450     6.9660     7.8000    23.5780     2.2040   -24.0340 
  110.0000    67.4810     6.9440     6.5130     7.4380    23.5830     2.1850   -24.0720 
  110.1250    65.0310     6.7580     6.2740     7.2760    23.6150     2.1740   -24.0050 
  110.2500    66.7980     6.8300     6.2040     7.2070    23.6550     2.1730   -23.9140 
  110.3750    70.9170     7.0230     6.2400     7.2310    23.6490     2.1790   -23.7580 
  110.5000    72.0650     7.2120     6.3100     7.3290    23.6080     2.1900   -23.6390 
  110.6250    68.9150     7.2990     6.3530     7.4510    23.5970     2.1970   -23.4730 
  110.7500    66.9550     7.2920     6.3550     7.3860    23.6120     2.1950   -23.2850 
  110.8750    68.8120     7.2410     6.3330     7.2960    23.6190     2.1830   -23.0970 
  111.0000    72.2230     7.2110     6.3170     7.2760    23.6030     2.1660   -22.9130 
  111.1250    71.7440     7.2520     6.3370     7.3660    23.6100     2.1540   -22.7630 
  111.2500    68.5840     7.3500     6.3900     7.3950    23.6380     2.1500   -22.6410 
  111.3750    66.8170     7.4670     6.4610     7.4000    23.6650     2.1550   -22.5600 
  111.5000    68.2320     7.5660     6.5310     7.4940    23.6950     2.1630   -22.4790 
  111.6250    70.8030     7.6220     6.5820     7.6510    23.7080     2.1700   -22.4700 
  111.7500    72.3000     7.6570     6.6170     7.7420    23.7120     2.1730   -22.4490 
  111.8750    73.6490     7.7000     6.6480     7.9240    23.7120     2.1740   -22.4640 
  112.0000    74.9740     7.7760     6.6860     8.1770    23.7120     2.1770   -22.5400 
  112.1250    74.1790     7.8950     6.7360     8.1990    23.7120     2.1830   -22.6330 
  112.2500    72.1990     8.0360     6.7900     7.9670    23.7120     2.1920   -22.7630 
  112.3750    70.1640     8.1690     6.8330     7.9790    23.7120     2.1980   -22.8740 
  112.5000    68.3170     8.2650     6.8470     8.2480    23.7120     2.2000   -23.0100 
  112.6250    64.8120     8.2790     6.8130     8.3680    23.7120     2.1960   -23.0850 
  112.7500    61.5660     8.1980     6.7310     8.3400    23.7120     2.1880   -23.1840 
  112.8750    61.4940     8.0260     6.6110     8.2450    23.7120     2.1790   -23.2190 
  113.0000    63.3100     7.7990     6.4760     8.1560    23.7120     2.1710   -23.2300 
  113.1250    65.8940     7.6290     6.3920     8.0300    23.7120     2.1680   -23.1350 
  113.2500    69.3610     7.6610     6.4330     7.8220    23.7070     2.1700   -22.9860 
  113.3750    71.3940     8.0320     6.6790     7.5180    23.6920     2.1770   -22.7680 
  113.5000    70.1630     8.8220     7.1870     7.2630    23.6630     2.1930   -22.5220 
  113.6250    68.2120    10.0460     7.9990     9.0570    23.6630     2.2210   -22.2410 
  113.7500    69.5720    11.4230     8.9650    12.5180    23.6860     2.2560   -21.9660 
  113.8750    72.0490    12.6210     9.9010    16.6110    23.7160     2.2870   -21.7010 
  114.0000    73.0710    13.2660    10.5750    18.3800    23.7400     2.3030   -21.4600 
  114.1250    74.5940    13.0280    10.7150    18.1660    23.7620     2.2990   -21.2620 
  114.2500    75.9620    12.1360    10.3720    19.2720    23.7410     2.2870   -21.1030 
  114.3750    74.2750    10.9620     9.6820    18.3190    23.6590     2.2760   -20.9620 
  114.5000    70.9250     9.8140     8.8510    12.0910    23.5680     2.2690   -20.8560 
  114.6250    73.2220     9.1250     8.0890     8.6820    23.5200     2.2620   -20.7750 
  114.7500    78.7450     8.7980     7.4950     7.5430    23.5090     2.2490   -20.7150 
  114.8750    79.3560     8.5710     7.0840     7.5440    23.5070     2.2310   -20.6560 
  115.0000    72.8830     8.3810     6.8280     7.6910    23.5070     2.2120   -20.5750 
  115.1250    68.7350     8.2920     6.6830     7.6060    23.5070     2.1970   -20.4880 
  115.2500    71.4290     8.2100     6.5800     7.3800    23.5070     2.1860   -20.3890 
  115.3750    75.8950     8.1220     6.4960     7.2690    23.5070     2.1790   -20.2900 
  115.5000    76.3680     8.0550     6.4330     7.2490    23.5070     2.1760   -20.1230 
  115.6250    74.9820     8.0390     6.4080     7.2200    23.5110     2.1790   -19.9460 
  115.7500    73.7890     8.0570     6.4150     7.1080    23.5270     2.1890   -19.6870 
  115.8750    71.6700     8.0790     6.4390     7.0270    23.5530     2.2020   -19.3910 
  116.0000    68.7570     8.0720     6.4550     7.0800    23.5710     2.2150   -19.0120 
  116.1250    68.3380     8.0060     6.4380     7.3700    23.5760     2.2250   -18.5670 
