~V
VERS. 2.00: Ver 2.00
~W
STRT.M 55.0000:
STOP.M 246.0000:
STEP.M 0.1250:
NULL. -999.2500:
UWI. DF33025:
~C
DEPT.M :
SP.MV :
GR.API :
CALI.CM :
RXO.OHMM :
RI. :
RML.OHMM :
DEN.GM/CC :
~A
# ...
  212.5000   -23.0030    72.0390    25.4520    79.6590    99.5800   113.7480     2.1990 
  212.6250   -23.2330    69.3410    25.4010    84.9650   112.5620   129.1530     2.2080 
  212.7500   -23.4790    64.3440    25.3630    88.0120   125.7100   144.2250     2.2260 
  212.8750   -23.7240    60.6240    25.3550    90.0320   136.2340   156.0340     2.2430 
  213.0000   -23.9000    59.0400    25.1850    93.8960   139.7970   160.7970     2.2540 
  213.1250   -24.0360    60.4010    24.9550    95.8340   132.0340   154.3160     2.2470 
  213.2500   -24.2050    64.5320    24.8910    91.4770   117.5860   139.9740     2.2240 
  213.3750   -24.3790    69.0760    25.0610    82.9130   101.8600   122.5070     2.2010 
  213.5000   -24.5040    70.9180    25.3060    75.8490    88.9140   106.7270     2.2000 
  213.6250   -24.6170    69.5510    25.5290    72.8830    81.4460    96.8040     2.2360 
  213.7500   -24.7450    68.9590    25.4990    70.9090    79.0630    93.1710     2.2930 
  213.8750   -24.8540    69.1660    25.4510    70.0350    81.7510    96.0220     2.3430 
  214.0000   -24.9860    68.1440    25.4140    73.6790    89.5230   105.1970     2.3570 
  214.1250   -25.1110    66.9840    25.3480    81.1350   102.6410   120.2230     2.3170 
  214.2500   -25.1660    68.2060    25.2560    87.6350   117.8330   136.5950     2.2560 
  214.3750   -25.1880    70.4270    25.1240    91.8810   130.4850   149.4170     2.2100 
  214.5000   -25.2170    69.8430    25.0240    94.1180   136.0280   154.7100     2.1990 
  214.6250   -25.2130    66.9440    24.9560    90.4910   132.9720   151.1680     2.2160 
  214.7500   -25.1930    66.8490    25.0180    79.0290   126.9020   144.0440     2.2370 
  214.8750   -25.1370    69.0520    25.3600    67.3710   121.6950   137.3760     2.2500 
  215.0000   -24.9670    69.0310    25.6530    66.5530   119.1850   133.4790     2.2510 
  215.1250   -24.8070    67.1860    25.7490    78.7570   119.5170   132.7930     2.2360 
  215.2500   -24.6780    68.5040    25.7090    90.2840   120.6680   133.1830     2.2150 
  215.3750   -24.4200    72.6650    25.6120    94.2400   120.8460   132.8380     2.2010 
  215.5000   -24.1190    74.9370    25.5950    93.2760   118.6290   130.3200     2.2070 
  215.6250   -23.9170    73.2030    25.3880    96.1100   113.4680   124.8770     2.2320 
  215.7500   -23.6890    70.7180    25.2480   102.3100   106.9550   117.8410     2.2600 
  215.8750   -23.3800    69.5030    25.1030   104.6890   100.0770   110.1750     2.2780 
  216.0000   -23.0950    69.8620    25.0340    97.9780    93.2000   102.3610     2.2770 
  216.1250   -22.8640    70.4000    25.0340    86.4980    86.4340    94.5800     2.2560 
  216.2500   -22.6770    70.8260    25.0340    77.2270    80.1050    87.1640     2.2290 
  216.3750   -22.5210    71.5340    25.0360    71.0270    74.7190    80.6650     2.2120 
  216.5000   -22.3500    71.5450    25.0380    66.1470    70.6730    75.5820     2.2120 
  216.6250   -22.1960    71.1570    25.0480    61.8380    68.3490    72.3930     2.2310 
  216.7500   -22.0700    72.0340    25.0680    59.7280    67.5220    70.8530     2.2530 
  216.8750   -21.9390    73.9630    25.0970    59.9810    68.3230    71.1010     2.2670 
  217.0000   -21.7950    73.6460    25.1390    61.9580    70.9720    73.3670     2.2670 
  217.1250   -21.6310    70.7830    25.2050    64.9810    75.9810    78.1240     2.2510 
  217.2500   -21.3930    68.8910    25.3150    71.2410    82.9240    84.7880     2.2320 
  217.3750   -21.1040    69.5460    25.4320    83.3390    91.2370    92.6500     2.2210 
  217.5000   -20.7950    71.0920    25.5810    94.9760    99.6160   100.3520     2.2220 
  217.6250   -20.4140    69.7510    25.6100    93.8210   104.6230   104.9270     2.2290 
  217.7500   -19.9530    66.9310    25.5350    86.4030   102.8380   103.9040     2.2330 
  217.8750   -19.4510    65.0490    25.4480    81.6790    92.9780    95.9980     2.2350 
  218.0000   -18.9040    64.7360    25.3520    78.1110    78.0700    82.7550     2.2430 
  218.1250   -18.2890    65.6350    25.4210    72.1860    63.7300    68.5100     2.2640 
  218.2500   -17.6440    67.5730    25.5420    67.4230    53.0600    57.1140     2.2930 
  218.3750   -16.9850    69.8720    25.7080    62.0120    46.5200    49.6890     2.3230 
  218.5000   -16.3540    71.5920    25.6670    55.1900    43.5530    45.9380     2.3490 
  218.6250   -15.6660    72.2050    25.5010    49.7830    43.0830    44.7930     2.3820 
  218.7500   -14.9080    72.8910    25.3830    51.2450    42.3530    43.4690     2.4350 
  218.8750   -14.1920    73.7090    25.2850    52.0360    38.8160    39.5680     2.5080 
  219.0000   -13.5540    74.9190    25.1440    47.9030    31.6020    32.3870     2.5780 
  219.1250   -12.8800    73.6260    24.9310    35.7410    23.0340    24.0220     2.6090 
  219.2500   -12.2060    69.4900    24.8240    21.4050    16.1440    17.1040     2.6040 
  219.3750   -11.6830    64.4690    24.7670    11.6940    11.5540    12.2560     2.5750 
  219.5000   -11.2300    60.8590    24.7580     7.6460     8.8520     9.2030     2.5290 
  219.6250   -10.8260    59.9560    24.6490     6.7680     7.5780     7.6090     2.4770 
  219.7500   -10.5620    59.8980    24.8420     6.6000     7.0220     6.8150     2.4330 
  219.8750   -10.4130    58.6470    25.1760     6.5660     6.8530     6.5140     2.4050 
  220.0000   -10.3210    56.1720    25.3280     6.5370     6.8140     6.4630     2.3890 
  220.1250   -10.3120    55.4460    25.1170     6.3370     6.7430     6.4830     2.3790 
  220.2500   -10.4160    58.0370    24.7410     6.0300     6.6340     6.4840     2.3690 
  220.3750   -10.5380    61.5200    24.5590     5.8110     6.5410     6.4630     2.3640 
  220.5000   -10.6570    63.7860    24.6000     5.8230     6.5050     6.4430     2.3590 
  220.6250   -10.9210    64.5230    24.8330     6.0040     6.5280     6.4410     2.3480 
  220.7500   -11.2580    64.3110    25.0260     6.0840     6.5400     6.4130     2.3320 
  220.8750   -11.5950    63.5660    24.9300     5.9570     6.4370     6.2840     2.3240 
  221.0000   -12.0410    62.6870    24.7930     5.7220     6.1250     6.0080     2.3310 
  221.1250   -12.6220    65.9910    24.9810     5.5670     5.6280     5.5610     2.3470 
  221.2500   -13.2250    76.7590    24.9800     5.4700     5.1130     5.1010     2.3580 
  221.3750   -13.9050    92.5260    24.7950     5.3910     4.7170     4.7830     2.3590 
  221.5000   -14.6220   108.9180    24.6410     5.4880     4.5330     4.7200     2.3560 
  221.6250   -15.3090   120.6190    24.5320     6.1230     4.6360     5.0120     2.3690 
  221.7500   -16.0000   123.6440    24.7430     7.1790     4.9700     5.5840     2.4060 
  221.8750   -16.6450   118.7990    25.0260     8.1590     5.4900     6.3420     2.4510 
  222.0000   -17.1960   111.1830    25.1970     8.5820     6.1050     7.1300     2.4730 
  222.1250   -17.7170   108.3840    25.2220     8.5430     6.6540     7.7200     2.4550 
  222.2500   -18.1810   106.5990    25.2100     8.4890     7.0200     8.0340     2.4260 
  222.3750   -18.5670   100.9730    25.1030     8.5080     7.1890     8.1240     2.4080 
  222.5000   -18.9590    93.4560    24.8860     8.4760     7.2250     8.1250     2.4050 
  222.6250   -19.2640    90.7440    24.9610     8.3280     7.2140     8.1640     2.4100 
  222.7500   -19.5290    91.9480    25.5460     8.1810     7.2120     8.2650     2.4130 
  222.8750   -19.8630    92.1560    26.2370     8.1430     7.2140     8.3970     2.4090 
  223.0000   -20.1790    90.0290    26.6210     8.2230     7.2010     8.5100     2.3970 
  223.1250   -20.3850    89.4550    26.6590     8.3330     7.1530     8.5530     2.3860 
  223.2500   -20.6150    92.0800    26.4790     8.4340     7.0850     8.5300     2.3860 
  223.3750   -20.8860    95.1290    26.0310     8.4780     7.0310     8.4890     2.3960 
  223.5000   -21.1550    96.3130    25.5370     8.4770     7.0580     8.5240     2.4070 
  223.6250   -21.4410    96.2420    25.0570     8.6160     7.2810     8.7880     2.4090 
