~V
VERS. 2.00: Ver 2.00
~W
STRT.M 55.0000:
STOP.M 272.0000:
STEP.M 0.1250:
NULL. -999.2500:
UWI. DF33042:
~C
DEPT.M :
SP.MV :
GR.API :
RML.OHMM :
RI. :
RXO.OHMM :
CALI.CM :
DEN.GM/CC :
~A
# ...
  145.0000   -21.9560    91.4620     6.1570     4.7690     4.7520    22.9180     2.2820 
  145.1250   -22.0680    87.7570     6.2700     4.8720     4.8070    22.9250     2.2750 
  145.2500   -22.1400    84.1210     6.3600     4.9570     4.8330    22.9770     2.2720 
  145.3750   -22.1890    81.3990     6.4300     5.0300     4.9160    23.1220     2.2710 
  145.5000   -22.1780    79.7240     6.4860     5.0900     5.1020    23.3450     2.2720 
  145.6250   -22.1570    81.7260     6.5370     5.1330     5.2780    23.5690     2.2720 
  145.7500   -22.0780    85.7890     6.6000     5.1620     5.4190    23.7440     2.2710 
  145.8750   -22.0170    86.7450     6.6840     5.1840     5.3770    23.9000     2.2680 
  146.0000   -21.9590    83.3490     6.7870     5.2010     5.1170    24.0240     2.2620 
  146.1250   -21.8850    82.2470     6.8790     5.2020     5.1470    24.0610     2.2550 
  146.2500   -21.8160    86.1620     6.9110     5.1690     5.4050    24.0540     2.2540 
  146.3750   -21.7480    89.8830     6.8470     5.0870     5.7520    24.0720     2.2600 
  146.5000   -21.7100    90.8450     6.6930     4.9590     5.9160    24.1760     2.2740 
  146.6250   -21.6620    92.2440     6.5210     4.8250     5.5470    24.3380     2.2890 
  146.7500   -21.6530    94.0250     6.4420     4.7480     4.8990    24.4750     2.2980 
  146.8750   -21.6400    91.6560     6.5210     4.7670     4.7030    24.5260     2.3000 
  147.0000   -21.6380    85.8460     6.7570     4.8860     5.0920    24.5100     2.2970 
  147.1250   -21.6690    82.8590     7.0750     5.0680     5.9470    24.4950     2.2950 
  147.2500   -21.7090    82.1390     7.3560     5.2400     6.7280    24.4900     2.2980 
  147.3750   -21.7450    81.2760     7.5510     5.3690     6.7220    24.4950     2.3010 
  147.5000   -21.8040    79.9610     7.6880     5.4620     6.1160    24.5100     2.3020 
  147.6250   -21.8450    77.8130     7.8820     5.5770     5.8640    24.5410     2.2970 
  147.7500   -21.8970    75.5880     8.2170     5.7730     6.3930    24.5500     2.2890 
  147.8750   -21.9540    75.6300     8.7080     6.0820     7.2210    24.5380     2.2810 
  148.0000   -22.0380    79.8510     9.3130     6.5060     7.7990    24.5080     2.2760 
  148.1250   -22.1110    82.8220     9.9920     7.0580     8.3010    24.5040     2.2750 
  148.2500   -22.2220    80.8840    10.7600     7.7330     9.0980    24.5240     2.2750 
  148.3750   -22.3450    78.5240    11.7290     8.5860     9.9630    24.5520     2.2750 
  148.5000   -22.4540    77.5830    13.0560     9.6980    11.0320    24.5770     2.2720 
  148.6250   -22.5750    76.8010    14.9460    11.2150    12.7880    24.6060     2.2680 
  148.7500   -22.7110    76.3500    17.2720    13.0920    15.5410    24.6220     2.2620 
  148.8750   -22.8520    77.0720    19.8150    15.2300    18.6960    24.6260     2.2540 
  149.0000   -22.9680    79.1390    22.2310    17.4330    21.2580    24.6270     2.2430 
  149.1250   -23.1120    78.6740    24.0080    19.3650    25.7950    24.6270     2.2320 
  149.2500   -23.2220    76.0510    24.9660    20.8110    27.6650    24.6270     2.2270 
  149.3750   -23.3190    73.1090    25.1320    21.6950    28.3310    24.6270     2.2300 
  149.5000   -23.4210    71.1350    24.7510    22.1030    28.8010    24.6270     2.2410 
  149.6250   -23.5330    71.3260    24.1290    22.1890    25.7930    24.6280     2.2550 
  149.7500   -23.6350    71.6880    23.4720    22.1220    22.5520    24.6290     2.2680 
  149.8750   -23.7240    70.5880    22.6520    21.8550    22.8840    24.6290     2.2750 
  150.0000   -23.8070    68.7510    21.4240    21.1920    24.4740    24.6350     2.2750 
  150.1250   -23.8500    69.7830    19.4760    19.7750    23.0190    24.6580     2.2650 
  150.2500   -23.8780    74.0410    17.0630    17.6770    20.3660    24.6950     2.2510 
  150.3750   -23.9330    75.9810    14.6020    15.1780    18.7270    24.7140     2.2410 
  150.5000   -23.9670    72.0840    12.6840    12.7200    15.3110    24.6870     2.2410 
  150.6250   -24.0160    68.0300    11.5980    10.8140     9.9500    24.5140     2.2540 
  150.7500   -24.0200    69.5770    11.0870     9.5560     7.1190    24.3590     2.2730 
  150.8750   -24.0320    72.9620    10.7700     8.8690     6.3780    24.2930     2.2880 
  151.0000   -24.0660    73.9620    10.8560     8.5560     6.7200    24.2840     2.2940 
  151.1250   -24.1530    73.5980    10.9440     8.3790     7.3820    24.2810     2.2910 
  151.2500   -24.2960    74.8280    10.7840     8.1450     7.9090    24.3100     2.2880 
  151.3750   -24.5020    75.4880    10.4490     7.8700     7.4610    24.4450     2.2880 
  151.5000   -24.8430    74.2810    10.2930     7.7350     5.8620    24.7380     2.2900 
  151.6250   -25.3010    74.0030    11.0190     8.1870     5.9610    24.8100     2.2910 
  151.7500   -25.8930    74.1950    13.0250     9.5290     7.5040    24.7160     2.2900 
  151.8750   -26.5590    72.9510    16.5830    12.0030    10.8940    24.6010     2.2830 
  152.0000   -27.2490    69.7640    21.6620    15.6310    16.7980    24.5580     2.2710 
  152.1250   -27.9020    66.6000    27.8080    20.1400    23.3230    24.5680     2.2550 
  152.2500   -28.5400    64.0140    33.7330    24.6110    29.9330    24.5910     2.2370 
  152.3750   -29.1140    61.4150    38.3780    28.2810    34.6430    24.6110     2.2190 
  152.5000   -29.5690    59.1880    41.2260    30.7200    35.5650    24.6150     2.2030 
  152.6250   -29.8870    58.5180    42.4110    31.9090    35.0670    24.6160     2.1910 
  152.7500   -30.0740    57.6590    42.9160    32.5150    36.2070    24.6230     2.1840 
  152.8750   -30.1460    55.5740    43.1810    32.8930    40.8080    24.6260     2.1830 
  153.0000   -30.1320    52.4700    43.4390    33.2560    43.6610    24.6270     2.1860 
  153.1250   -30.0390    51.4380    43.9530    33.8050    40.6010    24.5780     2.1920 
  153.2500   -29.8520    52.9240    44.9390    34.6910    35.1560    24.4310     2.1990 
  153.3750   -29.5780    54.6660    46.4680    35.9860    31.4600    24.2030     2.2060 
  153.5000   -29.2490    55.0010    48.2740    37.5570    31.7570    23.9900     2.2110 
  153.6250   -28.8370    53.4080    49.4630    38.8520    36.9540    23.8540     2.2130 
  153.7500   -28.4040    53.0500    49.0870    39.1580    42.8980    23.7410     2.2140 
  153.8750   -27.9660    55.3280    46.5570    37.9250    43.4270    23.6500     2.2160 
  154.0000   -27.5650    58.9940    42.0300    35.0530    40.5230    23.5770     2.2220 
  154.1250   -27.2220    62.2070    36.4560    30.9760    34.1790    23.5380     2.2370 
  154.2500   -26.9160    64.9290    31.2620    26.8260    27.2200    23.4780     2.2560 
  154.3750   -26.6550    67.1980    27.1490    23.2880    21.7410    23.3960     2.2770 
  154.5000   -26.4010    68.7990    24.3780    20.7260    18.4100    23.3470     2.2930 
  154.6250   -26.2230    70.4660    23.1310    19.4080    17.0910    23.3380     2.3000 
  154.7500   -26.0290    72.9340    22.9860    19.0600    16.1160    23.3380     2.2990 
  154.8750   -25.8540    75.9810    23.6610    19.4950    15.7230    23.3380     2.2910 
  155.0000   -25.6700    77.8040    24.7760    20.4380    17.1550    23.3380     2.2790 
  155.1250   -25.5010    77.0120    25.8290    21.5040    20.1850    23.3450     2.2680 
  155.2500   -25.3440    74.3510    26.4310    22.2930    22.2650    23.3450     2.2590 
  155.3750   -25.2010    71.9800    26.4490    22.6070    22.2800    23.2960     2.2520 
  155.5000   -25.1160    72.3090    25.9600    22.4130    20.2140    23.1660     2.2460 
  155.6250   -25.0180    75.2990    25.1040    21.7460    18.3560    23.0420     2.2410 
  155.7500   -24.9880    77.3180    24.0250    20.7760    17.9130    22.9580     2.2360 
  155.8750   -24.9860    75.8030    22.6750    19.5280    18.1130    22.9280     2.2340 
  156.0000   -25.0130    72.6670    21.0190    18.0230    18.2470    22.9190     2.2380 
  156.1250   -25.0580    73.6450    19.2260    16.4020    17.2770    22.9250     2.2510 
