~V
VERS. 2.00: Ver 2.00
~W
STRT.M 60.0000:
STOP.M 236.0000:
STEP.M 0.1250:
NULL. -999.2500:
UWI. DF33015:
~C
DEPT.M :
DEN.GM/CC :
GR.API :
RML.OHMM :
RI. :
RXO.OHMM :
CALI.CM :
SP.MV :
~A
# ...
   93.7500     2.1760    64.6610     9.5890     7.4700     8.3560    23.8290   -31.1230 
   93.8750     2.1870    63.6970     9.4680     7.3730     8.4540    24.0550   -30.8460 
   94.0000     2.1960    63.0610     9.2190     7.2090     8.5090    24.0110   -30.5800 
   94.1250     2.1960    64.6320     8.8790     6.9950     8.4680    23.9610   -30.3480 
   94.2500     2.1830    67.1700     8.6020     6.8190     8.2300    23.9630   -30.1220 
   94.3750     2.1630    68.2780     8.5770     6.7940     7.8970    24.0280   -29.9380 
   94.5000     2.1560    68.1440     8.9910     7.0490     7.9670    24.0220   -29.7680 
   94.6250     2.1940    67.8480    10.0370     7.7440     9.8050    23.9860   -29.6370 
   94.7500     2.2840    66.9120    11.5090     8.7840    14.6210    24.0430   -29.5730 
   94.8750     2.4100    66.2930    13.0740     9.9810    22.4740    24.2020   -29.6010 
   95.0000     2.5280    66.1410    14.2570    11.0280    29.5950    24.3640   -29.7140 
   95.1250     2.5750    64.5060    14.4390    11.4680    29.6150    24.3620   -29.9580 
   95.2500     2.5450    61.1820    13.6630    11.2110    23.8050    24.1440   -30.2260 
   95.3750     2.4620    60.3500    12.2630    10.3820    16.3010    23.6780   -30.4990 
   95.5000     2.3650    65.8330    10.7470     9.2830    10.8770    23.1140   -30.8120 
   95.6250     2.2860    72.9300     9.5930     8.2670     8.8490    22.7450   -31.0840 
   95.7500     2.2330    74.1360     8.8870     7.5050     8.3130    22.5670   -31.3740 
   95.8750     2.2040    70.3740     8.5680     7.0230     8.0740    22.4510   -31.5670 
   96.0000     2.1930    67.6940     8.5070     6.7760     7.7650    22.3570   -31.7460 
   96.1250     2.1920    70.3880     8.5680     6.7020     7.4780    22.3160   -31.8120 
   96.2500     2.1940    73.0460     8.6230     6.7000     7.2980    22.3020   -31.9410 
   96.3750     2.1960    73.7760     8.6390     6.7270     7.2620    22.2980   -32.0620 
   96.5000     2.1970    74.3690     8.6300     6.7690     7.3670    22.2980   -32.2100 
   96.6250     2.1950    75.7670     8.6360     6.8290     7.6020    22.2980   -32.3930 
   96.7500     2.1910    74.9390     8.6770     6.9060     7.8710    22.2980   -32.5850 
   96.8750     2.1840    71.5570     8.7540     6.9950     8.0650    22.2980   -32.8100 
   97.0000     2.1760    69.0270     8.8530     7.0870     8.1520    22.2980   -33.0030 
   97.1250     2.1690    69.6750     8.9520     7.1680     8.1970    22.2960   -33.1990 
   97.2500     2.1640    70.7770     9.0320     7.2280     8.2520    22.2820   -33.3570 
   97.3750     2.1600    69.5480     9.0840     7.2650     8.2890    22.2520   -33.4930 
   97.5000     2.1570    66.9610     9.1070     7.2810     8.2830    22.2340   -33.6200 
   97.6250     2.1540    66.4050     9.1070     7.2800     8.2540    22.2490   -33.7530 
   97.7500     2.1550    68.8420     9.1030     7.2760     8.2560    22.2890   -33.9010 
   97.8750     2.1590    70.2810     9.1070     7.2750     8.2980    22.3460   -34.0670 
   98.0000     2.1670    69.4770     9.1230     7.2810     8.3500    22.4210   -34.2790 
   98.1250     2.1750    68.8060     9.1430     7.2910     8.3760    22.4910   -34.4910 
   98.2500     2.1790    67.0660     9.1550     7.3000     8.3710    22.6130   -34.7490 
   98.3750     2.1770    63.6600     9.1540     7.3070     8.3730    22.8160   -34.9840 
   98.5000     2.1710    61.0130     9.1490     7.3150     8.4170    23.0420   -35.1880 
   98.6250     2.1650    62.2260     9.1630     7.3350     8.5060    23.2290   -35.3230 
   98.7500     2.1600    62.5950     9.2050     7.3730     8.5990    23.2990   -35.3990 
   98.8750     2.1560    59.9610     9.2590     7.4210     8.6710    23.3130   -35.4200 
   99.0000     2.1530    57.9440     9.2880     7.4600     8.7540    23.3130   -35.3530 
   99.1250     2.1530    59.9730     9.2200     7.4490     8.8440    23.3130   -35.2340 
   99.2500     2.1570    62.3700     9.0430     7.3730     8.8370    23.3140   -34.9750 
   99.3750     2.1660    62.2600     8.7880     7.2410     8.5710    23.3150   -34.6970 
   99.5000     2.1770    60.9220     8.5290     7.0900     7.8950    23.3170   -34.3640 
   99.6250     2.1850    62.9580     8.3810     6.9870     7.2060    23.3150   -34.1230 
   99.7500     2.1870    66.0260     8.3950     6.9760     7.1220    23.3140   -33.8940 
   99.8750     2.1830    65.8040     8.5680     7.0690     7.6660    23.3130   -33.6790 
  100.0000     2.1790    63.6610     8.8400     7.2440     8.3320    23.3140   -33.4790 
  100.1250     2.1790    66.1660     9.0930     7.4380     8.5150    23.3180   -33.2980 
  100.2500     2.1840    70.8050     9.2140     7.5740     8.5220    23.3280   -33.1190 
  100.3750     2.1930    71.8680     9.1490     7.6020     8.6700    23.3530   -32.9320 
  100.5000     2.2030    69.1050     8.9140     7.5160     8.7190    23.3970   -32.7350 
  100.6250     2.2110    66.1250     8.5990     7.3490     8.3030    23.4160   -32.4490 
  100.7500     2.2160    64.4850     8.3570     7.1960     7.8240    23.4260   -32.1000 
  100.8750     2.2160    65.3350     8.2850     7.1240     7.6320    23.4430   -31.7090 
  101.0000     2.2110    69.6660     8.4220     7.1740     7.7330    23.4820   -31.3310 
  101.1250     2.2010    73.7710     8.7300     7.3470     7.9870    23.5020   -30.9360 
  101.2500     2.1930    73.3530     9.0210     7.5420     8.2460    23.5090   -30.5500 
  101.3750     2.1910    68.6740     9.1170     7.6500     8.3480    23.5190   -30.1550 
  101.5000     2.1970    64.1400     8.8980     7.5780     8.1910    23.5620   -29.7140 
  101.6250     2.2100    66.6360     8.3620     7.2870     7.8620    23.7100   -29.3240 
  101.7500     2.2210    73.8710     7.7740     6.9140     7.2480    23.9620   -28.9600 
  101.8750     2.2280    81.9100     7.3680     6.6030     6.3770    24.2410   -28.7280 
  102.0000     2.2330    86.8760     7.2980     6.4730     5.8600    24.3330   -28.5230 
  102.1250     2.2400    87.5090     7.6210     6.5990     6.6280    24.1270   -28.4700 
  102.2500     2.2480    84.2880     8.1230     6.8820     8.1340    23.7450   -28.5140 
  102.3750     2.2520    78.7900     8.5890     7.2000     9.0960    23.4580   -28.6130 
  102.5000     2.2460    74.0420     8.8230     7.4240     8.8440    23.3730   -28.8040 
  102.6250     2.2250    70.7880     8.6850     7.4370     8.1160    23.4050   -28.9690 
  102.7500     2.1970    68.2290     8.3370     7.2910     7.7470    23.4230   -29.1460 
  102.8750     2.1720    66.5770     8.0050     7.0990     7.6630    23.4240   -29.2360 
  103.0000     2.1670    68.5560     7.9280     7.0140     7.6510    23.4190   -29.2980 
  103.1250     2.2010    74.6520     8.3310     7.2130     7.4730    23.4140   -29.3110 
  103.2500     2.2730    80.1190     9.1270     7.6850     7.1610    23.4120   -29.3020 
  103.3750     2.3630    81.4300    10.1390     8.3480     7.1620    23.3960   -29.3520 
  103.5000     2.4370    79.3490    11.0880     9.0390     7.7390    23.3330   -29.4390 
  103.6250     2.4470    78.8020    11.5750     9.5020     8.4640    23.1910   -29.6040 
  103.7500     2.4030    79.8110    11.5060     9.6180     8.6930    23.0840   -29.8110 
  103.8750     2.3350    79.3620    10.9940     9.4000     8.5270    23.0440   -30.0780 
  104.0000     2.2710    75.5430    10.3070     8.9790     8.4690    23.0400   -30.3670 
  104.1250     2.2300    72.2300     9.7420     8.5450     8.6390    23.0440   -30.6520 
  104.2500     2.2050    72.2120     9.3990     8.2230     8.7080    23.0630   -30.9100 
  104.3750     2.1900    72.3890     9.2510     8.0360     8.5350    23.1010   -31.1360 
  104.5000     2.1800    69.5230     9.2210     7.9540     8.2680    23.1210   -31.3250 
  104.6250     2.1740    64.9200     9.2350     7.9330     8.1950    23.1240   -31.4700 
  104.7500     2.1710    62.0300     9.2410     7.9310     8.2620    23.1240   -31.5600 
  104.8750     2.1710    60.7450     9.2240     7.9300     8.2810    23.1260   -31.6040 
