~V
VERS. 2.00: Ver 2.00
~W
STRT.M 60.0000:
STOP.M 268.0000:
STEP.M 0.1250:
NULL. -999.2500:
UWI. DF33031:
~C
DEPT.M :
SP.MV :
GR.API :
CALI.CM :
RXO.OHMM :
RI. :
RML.OHMM :
DEN.GM/CC :
~A
# ...
  127.5000   -29.7010    71.5420    22.7160    10.0010     8.1740    10.6590     2.2580 
  127.6250   -29.4890    64.2870    22.7230     9.7140     7.8450    10.3240     2.2400 
  127.7500   -29.2680    62.8110    22.7280     9.4790     7.5880    10.0610     2.2260 
  127.8750   -28.9690    65.2560    22.7320     9.4450     7.4950     9.9360     2.2230 
  128.0000   -28.6090    67.2370    22.7310     9.5950     7.6210    10.0140     2.2440 
  128.1250   -28.1990    67.1270    22.7710    10.0150     8.0310    10.4420     2.2890 
  128.2500   -27.7980    66.3220    22.9160    10.8220     8.7050    11.2460     2.3440 
  128.3750   -27.4060    64.8720    23.1410    11.5150     9.6250    12.4020     2.3930 
  128.5000   -27.0230    62.6400    23.3070    11.6590    10.6780    13.7040     2.4290 
  128.6250   -26.6890    61.1980    23.4360    11.7020    11.4860    14.6100     2.4530 
  128.7500   -26.4220    60.5080    23.6180    12.9810    11.6420    14.6040     2.4680 
  128.8750   -26.2470    60.1440    23.7840    13.6220    10.9730    13.5010     2.4650 
  129.0000   -26.1380    61.1470    23.8360    11.5310     9.6930    11.6620     2.4300 
  129.1250   -26.1510    65.6420    23.7470     8.3320     8.2770     9.8210     2.3660 
  129.2500   -26.2120    71.5120    23.5690     6.5790     7.1250     8.4480     2.3050 
  129.3750   -26.2220    75.1420    23.3840     6.1990     6.3600     7.6130     2.2650 
  129.5000   -26.1630    74.9640    23.2870     6.3060     5.9930     7.2500     2.2490 
  129.6250   -26.0000    72.3870    23.2660     6.5030     6.0740     7.3630     2.2500 
  129.7500   -25.6930    70.3080    23.2750     6.7700     6.5260     7.8780     2.2640 
  129.8750   -25.2680    70.0100    23.3090     7.1460     7.3300     8.8010     2.3020 
  130.0000   -24.7540    72.0480    23.4000     7.8300     8.3920    10.0540     2.3670 
  130.1250   -24.1900    73.4380    23.5910     9.7220     9.4100    11.2820     2.4450 
  130.2500   -23.6010    69.8450    23.8360    12.3950     9.8990    11.8580     2.5040 
  130.3750   -23.0850    62.7290    23.9980    13.5110     9.5220    11.3290     2.5140 
  130.5000   -22.6550    59.1360    24.0550    11.3230     8.3980     9.8490     2.4690 
  130.6250   -22.3670    66.8090    24.0580     7.9350     7.1160     8.2240     2.4020 
  130.7500   -22.2190    80.2700    24.0580     6.3570     6.2720     7.1980     2.3700 
  130.8750   -22.2090    88.9810    24.0580     6.6340     6.1390     7.0820     2.4020 
  131.0000   -22.3200    86.2290    24.0580     8.2780     6.8750     8.0620     2.4830 
  131.1250   -22.5260    74.6910    24.0230    11.7730     8.7600    10.4870     2.5620 
  131.2500   -22.7800    63.8990    23.9190    15.6700    11.5250    14.0180     2.6010 
  131.3750   -23.0760    57.4280    23.7740    18.2920    14.6290    17.9070     2.6050 
  131.5000   -23.4360    54.0080    23.6900    19.0740    17.1100    20.8110     2.5980 
  131.6250   -23.8070    52.8630    23.6680    18.2910    17.8550    21.3150     2.5960 
  131.7500   -24.1930    54.1800    23.6590    16.6840    17.2200    20.0970     2.5940 
  131.8750   -24.5650    56.3680    23.6350    14.9920    15.8970    18.1770     2.5850 
  132.0000   -24.9430    58.4020    23.6040    14.2580    14.5100    16.3710     2.5700 
  132.1250   -25.3100    58.6960    23.5900    14.3860    13.4650    15.1550     2.5540 
  132.2500   -25.7180    60.0770    23.5870    13.7980    12.8020    14.5010     2.5390 
  132.3750   -26.1430    64.9820    23.5860    13.1790    12.4840    14.3210     2.5190 
  132.5000   -26.5350    70.3940    23.5820    13.7510    12.3560    14.3720     2.4900 
  132.6250   -26.9210    71.2830    23.5510    15.9080    12.1050    14.1890     2.4540 
  132.7500   -27.3310    68.4530    23.4500    15.9260    11.5180    13.4860     2.4090 
  132.8750   -27.7500    67.8170    23.2620    13.4590    10.5990    12.3040     2.3570 
  133.0000   -28.1580    71.3180    23.0550    10.0170     9.5270    10.9380     2.3080 
  133.1250   -28.5210    75.9730    22.9730     8.0030     8.5890     9.8060     2.2780 
  133.2500   -28.7920    80.0080    22.9580     7.5420     7.9340     9.0890     2.2640 
  133.3750   -28.9950    83.0000    22.9660     7.7260     7.5860     8.7750     2.2550 
  133.5000   -29.1580    84.0900    22.9660     7.9000     7.4830     8.7380     2.2460 
  133.6250   -29.2890    82.6740    22.9610     7.9260     7.5340     8.8400     2.2440 
  133.7500   -29.3870    80.4560    22.9580     7.9360     7.6160     8.9490     2.2510 
  133.8750   -29.4570    78.3420    22.9560     7.9640     7.6810     9.0220     2.2580 
  134.0000   -29.4510    76.4700    22.9550     7.9420     7.7130     9.0560     2.2560 
  134.1250   -29.4020    76.1050    22.9570     7.8270     7.6960     9.0390     2.2450 
  134.2500   -29.3230    77.6780    22.9590     7.7250     7.6230     8.9670     2.2360 
  134.3750   -29.2070    79.2450    22.9600     7.7010     7.4740     8.8200     2.2290 
  134.5000   -29.0480    80.3130    22.9570     7.7630     7.2420     8.5840     2.2210 
  134.6250   -28.7950    80.3520    22.9550     7.8920     6.9710     8.3000     2.2160 
  134.7500   -28.4080    78.9570    22.9540     8.0390     6.8130     8.1270     2.2240 
  134.8750   -27.9110    77.5110    22.9560     8.2110     6.9610     8.2840     2.2530 
  135.0000   -27.3710    77.2660    22.9850     8.7040     7.6310     9.0390     2.3080 
  135.1250   -26.7790    76.8170    23.0960    10.7130     9.2400    10.9090     2.3960 
  135.2500   -26.2090    73.2950    23.2960    15.5740    11.9650    14.1140     2.4950 
  135.3750   -25.6660    68.4240    23.5070    22.8770    15.8890    18.7460     2.5810 
  135.5000   -25.1690    64.6380    23.6370    29.7340    20.3800    23.9600     2.6340 
  135.6250   -24.7540    62.0610    23.6760    34.1550    22.9110    26.3770     2.6440 
  135.7500   -24.4730    60.0150    23.6760    33.6280    21.7520    24.0690     2.6170 
  135.8750   -24.3070    59.7480    23.6390    26.3870    17.8390    18.8180     2.5510 
  136.0000   -24.2410    63.1700    23.5400    15.6080    13.4270    13.6360     2.4540 
  136.1250   -24.2810    70.3000    23.3600     8.8540    10.1190    10.2320     2.3580 
  136.2500   -24.3660    78.2750    23.1770     6.4400     7.9590     8.2790     2.2960 
  136.3750   -24.4660    85.4900    22.9780     5.8280     6.7280     7.3680     2.2740 
  136.5000   -24.5460    91.1120    22.7860     5.7340     6.1800     7.1190     2.2750 
  136.6250   -24.6210    93.2480    22.5290     5.9020     6.0820     7.1750     2.2740 
  136.7500   -24.6620    92.2730    22.2920     5.9750     6.0580     7.1290     2.2750 
  136.8750   -24.6900    92.5380    22.1960     5.7050     5.9210     6.8360     2.2900 
  137.0000   -24.7170    95.4070    22.2570     5.2530     5.6770     6.4160     2.3180 
  137.1250   -24.7570    97.4200    22.5400     5.1110     5.5490     6.2190     2.3400 
  137.2500   -24.8000    98.0330    22.9110     5.3470     5.7750     6.4960     2.3430 
  137.3750   -24.8560    98.1270    23.1800     6.4300     6.5400     7.4110     2.3250 
  137.5000   -24.9550    96.5700    23.3300     9.0600     7.9630     9.0590     2.2890 
  137.6250   -25.1010    90.3490    23.5160    12.8210    10.0280    11.3960     2.2450 
  137.7500   -25.2480    83.4730    23.7960    15.5680    12.1050    13.7070     2.2080 
  137.8750   -25.3900    79.9170    24.0530    15.9250    13.4200    15.1120     2.1860 
  138.0000   -25.4800    80.1900    24.2100    14.4380    13.5100    15.0900     2.1760 
  138.1250   -25.5030    83.3180    24.2590    12.6320    12.5750    13.9190     2.1770 
  138.2500   -25.4980    86.6590    24.2650    11.3580    11.4790    12.6300     2.1860 
  138.3750   -25.4750    87.8520    24.2650    10.4610    10.6160    11.6980     2.1970 
  138.5000   -25.4060    86.6010    24.2630    10.0010    10.0980    11.2480     2.2010 
  138.6250   -25.2780    84.4990    24.2460     9.9800     9.8930    11.2160     2.1970 
