~V
VERS. 2.00: Ver 2.00
~W
STRT.M 63.0000:
STOP.M 272.0000:
STEP.M 0.1250:
NULL. -999.2500:
UWI. DF33040:
~C
DEPT.M :
SP.MV :
GR.API :
CALI.CM :
RXO.OHMM :
RI. :
RML.OHMM :
DEN.GM/CC :
~A
# ...
   85.5000   -27.5040    66.2300    23.1480     7.4970     6.6600    10.1220     2.2040 
   85.6250   -27.5130    65.7020    23.1850     7.6880     7.0550    10.8630     2.1840 
   85.7500   -27.5120    63.0660    23.2690     8.6110     7.5630    11.7590     2.1710 
   85.8750   -27.4920    57.8900    23.4590    11.8290     8.0870    12.6040     2.1730 
   86.0000   -27.4530    54.4850    23.7180    17.3600     8.4820    13.1290     2.1850 
   86.1250   -27.3850    55.9400    23.8090    19.4150     8.5660    13.0310     2.1920 
   86.2500   -27.3050    59.0060    23.5910    15.8190     8.3680    12.4700     2.1950 
   86.3750   -27.2350    62.8590    23.1820    10.6160     7.9980    11.7190     2.2000 
   86.5000   -27.1880    67.8540    22.8360     8.0180     7.5930    11.0460     2.2070 
   86.6250   -27.1780    70.0780    22.7490     7.8980     7.2720    10.6260     2.2090 
   86.7500   -27.2030    66.4750    22.7990     8.0830     7.0530    10.3970     2.2040 
   86.8750   -27.2470    62.0950    22.8440     7.9580     6.9030    10.2470     2.1960 
   87.0000   -27.3030    62.0820    22.8280     7.6600     6.7710    10.0700     2.1880 
   87.1250   -27.3590    63.3200    22.7500     7.4030     6.6250     9.8240     2.1820 
   87.2500   -27.3930    60.9970    22.6680     7.2160     6.4680     9.5580     2.1760 
   87.3750   -27.3950    57.4540    22.6110     7.1040     6.3170     9.3030     2.1700 
   87.5000   -27.3540    57.0920    22.5870     7.0710     6.1800     9.0670     2.1690 
   87.6250   -27.2620    60.3600    22.5880     7.0400     6.0730     8.8700     2.1750 
   87.7500   -27.1280    63.0670    22.5890     6.9660     6.0140     8.7660     2.1800 
   87.8750   -26.9720    63.8670    22.5880     6.9420     6.0410     8.8290     2.1770 
   88.0000   -26.8040    61.7360    22.6030     7.0540     6.1780     9.1070     2.1660 
   88.1250   -26.6240    58.7410    22.6550     7.2220     6.4340     9.5860     2.1600 
   88.2500   -26.4600    58.8190    22.7320     7.3050     6.7280    10.0920     2.1640 
   88.3750   -26.3110    61.9090    22.8120     7.3210     6.9700    10.4390     2.1710 
   88.5000   -26.1890    63.9240    22.8720     7.3440     7.0710    10.4740     2.1740 
   88.6250   -26.1360    61.9740    22.8860     7.3940     6.9650    10.1340     2.1660 
   88.7500   -26.1500    59.4170    22.8540     7.4680     6.7320     9.6300     2.1550 
   88.8750   -26.2220    57.7860    22.8010     7.5900     6.4560     9.1400     2.1450 
   89.0000   -26.3510    57.8950    22.7600     7.7110     6.2130     8.7870     2.1410 
   89.1250   -26.5300    58.9090    22.7470     7.7090     6.0560     8.6260     2.1410 
   89.2500   -26.7220    59.1700    22.7440     7.5780     5.9700     8.5780     2.1440 
   89.3750   -26.9150    59.7830    22.7440     7.3780     5.9250     8.5770     2.1500 
   89.5000   -27.0940    62.6570    22.7440     7.1820     5.8980     8.5780     2.1590 
   89.6250   -27.2230    66.5490    22.7190     7.0860     5.8720     8.5620     2.1610 
   89.7500   -27.2970    68.3500    22.6660     7.0730     5.8410     8.5270     2.1580 
   89.8750   -27.3220    66.7750    22.6130     7.0680     5.8010     8.4630     2.1600 
   90.0000   -27.2990    64.7620    22.5900     7.0180     5.7470     8.3670     2.1740 
   90.1250   -27.2180    63.4560    22.5990     6.9720     5.6840     8.2550     2.1920 
   90.2500   -27.1070    61.4220    22.6020     6.9820     5.6330     8.1800     2.2010 
   90.3750   -26.9830    60.3280    22.5950     7.0210     5.6180     8.1830     2.1980 
   90.5000   -26.8460    62.1790    22.5870     7.0230     5.6520     8.2810     2.1870 
   90.6250   -26.7000    66.7280    22.6090     6.9550     5.7320     8.4540     2.1770 
   90.7500   -26.5430    69.3710    22.6600     6.9030     5.8170     8.6190     2.1780 
   90.8750   -26.3730    69.9950    22.7120     6.9100     5.8710     8.7010     2.1900 
   91.0000   -26.1760    71.1980    22.7400     6.9240     5.8640     8.6550     2.2030 
   91.1250   -25.9240    72.0910    22.7180     6.8870     5.7820     8.4720     2.2000 
   91.2500   -25.5990    70.5920    22.6520     6.8360     5.6550     8.2330     2.1840 
   91.3750   -25.2010    67.8010    22.5700     6.8110     5.5060     7.9800     2.1670 
   91.5000   -24.7370    69.0120    22.5020     6.7870     5.3460     7.7290     2.1640 
   91.6250   -24.2180    76.4020    22.5070     6.6670     5.1750     7.4710     2.1830 
   91.7500   -23.7080    82.7010    22.6740     6.3710     5.0000     7.2130     2.2100 
   91.8750   -23.2550    83.4600    22.9990     5.9200     4.8370     6.9890     2.2320 
   92.0000   -22.9010    80.2120    23.3380     5.5010     4.7110     6.8440     2.2410 
   92.1250   -22.7160    77.0490    23.4870     5.4490     4.6620     6.8290     2.2290 
   92.2500   -22.6980    75.3440    23.3920     5.7170     4.6840     6.9140     2.2020 
   92.3750   -22.8180    75.3480    23.1080     6.0290     4.7580     7.0510     2.1740 
   92.5000   -23.0460    75.6610    22.7710     6.1250     4.8480     7.1810     2.1580 
   92.6250   -23.3800    74.6000    22.5800     6.0370     4.9180     7.2590     2.1620 
   92.7500   -23.7460    74.2750    22.5250     6.0300     4.9590     7.3000     2.1740 
   92.8750   -24.0900    75.4010    22.4780     6.1650     4.9860     7.3430     2.1820 
   93.0000   -24.3910    75.5880    22.4080     6.4170     5.0220     7.4350     2.1830 
   93.1250   -24.6400    72.8280    22.4380     6.9040     5.0880     7.6040     2.1750 
   93.2500   -24.8460    68.3740    22.5980     7.5220     5.1760     7.8110     2.1610 
   93.3750   -25.0260    64.8460    22.7900     7.8350     5.2690     8.0060     2.1450 
   93.5000   -25.2070    63.8410    22.8780     7.5390     5.3490     8.1380     2.1350 
   93.6250   -25.3820    65.9430    22.8080     6.9420     5.3950     8.1600     2.1350 
   93.7500   -25.5480    70.4080    22.6720     6.6160     5.4060     8.0930     2.1390 
   93.8750   -25.6990    74.6840    22.5430     6.5770     5.3840     7.9750     2.1460 
   94.0000   -25.8220    75.1520    22.4680     6.6070     5.3380     7.8530     2.1530 
   94.1250   -25.8800    72.3670    22.4580     6.5410     5.2770     7.7640     2.1560 
   94.2500   -25.8810    71.2230    22.4740     6.3770     5.2120     7.7070     2.1510 
   94.3750   -25.8410    73.7570    22.4890     6.1450     5.1540     7.6740     2.1400 
   94.5000   -25.7530    77.6020    22.4820     5.9120     5.1080     7.6530     2.1280 
   94.6250   -25.6080    78.6530    22.4590     5.7990     5.0800     7.6380     2.1250 
   94.7500   -25.4330    76.8630    22.4460     5.8150     5.0610     7.6220     2.1270 
   94.8750   -25.2580    74.0000    22.4440     5.8630     5.0480     7.5980     2.1290 
   95.0000   -25.1080    72.9720    22.4200     5.8250     5.0380     7.5640     2.1290 
   95.1250   -25.0240    74.4570    22.3750     5.7490     5.0330     7.5240     2.1240 
   95.2500   -25.0080    74.9120    22.4010     5.8330     5.0340     7.4900     2.1190 
   95.3750   -25.0500    73.9680    22.5590     6.1450     5.0370     7.4620     2.1160 
   95.5000   -25.1250    72.0120    22.8140     6.5390     5.0340     7.4270     2.1170 
   95.6250   -25.2300    70.1720    23.0390     6.7430     5.0180     7.3820     2.1230 
   95.7500   -25.3450    68.0650    23.1640     6.7220     4.9990     7.3500     2.1310 
   95.8750   -25.4410    65.8390    23.2060     6.6270     4.9890     7.3560     2.1360 
   96.0000   -25.4840    63.7880    23.2060     6.6330     4.9970     7.4060     2.1370 
   96.1250   -25.4330    61.4360    23.2040     6.8440     5.0150     7.4620     2.1390 
   96.2500   -25.2940    60.7050    23.2030     7.1380     5.0220     7.4620     2.1530 
   96.3750   -25.0660    64.0830    23.2040     7.3360     5.0000     7.3800     2.1760 
   96.5000   -24.7840    70.6710    23.2270     7.3140     4.9530     7.2430     2.1970 
   96.6250   -24.4660    74.5920    23.2950     7.0700     4.9140     7.1540     2.2070 
