~V
VERS. 2.00: Ver 2.00
~W
STRT.M 60.0000:
STOP.M 236.0000:
STEP.M 0.1250:
NULL. -999.2500:
UWI. DF33015:
~C
DEPT.M :
DEN.GM/CC :
GR.API :
RML.OHMM :
RI. :
RXO.OHMM :
CALI.CM :
SP.MV :
~A
# ...
  195.0000     2.2960    60.1210    72.0390    69.3530    88.5080    25.0600   -21.6390 
  195.1250     2.3030    64.1840    64.9330    61.9290    64.4770    24.9560   -21.7900 
  195.2500     2.3100    67.3440    62.6880    59.0650    50.1450    24.8750   -21.8460 
  195.3750     2.3030    67.9770    66.3620    62.0990    53.6740    24.9100   -21.9390 
  195.5000     2.2760    65.4090    76.6280    71.4090    75.8320    24.9950   -22.0050 
  195.6250     2.2360    61.0840    93.9240    86.5630   104.1880    25.0510   -22.0640 
  195.7500     2.2010    58.6460   114.4500   103.6440   113.1790    25.0920   -22.1330 
  195.8750     2.1770    58.2220   133.9190   119.0240   112.5360    25.1220   -22.1510 
  196.0000     2.1650    57.5650   147.8630   129.6570   110.0720    25.1360   -22.1760 
  196.1250     2.1650    56.0690   153.1970   133.8430   108.3250    25.1360   -22.1310 
  196.2500     2.1700    57.7030   153.6720   134.4050   112.0430    25.1360   -22.0690 
  196.3750     2.1790    60.9870   151.8770   133.1920   117.4080    25.1270   -21.9470 
  196.5000     2.1890    61.9020   147.6750   130.4680   117.4110    25.1000   -21.7910 
  196.6250     2.1990    60.6920   138.7370   124.4660   112.2990    25.0560   -21.5850 
  196.7500     2.2100    61.5980   124.8160   114.4960   105.8060    25.0370   -21.3610 
  196.8750     2.2180    64.2910   107.7620   100.8750    93.1140    25.0340   -21.1000 
  197.0000     2.2220    64.5460    90.1730    85.3540    72.8220    25.0470   -20.8390 
  197.1250     2.2200    60.9840    76.8850    70.8620    55.7450    25.0840   -20.5450 
  197.2500     2.2180    59.1790    67.5440    59.2410    46.1180    25.1370   -20.3390 
  197.3750     2.2210    60.3960    59.9580    50.8910    41.8250    25.1870   -20.1100 
  197.5000     2.2330    62.8370    53.8810    45.3470    40.2800    25.1820   -19.9600 
  197.6250     2.2500    65.3600    50.1650    42.0370    38.3990    25.0730   -19.7950 
  197.7500     2.2630    67.6480    47.6040    39.8480    35.5500    24.9050   -19.6550 
  197.8750     2.2670    67.7850    45.7360    38.3200    32.9770    24.8250   -19.5920 
  198.0000     2.2610    64.4650    44.3330    37.2090    31.6640    24.8290   -19.5150 
  198.1250     2.2510    60.1160    43.3390    36.4390    31.6290    24.8440   -19.5250 
  198.2500     2.2420    58.8140    42.5710    35.8590    31.6840    24.8490   -19.4170 
  198.3750     2.2340    60.6080    41.8480    35.3310    31.6800    24.8360   -19.3680 
  198.5000     2.2280    62.9290    40.9600    34.6850    31.8030    24.7950   -19.2890 
  198.6250     2.2240    63.2020    39.6920    33.7280    32.0970    24.7700   -19.2580 
  198.7500     2.2230    61.6720    38.1340    32.5050    31.9970    24.7570   -19.2280 
  198.8750     2.2240    60.1500    36.5080    31.1720    30.7850    24.7520   -19.1510 
  199.0000     2.2260    60.5950    35.1160    29.9730    28.5770    24.7490   -19.1060 
  199.1250     2.2280    64.0030    34.3420    29.2260    26.6630    24.7490   -18.9990 
  199.2500     2.2300    67.2790    34.2290    29.0060    26.2460    24.7490   -18.9560 
  199.3750     2.2340    67.3920    34.7150    29.3030    27.5860    24.7500   -18.9130 
  199.5000     2.2410    64.9130    35.6050    29.9930    29.9440    24.7520   -18.8920 
  199.6250     2.2470    61.8440    36.6100    30.8770    31.6910    24.7560   -18.8140 
  199.7500     2.2520    60.2010    37.4440    31.6940    32.1260    24.7540   -18.7730 
  199.8750     2.2540    61.6940    37.9900    32.3140    31.7710    24.7370   -18.7230 
  200.0000     2.2540    65.9520    38.2440    32.6980    31.1640    24.6960   -18.7520 
  200.1250     2.2520    69.1420    38.2130    32.8240    29.7460    24.6670   -18.7590 
  200.2500     2.2490    68.5200    37.9240    32.7210    27.3090    24.6130   -18.8340 
  200.3750     2.2470    65.1770    37.2750    32.3160    24.6760    24.4730   -18.9500 
  200.5000     2.2470    61.5630    36.1390    31.5030    23.0670    24.2470   -19.0510 
  200.6250     2.2490    59.4320    34.4250    30.1640    23.6370    24.0810   -19.3150 
  200.7500     2.2540    59.4180    32.4750    28.5360    25.4100    24.0640   -19.5360 
  200.8750     2.2580    62.0500    30.7180    26.9440    26.4280    24.0940   -19.8490 
  201.0000     2.2620    67.0320    29.6000    25.7710    25.0460    24.1430   -20.0880 
  201.1250     2.2630    70.1990    29.5840    25.4550    23.0280    24.2410   -20.4390 
  201.2500     2.2590    69.4180    30.5030    25.9580    23.5130    24.3320   -20.7870 
  201.3750     2.2510    67.3600    32.0910    27.1310    26.5530    24.3710   -21.0800 
  201.5000     2.2400    66.0660    33.9590    28.6860    29.7930    24.3780   -21.4490 
  201.6250     2.2310    65.3410    35.7250    30.2840    30.7960    24.3780   -21.7060 
  201.7500     2.2230    64.2750    37.3180    31.7530    31.2690    24.3730   -22.0410 
  201.8750     2.2160    63.1000    38.9680    33.2020    32.3820    24.3540   -22.3220 
  202.0000     2.2090    61.6800    41.0540    34.9120    33.5470    24.3100   -22.6940 
  202.1250     2.2000    60.0280    44.0350    37.2900    34.9240    24.3510   -23.0290 
  202.2500     2.1910    59.2880    47.7650    40.3110    37.4600    24.5330   -23.3510 
  202.3750     2.1820    59.6540    51.8730    43.7420    40.6080    24.8130   -23.7230 
  202.5000     2.1750    61.8230    55.8040    47.1650    42.9210    25.0310   -24.0430 
  202.6250     2.1720    64.9900    58.8660    50.0290    44.3040    25.0980   -24.3910 
  202.7500     2.1710    65.0640    60.9540    52.1700    45.7430    25.1100   -24.7090 
  202.8750     2.1720    62.2260    62.2020    53.6340    46.6980    25.1100   -25.0310 
  203.0000     2.1760    59.0890    62.8830    54.5950    47.2120    25.1100   -25.3070 
  203.1250     2.1820    59.6280    63.1270    55.1340    48.8420    25.1100   -25.5780 
  203.2500     2.1890    60.8970    62.9430    55.2700    51.1450    25.1100   -25.8160 
  203.3750     2.1980    59.6200    62.1810    54.8750    51.8940    25.1100   -26.0910 
  203.5000     2.2080    56.7730    60.7840    53.8830    50.1800    25.1090   -26.3140 
  203.6250     2.2170    55.1770    58.8680    52.3490    47.3550    25.1080   -26.6190 
  203.7500     2.2250    56.0410    56.9210    50.6750    45.3470    25.1070   -26.8850 
  203.8750     2.2290    57.8010    55.3910    49.2350    45.0660    25.1090   -27.1820 
  204.0000     2.2300    58.9230    54.7090    48.4130    46.2640    25.1100   -27.4920 
  204.1250     2.2300    60.4840    55.5600    48.8330    46.9910    25.1080   -27.7510 
  204.2500     2.2320    62.4130    58.2180    50.8050    46.7560    25.0960   -28.1050 
  204.3750     2.2380    64.7720    63.1630    54.7750    47.4160    25.0740   -28.3770 
  204.5000     2.2500    66.6950    70.8020    61.0910    51.5560    25.0750   -28.7000 
  204.6250     2.2620    65.3890    81.6390    70.1310    63.7370    25.0860   -28.9260 
  204.7500     2.2710    60.7080    94.5090    80.8220    85.0550    25.0730   -29.1460 
  204.8750     2.2720    56.5860   108.0500    91.9660   108.9940    25.0430   -29.3290 
  205.0000     2.2670    55.5910   120.5670   102.1620   120.3760    25.0250   -29.4570 
  205.1250     2.2600    55.9280   130.1510   109.9190   118.1050    25.0220   -29.6240 
  205.2500     2.2560    55.4120   136.9450   115.4000   117.1130    25.0230   -29.6340 
  205.3750     2.2560    55.2160   141.7260   119.1750   120.3740    25.0250   -29.6680 
  205.5000     2.2580    55.8130   145.4700   121.9750   127.5280    25.0290   -29.5910 
  205.6250     2.2600    57.1140   148.7170   124.2630   134.3520    25.0210   -29.5380 
  205.7500     2.2610    59.7560   151.6470   126.3180   133.8090    24.9850   -29.4540 
  205.8750     2.2620    60.9300   154.3170   128.2840   125.6700    24.9290   -29.3750 
  206.0000     2.2600    58.5670   156.9800   130.4290   112.4260    24.8960   -29.2560 
  206.1250     2.2520    56.8670   160.0320   133.1640   106.2850    24.8040   -29.1460 
