~V
VERS. 2.00: Ver 2.00
~W
STRT.M 55.0000:
STOP.M 252.0000:
STEP.M 0.1250:
NULL. -999.2500:
UWI. DF33023:
~C
DEPT.M :
GR.API :
CALI.CM :
RXO.OHMM :
RI. :
RML.OHMM :
DEN.GM/CC :
SP.MV :
~A
# ...
  223.7500    72.6900    24.0220    17.1950    14.3130    16.6670     2.3990   -25.9850 
  223.8750    73.7720    23.9670    17.5670    14.3840    16.7310     2.4150   -25.4880 
  224.0000    75.4460    23.9380    18.1190    14.5210    16.8980     2.4270   -24.9940 
  224.1250    73.4000    23.9480    18.5800    14.7740    17.2500     2.4280   -24.4850 
  224.2500    70.0390    23.9750    19.0760    15.1100    17.7270     2.4300   -23.9600 
  224.3750    69.1890    23.9920    19.8990    15.4290    18.1650     2.4390   -23.4050 
  224.5000    71.9240    23.9720    20.7960    15.5560    18.3060     2.4570   -22.8270 
  224.6250    74.5370    23.9940    20.5340    15.2610    17.8340     2.4850   -22.2530 
  224.7500    74.3950    24.1810    18.8530    14.6120    16.8860     2.5150   -21.6810 
  224.8750    74.9480    24.4860    16.5860    13.8090    15.7790     2.5360   -21.1450 
  225.0000    78.5100    24.7300    14.7650    13.1300    14.9150     2.5320   -20.6700 
  225.1250    80.5270    24.7740    14.0200    12.8890    14.7220     2.5000   -20.3030 
  225.2500    76.2380    24.7440    14.3020    13.1380    15.2110     2.4630   -20.0340 
  225.3750    69.2500    24.7240    15.7720    13.8400    16.2660     2.4350   -19.8480 
  225.5000    64.3770    24.7070    18.4220    14.8280    17.5950     2.4190   -19.7340 
  225.6250    62.3240    24.7060    21.3430    15.7750    18.6980     2.4110   -19.6730 
  225.7500    62.3380    24.7330    22.9310    16.3750    19.2280     2.4010   -19.6360 
  225.8750    65.0600    24.7670    22.6350    16.5080    19.1160     2.3850   -19.5850 
  226.0000    68.7090    24.7860    21.2860    16.2120    18.4960     2.3720   -19.4990 
  226.1250    69.3270    24.7900    20.3550    15.5570    17.5300     2.3820   -19.3440 
  226.2500    67.3710    24.7920    19.9260    14.7220    16.4270     2.4100   -19.1060 
  226.3750    66.5450    24.7910    18.9220    13.8170    15.3060     2.4390   -18.8210 
  226.5000    69.0640    24.7820    16.6240    12.9590    14.3020     2.4460   -18.5280 
  226.6250    73.6220    24.7630    13.7610    12.2940    13.6010     2.4190   -18.2390 
  226.7500    77.7020    24.7370    12.0540    11.8460    13.2090     2.3840   -17.9740 
  226.8750    79.6970    24.7070    12.2530    11.5740    13.0440     2.3620   -17.7420 
  227.0000    78.8370    24.6860    13.7670    11.3790    12.9390     2.3610   -17.5520 
  227.1250    76.9460    24.6950    14.4360    11.1280    12.6870     2.3680   -17.4070 
  227.2500    75.9780    24.7230    13.4040    10.7840    12.2600     2.3690   -17.3030 
  227.3750    75.6160    24.7440    11.8060    10.4060    11.7770     2.3660   -17.2180 
  227.5000    75.0630    24.7390    11.0260    10.1100    11.4390     2.3660   -17.1130 
  227.6250    75.3560    24.7020    11.3170    10.0670    11.4970     2.3700   -16.9890 
  227.7500    76.6430    24.6320    12.0240    10.3200    11.9790     2.3770   -16.8490 
  227.8750    78.0760    24.5570    12.8530    10.8780    12.8510     2.3980   -16.6960 
  228.0000    78.2310    24.5370    13.7340    11.6970    14.0160     2.4400   -16.5270 
  228.1250    75.3800    24.6180    15.1860    12.7290    15.3780     2.4990   -16.3820 
  228.2500    71.0280    24.7170    17.3720    13.8750    16.8290     2.5530   -16.2810 
  228.3750    67.5630    24.7700    19.5650    15.0990    18.3400     2.5840   -16.2310 
  228.5000    67.4410    24.7820    21.2170    16.3660    19.8810     2.5830   -16.2390 
  228.6250    70.0650    24.7850    23.3510    17.5570    21.2820     2.5490   -16.3160 
  228.7500    73.0820    24.7940    26.5890    18.4090    22.1920     2.5070   -16.4440 
  228.8750    76.0080    24.8080    29.3590    18.5680    22.1580     2.4770   -16.6020 
  229.0000    79.3720    24.8080    29.0560    17.7800    20.8980     2.4670   -16.7570 
  229.1250    81.1770    24.7780    24.2200    16.0230    18.4810     2.4690   -16.8410 
  229.2500    79.0270    24.7340    18.0390    13.9240    15.7590     2.4690   -16.8420 
  229.3750    75.1900    24.6940    13.9210    11.9540    13.3450     2.4640   -16.7520 
  229.5000    72.4140    24.6710    13.4540    10.4080    11.5800     2.4590   -16.5860 
  229.6250    71.2770    24.6800    14.7400     9.4490    10.6210     2.4530   -16.3500 
  229.7500    70.4850    24.7090    14.2740     8.9210    10.1970     2.4420   -16.0610 
  229.8750    70.3220    24.7300    12.0920     8.7010    10.1070     2.4310   -15.7360 
  230.0000    70.2810    24.7360    10.4390     8.6620    10.1640     2.4320   -15.4150 
  230.1250    69.8050    24.7190    10.4750     8.6980    10.2300     2.4470   -15.1400 
  230.2500    69.7880    24.6590    10.6160     8.7370    10.2590     2.4570   -14.9070 
  230.3750    70.3780    24.5720    10.1160     8.7660    10.2610     2.4540   -14.7180 
  230.5000    72.3880    24.5150     9.5610     8.7810    10.2510     2.4450   -14.5560 
  230.6250    74.9500    24.5140     9.8310     8.7780    10.2280     2.4410   -14.4030 
  230.7500    75.0490    24.5220    10.4270     8.7480    10.1810     2.4400   -14.2580 
  230.8750    72.6320    24.4980    10.4810     8.6830    10.1010     2.4360   -14.1240 
  231.0000    71.7060    24.4170     9.7350     8.5870     9.9910     2.4340   -13.9800 
  231.1250    74.4180    24.3100     8.8270     8.4760     9.8820     2.4460   -13.8340 
  231.2500    75.7740    24.2880     8.4260     8.3840     9.8120     2.4630   -13.6850 
  231.3750    74.2700    24.3830     8.5340     8.3240     9.7970     2.4660   -13.5360 
  231.5000    71.4850    24.5130     9.0260     8.2940     9.8210     2.4490   -13.3900 
  231.6250    69.2750    24.5500     9.8120     8.2700     9.8390     2.4270   -13.2530 
  231.7500    67.8490    24.5280    10.3410     8.2200     9.8000     2.4140   -13.1280 
  231.8750    67.6370    24.5250    10.1720     8.1240     9.6780     2.4100   -13.0040 
  232.0000    68.2410    24.5700     9.5910     7.9840     9.4840     2.4130   -12.8920 
  232.1250    70.1420    24.6270     9.2780     7.8140     9.2520     2.4270   -12.7970 
  232.2500    72.7560    24.6540     9.1410     7.6470     9.0360     2.4440   -12.7110 
  232.3750    74.4790    24.6590     8.9060     7.5070     8.8770     2.4540   -12.6220 
  232.5000    73.8420    24.6460     8.6900     7.4120     8.7910     2.4480   -12.5400 
  232.6250    71.7320    24.6210     8.7300     7.3650     8.7740     2.4210   -12.4650 
  232.7500    70.8290    24.6330     8.9110     7.3410     8.7820     2.3900   -12.3770 
  232.8750    71.3880    24.7150     9.2600     7.3220     8.7850     2.3730   -12.2820 
  233.0000    72.3750    24.8150     9.7390     7.2900     8.7590     2.3780   -12.1840 
  233.1250    72.6440    24.8340     9.8110     7.2320     8.6840     2.4000   -12.0790 
  233.2500    70.9580    24.7980     9.2460     7.1560     8.5830     2.4290   -11.9770 
  233.3750    68.3520    24.7730     8.4990     7.0800     8.4830     2.4590   -11.8930 
  233.5000    65.4030    24.7730     8.0500     7.0270     8.4170     2.4780   -11.8080 
  233.6250    63.9030    24.7520     7.8290     7.0210     8.4250     2.4740   -11.7330 
  233.7500    63.6150    24.7050     7.5340     7.0640     8.5050     2.4600   -11.6790 
  233.8750    63.4680    24.6670     7.2620     7.1460     8.6430     2.4550   -11.6440 
  234.0000    63.4680    24.6490     7.1800     7.2480     8.8040     2.4650   -11.6280 
  234.1250    63.7070    24.6300     7.2080     7.3430     8.9480     2.4810   -11.6380 
  234.2500    64.0830    24.6250     7.0810     7.4150     9.0510     2.4870   -11.6670 
  234.3750    64.0620    24.6570     6.6890     7.4630     9.1150     2.4830   -11.7070 
  234.5000    64.3400    24.7090     6.1960     7.4910     9.1540     2.4750   -11.7500 
  234.6250    66.4020    24.7290     6.1310     7.5140     9.1890     2.4530   -11.7780 
  234.7500    69.3100    24.7170     6.6400     7.5410     9.2350     2.4070   -11.7960 
  234.8750    70.9950    24.7020     7.1950     7.5780     9.2990     2.3520   -11.8140 
