~V
VERS. 2.00: Ver 2.00
~W
STRT.M 60.0000:
STOP.M 268.0000:
STEP.M 0.1250:
NULL. -999.2500:
UWI. DF33031:
~C
DEPT.M :
SP.MV :
GR.API :
CALI.CM :
RXO.OHMM :
RI. :
RML.OHMM :
DEN.GM/CC :
~A
# ...
  172.5000   -44.0300    70.0550    24.0470   110.8400   130.3810   136.8140     2.2370 
  172.6250   -43.7580    69.3670    24.0470   110.0650   129.8510   136.3330     2.2250 
  172.7500   -43.4930    69.3170    24.0470   109.7460   127.2080   133.8220     2.2190 
  172.8750   -43.1910    68.6930    24.0470   107.3080   123.5330   130.1480     2.2220 
  173.0000   -42.8590    68.2850    24.0470   101.8350   120.0730   126.4060     2.2310 
  173.1250   -42.5960    68.9310    24.0470    95.4370   117.5280   123.3880     2.2400 
  173.2500   -42.3830    69.2090    24.0440    93.5070   115.3720   120.8100     2.2460 
  173.3750   -42.1920    68.8930    24.0310    95.8270   112.8690   118.0020     2.2520 
  173.5000   -42.0110    69.3330    23.9970    97.0360   109.3950   114.3080     2.2570 
  173.6250   -41.7790    70.4950    23.9400    90.4860   104.7130   109.4120     2.2570 
  173.7500   -41.6110    71.3890    23.8480    79.7950    99.6550   104.1330     2.2520 
  173.8750   -41.3700    73.0330    23.7070    70.5930    95.2280    99.4790     2.2430 
  174.0000   -41.1690    75.6030    23.5860    67.1080    92.4530    96.5080     2.2320 
  174.1250   -40.9290    76.1190    23.5390    69.4020    92.3280    96.3340     2.2230 
  174.2500   -40.6960    73.4290    23.5300    72.2270    94.3480    98.4850     2.2170 
  174.3750   -40.4260    70.0740    23.5290    74.7180    97.8580   102.3400     2.2160 
  174.5000   -40.1500    69.8110    23.5290    77.8860   101.9100   106.9810     2.2190 
  174.6250   -39.9110    72.4790    23.5290    81.2010   105.3050   111.2340     2.2240 
  174.7500   -39.6260    73.9220    23.5290    81.6000   107.4460   114.4260     2.2300 
  174.8750   -39.4000    71.7010    23.5300    79.1470   108.3590   116.4900     2.2340 
  175.0000   -39.1070    67.4160    23.5510    75.8300   108.5410   117.7870     2.2340 
  175.1250   -38.7940    66.8470    23.6160    74.3900   108.8020   118.9230     2.2340 
  175.2500   -38.4420    71.0370    23.7260    75.9490   109.4360   120.0980     2.2380 
  175.3750   -38.1170    77.0000    23.8570    80.5700   109.0900   120.0040     2.2460 
  175.5000   -37.8140    79.2050    24.0400    88.4980   104.3520   115.5300     2.2500 
  175.6250   -37.5380    75.9880    24.2280    96.0740    90.9680   102.3180     2.2490 
  175.7500   -37.2530    73.4370    24.3690    91.5640    73.0120    83.4560     2.2530 
  175.8750   -37.0360    72.7110    24.4200    70.4890    56.1500    64.5700     2.2720 
  176.0000   -36.9170    72.8430    24.4260    44.0230    43.9050    50.2360     2.3050 
  176.1250   -36.8260    73.8140    24.4260    30.1940    37.7650    42.8320     2.3300 
  176.2500   -36.7650    76.4800    24.4260    32.2260    36.2760    40.7980     2.3290 
  176.3750   -36.7400    78.3760    24.4260    48.7380    39.0920    43.6870     2.3060 
  176.5000   -36.7590    77.0610    24.4260    72.5240    46.1480    51.4140     2.2800 
  176.6250   -36.8170    73.9780    24.4260    87.3950    57.5630    63.9530     2.2640 
  176.7500   -36.9450    71.0720    24.4260    91.3890    70.2730    77.7300     2.2490 
  176.8750   -37.0500    70.6370    24.4260    89.7760    80.3100    88.6970     2.2340 
  177.0000   -37.1610    72.8520    24.4260    86.6500    85.0070    94.3120     2.2230 
  177.1250   -37.2800    74.4680    24.4260    83.9690    85.2220    95.0530     2.2210 
  177.2500   -37.4420    74.6000    24.4260    83.1340    84.7860    94.5130     2.2210 
  177.3750   -37.5620    74.9670    24.4260    84.3530    85.1520    94.2280     2.2160 
  177.5000   -37.6860    76.5290    24.4260    87.0180    86.4500    94.5370     2.2130 
  177.6250   -37.7820    76.5950    24.4260    89.7690    88.3130    95.3080     2.2180 
  177.7500   -37.9270    74.5850    24.4260    90.5690    90.0350    96.0170     2.2260 
  177.8750   -38.0720    73.6190    24.4260    87.7430    90.7970    95.9370     2.2260 
  178.0000   -38.2230    75.2470    24.4260    83.3950    89.6000    94.1710     2.2170 
  178.1250   -38.4040    77.7120    24.4260    81.1200    85.5130    89.9130     2.2160 
  178.2500   -38.5860    78.0030    24.4260    78.6350    79.7710    84.2350     2.2320 
  178.3750   -38.8260    75.9640    24.4260    70.4020    74.0140    78.5870     2.2560 
  178.5000   -39.0830    73.4060    24.4260    56.9190    69.9580    74.6330     2.2710 
  178.6250   -39.3480    72.8660    24.4260    50.2150    69.4720    74.3910     2.2640 
  178.7500   -39.5650    73.7880    24.4260    58.0750    72.5050    77.9020     2.2470 
  178.8750   -39.7950    73.8740    24.4260    77.2210    78.7060    84.7180     2.2380 
  179.0000   -40.0220    71.8500    24.4260    95.5010    87.1320    93.6640     2.2480 
  179.1250   -40.2340    70.3340    24.4260    92.8960    95.4250   102.1500     2.2720 
  179.2500   -40.4610    71.2700    24.4260    71.1250    99.4860   106.3230     2.2840 
  179.3750   -40.7340    73.6230    24.4260    49.6890    96.2350   103.3980     2.2760 
  179.5000   -41.0290    74.8990    24.4240    49.1320    86.5870    93.9020     2.2600 
  179.6250   -41.3490    74.6870    24.4100    61.5020    75.2430    81.7690     2.2590 
  179.7500   -41.7120    74.3950    24.3840    61.2420    66.5980    71.8420     2.2690 
  179.8750   -42.1340    74.7920    24.3590    49.8560    62.3500    66.5050     2.2760 
  180.0000   -42.6080    74.7040    24.3410    50.1590    63.2470    67.0570     2.2710 
  180.1250   -43.1650    72.7500    24.3360    73.5010    70.7160    75.1400     2.2580 
  180.2500   -43.7190    70.4850    24.3340    98.3440    84.2080    89.4060     2.2490 
  180.3750   -44.2270    69.0330    24.3340   114.5040   103.2240   108.2490     2.2440 
  180.5000   -44.6760    68.8870    24.3340   124.0330   125.3830   127.1280     2.2390 
  180.6250   -45.0960    69.9160    24.3340   129.1640   138.9760   143.3200     2.2330 
  180.7500   -45.4450    70.6220    24.3340   130.9000   145.1720   150.4920     2.2300 
  180.8750   -45.7260    71.5950    24.3340   132.6570   146.1500   151.7070     2.2320 
  181.0000   -45.9270    72.1280    24.3340   135.0710   145.2420   151.4680     2.2360 
  181.1250   -46.0140    71.4420    24.3340   134.2730   144.7710   152.2980     2.2400 
  181.2500   -46.0370    70.3000    24.3340   131.7870   145.7140   154.7860     2.2450 
  181.3750   -45.9730    70.1480    24.3340   131.7460   148.4680   159.1710     2.2510 
  181.5000   -45.8720    71.0140    24.3340   138.3080   152.9840   165.3380     2.2510 
  181.6250   -45.6920    71.6950    24.3340   148.1420   159.0730   173.0480     2.2420 
  181.7500   -45.4630    72.1630    24.3340   155.6340   166.0840   181.5320     2.2310 
  181.8750   -45.1480    71.8700    24.3330   160.7390   173.6650   190.2830     2.2240 
  182.0000   -44.7740    69.2650    24.3310   167.1180   181.3550   198.7810     2.2170 
  182.1250   -44.3270    66.4050    24.2940   177.1130   188.4110   206.3890     2.2100 
  182.2500   -43.8410    66.4920    24.2010   185.5100   194.0320   212.5350     2.2050 
  182.3750   -43.3630    66.8660    24.0770   189.2960   197.1930   216.1690     2.2050 
  182.5000   -42.8890    65.3400    23.9850   189.4260   196.8070   215.9640     2.2110 
  182.6250   -42.4510    64.5270    23.9440   188.2000   191.8210   210.5690     2.2170 
  182.7500   -42.0500    66.0150    23.9010   181.7950   184.3420   202.4400     2.2190 
  182.8750   -41.7320    67.2130    23.8440   168.7550   177.0910   194.7390     2.2160 
  183.0000   -41.4740    67.5380    23.7740   153.7650   173.2000   190.7690     2.2140 
  183.1250   -41.2940    67.8010    23.7110   147.1400   176.9980   194.7230     2.2170 
  183.2500   -41.1450    67.9880    23.6470   156.3510   189.9060   207.8850     2.2340 
  183.3750   -40.9860    67.1750    23.6220   184.9950   212.6600   231.5590     2.2700 
  183.5000   -40.7910    65.9200    23.6740   230.8800   243.4810   265.1750     2.3260 
  183.6250   -40.5770    65.0630    23.7130   279.4100   275.5250   302.2100     2.3900 
