~V
VERS. 2.00: Ver 2.00
~W
STRT.M 60.0000:
STOP.M 233.0000:
STEP.M 0.1250:
NULL. -999.2500:
UWI. DF33019:
~C
DEPT.M :
GR.API :
RML.OHMM :
RI. :
RXO.OHMM :
CALI.CM :
DEN.GM/CC :
SP.MV :
~A
# ...
   93.7500    83.8160     7.3240     5.9690     5.6940    23.1570     2.3440   -26.0130 
   93.8750    79.1950     8.1240     6.3910     6.0180    23.0740     2.3310   -26.4280 
   94.0000    73.6090     8.8370     6.8440     7.0770    22.9440     2.2990   -26.8070 
   94.1250    71.2020     9.1080     7.1190     7.7810    22.7390     2.2510   -27.1970 
   94.2500    70.7110     8.9140     7.1460     7.2410    22.6500     2.2020   -27.5270 
   94.3750    69.5030     8.4120     6.9630     6.3520    22.6330     2.1650   -27.8560 
   94.5000    68.2770     7.8800     6.6940     6.0160    22.6450     2.1470   -28.1130 
   94.6250    69.4080     7.6310     6.5100     6.1600    22.6610     2.1490   -28.3170 
   94.7500    70.0360     7.7200     6.4890     6.6410    22.6520     2.1600   -28.4610 
   94.8750    65.5610     8.0790     6.6220     7.0980    22.6400     2.1680   -28.5490 
   95.0000    60.5710     8.5710     6.8490     7.3770    22.6460     2.1660   -28.6070 
   95.1250    62.4240     9.0280     7.0790     7.4610    22.6780     2.1530   -28.6350 
   95.2500    66.6850     9.3570     7.2450     7.5000    22.7170     2.1360   -28.6220 
   95.3750    67.2230     9.5450     7.3290     7.7840    22.7830     2.1200   -28.5230 
   95.5000    64.5290     9.6290     7.3480     8.1860    22.8500     2.1060   -28.4060 
   95.6250    64.1220     9.6680     7.3410     8.6250    22.9080     2.0970   -28.2640 
   95.7500    64.5650     9.7300     7.3650     8.8120    22.8840     2.0960   -28.0970 
   95.8750    63.6070     9.8550     7.4560     8.6390    22.7850     2.1050   -27.9450 
   96.0000    61.4860    10.0750     7.6460     8.5310    22.6950     2.1250   -27.8080 
   96.1250    59.9860    10.4690     7.9960     8.7030    22.6570     2.1610   -27.6410 
   96.2500    62.7060    11.1010     8.5330     8.7400    22.7050     2.2030   -27.4930 
   96.3750    67.1050    12.0790     9.3140     8.8050    22.8670     2.2430   -27.3590 
   96.5000    68.2670    13.4830    10.3910     9.3810    23.1590     2.2740   -27.2770 
   96.6250    65.5010    15.2790    11.7700    11.7500    23.5020     2.2930   -27.1870 
   96.7500    63.7730    17.0180    13.1890    14.7740    23.7490     2.3090   -27.1610 
   96.8750    64.4450    18.1250    14.2890    16.7970    23.8600     2.3290   -27.1710 
   97.0000    63.9690    18.0370    14.6740    19.6720    23.8720     2.3510   -27.2030 
   97.1250    62.9840    16.3200    13.9410    24.6700    23.7620     2.3640   -27.2860 
   97.2500    64.5400    13.6960    12.4240    21.8550    23.5660     2.3570   -27.3930 
   97.3750    67.5140    10.9910    10.5920    13.6640    23.3630     2.3270   -27.5310 
   97.5000    69.6270     8.8940     8.9360     9.4290    23.2560     2.2850   -27.6610 
   97.6250    70.4660     7.8520     7.8620     7.2770    23.2190     2.2450   -27.8720 
   97.7500    70.9620     7.6450     7.3510     6.8220    23.1690     2.2120   -28.0790 
   97.8750    70.0800     8.0440     7.3100     8.3760    23.0910     2.1860   -28.2960 
   98.0000    66.2000     8.7440     7.5680    11.7090    23.0410     2.1650   -28.5090 
   98.1250    63.3370     9.3650     7.8950    10.3990    23.0310     2.1530   -28.7000 
   98.2500    63.7840     9.6430     8.0810     8.6320    23.0520     2.1500   -28.8390 
   98.3750    65.5710     9.5060     8.0430     7.9780    23.1120     2.1540   -28.9600 
   98.5000    65.8890     9.0290     7.7990     7.8750    23.2050     2.1590   -29.0040 
   98.6250    63.1460     8.3680     7.4250     7.8630    23.3280     2.1580   -28.9660 
   98.7500    59.8960     7.7540     7.0640     7.8880    23.4270     2.1500   -28.8540 
   98.8750    58.1840     7.3660     6.8270     7.9060    23.4870     2.1370   -28.7020 
   99.0000    59.2680     7.4020     6.8350     7.8440    23.5180     2.1260   -28.5580 
   99.1250    61.2570     8.1630     7.2840     7.6450    23.5430     2.1370   -28.4550 
   99.2500    61.2210     9.5770     8.1670     7.6420    23.5540     2.1820   -28.4120 
   99.3750    58.5300    11.4080     9.3770     7.9780    23.5340     2.2640   -28.4010 
   99.5000    55.0440    13.1660    10.6420     8.8630    23.4890     2.3630   -28.4670 
   99.6250    55.4850    14.0330    11.4590    11.5500    23.4300     2.4320   -28.5640 
   99.7500    59.3430    13.6950    11.5420    14.8420    23.3770     2.4370   -28.7600 
   99.8750    61.5200    12.3190    10.8820    12.8990    23.3370     2.3860   -28.9820 
  100.0000    60.9680    10.5340     9.7710     9.4160    23.3150     2.3110   -29.1990 
  100.1250    61.0340     9.1010     8.6690     8.0590    23.3060     2.2510   -29.3820 
  100.2500    62.6370     8.2480     7.8550     7.8840    23.3160     2.2170   -29.5290 
  100.3750    63.1730     7.9000     7.3690     7.8950    23.3430     2.2040   -29.6570 
  100.5000    61.3220     7.8670     7.1390     7.9270    23.3640     2.2010   -29.7420 
  100.6250    59.4310     7.9300     7.0550     8.0200    23.3710     2.1980   -29.7880 
  100.7500    59.7270     7.9080     6.9810     8.0350    23.3710     2.1910   -29.7700 
  100.8750    62.4390     7.7490     6.8630     7.9300    23.3710     2.1790   -29.7010 
  101.0000    64.5210     7.4820     6.6980     7.7730    23.3710     2.1660   -29.5900 
  101.1250    63.7240     7.2160     6.5340     7.5960    23.3720     2.1540   -29.4540 
  101.2500    64.0940     7.0790     6.4350     7.3820    23.3750     2.1450   -29.3180 
  101.3750    66.9940     7.1550     6.4520     7.2380    23.3580     2.1410   -29.1590 
  101.5000    68.2470     7.4650     6.6010     7.4980    23.2690     2.1430   -29.0160 
  101.6250    64.7100     7.9640     6.8690     8.1370    23.2040     2.1500   -28.8920 
  101.7500    62.1320     8.4820     7.1650     9.0120    23.1780     2.1630   -28.7810 
  101.8750    63.0880     8.8790     7.4100     9.3420    23.1800     2.1800   -28.7060 
  102.0000    64.3600     9.0550     7.5410     8.5730    23.2000     2.1960   -28.6560 
  102.1250    63.2330     8.9630     7.5140     7.8910    23.2570     2.2090   -28.6480 
  102.2500    63.4880     8.7200     7.3840     7.5430    23.3250     2.2170   -28.6740 
  102.3750    66.3320     8.4230     7.2040     7.4170    23.3820     2.2180   -28.7370 
  102.5000    67.4380     8.1450     7.0210     7.2870    23.4270     2.2130   -28.8270 
  102.6250    65.2280     7.9360     6.8770     7.2600    23.4540     2.2010   -28.9340 
  102.7500    63.9830     7.8020     6.7800     7.4440    23.4790     2.1840   -29.0530 
  102.8750    64.2410     7.7490     6.7330     7.5720    23.4900     2.1670   -29.1670 
  103.0000    62.9100     7.7770     6.7370     7.6250    23.4610     2.1520   -29.2970 
  103.1250    59.4590     7.8830     6.7900     7.6870    23.4230     2.1420   -29.4010 
  103.2500    59.3480     8.0200     6.8640     7.7220    23.3860     2.1380   -29.4920 
  103.3750    62.9940     8.1410     6.9370     7.7710    23.3670     2.1450   -29.5520 
  103.5000    65.6190     8.2010     6.9810     7.8070    23.3570     2.1620   -29.5960 
  103.6250    63.7380     8.1480     6.9650     7.8620    23.3690     2.1860   -29.5750 
  103.7500    61.7050     8.0010     6.8900     7.9080    23.4380     2.2030   -29.5290 
  103.8750    62.6210     7.7970     6.7680     8.0340    23.5110     2.2060   -29.4510 
  104.0000    64.2200     7.5890     6.6250     8.1470    23.5600     2.1920   -29.3210 
  104.1250    62.8250     7.4270     6.4920     7.9980    23.5840     2.1680   -29.1400 
  104.2500    61.0800     7.3180     6.3840     7.7460    23.6150     2.1500   -28.8850 
  104.3750    61.5090     7.2480     6.3000     7.5730    23.6420     2.1390   -28.5750 
  104.5000    62.6380     7.1970     6.2290     7.4970    23.6540     2.1340   -28.1370 
  104.6250    61.8120     7.1520     6.1610     7.4190    23.6540     2.1290   -27.5950 
  104.7500    61.7330     7.1050     6.0900     7.3090    23.6540     2.1230   -26.9770 
  104.8750    64.8270     7.0440     6.0130     7.1810    23.6540     2.1170   -26.3050 
