~V
VERS. 2.00: Ver 2.00
~W
STRT.M 63.0000:
STOP.M 272.0000:
STEP.M 0.1250:
NULL. -999.2500:
UWI. DF33040:
~C
DEPT.M :
SP.MV :
GR.API :
CALI.CM :
RXO.OHMM :
RI. :
RML.OHMM :
DEN.GM/CC :
~A
# ...
  265.5000    -8.6260    62.6960    23.7950    13.9890     8.9830    10.9890     2.5210 
  265.6250    -8.6030    62.6960    23.7380    12.3400     8.9800    10.9070     2.5050 
  265.7500    -8.5690    62.6960    23.6700    11.1850     8.9760    10.7940     2.4980 
  265.8750    -8.5410    62.6960    23.6030    10.6780     8.9730    10.6940     2.4970 
  266.0000    -8.5450    62.6960    23.5470    10.4990     8.9720    10.6380     2.4970 
  266.1250    -8.5860    62.6960    23.5190    10.1660     8.9720    10.6380     2.4960 
  266.2500    -8.6450    62.6960    23.5150     9.6140     8.9720    10.6380     2.4920 
  266.3750    -8.7210    62.6960    23.5370     9.1190     8.9720    10.6380     2.4880 
  266.5000    -8.8010    62.6960    23.5850     8.9080     8.9720    10.6380     2.4880 
  266.6250    -8.8620    62.6960    23.6390     8.9460     8.9720    10.6380     2.4890 
  266.7500    -8.9040    62.6960    23.6660     9.0100     8.9720    10.6380     2.4850 
  266.8750    -8.9290    62.6960    23.6680     9.0680     8.9720    10.6380     2.4750 
  267.0000    -8.9380    62.6960    23.6650     9.2190     8.9720    10.6380     2.4700 
  267.1250    -8.9320    62.6960    23.6650     9.5300     8.9720    10.6380     2.4800 
  267.2500    -8.9140    62.6960    23.6460     9.7490     8.9720    10.6380     2.4970 
  267.3750    -8.8810    62.6960    23.5900     9.5680     8.9720    10.6380     2.5070 
  267.5000    -8.8310    62.6960    23.5060     8.9390     8.9720    10.6380     2.5040 
  267.6250    -8.7820    62.6960    23.4260     8.2070     8.9720    10.6380     2.4980 
  267.7500    -8.7520    62.6960    23.3630     7.7340     8.9720    10.6380     2.4970 
  267.8750    -8.7220    62.6960    23.3170     7.5710     8.9720    10.6380     2.5000 
  268.0000    -8.6900    62.6960    23.2720     7.6630     8.9720    10.6380     2.5050 
  268.1250    -8.6580    62.6960    23.2840     7.9350     8.9720    10.6380     2.5130 
  268.2500    -8.6300    62.6960    23.5190     8.1470     8.9720    10.6380     2.5230 
  268.3750    -8.6160    62.6960    23.8600     8.1190     8.9720    10.6380     2.5280 
  268.5000    -8.6050    62.6960    23.9490     7.8960     8.9720    10.6380     2.5190 
  268.6250    -8.5880    62.6960    23.6000     7.6320     8.9720    10.6380     2.4780 
  268.7500    -8.5730    62.6960    23.2940     7.2010     8.9720    10.6380     2.4120 
  268.8750    -8.5710    62.6960    22.5370     6.3830     8.9720    10.6380     2.3370 
  269.0000    -8.5660    62.6960    20.2670     5.3300     8.9720    10.6380     2.2780 
  269.1250    -8.5550    62.6960    16.8680     4.5790     8.9720    10.6380     2.2540 
  269.2500    -8.5390    62.6960    14.4920     4.2890     8.9720    10.6380     2.2470 
  269.3750    -8.5190    62.6960    13.7850     4.2580     8.9720    10.6380     2.2460 
  269.5000    -8.5020    62.6960    13.8670     4.2730     8.9720    10.6380     2.2430 
  269.6250    -8.4920    62.6960    13.8730     4.2710     8.9720    10.6380     2.2450 
  269.7500    -8.4790    62.6960    13.8670     4.2690     8.9720    10.6380     2.2550 
  269.8750    -8.4660    62.6960    13.8630     4.2680     8.9720    10.6380     2.2660 
  270.0000    -8.4640    62.6960    13.8600     4.2680     8.9720    10.6380     2.2710 
  270.1250    -8.4640    62.6960    13.8600     4.2690     8.9720    10.6380     2.2670 
  270.2500    -8.4640    62.6960    13.8620     4.2690     8.9720    10.6380     2.2600 
  270.3750    -8.4640    62.6960    13.8640     4.2680     8.9720    10.6380     2.2590 
  270.5000  -999.2500    62.6960    13.8630     4.2670     8.9720    10.6380     2.2630 
  270.6250  -999.2500    62.6960    13.8610     4.2660     8.9720    10.6380     2.2640 
  270.7500  -999.2500    62.6960    13.8590     4.2660     8.9720    10.6380     2.2640 
  270.8750  -999.2500    62.6960    13.8590     4.2660     8.9720    10.6380     2.2700 
  271.0000  -999.2500    62.6960    13.8590     4.2650     8.9720    10.6380     2.2780 
  271.1250  -999.2500  -999.2500  -999.2500  -999.2500  -999.2500  -999.2500     2.2770 
  271.2500  -999.2500  -999.2500  -999.2500  -999.2500  -999.2500  -999.2500     2.2690 
  271.3750  -999.2500  -999.2500  -999.2500  -999.2500  -999.2500  -999.2500     2.2520 
  271.5000  -999.2500  -999.2500  -999.2500  -999.2500  -999.2500  -999.2500     2.2110 
  271.6250  -999.2500  -999.2500  -999.2500  -999.2500  -999.2500  -999.2500     2.1490 
  271.7500  -999.2500  -999.2500  -999.2500  -999.2500  -999.2500  -999.2500     2.0990 
  271.8750  -999.2500  -999.2500  -999.2500  -999.2500  -999.2500  -999.2500     2.0820 
  272.0000  -999.2500  -999.2500  -999.2500  -999.2500  -999.2500  -999.2500     2.0920 
