~V
VERS. 2.00: Ver 2.00
~W
STRT.M 55.0000:
STOP.M 272.0000:
STEP.M 0.1250:
NULL. -999.2500:
UWI. DF33042:
~C
DEPT.M :
SP.MV :
GR.API :
RML.OHMM :
RI. :
RXO.OHMM :
CALI.CM :
DEN.GM/CC :
~A
# ...
  133.7500   -20.9310    55.0510    21.1380    16.8070    16.3780    24.1630     2.5760 
  133.8750   -21.0870    50.8910    20.9710    16.8850    16.4620    24.2030     2.5770 
  134.0000   -21.2740    46.7880    20.5900    16.7900    17.5440    24.2270     2.5780 
  134.1250   -21.4850    47.1770    20.3230    16.7040    17.4010    24.2230     2.5820 
  134.2500   -21.7290    49.6650    20.4350    16.8200    16.6780    24.1990     2.5910 
  134.3750   -21.9970    50.6550    20.9850    17.2070    16.7790    24.1770     2.6040 
  134.5000   -22.3010    50.5480    21.7710    17.7650    18.1630    24.1680     2.6200 
  134.6250   -22.6260    50.8300    22.2130    18.1200    19.7110    24.1690     2.6340 
  134.7500   -23.0030    50.4530    21.7380    17.8600    20.0070    24.1620     2.6340 
  134.8750   -23.4170    50.6290    20.0560    16.7420    20.1650    24.1260     2.6110 
  135.0000   -23.8830    54.2540    17.3640    14.8400    19.9520    24.0470     2.5550 
  135.1250   -24.3960    60.9580    14.3750    12.5870    15.0510    23.9780     2.4720 
  135.2500   -24.8940    66.3660    11.9150    10.6050    10.2970    23.8700     2.3830 
  135.3750   -25.3500    69.7880    10.3420     9.2190     7.6820    23.6260     2.3040 
  135.5000   -25.7030    72.0790     9.6900     8.5380     7.5350    23.2540     2.2450 
  135.6250   -25.9610    71.6130     9.8620     8.5940     8.5890    23.0530     2.2140 
  135.7500   -26.0300    68.6440    10.4060     9.0680     9.4100    22.9900     2.2080 
  135.8750   -25.9530    66.3670    10.9940     9.6880     9.8490    22.9920     2.2250 
  136.0000   -25.7100    68.1910    11.3410    10.1600    10.3100    23.0240     2.2600 
  136.1250   -25.3160    70.9780    11.1990    10.1760    10.3500    23.1230     2.3060 
  136.2500   -24.8230    71.0250    10.6640     9.7540     9.7300    23.2850     2.3470 
  136.3750   -24.2890    70.9770     9.8960     9.0230     8.8350    23.4890     2.3710 
  136.5000   -23.7590    73.7150     9.0920     8.1800     7.8340    23.6720     2.3730 
  136.6250   -23.2480    79.0460     8.4370     7.4230     6.7440    23.7720     2.3540 
  136.7500   -22.8440    84.1310     7.9720     6.8260     6.1920    23.8600     2.3320 
  136.8750   -22.5130    87.6070     7.6730     6.3850     6.0760    23.9480     2.3160 
  137.0000   -22.2590    88.1920     7.4830     6.0590     6.1730    24.0090     2.3080 
  137.1250   -22.0680    86.7500     7.3840     5.8280     6.1360    24.0810     2.3040 
  137.2500   -21.9450    86.0370     7.4170     5.7020     6.0940    24.1790     2.2950 
  137.3750   -21.8350    86.0490     7.7130     5.7720     6.1300    24.2340     2.2870 
  137.5000   -21.7590    85.1540     8.4400     6.1700     6.2630    24.2060     2.2880 
  137.6250   -21.6740    82.6610     9.8240     7.1070     6.9320    24.1790     2.3160 
  137.7500   -21.6070    78.7280    11.7460     8.5390     9.2300    24.1790     2.3720 
  137.8750   -21.5540    73.2190    13.9940    10.3510    14.4070    24.2030     2.4450 
  138.0000   -21.5290    67.4070    16.2140    12.2910    18.8810    24.2200     2.5190 
  138.1250   -21.5180    63.8230    17.9590    13.9840    18.8740    24.2330     2.5730 
  138.2500   -21.5290    62.2360    19.1990    15.2720    16.7380    24.2470     2.6060 
  138.3750   -21.5910    60.1130    20.1880    16.2520    16.5980    24.2620     2.6230 
  138.5000   -21.6580    56.0570    21.3100    17.1910    17.8520    24.2820     2.6310 
  138.6250   -21.7750    51.8990    22.8510    18.3580    19.3450    24.2800     2.6330 
  138.7500   -21.8390    48.7340    24.5880    19.6820    21.5920    24.2640     2.6300 
  138.8750   -21.8900    46.8260    26.1140    20.9070    24.2690    24.2490     2.6230 
  139.0000   -21.9040    46.0110    27.0100    21.7350    29.7200    24.2520     2.6100 
  139.1250   -21.9070    45.8140    26.9660    21.9170    31.5150    24.2790     2.5940 
  139.2500   -21.8680    46.3580    26.3780    21.6880    27.1130    24.3110     2.5800 
  139.3750   -21.8010    48.3980    25.7140    21.3590    21.9060    24.3160     2.5740 
  139.5000   -21.7400    50.9770    25.3890    21.2250    20.5600    24.3170     2.5780 
  139.6250   -21.6540    49.8280    25.6360    21.4850    21.6600    24.3260     2.5920 
  139.7500   -21.6160    46.0730    26.1850    21.9800    23.0280    24.3020     2.6080 
  139.8750   -21.5780    44.5140    26.6980    22.4650    23.8860    24.2760     2.6160 
  140.0000   -21.5590    45.7000    26.8300    22.6500    23.6870    24.2810     2.6130 
  140.1250   -21.5590    45.4220    26.2530    22.2220    23.4240    24.3230     2.5990 
  140.2500   -21.5900    43.2550    25.0910    21.2520    22.2360    24.3420     2.5810 
  140.3750   -21.6340    42.3080    23.5410    19.9030    20.3230    24.3160     2.5610 
  140.5000   -21.6700    44.7700    21.8510    18.4140    19.0370    24.2390     2.5420 
  140.6250   -21.7050    50.1990    20.3050    17.0520    16.4520    24.1700     2.5260 
  140.7500   -21.7310    57.0130    19.0940    15.9750    14.1800    24.1560     2.5130 
  140.8750   -21.7530    62.8570    18.3280    15.2610    13.4300    24.1490     2.5040 
  141.0000   -21.7690    66.1520    18.0280    14.9140    14.2060    24.1270     2.5000 
  141.1250   -21.7540    65.5870    18.1670    14.9100    14.8030    24.1100     2.5020 
  141.2500   -21.7270    62.0270    18.5080    15.0630    15.1780    24.1140     2.5100 
  141.3750   -21.6860    57.1740    18.8420    15.2150    15.1060    24.1160     2.5220 
  141.5000   -21.6180    54.8480    18.9590    15.2130    15.3400    24.1240     2.5360 
  141.6250   -21.5710    57.9730    18.6480    14.9200    15.3300    24.1040     2.5460 
  141.7500   -21.4810    61.1790    17.9930    14.4060    15.8660    24.0960     2.5500 
  141.8750   -21.3820    62.0570    17.1670    13.7920    15.1980    24.0980     2.5490 
  142.0000   -21.2590    60.9230    16.4170    13.2280    13.1390    24.1120     2.5430 
  142.1250   -21.1660    58.8850    16.0150    12.8750    12.5160    24.1400     2.5350 
  142.2500   -21.0550    57.3540    15.9620    12.7430    12.6810    24.1590     2.5260 
  142.3750   -20.9440    58.0230    16.1650    12.7850    13.1330    24.1980     2.5170 
  142.5000   -20.8450    59.9770    16.4630    12.9190    13.8140    24.2810     2.5100 
  142.6250   -20.7200    60.4180    16.6760    13.0540    14.3640    24.3410     2.5060 
  142.7500   -20.6600    58.1480    16.7700    13.1620    14.0940    24.3730     2.5070 
  142.8750   -20.6310    55.0640    16.8570    13.3040    13.8910    24.3940     2.5110 
  143.0000   -20.6390    52.1870    17.1230    13.5980    13.8630    24.3850     2.5150 
  143.1250   -20.6580    51.0730    17.7660    14.1830    14.3740    24.3040     2.5190 
  143.2500   -20.7160    52.0440    18.6250    14.9420    14.7970    24.1270     2.5250 
  143.3750   -20.7880    53.8280    19.2440    15.5950    15.3490    23.8870     2.5340 
  143.5000   -20.8780    55.3470    19.0940    15.7200    16.9610    23.7030     2.5420 
  143.6250   -20.9900    57.3100    17.3350    14.7500    19.4740    23.6060     2.5360 
  143.7500   -21.0890    60.3680    14.4560    12.8230    19.4860    23.5510     2.5080 
  143.8750   -21.1710    65.7080    11.0560    10.3630    15.1800    23.4450     2.4590 
  144.0000   -21.2520    73.6910     7.9390     7.9630     8.5710    23.2950     2.4010 
  144.1250   -21.2950    81.6080     6.4740     6.1720     5.4480    23.2470     2.3520 
  144.2500   -21.3470    86.2360     5.6730     5.0210     4.5240    23.2480     2.3220 
  144.3750   -21.4090    87.8450     5.3800     4.4220     4.4890    23.2060     2.3090 
  144.5000   -21.4970    89.5930     5.4090     4.2260     4.5820    23.0550     2.3060 
  144.6250   -21.6060    92.3190     5.6060     4.3000     4.6160    22.9570     2.3050 
  144.7500   -21.7300    94.0220     5.8230     4.4620     4.5860    22.9210     2.3000 
  144.8750   -21.8540    93.9540     6.0090     4.6300     4.6310    22.9180     2.2920 
