~V
VERS. 2.00: Ver 2.00
~W
STRT.M 55.0000:
STOP.M 246.0000:
STEP.M 0.1250:
NULL. -999.2500:
UWI. DF33025:
~C
DEPT.M :
SP.MV :
GR.API :
CALI.CM :
RXO.OHMM :
RI. :
RML.OHMM :
DEN.GM/CC :
~A
# ...
  133.7500   -12.9660    56.4040    24.8130    28.3630    25.7040    27.8310     2.6230 
  133.8750   -13.0620    55.8640    24.7320    29.1860    26.2170    28.3130     2.6350 
  134.0000   -13.1330    54.4120    24.6890    27.2350    25.9980    27.8630     2.6310 
  134.1250   -13.2230    55.2040    24.7640    24.5230    25.1680    26.6620     2.6000 
  134.2500   -13.3070    58.9770    24.9740    23.2310    24.1760    25.2690     2.5590 
  134.3750   -13.3960    62.7540    24.9300    22.9110    23.3050    24.0330     2.5260 
  134.5000   -13.4810    64.1630    24.8800    23.0410    22.7560    23.2080     2.5120 
  134.6250   -13.5510    64.3500    24.9190    23.9690    22.7640    23.0950     2.5190 
  134.7500   -13.6060    63.7260    25.0400    25.3890    23.3620    23.7140     2.5390 
  134.8750   -13.6560    63.0330    25.0990    26.5030    24.5140    24.9810     2.5610 
  135.0000   -13.7370    63.5490    25.0660    27.1480    25.8250    26.3960     2.5750 
  135.1250   -13.8490    64.8120    24.9550    28.4490    26.0880    26.5890     2.5890 
  135.2500   -13.9930    65.8350    24.9070    30.0150    24.3800    24.6260     2.6090 
  135.3750   -14.1660    66.5700    24.9060    29.2070    20.8170    20.7000     2.6260 
  135.5000   -14.3590    67.9870    24.9230    24.3900    16.5860    16.1040     2.6150 
  135.6250   -14.5500    69.7570    24.9000    16.6650    13.1160    12.3820     2.5550 
  135.7500   -14.7380    73.9930    24.8110    11.1580    10.8020     9.9710     2.4670 
  135.8750   -14.8980    82.0130    24.7190     8.9770     9.6200     8.8500     2.3750 
  136.0000   -15.0240    91.5520    24.5950     9.1220     9.4760     8.8860     2.3010 
  136.1250   -15.0970    96.7400    24.5590    10.7980    10.4590    10.0780     2.2640 
  136.2500   -15.1130    94.7700    24.6430    12.6510    12.2110    11.9610     2.2610 
  136.3750   -15.0640    88.5090    24.8970    14.5230    14.2020    13.9670     2.2870 
  136.5000   -14.9760    83.7840    25.1150    16.2980    15.4990    15.2070     2.3380 
  136.6250   -14.8750    81.6750    25.1740    16.5870    14.9490    14.6140     2.3990 
  136.7500   -14.7590    80.2950    25.1950    14.6610    13.0100    12.6400     2.4440 
  136.8750   -14.6430    82.8620    25.1970    11.3310    10.5640    10.1510     2.4570 
  137.0000   -14.5240    92.7520    25.1460     8.2490     8.3760     7.9460     2.4400 
  137.1250   -14.4220   103.7070    24.9970     6.6930     6.9540     6.5860     2.4050 
  137.2500   -14.3350   107.1250    24.8350     6.2970     6.3030     6.0700     2.3690 
  137.3750   -14.2660   102.4320    24.7790     6.6000     6.4570     6.4240     2.3470 
  137.5000   -14.2070    95.7630    24.7530     8.1480     7.4650     7.6980     2.3540 
  137.6250   -14.1490    90.4700    24.7420    13.0480     9.5530    10.1220     2.4030 
  137.7500   -14.0820    82.8390    24.7280    19.3080    12.5180    13.3980     2.4760 
  137.8750   -14.0240    72.2590    24.7210    22.9510    15.9920    17.0230     2.5490 
  138.0000   -13.9870    62.8780    24.7250    22.6280    19.2670    20.1930     2.6000 
  138.1250   -13.9580    59.3730    24.7420    21.9100    21.4360    22.0360     2.6130 
  138.2500   -13.9390    58.5990    24.7540    23.3300    22.5800    22.8390     2.6030 
  138.3750   -13.9280    58.0380    24.7550    25.4280    23.1160    23.1460     2.5820 
  138.5000   -13.9200    57.9480    24.7320    26.5120    23.4270    23.3960     2.5640 
  138.6250   -13.9220    56.6930    24.6810    26.9530    23.6240    23.7310     2.5640 
  138.7500   -13.9600    54.7440    24.6450    27.3170    23.7210    24.0950     2.5760 
  138.8750   -14.0070    52.0510    24.6770    26.8690    23.7640    24.4670     2.5800 
  139.0000   -14.0480    49.6220    24.6910    25.6800    23.8270    24.8490     2.5610 
  139.1250   -14.0960    50.5220    24.6570    25.1820    23.8940    25.1560     2.5320 
  139.2500   -14.1550    52.9430    24.6420    25.9610    23.7880    25.1790     2.5150 
  139.3750   -14.2280    54.0910    24.6020    26.4380    23.2860    24.6670     2.5110 
  139.5000   -14.3230    53.4810    24.5740    25.4410    22.2810    23.5080     2.5090 
  139.6250   -14.4110    55.1080    24.5820    23.9730    20.8870    21.8640     2.5020 
  139.7500   -14.5090    59.2770    24.6660    21.6230    19.5490    20.2910     2.4950 
  139.8750   -14.6020    62.6740    24.8270    18.7890    18.6110    19.2110     2.4920 
  140.0000   -14.7010    64.6980    25.1580    16.8350    18.2970    18.8840     2.4950 
  140.1250   -14.7830    65.8110    25.1310    17.0310    18.7290    19.4470     2.5070 
  140.2500   -14.8470    65.5830    24.8970    18.6770    19.5470    20.4550     2.5230 
  140.3750   -14.8930    64.8230    24.7370    20.4390    20.3140    21.3800     2.5420 
  140.5000   -14.9020    64.5480    24.6290    20.9560    20.5430    21.6430     2.5590 
  140.6250   -14.9180    66.0130    24.6240    19.6570    19.8770    20.8110     2.5680 
  140.7500   -14.9020    67.5680    24.7520    17.6480    18.7040    19.3900     2.5690 
  140.8750   -14.8690    67.3180    25.0170    16.0100    17.4690    17.9640     2.5600 
  141.0000   -14.8290    65.0870    25.2110    15.2600    16.5250    16.9860     2.5470 
  141.1250   -14.7820    61.6950    25.2600    15.5150    16.1170    16.7290     2.5360 
  141.2500   -14.7350    57.8660    25.3710    16.2030    16.1270    16.9720     2.5320 
  141.3750   -14.6830    53.7410    25.5930    16.9700    16.3880    17.4630     2.5350 
  141.5000   -14.6520    51.0830    25.5680    17.4540    16.6720    17.9080     2.5440 
  141.6250   -14.6230    52.2150    25.4710    17.5190    16.7420    18.0310     2.5490 
  141.7500   -14.6060    55.1470    25.4370    17.0230    16.5920    17.8810     2.5410 
  141.8750   -14.6220    57.5360    25.4730    16.5770    16.3540    17.6410     2.5260 
  142.0000   -14.6460    58.9550    25.5020    16.4790    16.2110    17.5320     2.5160 
  142.1250   -14.6800    60.7450    25.4540    16.5180    16.3510    17.7650     2.5160 
  142.2500   -14.6980    63.9180    25.4380    16.9450    16.7510    18.3080     2.5140 
  142.3750   -14.7300    67.9120    25.4610    18.0750    17.3190    19.0530     2.5040 
  142.5000   -14.7620    69.5780    25.5760    19.6930    17.9100    19.8280     2.4890 
  142.6250   -14.7830    68.2920    25.5210    20.8100    18.3300    20.4060     2.4860 
  142.7500   -14.7960    66.4330    25.4990    20.6410    18.5110    20.7030     2.4980 
  142.8750   -14.7850    65.1470    25.4670    19.6980    18.4750    20.7420     2.5140 
  143.0000   -14.7740    65.7180    25.4500    18.8620    18.3190    20.6390     2.5260 
  143.1250   -14.7440    66.3090    25.3930    18.7500    18.1890    20.5690     2.5330 
  143.2500   -14.7410    64.6920    25.3710    18.7750    18.1960    20.6700     2.5450 
  143.3750   -14.7280    61.7090    25.3890    18.9830    18.4070    21.0180     2.5640 
  143.5000   -14.7070    60.5040    25.3650    19.5080    18.8350    21.6190     2.5820 
  143.6250   -14.6870    62.7360    25.4580    20.4790    19.3860    22.3660     2.5880 
  143.7500   -14.6490    65.5960    25.6070    21.6890    19.8120    22.9720     2.5880 
  143.8750   -14.6160    68.8750    25.5970    23.2440    19.8770    23.1320     2.5850 
  144.0000   -14.5490    72.1560    25.5760    24.3680    19.4080    22.5860     2.5780 
  144.1250   -14.5030    73.5910    25.6710    23.3270    18.3360    21.2070     2.5720 
  144.2500   -14.4270    74.7810    25.7440    20.5430    16.9920    19.4500     2.5720 
  144.3750   -14.3410    75.0680    25.6660    17.4120    15.6730    17.7300     2.5790 
  144.5000   -14.2440    75.5260    25.5940    15.2030    14.6180    16.3660     2.5870 
  144.6250   -14.1400    77.3540    25.5790    14.7580    14.0340    15.6270     2.5880 
  144.7500   -14.0450    78.5370    25.5590    15.6400    13.8680    15.4510     2.5830 
  144.8750   -13.9370    76.9570    25.5120    16.4840    14.0490    15.7610     2.5790 
