~V
VERS. 2.00: Ver 2.00
~W
STRT.M 55.0000:
STOP.M 245.0000:
STEP.M 0.1250:
NULL. -999.2500:
UWI. DF33016:
~C
DEPT.M :
GR.API :
CALI.CM :
RXO.OHMM :
RI. :
RML.OHMM :
DEN.GM/CC :
SP.MV :
~A
# ...
  122.5000    62.2710    25.2300    22.3090    17.2810    19.9340     2.6330   -15.0140 
  122.6250    60.9170    25.2550    19.9720    18.9450    21.9520     2.6410   -14.9790 
  122.7500    63.3060    25.2600    17.5020    18.6360    21.3240     2.6170   -14.9770 
  122.8750    66.0590    25.2290    16.1910    16.2960    18.0510     2.5590   -15.0080 
  123.0000    67.9770    25.1450    14.7950    13.0090    13.8000     2.4960   -15.0440 
  123.1250    74.0190    25.0330    11.6530    10.0900    10.4160     2.4400   -15.1070 
  123.2500    83.6290    24.9380     8.3320     8.0530     8.2870     2.3930   -15.1720 
  123.3750    89.9690    24.8950     6.3290     6.9820     7.3170     2.3650   -15.2470 
  123.5000    88.5910    24.8590     5.8850     6.8510     7.3950     2.3660   -15.3370 
  123.6250    82.3460    24.9410     7.4510     7.8110     8.7150     2.3940   -15.4480 
  123.7500    76.4450    24.7160    11.7010     9.6760    11.1180     2.4360   -15.5660 
  123.8750    70.4140    24.5860    16.9500    12.2080    14.2760     2.4740   -15.6830 
  124.0000    64.5670    24.6160    19.0270    14.8170    17.2870     2.5020   -15.7760 
  124.1250    61.5430    24.7770    16.8190    16.5490    18.7830     2.5200   -15.8660 
  124.2500    60.8880    24.9230    14.6860    17.1720    18.7800     2.5310   -15.9560 
  124.3750    61.5920    25.0270    14.2180    16.9370    17.8860     2.5380   -16.0460 
  124.5000    60.8970    25.0770    14.8490    16.2810    16.7550     2.5460   -16.1240 
  124.6250    60.6420    25.0770    15.1840    15.5190    15.7800     2.5530   -16.1700 
  124.7500    63.3370    24.9150    14.4680    14.7320    14.9530     2.5480   -16.1730 
  124.8750    68.8090    24.5170    12.3830    13.8990    14.2060     2.5230   -16.1250 
  125.0000    73.7820    24.0860    10.2430    13.0090    13.5010     2.4900   -16.0690 
  125.1250    73.6020    24.1660     9.5740    12.0280    12.7490     2.4650   -15.9780 
  125.2500    70.7450    24.5090     9.3780    10.9470    11.8350     2.4510   -15.8770 
  125.3750    70.5220    24.7590     8.5640     9.7890    10.7250     2.4340   -15.7440 
  125.5000    76.8740    24.8420     7.4240     8.6180     9.4790     2.4070   -15.5990 
  125.6250    85.6330    24.8530     6.4710     7.5270     8.2400     2.3780   -15.4620 
  125.7500    89.2070    24.8540     5.8710     6.6220     7.2060     2.3550   -15.3310 
  125.8750    87.9880    24.8560     5.4830     6.0360     6.5690     2.3400   -15.2090 
  126.0000    84.3240    24.8640     5.3690     5.9070     6.4840     2.3270   -15.1170 
  126.1250    82.7820    24.8830     5.6210     6.5080     7.2300     2.3190   -15.0180 
  126.2500    82.3480    24.9220     6.5880     7.9310     8.9000     2.3330   -14.9190 
  126.3750    78.9190    24.9690     9.4980    10.3550    11.7250     2.3840   -14.8340 
  126.5000    70.7640    25.0230    15.9740    13.8640    15.8210     2.4600   -14.7580 
  126.6250    63.2730    25.0570    26.3880    18.0920    20.7230     2.5490   -14.6830 
  126.7500    61.9930    25.0700    33.3700    21.6300    24.5890     2.6260   -14.6170 
  126.8750    64.4020    25.0730    32.8250    23.3760    25.9610     2.6490   -14.5790 
  127.0000    66.1370    25.0760    27.8980    23.3680    25.1360     2.6190   -14.5500 
  127.1250    66.1000    25.0930    24.2100    22.6490    23.8530     2.5700   -14.5490 
  127.2500    66.2880    25.0360    22.9830    22.3720    23.4700     2.5410   -14.5590 
  127.3750    66.1770    24.7910    22.1310    22.8770    24.2240     2.5440   -14.5970 
  127.5000    63.7270    24.4990    21.4170    23.8740    25.6400     2.5560   -14.6660 
  127.6250    60.0370    24.1550    22.6000    24.1430    26.0830     2.5720   -14.7570 
  127.7500    59.5290    23.8680    23.9950    22.5300    24.0860     2.5960   -14.8830 
  127.8750    62.9480    23.6600    23.2470    18.9910    19.8190     2.6190   -14.9940 
  128.0000    67.5200    23.4780    18.7080    14.6860    14.9320     2.6170   -15.1110 
  128.1250    71.3820    23.3940    11.8950    11.0880    11.1430     2.5810   -15.2460 
  128.2500    77.4420    23.3550     7.3660     8.5970     8.6830     2.5200   -15.3980 
  128.3750    85.3150    23.4260     5.5500     7.1070     7.3320     2.4480   -15.5600 
  128.5000    90.5270    23.6780     5.3010     6.3710     6.7730     2.3790   -15.7090 
  128.6250    90.5850    24.0400     5.6670     6.1730     6.7120     2.3140   -15.8250 
  128.7500    88.8740    24.1810     6.0220     6.1620     6.7310     2.2630   -15.9160 
  128.8750    86.8410    24.1360     5.9680     6.1770     6.6460     2.2440   -16.0130 
  129.0000    85.6830    23.9260     5.5430     6.2120     6.4950     2.2580   -16.1000 
  129.1250    88.7260    23.5550     5.3000     6.4390     6.5660     2.2880   -16.1960 
  129.2500    93.1540    23.5270     5.4260     7.0230     7.1040     2.3100   -16.3070 
  129.3750    92.8930    23.7900     6.3460     8.1020     8.2530     2.3190   -16.4320 
  129.5000    87.4540    23.9650     8.6460     9.6430     9.9790     2.3390   -16.5510 
  129.6250    81.1930    24.0150    11.9560    11.1940    11.7850     2.3870   -16.6880 
  129.7500    77.4730    23.9590    13.3870    11.9150    12.6510     2.4440   -16.8130 
  129.8750    76.6990    23.8790    12.1710    11.3190    11.9560     2.4580   -16.9340 
  130.0000    78.4520    23.8770     9.7000     9.7150    10.0760     2.4210   -17.0020 
  130.1250    83.9520    23.9300     7.5650     7.9530     8.1060     2.3660   -17.0050 
  130.2500    91.7020    23.9630     6.0730     6.6740     6.7790     2.3290   -17.0730 
  130.3750    97.6140    23.9710     5.3760     6.0580     6.2590     2.3190   -17.1270 
  130.5000    98.4850    23.9760     5.3780     6.1470     6.5650     2.3130   -17.0710 
  130.6250    94.9140    23.9730     6.3340     7.0670     7.8300     2.3020   -17.0660 
  130.7500    91.4560    23.9620     8.2320     8.5990     9.7900     2.2850   -17.0770 
  130.8750    88.2570    23.9500    10.9750    10.4320    12.0270     2.2740   -17.1010 
  131.0000    82.0900    23.9450    14.3860    12.0310    13.8220     2.2830   -17.1010 
  131.1250    73.4970    23.9550    16.7670    12.7760    14.3990     2.3210   -17.0210 
  131.2500    67.3360    24.0080    15.7800    12.8430    14.1590     2.3830   -16.8640 
  131.3750    65.9710    24.1470    12.8480    12.6520    13.7830     2.4420   -16.6420 
  131.5000    68.0280    24.3690    11.4460    12.6030    13.7880     2.4780   -16.3880 
  131.6250    69.8410    24.7020    13.2380    12.8960    14.3560     2.4970   -16.1120 
  131.7500    69.9360    25.0570    14.5930    13.3830    15.1560     2.5160   -15.8300 
  131.8750    67.7440    25.3330    14.8650    13.9060    15.8930     2.5370   -15.5610 
  132.0000    65.3220    25.4660    14.4640    14.3580    16.4030     2.5530   -15.3390 
  132.1250    64.5130    25.5200    13.9810    14.8190    16.8270     2.5650   -15.1500 
  132.2500    62.6630    25.5480    13.8970    15.5280    17.5650     2.5720   -14.9850 
  132.3750    58.9150    25.5030    15.2370    16.6570    18.8800     2.5720   -14.9020 
  132.5000    54.6840    25.3180    18.1370    18.1800    20.7230     2.5710   -14.9240 
  132.6250    52.4260    25.1350    21.1930    19.6930    22.5520     2.5840   -15.0150 
  132.7500    51.9990    24.9570    22.0840    20.5930    23.5740     2.6150   -15.1340 
  132.8750    52.5970    24.9710    21.2160    20.5540    23.3660     2.6490   -15.2210 
  133.0000    55.1750    25.2220    19.9010    19.6860    22.1290     2.6640   -15.2590 
  133.1250    59.9260    25.5250    17.9920    18.5340    20.6120     2.6510   -15.2960 
  133.2500    64.0090    25.6860    16.1870    17.7450    19.5990     2.6230   -15.3630 
  133.3750    66.4320    25.5580    15.6190    17.6080    19.4290     2.6080   -15.4210 
  133.5000    67.1270    25.2420    16.6790    18.2020    20.1920     2.6090   -15.4240 
  133.6250    65.2230    24.9620    19.3830    19.5380    21.8800     2.6100   -15.3940 
