~V
VERS. 2.00: Ver 2.00
~W
STRT.M 63.0000:
STOP.M 272.0000:
STEP.M 0.1250:
NULL. -999.2500:
UWI. DF33040:
~C
DEPT.M :
SP.MV :
GR.API :
CALI.CM :
RXO.OHMM :
RI. :
RML.OHMM :
DEN.GM/CC :
~A
# ...
  119.2500   -22.2070    70.4690    22.3360     6.6410     6.4730     8.5550     2.1920 
  119.3750   -21.4640    74.3570    22.4630     6.5220     6.1550     8.0580     2.2360 
  119.5000   -20.6420    77.6830    22.7850     6.0870     5.7080     7.3620     2.2840 
  119.6250   -19.8250    83.6020    23.3730     5.3510     5.2170     6.6360     2.3200 
  119.7500   -19.1220    89.4080    23.9820     4.7230     4.7900     6.0550     2.3280 
  119.8750   -18.5750    90.9880    24.3650     4.4340     4.4960     5.7160     2.3130 
  120.0000   -18.2210    88.8090    24.4300     4.4500     4.3720     5.6560     2.2910 
  120.1250   -18.1400    83.7930    24.2640     4.6210     4.4570     5.9030     2.2760 
  120.2500   -18.3000    78.0440    24.0800     4.8760     4.7040     6.3640     2.2560 
  120.3750   -18.6460    72.9280    23.8480     5.2920     5.0760     6.9720     2.2240 
  120.5000   -19.1010    69.4330    23.4440     5.8570     5.5230     7.6500     2.1890 
  120.6250   -19.5620    67.7830    22.9120     6.3060     5.9700     8.2830     2.1710 
  120.7500   -19.9250    66.5480    22.5430     6.4310     6.3220     8.7390     2.1710 
  120.8750   -20.1560    66.8090    22.4360     6.3410     6.4900     8.8880     2.1780 
  121.0000   -20.2450    69.4840    22.4460     6.2830     6.4110     8.6390     2.1840 
  121.1250   -20.1400    76.2690    22.4590     6.2820     6.0570     7.9640     2.1960 
  121.2500   -19.9080    84.7730    22.5910     6.0750     5.5610     7.1170     2.2300 
  121.3750   -19.6140    90.3720    22.9740     5.5490     5.0490     6.3230     2.2800 
  121.5000   -19.3230    92.3440    23.6090     4.8880     4.6370     5.7730     2.3210 
  121.6250   -19.1060    90.2970    24.2290     4.4790     4.4390     5.6300     2.3250 
  121.7500   -18.9600    85.7280    24.4780     4.4570     4.4470     5.8170     2.2980 
  121.8750   -18.8520    80.5100    24.2230     4.7860     4.6170     6.2170     2.2640 
  122.0000   -18.7330    78.0660    23.6620     5.3330     4.8560     6.6360     2.2420 
  122.1250   -18.5680    79.8160    23.2230     5.7410     5.0090     6.7960     2.2410 
  122.2500   -18.3320    82.6110    23.1070     5.6840     4.9890     6.6160     2.2480 
  122.3750   -18.0190    86.6320    23.3080     5.1910     4.7980     6.1760     2.2550 
  122.5000   -17.6360    92.4370    23.7660     4.6000     4.5050     5.6460     2.2670 
  122.6250   -17.1840    99.3100    24.3100     4.2640     4.2000     5.1770     2.2940 
  122.7500   -16.7330   104.5250    24.6730     4.1560     3.9390     4.8110     2.3280 
  122.8750   -16.3490   105.2350    24.8000     4.1340     3.7380     4.5420     2.3520 
  123.0000   -16.1070   101.7740    24.8100     4.0540     3.6020     4.3730     2.3560 
  123.1250   -16.1140    97.9950    24.7980     3.8700     3.5520     4.3550     2.3490 
  123.2500   -16.3400    94.6140    24.7640     3.7620     3.5940     4.5050     2.3430 
  123.3750   -16.7330    88.9210    24.7020     3.9050     3.7470     4.8400     2.3330 
  123.5000   -17.2350    81.3930    24.5300     4.3010     4.0080     5.3310     2.3100 
  123.6250   -17.7970    77.1640    24.0810     4.7340     4.3440     5.8850     2.2760 
  123.7500   -18.3260    77.4530    23.4990     4.9980     4.6570     6.3280     2.2440 
  123.8750   -18.7830    77.4900    23.0360     5.1080     4.8630     6.5410     2.2250 
  124.0000   -19.1470    74.6540    22.8390     5.1650     4.9260     6.5080     2.2220 
  124.1250   -19.3900    71.7880    22.9000     5.1290     4.8720     6.3360     2.2330 
  124.2500   -19.5640    72.7950    23.0950     4.9650     4.8060     6.2140     2.2460 
  124.3750   -19.7120    76.5170    23.3580     4.8630     4.7970     6.2400     2.2510 
  124.5000   -19.8440    78.9250    23.5060     5.0620     4.8780     6.4270     2.2460 
  124.6250   -19.9650    78.0150    23.3070     5.4460     5.0430     6.7190     2.2370 
  124.7500   -20.1190    75.5790    22.9140     5.5950     5.2370     7.0020     2.2330 
  124.8750   -20.3140    73.2600    22.5840     5.4560     5.4230     7.2250     2.2330 
  125.0000   -20.5400    72.1960    22.4330     5.2600     5.5780     7.3780     2.2340 
  125.1250   -20.7520    72.1680    22.4050     5.2270     5.6980     7.4970     2.2310 
  125.2500   -20.8750    71.9710    22.4060     5.3260     5.8040     7.6340     2.2250 
  125.3750   -20.8630    71.3940    22.4320     5.4730     5.8930     7.7720     2.2220 
  125.5000   -20.7060    71.4510    22.4830     5.5630     5.9240     7.8210     2.2250 
  125.6250   -20.3720    71.4430    22.5660     5.5520     5.8130     7.6120     2.2280 
  125.7500   -19.8950    70.6140    22.6610     5.5200     5.5370     7.1190     2.2280 
  125.8750   -19.2930    72.1180    22.7620     5.4160     5.1060     6.3930     2.2340 
  126.0000   -18.6010    78.5690    22.9560     5.0740     4.5820     5.5720     2.2560 
  126.1250   -17.8870    86.0300    23.3810     4.4370     4.0740     4.8630     2.3030 
  126.2500   -17.2280    88.4110    23.9070     3.8280     3.6740     4.3760     2.3570 
  126.3750   -16.6750    87.8510    24.3370     3.5040     3.4250     4.1390     2.3900 
  126.5000   -16.2650    87.3110    24.5560     3.5980     3.3380     4.1430     2.3830 
  126.6250   -16.0680    86.4010    24.4690     4.1530     3.4400     4.4140     2.3500 
  126.7500   -16.0580    85.3270    24.1380     4.7750     3.6990     4.8940     2.3400 
  126.8750   -16.2250    84.8800    23.8270     5.3780     4.1040     5.5460     2.3700 
  127.0000   -16.5560    84.5030    23.8460     6.5710     4.6340     6.3310     2.4120 
  127.1250   -17.0230    80.3270    24.1780     8.8760     5.2700     7.2060     2.4160 
  127.2500   -17.5590    73.7430    24.3620    10.4970     5.9460     8.0870     2.3810 
  127.3750   -18.1080    69.2430    24.1250    10.2030     6.6050     8.9130     2.3480 
  127.5000   -18.6220    67.3360    23.5450     9.2790     7.1990     9.6420     2.3610 
  127.6250   -19.0650    66.0900    22.9910    11.1560     7.6580    10.2000     2.4340 
  127.7500   -19.4440    66.0370    22.7390    15.6770     7.9410    10.5210     2.5070 
  127.8750   -19.7500    70.0460    22.7340    18.8540     8.0000    10.5320     2.5240 
  128.0000   -19.9720    75.9830    22.7580    17.2300     7.8180    10.2100     2.4710 
  128.1250   -20.0950    77.4940    22.7070    12.2020     7.4050     9.5840     2.3800 
  128.2500   -20.1360    76.0430    22.6690     8.3790     6.9040     8.8780     2.3020 
  128.3750   -20.1220    73.4190    22.7310     6.2430     6.2570     8.0750     2.2510 
  128.5000   -20.0870    70.4450    22.7950     5.8010     5.9750     7.7950     2.2210 
  128.6250   -20.0450    67.6560    22.7590     5.8750     5.9490     7.8510     2.2060 
  128.7500   -20.0140    66.4960    22.6460     6.0830     6.0150     8.0060     2.1980 
  128.8750   -20.0090    67.0190    22.5240     6.3210     6.1260     8.1860     2.2000 
  129.0000   -20.0310    68.6350    22.4550     6.4690     6.2450     8.3530     2.2100 
  129.1250   -20.1050    70.6430    22.4500     6.4690     6.3540     8.4990     2.2230 
  129.2500   -20.2340    71.2000    22.4530     6.4460     6.4590     8.6440     2.2310 
  129.3750   -20.4110    69.9210    22.4530     6.5270     6.5680     8.7900     2.2320 
  129.5000   -20.6210    67.2700    22.4530     6.7690     6.6780     8.9120     2.2250 
  129.6250   -20.8580    64.5780    22.4530     7.1170     6.7720     8.9650     2.2170 
  129.7500   -21.0990    63.8370    22.4530     7.3460     6.8320     8.9490     2.2160 
  129.8750   -21.3110    65.6100    22.4530     7.2730     6.8570     8.8920     2.2170 
  130.0000   -21.4700    69.0940    22.4530     6.9230     6.8610     8.8410     2.2140 
  130.1250   -21.5410    71.2610    22.4530     6.6430     6.8740     8.8500     2.2100 
  130.2500   -21.5260    71.2790    22.4530     6.6940     6.9100     8.9270     2.2160 
  130.3750   -21.4400    69.8550    22.4540     6.9860     6.9680     9.0630     2.2350 
