~V
VERS. 2.00: Ver 2.00
~W
STRT.M 50.0000:
STOP.M 235.0000:
STEP.M 0.1250:
NULL. -999.2500:
UWI. DF33017:
~C
DEPT.M :
GR.API :
CALI.CM :
RXO.OHMM :
RI. :
RML.OHMM :
DEN.GM/CC :
SP.MV :
~A
# ...
  140.0000    68.5290    28.3830    18.3430    19.3450    20.4520     2.5200   -20.7460 
  140.1250    70.1330    28.3830    17.9290    19.0290    19.8440     2.5320   -20.6210 
  140.2500    70.0210    28.3830    17.7440    18.7860    19.2580     2.5390   -20.4620 
  140.3750    68.7390    28.3750    17.5100    18.3960    18.7060     2.5420   -20.3130 
  140.5000    68.4930    28.3520    16.9880    17.7900    18.2300     2.5490   -20.1670 
  140.6250    68.1990    28.3340    16.1280    17.1280    17.9190     2.5610   -20.0260 
  140.7500    66.9460    28.3840    15.7130    16.7020    17.7840     2.5680   -19.9130 
  140.8750    67.0910    28.4590    16.0810    16.6700    17.8190     2.5630   -19.8280 
  141.0000    69.8020    28.5200    16.6800    16.9940    17.9930     2.5540   -19.7700 
  141.1250    70.5070    28.5760    16.7650    17.4390    18.2670     2.5490   -19.6910 
  141.2500    67.3540    28.6300    16.3230    17.7110    18.5650     2.5430   -19.6730 
  141.3750    63.4720    28.6640    16.2360    17.7160    18.8140     2.5320   -19.6820 
  141.5000    62.1920    28.6660    16.7870    17.5300    18.9130     2.5200   -19.6850 
  141.6250    63.5930    28.6690    17.5740    17.2900    18.6960     2.5160   -19.6910 
  141.7500    64.5350    28.6840    17.3920    17.0380    18.1700     2.5240   -19.6880 
  141.8750    63.9150    28.6920    16.1110    16.6690    17.4290     2.5400   -19.6620 
  142.0000    62.0370    28.6930    14.6290    16.0930    16.6590     2.5530   -19.6110 
  142.1250    61.5240    28.6930    13.9660    15.3810    16.0960     2.5510   -19.5950 
  142.2500    62.5920    28.6930    13.9940    14.8250    15.8260     2.5420   -19.5440 
  142.3750    63.4710    28.6930    14.3990    14.6580    15.8550     2.5350   -19.4940 
  142.5000    64.3070    28.6910    15.0990    14.9360    16.1220     2.5350   -19.4410 
  142.6250    67.6940    28.6840    15.8850    15.4920    16.5320     2.5360   -19.4180 
  142.7500    72.1810    28.6560    16.5550    15.9820    16.9560     2.5330   -19.4010 
  142.8750    74.7020    28.5910    16.9970    16.2810    17.3450     2.5280   -19.3930 
  143.0000    74.5290    28.5150    17.4690    16.4580    17.6700     2.5220   -19.3920 
  143.1250    73.6430    28.4820    18.0460    16.6740    17.8560     2.5180   -19.3520 
  143.2500    73.3750    28.4750    18.5310    16.9190    17.8330     2.5220   -19.3000 
  143.3750    73.4810    28.4750    18.2940    16.9990    17.5440     2.5380   -19.2210 
  143.5000    73.7280    28.4750    17.2890    16.7140    17.0180     2.5540   -19.1600 
  143.6250    73.2400    28.4750    16.0650    16.0240    16.4150     2.5560   -19.0760 
  143.7500    72.5850    28.4800    14.6770    15.3000    15.9730     2.5470   -19.0350 
  143.8750    72.2180    28.5140    13.8520    14.8870    15.8320     2.5390   -19.0210 
  144.0000    71.7720    28.6010    14.3020    14.9770    16.0200     2.5370   -19.0080 
  144.1250    70.2450    28.7040    15.7350    15.5280    16.4830     2.5390   -19.0140 
  144.2500    68.7720    28.7440    16.8390    16.1280    17.0190     2.5400   -19.0290 
  144.3750    68.7890    28.7560    17.1620    16.4960    17.4960     2.5340   -19.0440 
  144.5000    70.2120    28.7660    16.9290    16.5910    17.8460     2.5230   -19.0560 
  144.6250    71.2870    28.7800    16.6090    16.6620    18.0920     2.5140   -19.0760 
  144.7500    71.0530    28.7980    16.7150    16.9780    18.3540     2.5140   -19.0780 
  144.8750    70.4200    28.8310    17.2630    17.5410    18.6910     2.5210   -19.0700 
  145.0000    71.1510    28.8740    17.9230    18.1280    19.0910     2.5290   -19.0750 
  145.1250    72.3200    28.9040    18.4110    18.4000    19.4620     2.5370   -19.0820 
  145.2500    73.4190    28.9270    18.5780    18.3300    19.7090     2.5430   -19.1080 
  145.3750    73.8300    28.9420    18.4640    18.1020    19.7840     2.5460   -19.1480 
  145.5000    72.3150    28.9590    18.2370    17.9670    19.6950     2.5480   -19.2150 
  145.6250    70.7460    28.9720    18.2190    18.0900    19.5100     2.5490   -19.2470 
  145.7500    71.1790    28.9860    18.3950    18.3210    19.3470     2.5450   -19.2700 
  145.8750    73.6050    28.9990    18.2330    18.4610    19.2670     2.5380   -19.3070 
  146.0000    76.3790    29.0040    17.5310    18.3810    19.2940     2.5310   -19.3430 
  146.1250    77.1720    29.0040    17.0840    18.0950    19.4170     2.5280   -19.3720 
  146.2500    75.5280    29.0040    17.3520    17.8060    19.5460     2.5260   -19.3860 
  146.3750    72.8770    29.0040    17.7550    17.6640    19.5970     2.5190   -19.3770 
  146.5000    72.1670    29.0040    17.9410    17.6920    19.5060     2.5070   -19.3550 
  146.6250    73.7750    29.0040    17.8520    17.7300    19.2260     2.4910   -19.3670 
  146.7500    73.9850    29.0040    17.4510    17.5830    18.8410     2.4780   -19.4100 
  146.8750    73.3170    29.0040    16.8840    17.2530    18.4740     2.4730   -19.4300 
  147.0000    72.3480    29.0040    16.6340    16.9290    18.2650     2.4740   -19.4530 
  147.1250    69.7280    29.0040    16.7670    16.9250    18.3450     2.4740   -19.4740 
  147.2500    67.8160    29.0040    17.1020    17.2680    18.6470     2.4720   -19.4900 
  147.3750    68.7480    29.0030    17.2990    17.7690    19.0570     2.4730   -19.5180 
  147.5000    70.8920    29.0010    17.3670    18.1320    19.4390     2.4790   -19.5380 
  147.6250    71.0180    29.0000    17.2480    18.1360    19.6690     2.4850   -19.5440 
  147.7500    73.2010    29.0020    17.1180    17.9760    19.7850     2.4900   -19.5200 
  147.8750    77.8410    29.0040    17.1550    17.9260    19.8630     2.4940   -19.5000 
  148.0000    79.4480    29.0130    17.3450    18.1420    19.9600     2.4960   -19.4830 
  148.1250    76.0830    29.0410    17.6340    18.5430    20.0660     2.4920   -19.4620 
  148.2500    72.4300    29.0780    17.9540    18.8130    20.1260     2.4850   -19.4410 
  148.3750    70.0180    29.1010    18.3590    18.7390    20.1060     2.4800   -19.3920 
  148.5000    70.5690    29.1070    18.3920    18.2940    19.9970     2.4800   -19.3370 
  148.6250    74.6200    29.1050    17.6740    17.6590    19.8140     2.4820   -19.2850 
  148.7500    77.7680    29.0830    17.1580    17.1670    19.6110     2.4790   -19.2640 
  148.8750    76.1960    29.0470    17.2650    16.9930    19.4200     2.4790   -19.2470 
  149.0000    73.2440    29.0440    17.6330    17.1440    19.2600     2.4850   -19.2460 
  149.1250    73.3600    29.1390    17.7210    17.4790    19.1720     2.4940   -19.2330 
  149.2500    75.0500    29.1930    17.3440    17.7400    19.1770     2.4920   -19.2330 
  149.3750    75.4830    29.2100    17.1190    17.7950    19.2840     2.4760   -19.2470 
  149.5000    73.2940    29.2110    17.3210    17.6460    19.4760     2.4570   -19.2460 
  149.6250    69.6480    29.2110    17.7780    17.4460    19.7180     2.4470   -19.2470 
  149.7500    68.2190    29.2110    18.0160    17.3920    19.9230     2.4470   -19.2150 
  149.8750    68.4300    29.2110    17.8730    17.5230    19.9870     2.4480   -19.1560 
  150.0000    67.4750    29.2110    17.5000    17.6950    19.8030     2.4400   -19.0200 
  150.1250    66.3230    29.2110    17.3310    17.5900    19.3040     2.4260   -18.8950 
  150.2500    68.9730    29.2110    17.3490    17.1140    18.6560     2.4180   -18.7610 
  150.3750    73.5180    29.2110    17.2270    16.4420    18.0440     2.4170   -18.6360 
  150.5000    75.1250    29.2110    16.7160    15.9280    17.6510     2.4150   -18.5320 
  150.6250    73.7120    29.2110    16.5180    16.0020    17.6820     2.4160   -18.4280 
  150.7500    74.6290    29.2110    16.8700    16.6350    18.1230     2.4250   -18.3430 
  150.8750    77.4990    29.2110    17.7700    17.5370    18.8670     2.4400   -18.2620 
  151.0000    79.3460    29.2110    18.6640    18.2020    19.6090     2.4480   -18.2270 
  151.1250    81.5990    29.2110    19.1730    18.0170    19.7670     2.4410   -18.1900 
