~V
VERS. 2.00: Ver 2.00
~W
STRT.M 55.0000:
STOP.M 252.0000:
STEP.M 0.1250:
NULL. -999.2500:
UWI. DF33023:
~C
DEPT.M :
GR.API :
CALI.CM :
RXO.OHMM :
RI. :
RML.OHMM :
DEN.GM/CC :
SP.MV :
~A
# ...
  212.5000    64.3390    24.8100   136.9870   137.5050   141.0520     2.2730   -34.0120 
  212.6250    61.8130    24.7880   125.0460   126.4780   129.5000     2.2600   -34.2910 
  212.7500    60.7370    24.7620   111.5200   120.2200   123.5610     2.2460   -34.5570 
  212.8750    61.2340    24.7590   107.7070   119.8660   123.7140     2.2410   -34.8040 
  213.0000    61.6070    24.7960   122.2670   124.5550   128.6870     2.2400   -35.0130 
  213.1250    60.3170    24.8530   152.3400   131.5370   135.4700     2.2250   -35.1650 
  213.2500    59.1600    24.8920   173.8540   136.4030   139.6540     2.2050   -35.2810 
  213.3750    60.8050    24.9060   171.5260   136.5800   138.8180     2.2010   -35.3570 
  213.5000    64.3260    24.9070   149.8250   131.9700   133.2970     2.2180   -35.3980 
  213.6250    66.8830    24.9070   127.3390   124.9350   125.9990     2.2440   -35.4410 
  213.7500    66.3190    24.9080   117.3450   118.9230   120.2570     2.2570   -35.4840 
  213.8750    63.5390    24.9060   118.8600   115.0220   116.8880     2.2560   -35.5260 
  214.0000    62.8790    24.8920   123.6680   112.8620   115.3360     2.2510   -35.5940 
  214.1250    65.7470    24.8020   126.4980   111.7880   114.9020     2.2540   -35.6910 
  214.2500    66.7930    24.6010   126.6540   111.3260   115.1320     2.2640   -35.8010 
  214.3750    64.5380    24.3470   121.7570   111.5810   116.2050     2.2720   -35.9580 
  214.5000    62.3300    24.1690   114.9730   112.8190   118.4460     2.2730   -36.1640 
  214.6250    62.9930    24.1310   122.5130   115.4730   122.2600     2.2640   -36.4050 
  214.7500    63.5880    24.1470   141.6240   119.1930   127.1480     2.2510   -36.6550 
  214.8750    62.8960    24.1620   150.2590   123.6960   132.7860     2.2430   -36.9160 
  215.0000    61.7390    24.1470   138.7360   129.0050   139.2990     2.2440   -37.1800 
  215.1250    61.4870    24.1050   128.1330   135.5600   147.3210     2.2550   -37.4200 
  215.2500    60.9180    24.0610   137.9060   142.8630   156.3540     2.2650   -37.6210 
  215.3750    60.6070    24.1430   162.9810   149.6580   164.9020     2.2670   -37.7380 
  215.5000    61.1680    24.4300   185.0500   153.9770   170.3940     2.2600   -37.7700 
  215.6250    60.8480    24.8100   180.0010   152.8500   168.8800     2.2510   -37.7310 
  215.7500    58.2350    25.0460   155.8870   146.6110   161.1170     2.2440   -37.6380 
  215.8750    54.0460    25.0780   132.7000   137.2810   150.2120     2.2380   -37.4830 
  216.0000    51.6120    25.0060   121.9000   127.9080   140.0030     2.2310   -37.2620 
  216.1250    53.8100    24.9260   120.2000   121.4350   133.5580     2.2250   -36.9900 
  216.2500    60.2790    24.8340   119.0560   118.2640   130.8180     2.2280   -36.7060 
  216.3750    67.7020    24.6510   119.6770   118.0520   131.2080     2.2430   -36.4220 
  216.5000    69.8220    24.2910   126.5670   119.9060   133.6630     2.2630   -36.1250 
  216.6250    65.7010    23.9250   136.6900   122.3890   136.5280     2.2730   -35.7850 
  216.7500    62.3680    23.8790   140.5400   123.7850   137.9320     2.2740   -35.3890 
  216.8750    61.2040    24.1920   136.6190   123.0780   136.7670     2.2760   -34.9660 
  217.0000    60.1410    24.5910   128.9850   119.9670   132.7780     2.2770   -34.5350 
  217.1250    59.7140    24.7880   119.3370   114.8550   126.5680     2.2710   -34.0830 
  217.2500    60.2710    24.8170   108.4630   109.2570   119.8820     2.2730   -33.5880 
  217.3750    60.2000    24.7740   100.0380   103.9300   113.4770     2.2960   -33.0600 
  217.5000    59.3550    24.7350    98.7030    99.1280   107.5990     2.3330   -32.5240 
  217.6250    59.4300    24.7240   103.6800    95.0930   102.5570     2.3470   -31.9730 
  217.7500    59.6570    24.7220   104.2800    91.8230    98.3440     2.3370   -31.4330 
  217.8750    59.4650    24.7130    96.8230    89.1700    94.8030     2.3310   -30.8610 
  218.0000    62.5000    24.7040    90.7340    86.8360    91.7350     2.3590   -30.2260 
  218.1250    70.9540    24.6770   101.1180    84.6850    89.1320     2.4330   -29.5260 
  218.2500    76.1360    24.6030   113.0920    82.3660    86.2960     2.5280   -28.7690 
  218.3750    74.6680    24.5040   107.3850    78.3850    81.0390     2.6190   -27.9490 
  218.5000    70.4310    24.4500    87.9920    69.9670    70.2290     2.6870   -27.0730 
  218.6250    68.6560    24.4970    79.1540    54.9950    53.0520     2.7130   -26.1810 
  218.7500    69.3750    24.5830    74.1840    38.3720    35.7460     2.7010   -25.2890 
  218.8750    70.1890    24.6430    56.7080    24.6960    22.4330     2.6570   -24.4490 
  219.0000    70.3060    24.6500    30.2400    15.6740    13.9400     2.5940   -23.7300 
  219.1250    72.2310    24.6560    14.3140    11.0500     9.6640     2.5220   -23.1740 
  219.2500    75.0710    24.7420     8.9590     8.7120     7.6110     2.4530   -22.8030 
  219.3750    77.2490    24.9140     8.4430     7.7280     6.9210     2.4040   -22.6120 
  219.5000    77.2730    25.0860     8.9530     7.5640     7.0280     2.3910   -22.5540 
  219.6250    77.4680    25.1400     9.1480     7.9270     7.5250     2.4120   -22.6310 
  219.7500    79.6860    25.0960     9.4840     8.4200     7.9940     2.4370   -22.7980 
  219.8750    80.8450    24.9300     9.8450     8.8130     8.2600     2.4550   -23.0240 
  220.0000    80.6200    24.6500     9.7360     9.0050     8.3070     2.4740   -23.2520 
  220.1250    83.0200    24.4410     9.2500     8.9980     8.2120     2.4930   -23.4520 
  220.2500    88.7840    24.4450     9.0270     8.8850     8.0750     2.4890   -23.6060 
  220.3750    94.5970    24.5790     9.1790     8.7060     7.9310     2.4440   -23.7230 
  220.5000    96.7970    24.6910     9.1880     8.4950     7.7990     2.3700   -23.8380 
  220.6250    96.6610    24.7990     8.4670     8.2690     7.6920     2.3120   -23.9510 
  220.7500    98.6970    24.9400     7.5920     8.0450     7.6140     2.2910   -24.0910 
  220.8750   103.4900    25.0170     7.3430     7.8570     7.5910     2.3020   -24.2760 
  221.0000   108.9990    24.9460     7.9190     7.7610     7.6850     2.3340   -24.5310 
  221.1250   111.5950    24.7730     8.8820     7.8670     8.0210     2.3760   -24.8670 
  221.2500   108.6790    24.6440     9.9790     8.2100     8.6480     2.4150   -25.2920 
  221.3750   101.0810    24.5790    11.6100     8.8210     9.6000     2.4380   -25.8120 
  221.5000    91.7890    24.5380    13.9110     9.6880    10.8470     2.4380   -26.3900 
  221.6250    85.6640    24.4920    16.0040    10.7620    12.2900     2.4200   -26.9910 
  221.7500    83.5800    24.4490    17.2210    11.8800    13.7240     2.4090   -27.5730 
  221.8750    81.1090    24.4220    18.0210    12.9230    15.0150     2.4130   -28.1080 
  222.0000    76.0010    24.4100    19.1730    13.8180    16.1040     2.4250   -28.5610 
  222.1250    70.8030    24.4100    20.8660    14.5330    16.9880     2.4250   -28.9160 
  222.2500    69.9330    24.4130    22.5220    15.1300    17.7530     2.4100   -29.1670 
  222.3750    73.5550    24.4220    23.6890    15.6210    18.4010     2.3900   -29.3110 
  222.5000    76.6730    24.4270    24.1680    15.9770    18.8780     2.3780   -29.3520 
  222.6250    75.9170    24.3940    24.0030    16.1220    19.0710     2.3790   -29.2850 
  222.7500    73.9300    24.4230    23.5980    16.0640    18.9910     2.3830   -29.1450 
  222.8750    72.8680    24.5400    23.1070    15.8270    18.6670     2.3850   -28.9350 
  223.0000    73.1320    24.6050    22.3980    15.4660    18.1790     2.3870   -28.6540 
  223.1250    75.2910    24.4730    21.0990    15.0640    17.6450     2.3960   -28.2980 
  223.2500    78.9070    24.2950    19.4800    14.7110    17.1870     2.4040   -27.8900 
  223.3750    81.2560    24.2020    18.1240    14.4570    16.8700     2.4030   -27.4390 
  223.5000    79.5480    24.1600    17.3740    14.3180    16.7020     2.3940   -26.9660 
  223.6250    75.0220    24.0880    17.1390    14.2870    16.6570     2.3900   -26.4810 
