~V
VERS. 2.00: Ver 2.00
~W
STRT.M 60.0000:
STOP.M 236.0000:
STEP.M 0.1250:
NULL. -999.2500:
UWI. DF33015:
~C
DEPT.M :
DEN.GM/CC :
GR.API :
RML.OHMM :
RI. :
RXO.OHMM :
CALI.CM :
SP.MV :
~A
# ...
  138.7500     2.5350    47.3040    21.7900    19.9460    15.4050    23.7630   -18.5810 
  138.8750     2.5320    45.7110    21.6890    19.7400    15.7460    23.9080   -18.5580 
  139.0000     2.5300    48.3700    21.9430    19.8320    16.2690    24.0150   -18.5070 
  139.1250     2.5300    52.0110    22.4620    20.1900    17.5720    24.0600   -18.4820 
  139.2500     2.5320    53.1000    22.9750    20.6060    18.9470    24.0820   -18.4310 
  139.3750     2.5380    52.7320    23.2860    20.9100    19.0150    24.0660   -18.4170 
  139.5000     2.5450    52.8570    23.2900    20.9870    17.6230    24.0450   -18.3980 
  139.6250     2.5470    53.3930    22.9760    20.7790    16.2140    24.0160   -18.3980 
  139.7500     2.5420    54.7940    22.5190    20.4060    15.5960    23.9610   -18.3920 
  139.8750     2.5300    58.2690    22.0310    19.9620    15.5420    23.8930   -18.4040 
  140.0000     2.5160    61.6900    21.5760    19.5130    15.4350    23.8560   -18.4460 
  140.1250     2.5050    62.0720    21.1640    19.0820    14.9010    23.8510   -18.4530 
  140.2500     2.5020    60.7580    20.7610    18.6580    14.2020    23.8470   -18.5290 
  140.3750     2.5070    59.3270    20.3620    18.2370    13.6790    23.8350   -18.5460 
  140.5000     2.5150    58.1100    19.9890    17.8390    13.4680    23.7960   -18.6300 
  140.6250     2.5240    58.1990    19.6950    17.5190    13.4510    23.7510   -18.6280 
  140.7500     2.5290    59.6980    19.5050    17.2980    13.4900    23.6990   -18.6390 
  140.8750     2.5320    60.4340    19.4270    17.1830    13.5750    23.6760   -18.6220 
  141.0000     2.5330    60.1000    19.4450    17.1550    13.6750    23.6680   -18.6170 
  141.1250     2.5300    61.0180    19.5240    17.1860    13.7500    23.6550   -18.5940 
  141.2500     2.5250    62.7520    19.6010    17.2240    13.6490    23.6390   -18.5750 
  141.3750     2.5180    62.3850    19.6430    17.2390    13.4250    23.6430   -18.5820 
  141.5000     2.5130    59.4170    19.6450    17.2200    13.3570    23.6560   -18.5440 
  141.6250     2.5150    57.7900    19.6380    17.1800    13.5560    23.6630   -18.5200 
  141.7500     2.5220    58.8820    19.6740    17.1540    13.8220    23.6510   -18.4890 
  141.8750     2.5300    61.5860    19.7750    17.1670    14.2990    23.6330   -18.4500 
  142.0000     2.5350    63.4710    19.9340    17.2220    15.2240    23.6440   -18.4100 
  142.1250     2.5320    61.9840    20.1010    17.2950    16.1750    23.6570   -18.3760 
  142.2500     2.5250    58.5320    20.2140    17.3400    16.4520    23.6650   -18.3340 
  142.3750     2.5180    54.9840    20.2370    17.3240    16.2130    23.6650   -18.2910 
  142.5000     2.5140    52.8380    20.1630    17.2300    16.0590    23.6650   -18.2510 
  142.6250     2.5140    53.2320    20.0010    17.0590    16.0850    23.6520   -18.2370 
  142.7500     2.5140    54.9380    19.7930    16.8480    15.8780    23.6230   -18.2450 
  142.8750     2.5140    55.4490    19.5600    16.6200    15.4680    23.5950   -18.2760 
  143.0000     2.5150    54.3160    19.3200    16.3980    15.2530    23.5770   -18.3120 
  143.1250     2.5180    54.1930    19.1130    16.2130    15.4340    23.5520   -18.3870 
  143.2500     2.5220    55.4540    18.9830    16.0920    15.4290    23.5160   -18.4340 
  143.3750     2.5240    56.3590    18.9590    16.0530    15.1230    23.4950   -18.5040 
  143.5000     2.5230    56.4640    19.0300    16.0860    15.2320    23.4890   -18.5260 
  143.6250     2.5210    56.8420    19.1160    16.1360    16.1800    23.4890   -18.6160 
  143.7500     2.5230    56.8470    19.0900    16.1120    16.7730    23.4890   -18.6600 
  143.8750     2.5290    56.2670    18.8820    15.9580    16.1840    23.4890   -18.7640 
  144.0000     2.5380    55.5530    18.5260    15.6860    14.7850    23.4890   -18.8250 
  144.1250     2.5450    54.8070    18.2160    15.4160    13.4460    23.4890   -18.8920 
  144.2500     2.5470    56.3210    18.1960    15.3220    12.7520    23.4890   -18.9530 
  144.3750     2.5380    60.2280    18.6010    15.5230    13.1040    23.4890   -19.0320 
  144.5000     2.5120    61.9500    19.3780    16.0130    14.5630    23.4880   -19.1610 
  144.6250     2.4670    60.4490    20.2250    16.6110    17.3380    23.4890   -19.2840 
  144.7500     2.4120    60.9010    20.7260    17.0040    20.9160    23.5050   -19.4380 
  144.8750     2.3600    63.9160    20.6480    16.9920    23.1920    23.5440   -19.5510 
  145.0000     2.3190    64.4460    20.0120    16.5420    21.2180    23.5700   -19.6670 
  145.1250     2.2960    60.8060    19.1340    15.8360    17.1490    23.5780   -19.7860 
  145.2500     2.2860    59.6720    18.5300    15.2680    15.6910    23.5830   -19.8720 
  145.3750     2.2810    60.9770    18.5150    15.1180    16.5260    23.5990   -19.9300 
  145.5000     2.2770    62.9110    19.2000    15.5360    17.7150    23.6310   -19.9480 
  145.6250     2.2700    65.5370    20.5920    16.6160    18.4870    23.6420   -19.9540 
  145.7500     2.2620    68.2410    22.3530    18.1300    20.1770    23.6580   -19.9300 
  145.8750     2.2560    68.9600    24.2240    19.8820    22.8080    23.6640   -19.9100 
  146.0000     2.2510    67.3530    25.9810    21.6660    24.3790    23.6650   -19.8690 
  146.1250     2.2470    66.0790    27.4040    23.2440    24.5910    23.6650   -19.8580 
  146.2500     2.2440    65.0120    28.3780    24.4480    25.0890    23.6650   -19.8350 
  146.3750     2.2420    63.3890    28.6850    25.0630    26.2620    23.6650   -19.7940 
  146.5000     2.2410    63.6510    28.0630    24.8550    26.6620    23.6650   -19.7590 
  146.6250     2.2450    67.1120    26.1220    23.4650    23.5380    23.6650   -19.6990 
  146.7500     2.2550    69.4320    23.1150    21.0840    19.2470    23.6650   -19.6670 
  146.8750     2.2680    67.4340    19.4410    18.0060    16.0900    23.6650   -19.5890 
  147.0000     2.2840    65.4250    15.7380    14.7490    13.9620    23.6650   -19.5390 
  147.1250     2.2980    70.6360    12.8220    12.0090    11.2480    23.6650   -19.3990 
  147.2500     2.3070    78.6690    10.9540    10.0850     8.4020    23.6650   -19.3500 
  147.3750     2.3070    83.3520    10.1360     9.0330     7.3490    23.6650   -19.3190 
  147.5000     2.3020    83.2320    10.1560     8.7320     9.1120    23.6650   -19.3620 
  147.6250     2.2950    81.3990    10.6800     8.9900    12.6650    23.6650   -19.3740 
  147.7500     2.2910    78.7800    11.1800     9.3960    13.6350    23.6650   -19.4230 
  147.8750     2.2910    75.5020    11.3590     9.6960    11.2790    23.6650   -19.4900 
  148.0000     2.2940    75.3680    11.1420     9.7640     8.8730    23.6570   -19.5940 
  148.1250     2.2960    79.1190    10.7050     9.6480     8.2150    23.6320   -19.7250 
  148.2500     2.2980    81.3120    10.4000     9.5810     8.5030    23.6020   -19.8530 
  148.3750     2.3010    80.0140    10.3840     9.7080     9.1560    23.6030   -19.9170 
  148.5000     2.3050    79.0610    10.6430    10.0470     9.7530    23.6390   -19.9660 
  148.6250     2.3090    80.2370    11.0490    10.5120    10.2890    23.6580   -20.0060 
  148.7500     2.3110    79.4130    11.4310    10.9380    10.6560    23.6650   -20.0550 
  148.8750     2.3070    78.3160    11.7140    11.2380    10.4740    23.6650   -20.1080 
  149.0000     2.2990    81.1120    11.8790    11.3780    10.1520    23.6650   -20.1740 
  149.1250     2.2920    86.6330    11.9360    11.3620    10.4420    23.6480   -20.3050 
  149.2500     2.2910    88.0460    11.9320    11.2550    10.8390    23.5810   -20.3570 
  149.3750     2.2980    85.0130    11.8750    11.0840    10.8330    23.4600   -20.5320 
  149.5000     2.3100    82.9150    11.7700    10.8680    10.5640    23.3660   -20.6680 
  149.6250     2.3170    84.1090    11.6620    10.6360    10.5350    23.3490   -20.8700 
  149.7500     2.3140    83.4890    11.5870    10.4520    10.8150    23.3490   -21.1170 
  149.8750     2.3020    79.8190    11.6720    10.4340    11.3810    23.3840   -21.3640 
