~V
VERS. 2.00: Ver 2.00
~W
STRT.M 55.0000:
STOP.M 246.0000:
STEP.M 0.1250:
NULL. -999.2500:
UWI. DF33025:
~C
DEPT.M :
SP.MV :
GR.API :
CALI.CM :
RXO.OHMM :
RI. :
RML.OHMM :
DEN.GM/CC :
~A
# ...
  201.2500   -22.4630    91.5620    24.9970    13.7330     8.7190    12.7290     2.3530 
  201.3750   -21.8650    89.7720    24.9860    14.5210     9.0660    13.2610     2.3650 
  201.5000   -21.0510    90.2710    25.0380    14.8080     9.2760    13.6430     2.3790 
  201.6250   -20.0890    93.5070    25.1410    14.5900     9.1570    13.5160     2.3920 
  201.7500   -19.1600    94.2300    25.1320    13.8070     8.7330    12.8650     2.4070 
  201.8750   -18.2090    93.0150    25.1250    11.9380     8.1250    11.8860     2.4280 
  202.0000   -17.2080    93.8060    25.1950     9.6720     7.5120    10.9020     2.4490 
  202.1250   -16.3480    93.6220    25.6300     8.6650     7.0770    10.2290     2.4520 
  202.2500   -15.6400    89.6210    25.9350     8.5890     6.8570     9.9000     2.4370 
  202.3750   -14.9790    88.7470    26.0670     8.8030     6.8460     9.8710     2.4240 
  202.5000   -14.3840    95.6740    25.8800     9.1750     7.0010    10.0350     2.4250 
  202.6250   -13.9220   102.1290    25.5680     9.6750     7.2610    10.2660     2.4340 
  202.7500   -13.4960    99.4910    25.1330    10.0340     7.5530    10.5050     2.4360 
  202.8750   -13.0300    91.4920    24.8310    10.1580     7.8670    10.8110     2.4300 
  203.0000   -12.5230    86.7790    24.7830    10.0910     8.2000    11.2150     2.4250 
  203.1250   -11.9830    88.6520    24.9540    10.3090     8.4790    11.5750     2.4310 
  203.2500   -11.3520    91.3480    25.0480    11.2120     8.5570    11.6160     2.4550 
  203.3750   -10.6340    92.9550    25.0780    12.0840     8.2770    11.0960     2.4960 
  203.5000    -9.9190    91.3530    25.0750    11.0820     7.5930     9.9960     2.5270 
  203.6250    -9.2660    86.1430    25.0780     8.3560     6.6660     8.6250     2.5080 
  203.7500    -8.6410    79.7390    25.1420     6.0630     5.8380     7.4640     2.4540 
  203.8750    -8.0930    75.0800    25.2960     5.1950     5.2910     6.7180     2.4040 
  204.0000    -7.6430    72.2430    25.3310     5.1550     5.0720     6.4110     2.3870 
  204.1250    -7.3150    73.2320    25.1150     5.4290     5.1370     6.4840     2.4010 
  204.2500    -7.1280    79.0360    24.8170     5.7410     5.3010     6.6970     2.4190 
  204.3750    -7.0780    86.6110    24.6850     5.9360     5.4670     6.8960     2.4320 
  204.5000    -7.1130    91.7990    24.6670     5.9800     5.6030     7.0070     2.4430 
  204.6250    -7.2420    95.8440    24.6670     6.0220     5.7390     7.0460     2.4550 
  204.7500    -7.4390   100.6520    24.6670     6.0960     5.8830     7.0730     2.4620 
  204.8750    -7.6770   103.8830    24.6660     6.1710     5.9970     7.0920     2.4600 
  205.0000    -8.0150   102.4490    24.6630     6.2410     6.0420     7.0790     2.4520 
  205.1250    -8.3160    97.7350    24.6600     6.3900     5.9950     6.9960     2.4430 
  205.2500    -8.5460    92.7880    24.6630     6.4730     5.8930     6.8510     2.4320 
  205.3750    -8.8500    90.7740    24.6740     6.3120     5.7620     6.6790     2.4170 
  205.5000    -9.2230    92.7220    24.6910     5.9550     5.6320     6.5400     2.4000 
  205.6250    -9.5100    98.0030    24.7010     5.7040     5.5670     6.5330     2.3870 
  205.7500    -9.7840   103.9980    24.7150     5.7440     5.6230     6.6940     2.3810 
  205.8750   -10.1410   106.1970    24.7310     6.1940     5.8240     7.0330     2.3840 
  206.0000   -10.5040   102.0570    24.7370     7.0160     6.1280     7.4940     2.3930 
  206.1250   -10.8520    93.7620    24.6890     7.7190     6.4020     7.9290     2.3990 
  206.2500   -11.2300    89.4060    24.6660     8.1430     6.5300     8.1730     2.4010 
  206.3750   -11.6400    91.4290    24.6580     8.3650     6.5130     8.1740     2.4040 
  206.5000   -12.0720    94.6490    24.6560     8.5450     6.4700     8.0560     2.4080 
  206.6250   -12.5340    93.5920    24.6570     8.8340     6.6300     8.1560     2.4120 
  206.7500   -13.0300    91.9870    24.6590     9.7000     7.1780     8.7970     2.4100 
  206.8750   -13.5530    93.5970    24.6620    12.3770     8.3510    10.3110     2.4060 
  207.0000   -14.0540    95.5470    24.6680    17.7700    10.5130    13.0890     2.4010 
  207.1250   -14.5880    90.7110    24.6750    25.9590    14.5570    18.0060     2.3950 
  207.2500   -15.1980    83.2050    24.6800    33.2490    20.9950    25.4080     2.3850 
  207.3750   -15.7990    79.0860    24.6810    40.8980    30.4540    35.7770     2.3710 
  207.5000   -16.3360    77.8540    24.6670    51.5270    43.0920    49.2090     2.3500 
  207.6250   -16.8540    75.6810    24.6630    63.6590    58.2030    65.0900     2.3180 
  207.7500   -17.3540    74.1830    24.7130    69.4020    73.2430    80.8800     2.2800 
  207.8750   -17.8000    74.4420    24.8290    70.8040    86.1250    94.3020     2.2440 
  208.0000   -18.2080    73.8070    24.7860    72.9480    95.3190   103.5510     2.2180 
  208.1250   -18.5560    70.0900    24.7330    75.2470    99.7720   107.4230     2.2070 
  208.2500   -18.8400    67.9470    24.6720    75.5590   101.5610   108.5050     2.2060 
  208.3750   -19.0590    68.7500    24.6550    74.2810   102.5650   109.0320     2.2080 
  208.5000   -19.2450    70.3920    24.6560    73.5500   103.9090   110.2070     2.2090 
  208.6250   -19.4850    70.8820    24.6580    75.5240   105.5180   111.8590     2.2070 
  208.7500   -19.7090    72.0330    24.6570    80.5140   106.1020   112.2480     2.2040 
  208.8750   -19.8510    74.3130    24.6720    84.8650   104.2320   109.4340     2.1990 
  209.0000   -19.9900    77.3390    24.7860    84.6520    99.0540   102.4760     2.1920 
  209.1250   -20.2370    80.0470    25.1110    78.1140    90.8270    92.3860     2.1900 
  209.2500   -20.4560    79.9830    25.4260    71.0200    81.5600    83.1300     2.1980 
  209.3750   -20.5890    76.9220    25.5660    64.5090    73.8320    76.3030     2.2140 
  209.5000   -20.7400    72.8780    25.6130    59.3210    69.7630    72.2210     2.2280 
  209.6250   -20.8890    71.2530    25.5740    56.6820    69.9230    72.5270     2.2330 
  209.7500   -20.9900    72.6670    25.5260    57.3320    73.6700    76.6060     2.2330 
  209.8750   -21.0910    73.6540    25.6880    63.1230    80.6270    83.9790     2.2290 
  210.0000   -21.1730    71.4300    26.0230    70.2670    89.8260    93.5780     2.2200 
  210.1250   -21.2220    66.8560    26.2020    73.7260    99.0210   103.2830     2.2070 
  210.2500   -21.2950    66.4510    26.2450    74.8290   104.8700   110.1240     2.2010 
  210.3750   -21.3870    70.3330    26.2570    75.4930   105.1370   111.9570     2.2040 
  210.5000   -21.4350    72.0910    26.2840    75.8440   100.3930   108.7120     2.2090 
  210.6250   -21.4570    70.7350    26.2040    73.7610    93.9490   102.7960     2.2120 
  210.7500   -21.4930    71.3020    25.9810    66.5400    89.3820    98.1370     2.2190 
  210.8750   -21.5030    73.5550    25.8360    57.4600    88.1850    96.8370     2.2270 
  211.0000   -21.5330    72.3590    26.0250    55.6520    90.5130    99.3320     2.2320 
  211.1250   -21.5730    67.3540    25.9970    64.5310    94.7270   103.8080     2.2290 
  211.2500   -21.5760    65.5270    25.9280    75.9390    96.7540   106.1250     2.2290 
  211.3750   -21.5790    67.2120    26.2130    81.8460    93.6780   103.5420     2.2350 
  211.5000   -21.6610    67.7350    26.4650    79.1390    85.6870    95.9870     2.2490 
  211.6250   -21.7160    67.5260    26.4000    72.8380    76.2610    86.3430     2.2830 
  211.7500   -21.7500    69.0220    26.0920    71.8210    69.1870    78.6600     2.3370 
  211.8750   -21.9070    71.0950    25.7630    75.4730    65.8020    74.7510     2.3920 
  212.0000   -22.1310    71.5520    25.5490    77.7260    66.2710    75.0520     2.4110 
  212.1250   -22.2910    70.5050    25.4940    74.4990    70.8090    79.9950     2.3660 
  212.2500   -22.4570    70.4090    25.4730    74.9690    78.2760    88.4860     2.2900 
  212.3750   -22.7290    71.5100    25.4710    76.0970    88.0560    99.9590     2.2260 
