~V
VERS. 2.00: Ver 2.00
~W
STRT.M 50.0000:
STOP.M 235.0000:
STEP.M 0.1250:
NULL. -999.2500:
UWI. DF33017:
~C
DEPT.M :
GR.API :
CALI.CM :
RXO.OHMM :
RI. :
RML.OHMM :
DEN.GM/CC :
SP.MV :
~A
# ...
   95.0000    73.2590    26.0780     8.3140     6.4150     9.4990     2.2080   -34.6240 
   95.1250    75.5650    26.0940     8.0190     6.3430     9.1390     2.1850   -34.2560 
   95.2500    79.1870    26.0780     7.4680     6.1470     8.7240     2.1850   -33.7600 
   95.3750    83.3280    26.2440     7.0650     5.6990     8.1790     2.2030   -33.1920 
   95.5000    87.8970    26.5880     6.7630     5.0500     7.4900     2.2280   -32.5680 
   95.6250    92.8200    26.9790     6.0900     4.4170     6.7050     2.2570   -31.9720 
   95.7500    96.2820    27.3420     5.1700     3.9560     5.9390     2.2900   -31.4210 
   95.8750    97.7580    27.5730     4.4930     3.6510     5.2770     2.3240   -30.9480 
   96.0000    96.9770    27.7100     4.1620     3.4050     4.7870     2.3510   -30.5920 
   96.1250    95.9180    27.7470     3.9990     3.1660     4.5570     2.3620   -30.4090 
   96.2500    95.9870    27.7130     3.9260     3.0140     4.5750     2.3630   -30.3660 
   96.3750    97.6020    27.6490     4.0000     3.0800     4.8360     2.3630   -30.4470 
   96.5000   100.5530    27.5460     4.2920     3.4270     5.3060     2.3650   -30.6460 
   96.6250   102.7000    27.3700     4.7500     3.9780     5.9140     2.3610   -30.9190 
   96.7500   101.4850    27.1810     5.1150     4.4530     6.4810     2.3460   -31.2010 
   96.8750    99.1860    27.0360     5.3200     4.6510     6.8450     2.3270   -31.5110 
   97.0000    98.9980    26.9230     5.3690     4.5390     6.8980     2.3110   -31.8180 
   97.1250   100.5670    26.8530     5.1880     4.2720     6.6260     2.3120   -32.1650 
   97.2500   100.0380    26.8060     4.7360     4.0620     6.2470     2.3270   -32.5740 
   97.3750    97.1200    26.7690     4.3310     3.9610     5.9370     2.3500   -33.0380 
   97.5000    95.1500    26.7470     4.2680     3.9620     5.8470     2.3670   -33.5440 
   97.6250    95.6390    26.7240     4.5900     4.1300     6.1470     2.3630   -34.1330 
   97.7500    95.2750    26.7290     5.1920     4.5500     6.8380     2.3450   -34.8070 
   97.8750    92.7320    26.7280     6.2680     5.2960     7.8830     2.3210   -35.5360 
   98.0000    88.4910    26.6830     8.1590     6.2980     9.1120     2.2980   -36.3320 
   98.1250    83.5590    26.2710    10.7500     7.2000    10.1260     2.2740   -37.1170 
   98.2500    79.4050    25.9110    11.8690     7.6330    10.6090     2.2490   -37.8110 
   98.3750    78.7790    25.7120    10.9360     7.5480    10.5330     2.2290   -38.4000 
   98.5000    81.4620    25.5010     9.4740     7.1890    10.1220     2.2130   -38.8810 
   98.6250    81.2890    25.2070     9.0150     6.8730     9.6410     2.1930   -39.1800 
   98.7500    76.8330    24.7840     9.0880     6.6810     9.2440     2.1680   -39.3540 
   98.8750    72.5370    24.4620     9.2100     6.5460     8.9840     2.1510   -39.4090 
   99.0000    72.6230    24.3490     9.1390     6.4470     8.9250     2.1560   -39.3690 
   99.1250    77.4180    24.4160     8.9110     6.5300     9.1960     2.1760   -39.2440 
   99.2500    80.1820    24.5950     8.8420     6.9090     9.7880     2.2000   -39.0740 
   99.3750    79.3010    24.8890     9.4540     7.5460    10.6220     2.2380   -38.9120 
   99.5000    78.7960    25.2160    11.1920     8.1930    11.4590     2.3080   -38.7960 
   99.6250    81.0830    25.3520    13.0570     8.4420    11.8380     2.3920   -38.7760 
   99.7500    80.2820    24.9840    13.1450     8.2550    11.6060     2.4330   -38.8080 
   99.8750    74.8540    24.3080    11.7380     7.8430    10.9190     2.4010   -38.8540 
  100.0000    70.5030    23.7590    10.4870     7.4650    10.1330     2.3220   -38.8940 
  100.1250    70.2240    23.5850    10.2780     7.2810     9.6640     2.2520   -38.9440 
  100.2500    68.6970    23.5910    10.7390     7.2490     9.6420     2.2160   -39.0090 
  100.3750    65.7760    23.6210    11.2730     7.3430    10.0310     2.2030   -39.0570 
  100.5000    64.7430    23.6330    11.4960     7.5690    10.6700     2.2050   -39.0580 
  100.6250    66.1940    23.6350    11.5700     7.9150    11.2720     2.2290   -39.0110 
  100.7500    66.8270    23.6390    11.9010     8.1920    11.5430     2.2730   -38.9390 
  100.8750    68.1800    23.6420    11.5190     8.1890    11.3570     2.3130   -38.8630 
  101.0000    71.7870    23.6420    10.3150     7.8300    10.8130     2.3220   -38.8200 
  101.1250    74.1130    23.6420     9.4200     7.2880    10.1990     2.2920   -38.7930 
  101.2500    73.9310    23.6530     9.2400     6.9240     9.7900     2.2520   -38.7840 
  101.3750    73.7230    23.6880     9.2990     6.9420     9.7000     2.2230   -38.8070 
  101.5000    75.3500    23.7460     9.5610     7.3320     9.9230     2.2100   -38.8630 
  101.6250    76.2410    23.8030    10.3010     7.8630    10.3430     2.2070   -38.9090 
  101.7500    73.5740    23.8350    11.1060     8.2110    10.7220     2.2090   -38.9360 
  101.8750    70.1390    23.8480    11.3860     8.2700    10.9190     2.2170   -38.9590 
  102.0000    69.6960    23.8520    11.2500     8.1370    10.8880     2.2260   -38.9610 
  102.1250    74.2710    23.8530    11.5070     7.9910    10.6360     2.2320   -38.9610 
  102.2500    78.3340    23.8560    11.6870     7.8860    10.2870     2.2370   -38.9640 
  102.3750    77.9120    23.8580    11.2650     7.7400     9.9290     2.2410   -38.9580 
  102.5000    74.1170    23.8610    10.5230     7.4920     9.6340     2.2370   -38.9550 
  102.6250    70.7180    23.8630    10.0640     7.2130     9.4670     2.2210   -39.0050 
  102.7500    70.8540    23.8720     9.9250     7.0790     9.4210     2.2060   -39.1130 
  102.8750    73.3660    23.9100     9.9430     7.1840     9.4850     2.2040   -39.2760 
  103.0000    76.6530    23.9960    10.0810     7.4640     9.6320     2.2140   -39.5100 
  103.1250    77.8980    24.0780    10.2500     7.6890     9.7950     2.2260   -39.7570 
  103.2500    76.2950    24.1190    10.3280     7.7030     9.9040     2.2300   -40.0160 
  103.3750    73.9590    24.1380    10.3530     7.5470     9.9330     2.2270   -40.2750 
  103.5000    72.4550    24.1660    10.4430     7.3790     9.8820     2.2290   -40.5280 
  103.6250    72.3900    24.1800    10.5830     7.3460     9.7650     2.2400   -40.7360 
  103.7500    72.1150    24.1820    10.5180     7.4010     9.6470     2.2480   -40.8760 
  103.8750    71.6270    24.1860    10.4090     7.4440     9.5810     2.2410   -40.9940 
  104.0000    71.6010    24.2140    10.4600     7.4250     9.5920     2.2240   -41.0590 
  104.1250    72.3740    24.2670    10.5260     7.4130     9.6750     2.2190   -41.0550 
  104.2500    73.0750    24.3190    10.5800     7.4820     9.7440     2.2270   -41.0100 
  104.3750    72.5480    24.3850    10.6370     7.5670     9.6730     2.2370   -40.9160 
  104.5000    71.8820    24.4700    10.6460     7.4840     9.3430     2.2350   -40.7790 
  104.6250    73.8890    24.6240    10.6200     7.0690     8.7460     2.2200   -40.6200 
  104.7500    76.9880    24.8630    10.6660     6.5640     8.1780     2.2040   -40.4490 
  104.8750    76.4510    25.2010    10.8690     6.3530     7.9640     2.1990   -40.2190 
  105.0000    72.0110    25.5720    11.4180     6.8260     8.4340     2.2100   -39.9490 
  105.1250    68.5160    25.9030    13.4890     8.4740    10.1530     2.2450   -39.6810 
  105.2500    68.6010    26.3500    19.6800    11.3380    13.3520     2.3100   -39.4330 
  105.3750    70.3390    26.9900    32.7140    15.3550    18.1540     2.4060   -39.2730 
  105.5000    71.0020    27.6080    49.9380    19.7260    23.5400     2.5190   -39.2110 
  105.6250    71.8130    28.0700    57.5330    21.9190    25.6080     2.6020   -39.2310 
  105.7500    73.4750    28.2040    50.4300    20.7520    22.9320     2.6250   -39.3420 
  105.8750    75.7030    28.0320    34.4770    17.3760    18.0340     2.5950   -39.5400 
  106.0000    78.0530    27.5320    19.9900    13.6230    13.6420     2.5340   -39.7720 
  106.1250    79.6310    27.0260    13.5970    10.6710    10.8570     2.4570   -40.0110 
