~V
VERS. 2.00: Ver 2.00
~W
STRT.M 55.0000:
STOP.M 245.0000:
STEP.M 0.1250:
NULL. -999.2500:
UWI. DF33016:
~C
DEPT.M :
GR.API :
CALI.CM :
RXO.OHMM :
RI. :
RML.OHMM :
DEN.GM/CC :
SP.MV :
~A
# ...
  133.7500    62.2900    24.8460    22.2610    21.2440    23.9820     2.6010   -15.3660 
  133.8750    61.8080    24.8210    24.0910    22.9300    25.9560     2.5820   -15.3660 
  134.0000    64.0890    24.8410    24.3900    24.1610    27.2450     2.5620   -15.4120 
  134.1250    63.8030    24.8150    24.1150    24.5520    27.4460     2.5440   -15.4940 
  134.2500    62.2160    24.7780    23.4660    24.3490    26.9790     2.5330   -15.6040 
  134.3750    61.9880    24.7060    22.5440    23.8460    26.2700     2.5380   -15.7050 
  134.5000    62.5250    24.5680    21.5150    23.3030    25.6260     2.5530   -15.7840 
  134.6250    60.6740    24.4380    20.8190    22.8680    25.1630     2.5680   -15.8130 
  134.7500    59.2710    24.2390    21.0220    22.5260    24.8320     2.5730   -15.7990 
  134.8750    60.6060    23.9560    21.7080    22.3080    24.6390     2.5690   -15.7670 
  135.0000    62.7400    23.7690    21.7630    22.2900    24.6280     2.5660   -15.7230 
  135.1250    62.3020    23.7020    21.1650    22.6030    24.9500     2.5710   -15.7030 
  135.2500    60.8060    23.7770    20.7380    23.2660    25.6590     2.5820   -15.6890 
  135.3750    59.7490    24.0210    21.7880    24.2610    26.7710     2.5860   -15.6570 
  135.5000    58.8000    24.1800    24.3100    25.4790    28.1680     2.5800   -15.6010 
  135.6250    56.9930    24.5790    26.8280    26.6680    29.5090     2.5750   -15.5340 
  135.7500    56.3870    24.7700    28.2400    27.4810    30.3450     2.5800   -15.4820 
  135.8750    56.4210    24.8460    28.3840    27.6350    30.3520     2.5880   -15.4580 
  136.0000    56.4710    24.8530    27.9370    27.0400    29.4780     2.5890   -15.4550 
  136.1250    58.0620    24.8530    27.3390    25.8300    27.9760     2.5770   -15.4440 
  136.2500    60.1530    24.8450    26.1290    24.5010    26.4260     2.5600   -15.4240 
  136.3750    60.4270    24.7360    23.7570    23.3840    25.1780     2.5460   -15.4090 
  136.5000    59.1440    24.4360    20.9890    22.6890    24.4520     2.5400   -15.4180 
  136.6250    57.9530    23.9520    19.3190    22.5930    24.4230     2.5390   -15.4730 
  136.7500    56.7380    23.7420    19.2270    22.9210    24.8750     2.5430   -15.5310 
  136.8750    55.7080    23.6880    20.0730    23.4390    25.5260     2.5520   -15.5800 
  137.0000    57.0540    23.6470    20.8990    23.8370    25.9890     2.5620   -15.6310 
  137.1250    60.9450    23.5410    21.4230    23.7220    25.7890     2.5640   -15.7080 
  137.2500    62.1350    23.4690    21.5170    23.0710    24.9490     2.5540   -15.7840 
  137.3750    60.0980    23.6100    20.4850    22.0540    23.7110     2.5400   -15.8880 
  137.5000    58.2770    24.0560    18.5870    20.9660    22.4410     2.5380   -16.0160 
  137.6250    60.5620    24.5360    17.3460    20.1910    21.5810     2.5490   -16.0930 
  137.7500    65.7310    24.5360    17.1580    19.9320    21.3280     2.5620   -16.1350 
  137.8750    68.7580    24.2610    17.5700    20.3140    21.7800     2.5600   -16.1390 
  138.0000    67.5110    24.0790    18.2540    21.3290    22.9200     2.5470   -16.1130 
  138.1250    64.2600    24.0670    19.6530    22.7810    24.5640     2.5350   -16.0550 
  138.2500    62.5180    24.0610    21.7300    24.1370    26.0930     2.5300   -16.0070 
  138.3750    62.3520    23.9690    23.7070    24.9200    26.9020     2.5330   -15.9070 
  138.5000    61.7650    23.7790    24.0650    24.8030    26.6270     2.5350   -15.7720 
  138.6250    62.1130    23.7400    22.0170    23.7570    25.3280     2.5330   -15.7150 
  138.7500    64.6260    23.8960    19.5760    22.3910    23.7630     2.5280   -15.6680 
  138.8750    67.7140    24.0610    17.9640    21.1080    22.4140     2.5190   -15.6250 
  139.0000    69.1080    24.2530    17.5060    20.1620    21.5310     2.5090   -15.5770 
  139.1250    67.7590    24.3550    17.8130    19.7410    21.2080     2.5040   -15.5030 
  139.2500    66.2480    24.2980    18.1420    19.7090    21.2310     2.5060   -15.4120 
  139.3750    66.1460    24.1830    18.0930    19.9250    21.4650     2.5070   -15.3800 
  139.5000    67.2750    24.2220    17.7510    20.2740    21.8120     2.5040   -15.3810 
  139.6250    68.3960    24.3910    17.6440    20.6490    22.1880     2.5010   -15.3600 
  139.7500    67.8060    24.5710    17.9480    20.9070    22.4640     2.5030   -15.3570 
  139.8750    65.0670    24.7580    18.4120    20.9370    22.4970     2.5060   -15.3630 
  140.0000    61.6180    24.7720    18.7640    20.6830    22.1940     2.5050   -15.3510 
  140.1250    61.2110    24.5640    18.5220    20.1170    21.5430     2.5100   -15.3390 
  140.2500    63.5260    24.7410    17.5280    19.4040    20.7610     2.5220   -15.3110 
  140.3750    66.0100    25.0500    16.0860    18.6920    20.0220     2.5340   -15.2750 
  140.5000    66.0950    25.1810    15.1400    18.0860    19.4450     2.5390   -15.2530 
  140.6250    63.3200    25.2960    15.3260    17.6450    19.0700     2.5410   -15.2070 
  140.7500    61.5410    25.3790    15.5400    17.3110    18.7890     2.5400   -15.1590 
  140.8750    63.4700    25.3420    15.2630    17.0190    18.5060     2.5310   -15.1010 
  141.0000    67.6390    25.2060    14.7960    16.7190    18.1590     2.5180   -15.0640 
  141.1250    68.6340    25.1150    14.6030    16.4240    17.7660     2.5100   -15.0310 
  141.2500    65.7890    25.1110    14.6070    16.2200    17.4540     2.5110   -15.0090 
  141.3750    62.9760    25.2030    14.6300    16.2030    17.3700     2.5070   -14.9880 
  141.5000    61.8720    25.4700    14.8030    16.4360    17.6250     2.4900   -14.9420 
  141.6250    60.4810    25.7720    15.3360    16.9470    18.2690     2.4690   -14.9210 
  141.7500    59.0780    25.8570    16.2600    17.5480    19.0690     2.4590   -14.9240 
  141.8750    60.0490    25.7460    17.5720    18.0400    19.7510     2.4680   -14.8860 
  142.0000    62.2630    25.6060    18.9420    18.2400    20.0480     2.4800   -14.8690 
  142.1250    62.5570    25.5710    19.0670    17.9990    19.7590     2.4910   -14.8720 
  142.2500    61.7690    25.6610    17.5000    17.4940    19.1260     2.5090   -14.8170 
  142.3750    62.4970    25.7960    15.5320    16.9280    18.4280     2.5340   -14.7440 
  142.5000    64.7540    25.8860    14.5420    16.4730    17.8960     2.5480   -14.7410 
  142.6250    65.9180    25.9450    14.6610    16.2580    17.6760     2.5420   -14.7760 
  142.7500    64.6100    26.0070    14.8640    16.2350    17.6960     2.5270   -14.7770 
  142.8750    61.3750    26.0480    15.0960    16.3470    17.8740     2.5130   -14.8060 
  143.0000    58.9750    26.0430    15.3580    16.5240    18.1160     2.5000   -14.7960 
  143.1250    59.0890    26.0120    15.5550    16.7270    18.3970     2.4900   -14.7550 
  143.2500    59.9010    25.9780    15.8570    16.9750    18.7370     2.4860   -14.7800 
  143.3750    59.6060    25.9350    16.3870    17.2450    19.1110     2.4970   -14.8340 
  143.5000    58.0070    25.8960    16.8360    17.4480    19.4010     2.5180   -14.8570 
  143.6250    58.1570    25.8530    17.2440    17.4070    19.3730     2.5410   -14.8430 
  143.7500    59.8690    25.8150    17.8250    17.0470    18.9500     2.5540   -14.8440 
  143.8750    61.2890    25.8650    17.5610    16.3920    18.1740     2.5500   -14.8690 
  144.0000    59.9680    26.0690    15.8530    15.5790    17.2410     2.5380   -14.9180 
  144.1250    57.5350    26.2990    14.5150    14.8820    16.4730     2.5270   -15.0000 
  144.2500    56.9870    26.4470    14.8880    14.4990    16.0760     2.5230   -15.1190 
  144.3750    57.1050    26.5670    15.8520    14.5140    16.1530     2.5270   -15.2200 
  144.5000    56.7880    26.6390    16.4740    14.9370    16.7050     2.5310   -15.2530 
  144.6250    57.4440    26.5400    16.3510    15.6960    17.6390     2.5300   -15.2990 
  144.7500    59.8600    26.3020    17.1080    16.5110    18.6090     2.5280   -15.3260 
  144.8750    62.8810    26.0270    18.0120    17.1600    19.3420     2.5310   -15.3130 
