~V
VERS. 2.00: Ver 2.00
~W
STRT.M 60.0000:
STOP.M 236.0000:
STEP.M 0.1250:
NULL. -999.2500:
UWI. DF33015:
~C
DEPT.M :
DEN.GM/CC :
GR.API :
RML.OHMM :
RI. :
RXO.OHMM :
CALI.CM :
SP.MV :
~A
# ...
  150.0000     2.2850    76.5480    12.2660    10.7960    12.0520    23.5030   -21.6940 
  150.1250     2.2670    75.1640    14.1080    12.1090    13.1760    23.5910   -22.0090 
  150.2500     2.2550    71.9680    18.0810    14.8840    16.3680    23.4950   -22.4020 
  150.3750     2.2470    67.9020    24.8990    19.7380    24.2230    23.2580   -22.8260 
  150.5000     2.2440    65.8140    34.7900    27.0170    39.4980    23.0590   -23.2740 
  150.6250     2.2470    65.3480    47.3010    36.6330    59.8380    22.9830   -23.7930 
  150.7500     2.2510    65.2450    58.9220    46.8360    69.3580    22.9750   -24.2330 
  150.8750     2.2550    65.1810    68.6580    55.9020    66.1130    22.9830   -24.7360 
  151.0000     2.2550    63.4520    75.1390    62.4960    61.8380    22.9780   -25.1480 
  151.1250     2.2500    59.3070    78.1570    66.0280    63.9120    23.0050   -25.6120 
  151.2500     2.2420    56.9750    79.6340    67.8340    69.9650    23.0600   -26.0700 
  151.3750     2.2350    58.4520    80.4600    68.6760    74.4370    23.1030   -26.4680 
  151.5000     2.2340    61.4500    80.9390    68.9470    71.8440    23.1180   -26.9120 
  151.6250     2.2390    63.0670    81.5170    69.1450    67.6920    23.1180   -27.2610 
  151.7500     2.2480    63.8370    83.4080    70.5540    67.8430    23.1180   -27.6930 
  151.8750     2.2550    64.9390    88.7870    75.3490    68.1910    23.1180   -28.0840 
  152.0000     2.2550    66.1530   101.2070    86.6770    67.7310    23.1250   -28.5420 
  152.1250     2.2450    64.3890   127.5870   110.0910    79.3800    23.1600   -28.9050 
  152.2500     2.2270    60.9230   168.6280   145.4080   120.4330    23.2460   -29.3320 
  152.3750     2.2080    58.8130   221.1310   189.3180   196.2520    23.3800   -29.7270 
  152.5000     2.1920    58.9020   274.9830   233.3970   243.6750    23.5840   -30.0800 
  152.6250     2.1840    58.0970   309.8260   262.4160   234.6830    23.8130   -30.4830 
  152.7500     2.1850    55.6290   314.3530   269.0870   230.8250    24.0540   -30.7850 
  152.8750     2.1900    53.6050   291.3470   254.7330   224.1270    24.1910   -31.1190 
  153.0000     2.1980    53.5260   257.0150   229.1680   205.7490    24.2080   -31.3130 
  153.1250     2.2040    55.5860   228.1640   204.7960   179.2170    24.3070   -31.5920 
  153.2500     2.2060    56.7830   208.1240   187.0070   158.3820    24.5220   -31.7520 
  153.3750     2.2050    55.6210   194.3140   175.2700   150.4300    24.6980   -31.8530 
  153.5000     2.2040    53.5420   183.4040   167.1020   153.1550    24.7600   -32.0210 
  153.6250     2.2040    54.5080   172.1530   159.4020   154.2900    24.7560   -32.0890 
  153.7500     2.2070    57.6020   159.2490   149.8370   143.8790    24.7440   -32.1850 
  153.8750     2.2150    59.0730   145.2000   137.9320   126.1390    24.7180   -32.2130 
  154.0000     2.2270    58.8990   132.6270   124.6170   109.5410    24.6890   -32.2160 
  154.1250     2.2410    60.1460   122.7890   112.0770    92.9330    24.6880   -32.2010 
  154.2500     2.2560    63.2080   115.1070   102.1810    78.1790    24.7100   -32.1520 
  154.3750     2.2680    65.6740   108.1560    95.8760    69.6940    24.7420   -32.1760 
  154.5000     2.2770    65.5090   105.4720    93.2960    68.8510    24.7430   -32.0880 
  154.6250     2.2780    64.4060   106.7140    94.3370    71.7860    24.6860   -32.0100 
  154.7500     2.2680    64.9270   110.1110    97.4110    72.2710    24.6310   -31.9660 
  154.8750     2.2500    66.5160   114.5060   101.4430    71.3200    24.6020   -31.9030 
  155.0000     2.2280    66.7240   118.8560   105.4500    72.3580    24.5090   -31.9600 
  155.1250     2.2140    64.9390   122.2290   108.5310    73.0940    24.1510   -31.8920 
  155.2500     2.2120    64.1940   124.5020   110.5130    67.2490    23.6030   -31.9840 
  155.3750     2.2210    63.7170   125.8100   111.4690    58.5670    23.2030   -32.0760 
  155.5000     2.2320    62.5350   126.4420   111.6370    55.4100    23.0770   -32.1490 
  155.6250     2.2360    61.2510   126.9630   111.4860    61.6280    23.2260   -32.3550 
  155.7500     2.2290    61.3680   128.5070   112.0780    75.6260    23.5920   -32.4810 
  155.8750     2.2150    61.4870   132.6620   114.8420    90.3070    24.0410   -32.6950 
  156.0000     2.1990    60.9780   141.4330   121.5260    95.5960    24.3140   -32.9420 
  156.1250     2.1870    61.1750   157.8830   134.7580   101.5100    24.4190   -33.1700 
  156.2500     2.1810    60.5120   180.9780   153.7690   124.6660    24.4250   -33.3850 
  156.3750     2.1810    57.3570   207.6630   176.2130   167.6540    24.4140   -33.5770 
  156.5000     2.1870    52.7840   231.8650   197.3220   199.8650    24.4070   -33.7480 
  156.6250     2.1980    51.6500   243.4220   209.1130   190.3100    24.4070   -33.8940 
  156.7500     2.2100    54.3700   239.1570   208.5120   175.0360    24.4070   -34.0130 
  156.8750     2.2210    57.5450   221.5410   196.3460   157.4080    24.4070   -34.1190 
  157.0000     2.2310    59.3070   198.2950   177.6050   137.2950    24.4070   -34.1450 
  157.1250     2.2380    58.9970   178.6010   159.5310   118.7210    24.4070   -34.2180 
  157.2500     2.2420    59.3070   166.4340   147.0100   106.4600    24.4070   -34.2450 
  157.3750     2.2440    61.3040   162.9220   141.9320   103.2410    24.4010   -34.2090 
  157.5000     2.2420    63.5150   168.1310   144.7790   109.2860    24.3810   -34.2970 
  157.6250     2.2370    64.2960   182.2600   155.9340   124.1890    24.3230   -34.2420 
  157.7500     2.2300    62.9560   201.3380   171.9150   141.5860    24.2510   -34.2360 
  157.8750     2.2230    59.1530   221.5650   189.5280   154.2360    24.1650   -34.2120 
  158.0000     2.2190    54.2670   238.6670   205.1900   156.4300    24.0950   -34.1510 
  158.1250     2.2180    52.8480   248.0540   214.9770   150.9570    24.0420   -34.1720 
  158.2500     2.2190    55.5190   250.2530   218.7910   146.2350    24.0060   -34.0410 
  158.3750     2.2220    58.6270   246.8570   217.5260   143.2770    23.9680   -33.9920 
  158.5000     2.2240    59.5790   239.5520   212.4460   140.2990    23.9380   -33.8460 
  158.6250     2.2270    58.9090   228.3530   203.6620   135.2210    23.9130   -33.7450 
  158.7500     2.2310    57.8970   213.6310   191.6460   126.6630    23.8840   -33.6900 
  158.8750     2.2360    58.0910   195.8630   176.6850   114.8860    23.8530   -33.5620 
  159.0000     2.2450    59.9640   176.6360   159.9700   101.2740    23.8210   -33.5470 
  159.1250     2.2560    63.3820   158.7230   143.7730    89.5880    23.7750   -33.3790 
  159.2500     2.2700    67.6660   144.2640   130.2060    82.9750    23.7400   -33.2660 
  159.3750     2.2830    71.9870   134.5520   120.6120    82.0680    23.7000   -33.1890 
  159.5000     2.2950    73.6300   130.1920   115.7000    82.9950    23.6740   -33.0340 
  159.6250     2.3030    70.6000   132.1950   116.4690    81.8720    23.6650   -32.8860 
  159.7500     2.3050    67.1340   139.2430   121.7620    83.0280    23.6650   -32.7130 
  159.8750     2.3030    65.6990   150.2900   130.6280    90.6690    23.6650   -32.4770 
  160.0000     2.2960    65.1960   163.4510   141.3370   104.2990    23.6650   -32.1850 
  160.1250     2.2890    62.8560   175.6220   151.0550   116.0460    23.6650   -31.9260 
  160.2500     2.2850    60.8070   184.2300   157.4730   116.8530    23.6660   -31.6510 
  160.3750     2.2850    60.8960   188.4030   159.8060   103.4630    23.6700   -31.3170 
  160.5000     2.2900    61.3980   189.4040   159.1210    82.3970    23.6880   -30.9890 
  160.6250     2.2930    59.5590   190.9710   158.5630    69.9640    23.7490   -30.7020 
  160.7500     2.2920    58.0830   197.1120   161.6250    70.9460    23.8260   -30.3270 
  160.8750     2.2850    59.3400   210.1970   170.3380    85.0030    23.8600   -30.0750 
  161.0000     2.2740    60.6010   230.6150   185.0390   108.1510    23.8620   -29.7320 
  161.1250     2.2610    58.2250   256.2690   204.2070   126.2850    23.8690   -29.3900 
