~V
VERS. 2.00: Ver 2.00
~W
STRT.M 60.0000:
STOP.M 235.0000:
STEP.M 0.1250:
NULL. -999.2500:
UWI. DF33014:
~C
DEPT.M :
SP.MV :
GR.API :
RML.OHMM :
RI. :
RXO.OHMM :
CALI.CM :
DEN.GM/CC :
~A
# ...
  206.2500   -27.5460    57.6940    71.3270    61.2410    65.9720    24.0610     2.2580 
  206.3750   -27.5490    54.5830    73.5350    62.9780    66.3160    24.4590     2.2580 
  206.5000   -27.5920    57.3460    75.4500    64.4810    70.3830    24.7020     2.2740 
  206.6250   -27.6310    62.6930    77.0270    65.7980    74.0270    24.6770     2.3080 
  206.7500   -27.7500    63.3550    78.1260    66.9190    75.2680    24.5280     2.3410 
  206.8750   -27.7910    60.2860    78.3230    67.5920    75.1910    24.4070     2.3560 
  207.0000   -27.9330    57.7180    77.1320    67.4370    73.8600    24.3630     2.3410 
  207.1250   -27.9820    56.2930    74.0840    65.9260    69.1440    24.3650     2.3010 
  207.2500   -28.0340    56.1050    69.8010    63.2570    62.2880    24.4040     2.2600 
  207.3750   -28.0490    58.8540    64.8550    59.6800    56.5140    24.5130     2.2300 
  207.5000   -28.0000    63.6380    59.6200    55.4440    52.8230    24.6640     2.2140 
  207.6250   -27.9520    66.9780    53.9660    50.4740    50.4950    24.7170     2.2100 
  207.7500   -27.7740    66.9890    47.5850    44.6790    47.5930    24.7100     2.2150 
  207.8750   -27.6090    63.8130    40.2590    37.9750    40.4550    24.6670     2.2300 
  208.0000   -27.2850    60.0510    32.3120    30.6460    26.9400    24.5580     2.2560 
  208.1250   -26.9620    59.2310    24.4710    23.5170    15.2000    24.4230     2.2900 
  208.2500   -26.6050    59.9340    17.7360    17.4130     8.9150    24.3030     2.3220 
  208.3750   -26.2060    59.9490    12.4670    12.7340     6.1430    24.1540     2.3470 
  208.5000   -25.8390    58.5960     8.7330     9.4960     5.3530    24.0140     2.3620 
  208.6250   -25.5390    58.4930     7.2200     7.6470     5.3880    24.0570     2.3670 
  208.7500   -25.3500    59.5950     6.5490     6.6870     5.5830    24.1590     2.3680 
  208.8750   -25.2660    61.5500     6.4770     6.3830     6.1900    24.2930     2.3680 
  209.0000   -25.2890    65.8390     6.7910     6.5330     7.0810    24.4650     2.3680 
  209.1250   -25.4090    72.1370     7.3120     6.9800     7.7150    24.6330     2.3660 
  209.2500   -25.6030    77.0070     7.8420     7.5070     7.8960    24.6940     2.3620 
  209.3750   -25.8150    78.6200     8.2840     7.9930     7.8140    24.6760     2.3590 
  209.5000   -26.1000    77.0420     8.5890     8.3590     7.7310    24.6040     2.3610 
  209.6250   -26.2440    76.2710     8.7380     8.5460     7.6540    24.5400     2.3690 
  209.7500   -26.4050    79.7150     8.7950     8.5900     7.6220    24.4450     2.3750 
  209.8750   -26.4800    84.6180     8.8000     8.5150     7.6230    24.3590     2.3740 
  210.0000   -26.5520    86.3760     8.7810     8.3480     7.6160    24.3700     2.3660 
  210.1250   -26.6050    85.9860     8.7350     8.0980     7.5990    24.5220     2.3580 
  210.2500   -26.5970    89.8670     8.6580     7.7990     7.6150    24.6580     2.3590 
  210.3750   -26.6350    96.6520     8.5580     7.4800     7.6640    24.7650     2.3690 
  210.5000   -26.6120   100.4590     8.4750     7.1920     7.7630    24.8160     2.3810 
  210.6250   -26.7300    98.5350     8.5430     7.0470     8.0250    24.8230     2.3850 
  210.7500   -26.7890    95.9510     8.9030     7.1540     8.6200    24.8040     2.3780 
  210.8750   -26.8850    95.3350     9.7000     7.6320    10.4490    24.7490     2.3640 
  211.0000   -26.9970    94.0440    11.0360     8.5790    14.8270    24.6860     2.3500 
  211.1250   -26.9980    88.7610    13.0070    10.1190    22.1530    24.6600     2.3410 
  211.2500   -27.0480    82.1410    15.4090    12.1170    27.4340    24.6520     2.3370 
  211.3750   -26.9890    77.1040    18.0880    14.4600    27.2030    24.6440     2.3320 
  211.5000   -26.9230    74.0830    20.8950    17.0170    26.2310    24.6300     2.3260 
  211.6250   -26.6590    71.7660    23.6850    19.6440    31.0190    24.6110     2.3290 
  211.7500   -26.3460    70.0130    26.2240    22.1130    40.5830    24.5880     2.3490 
  211.8750   -25.8910    69.9960    28.1020    24.0830    47.6070    24.5770     2.3890 
  212.0000   -25.3660    70.2680    28.7160    25.0630    43.7470    24.5570     2.4420 
  212.1250   -24.7740    67.5050    27.1930    24.2760    35.1840    24.5450     2.4890 
  212.2500   -24.1330    63.2050    23.9020    21.9050    27.8880    24.5410     2.5140 
  212.3750   -23.4920    60.0980    19.6410    18.4930    20.8000    24.5410     2.5120 
  212.5000   -22.8880    57.8660    15.4240    14.8830    14.1250    24.5410     2.4860 
  212.6250   -22.3140    56.1930    12.2070    11.9130     9.8890    24.5440     2.4500 
  212.7500   -21.7950    58.6840    10.1030     9.7890     8.1180    24.5500     2.4200 
  212.8750   -21.3860    65.7140     9.0740     8.5110     8.0020    24.5530     2.4050 
  213.0000   -20.9530    73.0280     8.8460     7.9810     8.8160    24.5490     2.4070 
  213.1250   -20.6810    76.2770     9.2760     8.1190    10.4650    24.5500     2.4160 
  213.2500   -20.3790    75.1910     9.9650     8.5860    11.9390    24.5390     2.4210 
  213.3750   -20.1360    71.3960    10.6150     9.1260    11.5680    24.4780     2.4170 
  213.5000   -19.8840    67.4670    10.9710     9.4950     9.4060    24.3580     2.4100 
  213.6250   -19.6840    67.2640    10.8570     9.4850     8.0280    24.3280     2.4060 
  213.7500   -19.5180    67.4890    10.4560     9.1870     8.1080    24.3670     2.4060 
  213.8750   -19.3100    64.9380     9.9780     8.7550     8.5650    24.4190     2.4050 
  214.0000   -19.2130    59.9800     9.6010     8.3500     8.3320    24.3910     2.3970 
  214.1250   -19.0370    57.3080     9.4420     8.1020     7.8010    24.3200     2.3810 
  214.2500   -18.9500    58.3780     9.4560     8.0030     7.7450    24.2380     2.3630 
  214.3750   -18.8540    59.1650     9.5940     8.0170     8.2730    24.2670     2.3470 
  214.5000   -18.7730    57.8090     9.8020     8.1040     9.0030    24.4580     2.3380 
  214.6250   -18.6600    57.9590    10.0330     8.2300     9.6040    24.5830     2.3370 
  214.7500   -18.5230    59.9490    10.2400     8.3580     9.9910    24.6280     2.3470 
  214.8750   -18.4170    60.8740    10.3960     8.4600    10.1910    24.6700     2.3670 
  215.0000   -18.2720    59.8390    10.4830     8.5150    10.3480    24.7310     2.3940 
  215.1250   -18.1510    59.5440    10.4950     8.5040    10.5070    24.7790     2.4180 
  215.2500   -17.9850    59.7350    10.4640     8.4480    10.6390    24.9120     2.4330 
  215.3750   -17.8320    59.5100    10.4210     8.3780    10.7860    25.1710     2.4400 
  215.5000   -17.6130    59.3970    10.4100     8.3340    10.9810    25.1470     2.4450 
  215.6250   -17.4490    60.0330    10.4880     8.3690    11.2510    25.0360     2.4590 
  215.7500   -17.1820    61.2790    10.6650     8.4950    11.7380    24.7860     2.4830 
  215.8750   -16.9470    62.6140    10.9250     8.7020    12.2530    24.6650     2.5120 
  216.0000   -16.6720    63.8170    11.2170     8.9500    12.3850    24.6370     2.5370 
  216.1250   -16.3760    63.5180    11.4480     9.1670    11.7140    24.6420     2.5450 
  216.2500   -16.1260    61.7700    11.5600     9.2940    10.8030    24.6400     2.5310 
  216.3750   -15.8340    59.8480    11.5390     9.3060    10.2760    24.6390     2.4980 
  216.5000   -15.6410    59.3800    11.4140     9.2150    10.5050    24.6370     2.4570 
  216.6250   -15.3700    61.3280    11.2360     9.0600    10.8420    24.6430     2.4220 
  216.7500   -15.1800    62.6270    11.0630     8.9080    10.6110    24.6550     2.4020 
  216.8750   -14.9980    61.5620    10.9200     8.7910    10.2560    24.6620     2.4010 
  217.0000   -14.7980    60.2280    10.8150     8.7180    10.3150    24.6660     2.4160 
  217.1250   -14.6930    60.4860    10.7480     8.6810    10.4010    24.6830     2.4420 
  217.2500   -14.5290    59.2540    10.7070     8.6530     9.9810    24.6790     2.4660 
  217.3750   -14.4120    55.3960    10.6880     8.6250     9.4830    24.6490     2.4800 
