~V
VERS. 2.00: Ver 2.00
~W
STRT.M 55.0000:
STOP.M 246.0000:
STEP.M 0.1250:
NULL. -999.2500:
UWI. DF33025:
~C
DEPT.M :
SP.MV :
GR.API :
CALI.CM :
RXO.OHMM :
RI. :
RML.OHMM :
DEN.GM/CC :
~A
# ...
   88.7500   -28.7740    75.3230    24.3370     9.2680     6.3780     9.3960     2.1170 
   88.8750   -28.6810    75.6230    24.2560     9.3640     6.4230     9.5260     2.1250 
   89.0000   -28.5540    78.2790    24.4020     9.4150     6.4950     9.6890     2.1420 
   89.1250   -28.4380    80.6750    24.2780     9.4470     6.5720     9.8260     2.1570 
   89.2500   -28.3070    79.2960    23.9940     9.4340     6.6300     9.9030     2.1620 
   89.3750   -28.1580    76.0420    23.7740     9.4050     6.6600     9.9160     2.1590 
   89.5000   -27.9930    75.1780    23.5750     9.4240     6.6680     9.8770     2.1560 
   89.6250   -27.7900    78.4510    23.5150     9.4690     6.6560     9.7920     2.1570 
   89.7500   -27.5930    82.1130    23.4670     9.4430     6.6220     9.6840     2.1620 
   89.8750   -27.3650    83.8780    23.5590     9.3480     6.5790     9.5710     2.1690 
   90.0000   -27.1390    83.8700    23.5620     9.2330     6.5510     9.4800     2.1770 
   90.1250   -26.8840    83.1440    23.5400     9.1300     6.5530     9.4410     2.1860 
   90.2500   -26.6080    84.3160    23.5790     9.0480     6.5760     9.4540     2.1920 
   90.3750   -26.3050    87.6160    23.7350     9.0360     6.6190     9.5100     2.1920 
   90.5000   -25.9860    90.3210    24.0660     9.0990     6.6680     9.5850     2.1860 
   90.6250   -25.6570    89.8810    24.2310     9.1970     6.7070     9.6600     2.1770 
   90.7500   -25.2850    86.6060    24.2870     9.2140     6.7450     9.7430     2.1680 
   90.8750   -24.8710    82.7830    24.2870     9.0980     6.7920     9.8490     2.1640 
   91.0000   -24.4120    80.7900    24.2980     8.8990     6.8230     9.9610     2.1690 
   91.1250   -23.9120    81.2000    24.3290     8.8250     6.7490     9.9430     2.1770 
   91.2500   -23.3900    82.0640    24.3700     8.8940     6.5100     9.6330     2.1770 
   91.3750   -22.8730    83.0430    24.4080     8.8660     6.0990     8.9740     2.1730 
   91.5000   -22.3810    85.5780    24.5090     8.4270     5.6190     8.1510     2.1820 
   91.6250   -21.9910    90.2280    24.8060     7.3250     5.2900     7.5960     2.2210 
   91.7500   -21.7370    95.9830    25.0250     6.3200     5.2560     7.5710     2.2790 
   91.8750   -21.6720   100.6880    24.8880     6.1320     5.5690     8.1570     2.3400 
   92.0000   -21.7830   100.9180    24.6670     7.4180     6.1960     9.2690     2.3960 
   92.1250   -22.0900    93.8670    24.5710    10.8060     6.9960    10.5670     2.4400 
   92.2500   -22.5330    85.4670    24.4200    13.4370     7.6460    11.4410     2.4590 
   92.3750   -23.0640    80.4300    24.2130    13.1950     7.9200    11.5530     2.4290 
   92.5000   -23.6560    78.7350    24.1800    11.0740     7.8110    11.0530     2.3510 
   92.6250   -24.2150    78.5050    24.4470    10.0360     7.5410    10.4750     2.2630 
   92.7500   -24.7260    78.6360    24.5810     9.7970     7.3840    10.2430     2.2100 
   92.8750   -25.1410    79.3790    24.3940     9.9250     7.4250    10.4260     2.2040 
   93.0000   -25.4490    80.7150    24.1750    10.0720     7.6250    10.8770     2.2430 
   93.1250   -25.6290    80.5440    24.1470    10.1200     7.8670    11.3030     2.3150 
   93.2500   -25.7450    78.5540    24.1410    10.0880     8.0280    11.4990     2.3770 
   93.3750   -25.8150    76.5770    24.0240    10.0370     8.0780    11.4590     2.3870 
   93.5000   -25.8330    75.9980    24.0570    10.0070     8.0560    11.3010     2.3400 
   93.6250   -25.8400    75.6880    24.1610    10.0720     8.0260    11.1800     2.2730 
   93.7500   -25.8000    74.0610    24.2250    10.1990     8.0140    11.1560     2.2360 
   93.8750   -25.7370    72.0560    24.2170    10.2850     8.0130    11.1960     2.2390 
   94.0000   -25.6500    71.8460    24.1010    10.2670     7.9950    11.2030     2.2700 
   94.1250   -25.5560    75.3950    24.1230    10.1710     7.8990    11.0390     2.2970 
   94.2500   -25.4460    79.8110    24.2230    10.0690     7.7130    10.7040     2.2940 
   94.3750   -25.3320    81.3240    24.2800     9.9400     7.4710    10.2700     2.2650 
   94.5000   -25.2110    78.9940    24.2870     9.8030     7.2370     9.8390     2.2310 
   94.6250   -25.0530    76.1820    24.2820     9.6800     7.0740     9.5230     2.2080 
   94.7500   -24.8880    74.1220    24.2180     9.5540     6.9950     9.3680     2.1920 
   94.8750   -24.6680    71.6680    24.0930     9.4170     7.0110     9.3960     2.1800 
   95.0000   -24.4120    69.5880    24.0980     9.3780     7.1330     9.6040     2.1750 
   95.1250   -24.0870    70.5970    24.2720     9.5200     7.3550     9.9490     2.1770 
   95.2500   -23.7170    73.8940    24.3720     9.6910     7.5650    10.2420     2.1810 
   95.3750   -23.2820    77.0060    24.4130     9.7560     7.6110    10.2590     2.1810 
   95.5000   -22.8080    78.0800    24.4670     9.6940     7.3620     9.8200     2.1810 
   95.6250   -22.3340    78.7540    24.5600     9.3760     6.7640     8.8720     2.1990 
   95.7500   -21.9080    81.5610    24.7200     8.5840     6.0430     7.7780     2.2420 
   95.8750   -21.5830    86.6070    24.8750     7.3640     5.4100     6.8650     2.2950 
   96.0000   -21.3740    91.1080    24.9600     6.2320     5.0200     6.3610     2.3360 
   96.1250   -21.3390    92.5810    24.9490     5.9180     4.9870     6.4290     2.3480 
   96.2500   -21.4230    91.6050    24.9950     6.4200     5.2480     6.9410     2.3430 
   96.3750   -21.6080    86.5260    24.7980     7.6470     5.7370     7.7670     2.3270 
   96.5000   -21.8620    79.9640    24.5430     8.7520     6.3330     8.6840     2.3030 
   96.6250   -22.1930    79.7720    24.2570     8.9000     6.8230     9.3470     2.2770 
   96.7500   -22.5240    84.7870    24.3300     8.5330     7.0690     9.6000     2.2600 
   96.8750   -22.8190    87.9130    24.6360     8.4220     7.0500     9.4540     2.2480 
   97.0000   -23.0580    85.5140    24.8780     8.4900     6.8300     9.0380     2.2370 
   97.1250   -23.2150    82.2030    25.0210     8.3120     6.5260     8.5370     2.2330 
   97.2500   -23.3170    82.8420    25.1800     8.0380     6.2920     8.1700     2.2400 
   97.3750   -23.4150    85.8270    25.3780     7.9900     6.2440     8.1050     2.2540 
   97.5000   -23.5030    87.5620    25.4450     8.3160     6.4900     8.4870     2.2660 
   97.6250   -23.5890    85.3420    25.3520     8.9340     7.1900     9.5150     2.2870 
   97.7500   -23.6620    80.7710    25.1710     9.6370     8.3120    11.1090     2.3410 
   97.8750   -23.7630    75.8260    25.0070    10.1180     9.7940    13.1400     2.4310 
   98.0000   -23.8880    70.9160    24.8200    10.2400    11.4610    15.3150     2.5310 
   98.1250   -24.0580    68.6230    24.7620    10.5150    12.9800    17.1300     2.5770 
   98.2500   -24.2660    68.5710    24.8670    11.9240    14.0510    18.2740     2.5490 
   98.3750   -24.4960    68.4100    25.0450    16.0340    14.4980    18.6130     2.4650 
   98.5000   -24.7480    68.3760    25.2250    23.6550    14.2820    18.1510     2.3650 
   98.6250   -24.9960    69.7380    25.1720    29.0710    13.4470    16.9160     2.2870 
   98.7500   -25.2600    71.8690    25.0380    26.2120    12.3390    15.3060     2.2390 
   98.8750   -25.4960    73.9820    24.8190    18.4580    11.1810    13.6470     2.2130 
   99.0000   -25.7300    75.1160    24.8320    12.7300    10.1420    12.2310     2.1970 
   99.1250   -25.8940    74.0590    24.8760    11.0520     9.3650    11.3050     2.1910 
   99.2500   -26.0260    71.0330    24.9200    10.5620     8.8380    10.7710     2.1980 
   99.3750   -26.1110    70.6280    24.9170    10.4290     8.5090    10.4780     2.2120 
   99.5000   -26.1870    74.1050    24.8320    10.3450     8.2940    10.2770     2.2180 
   99.6250   -26.2220    76.1090    24.5880    10.2470     8.1370    10.1050     2.2100 
   99.7500   -26.2420    74.1500    24.3610    10.1060     8.0330     9.9860     2.2030 
   99.8750   -26.2620    70.4900    24.4680    10.1240     8.0090     9.9650     2.2010 
