~V
VERS. 2.00: Ver 2.00
~W
STRT.M 55.0000:
STOP.M 245.0000:
STEP.M 0.1250:
NULL. -999.2500:
UWI. DF33016:
~C
DEPT.M :
GR.API :
CALI.CM :
RXO.OHMM :
RI. :
RML.OHMM :
DEN.GM/CC :
SP.MV :
~A
# ...
  156.2500    58.9870    27.9380   172.3190   190.9080   219.9760     2.1570   -30.6980 
  156.3750    56.7450    27.9970   172.7390   195.6130   226.6350     2.1370   -31.1640 
  156.5000    53.2060    28.0260   168.1070   195.5970   226.5590     2.1210   -31.6130 
  156.6250    54.0770    28.0450   161.1890   190.5420   219.1350     2.1210   -32.0040 
  156.7500    57.6020    28.0860   154.2420   181.9370   206.8570     2.1350   -32.4000 
  156.8750    59.2810    28.1610   146.8780   170.9440   191.7140     2.1530   -32.7370 
  157.0000    58.2420    28.2940   137.0330   158.9390   175.8900     2.1660   -33.0590 
  157.1250    58.2380    28.4320   122.1770   147.7480   161.3610     2.1730   -33.3550 
  157.2500    59.9870    28.5590   110.4170   138.9480   149.5700     2.1790   -33.6020 
  157.3750    61.9180    28.6610   106.4360   133.7370   143.9340     2.1850   -33.8490 
  157.5000    64.1710    28.7610   106.1110   132.6010   142.7050     2.1900   -34.0170 
  157.6250    66.0070    28.8740   107.4470   134.6210   144.8900     2.1910   -34.1660 
  157.7500    65.8210    28.9940   109.3860   135.6800   146.0350     2.1870   -34.2460 
  157.8750    65.1500    29.1020   118.7730   131.6840   141.7130     2.1800   -34.2750 
  158.0000    65.0510    29.1780   131.3430   120.5180   129.6360     2.1750   -34.2970 
  158.1250    63.4700    29.2440   123.4040   103.9850   111.7540     2.1750   -34.3340 
  158.2500    61.9400    29.3050    95.7460    88.0100    94.4760     2.1810   -34.3070 
  158.3750    63.8610    29.3700    64.6580    75.9120    81.3900     2.1940   -34.2470 
  158.5000    69.0870    29.4340    47.2240    68.8510    73.7540     2.2070   -34.1940 
  158.6250    72.9290    29.4580    46.2670    67.1280    71.8900     2.2090   -34.1110 
  158.7500    73.2840    29.4770    54.0380    68.9570    73.8680     2.2010   -34.0200 
  158.8750    71.6020    29.5070    62.9210    73.2800    78.5440     2.1950   -33.9970 
  159.0000    69.6240    29.5580    67.7420    78.8640    84.5840     2.1990   -33.9190 
  159.1250    68.9970    29.6100    70.5460    84.2960    90.4580     2.2060   -33.7770 
  159.2500    69.7570    29.6600    73.8110    88.6140    95.1290     2.2030   -33.7060 
  159.3750    71.1090    29.6800    78.1510    91.4950    98.2450     2.1870   -33.6070 
  159.5000    72.9000    29.6940    80.5570    92.8480    99.7080     2.1700   -33.5040 
  159.6250    73.8380    29.7250    79.6180    92.3120    99.1290     2.1600   -33.4210 
  159.7500    71.7440    29.7760    77.8390    90.3050    96.9580     2.1580   -33.4010 
  159.8750    68.0510    29.8190    76.2460    87.3780    93.7920     2.1570   -33.3350 
  160.0000    65.7130    29.8610    73.0640    84.4150    90.5870     2.1530   -33.3270 
  160.1250    66.1310    29.8960    67.5600    82.7330    88.7670     2.1500   -33.4240 
  160.2500    66.9490    29.9290    61.8620    83.0790    89.1420     2.1510   -33.4920 
  160.3750    66.2190    29.9440    59.7260    85.9180    92.2130     2.1470   -33.6200 
  160.5000    65.0770    29.9190    64.5890    91.3210    98.0570     2.1360   -33.7790 
  160.6250    62.5270    29.8930    76.1330    98.9220   106.2780     2.1250   -33.9540 
  160.7500    58.9330    29.8410    87.7590   106.7060   114.6970     2.1210   -34.0870 
  160.8750    57.9690    29.8020    94.7050   112.3770   120.8310     2.1220   -34.2430 
  161.0000    61.4090    29.7870    96.9850   113.7450   122.3110     2.1220   -34.3770 
  161.1250    65.4620    29.7870    96.9200   109.3380   117.5440     2.1240   -34.4220 
  161.2500    66.5140    29.7870    91.6570   101.6330   109.2100     2.1290   -34.5750 
  161.3750    64.9910    29.7870    80.4830    93.1270   100.0100     2.1350   -34.6910 
  161.5000    63.6200    29.7870    68.5880    86.0760    92.3840     2.1450   -34.7920 
  161.6250    63.6380    29.7840    62.3450    82.3260    88.3270     2.1590   -34.9210 
  161.7500    65.8650    29.7760    62.1160    81.5770    87.5180     2.1690   -35.1150 
  161.8750    69.5350    29.7680    66.1410    83.0890    89.1530     2.1670   -35.3540 
  162.0000    72.2190    29.7760    70.8730    85.4110    91.6640     2.1560   -35.6270 
  162.1250    73.0770    29.7450    72.5630    86.3590    92.6900     2.1440   -35.9790 
  162.2500    73.3290    29.6500    70.6770    84.8600    91.0680     2.1370   -36.3010 
  162.3750    73.8820    29.5330    66.2050    81.2620    87.1770     2.1400   -36.6730 
  162.5000    73.7310    29.4730    58.1280    76.9490    82.5120     2.1520   -37.0970 
  162.6250    71.5550    29.4650    49.7570    73.8290    79.1380     2.1690   -37.5210 
  162.7500    68.6740    29.4620    45.9700    72.9230    78.1570     2.1820   -37.9020 
  162.8750    64.9560    29.4380    48.9370    74.5930    79.9640     2.1820   -38.3020 
  163.0000    61.6060    29.3880    56.2990    78.6460    84.3470     2.1720   -38.6410 
  163.1250    63.1300    29.3370    61.3590    84.3260    90.4910     2.1610   -38.9620 
  163.2500    68.3090    29.3460    65.6040    89.8340    96.4480     2.1630   -39.2440 
  163.3750    71.6520    29.3550    71.2650    93.9940   100.9480     2.1800   -39.4950 
  163.5000    70.3400    29.3430    76.0360    96.4350   103.5880     2.1960   -39.6590 
  163.6250    66.8560    29.3050    74.5640    97.7480   105.0080     2.2030   -39.6530 
  163.7500    64.4610    29.2680    70.8690    99.3920   106.7860     2.2060   -39.6410 
  163.8750    64.3370    29.2450    72.1920   102.1860   109.8080     2.2120   -39.5190 
  164.0000    66.8820    29.2260    80.4960   106.0610   114.0000     2.2180   -39.3480 
  164.1250    70.6880    29.2060    90.6150   109.5610   117.7860     2.2250   -39.0480 
  164.2500    72.8940    29.1740    94.9690   111.1080   119.4580     2.2310   -38.6350 
  164.3750    74.1040    29.1230    95.6750   110.4990   118.8000     2.2330   -38.1160 
  164.5000    75.4280    29.0310    93.3720   109.3100   117.5140     2.2240   -37.5370 
  164.6250    77.0100    28.9410    85.1570   111.6190   120.0110     2.2100   -37.0390 
  164.7500    76.9670    28.8550    80.9670   121.1790   130.3510     2.1960   -36.4260 
  164.8750    74.1920    28.7700    91.9170   141.5650   152.4010     2.1870   -35.8500 
  165.0000    70.0100    28.7020   126.6730   175.1350   188.7100     2.1730   -35.2610 
  165.1250    66.7570    28.6250   175.6300   222.1240   239.5330     2.1530   -34.6820 
  165.2500    65.8150    28.5630   206.4790   270.9850   292.3810     2.1320   -34.1690 
  165.3750    65.3060    28.5150   214.5750   306.8110   331.1300     2.1230   -33.6290 
  165.5000    62.6890    28.4790   213.9570   317.5210   342.7150     2.1290   -33.1630 
  165.6250    58.7970    28.4190   212.0970   300.5100   324.3160     2.1410   -32.6730 
  165.7500    55.7790    28.3610   203.4470   271.7580   293.2180     2.1500   -32.2330 
  165.8750    55.7510    28.2970   187.3240   240.9770   259.9240     2.1480   -31.8380 
  166.0000    57.2930    28.2010   167.7500   213.3570   230.0510     2.1410   -31.4790 
  166.1250    58.6900    28.0710   146.7370   191.4120   206.3150     2.1350   -31.1450 
  166.2500    59.7220    27.9230   130.5300   173.5120   186.9550     2.1320   -30.8810 
  166.3750    60.9070    27.7940   123.4080   157.8880   170.0560     2.1350   -30.6860 
  166.5000    63.2260    27.6930   123.2720   142.5170   153.4300     2.1400   -30.5220 
  166.6250    65.8430    27.4200   115.7960   124.4910   133.9340     2.1430   -30.4270 
  166.7500    68.5920    27.1310    93.8050   102.7320   110.3990     2.1470   -30.2870 
  166.8750    71.1380    26.9280    71.3210    78.7370    84.4460     2.1700   -30.1010 
  167.0000    72.6330    26.7960    57.5790    56.1980    60.0680     2.2190   -29.9850 
  167.1250    73.0800    26.5410    45.5480    39.4010    41.9000     2.2860   -29.8520 
  167.2500    76.6530    26.2760    30.9050    28.1250    29.7040     2.3470   -29.6190 
  167.3750    83.8070    26.1230    18.7520    21.2320    22.2490     2.3750   -29.4450 
