~V
VERS. 2.00: Ver 2.00
~W
STRT.M 55.0000:
STOP.M 246.0000:
STEP.M 0.1250:
NULL. -999.2500:
UWI. DF33025:
~C
DEPT.M :
SP.MV :
GR.API :
CALI.CM :
RXO.OHMM :
RI. :
RML.OHMM :
DEN.GM/CC :
~A
# ...
  167.5000   -29.2490    66.3790    25.0510   130.9570   189.5010   200.9500     2.1880 
  167.6250   -29.6440    65.8520    25.0450   148.0090   200.7650   212.0530     2.1870 
  167.7500   -30.0060    66.6020    25.0320   173.2210   213.2670   223.3270     2.1890 
  167.8750   -30.3440    67.8260    25.0290   185.7270   225.3830   233.7540     2.1890 
  168.0000   -30.6710    69.9900    25.0340   178.3680   235.0140   241.7950     2.1860 
  168.1250   -30.9300    70.8940    25.0240   167.3730   238.8740   244.5720     2.1850 
  168.2500   -31.1710    68.6580    25.0020   167.4520   236.6600   241.6590     2.1900 
  168.3750   -31.3710    67.2990    24.9750   173.6220   229.7230   234.2070     2.2000 
  168.5000   -31.5430    69.3040    24.9590   171.7710   221.2600   225.3710     2.2140 
  168.6250   -31.6880    73.3220    24.9560   156.5190   216.3750   220.6280     2.2240 
  168.7500   -31.8210    75.6530    24.9620   143.7060   219.1380   224.4970     2.2290 
  168.8750   -31.9440    76.1900    24.9720   148.4980   233.1740   240.8190     2.2270 
  169.0000   -32.0560    75.5440    24.9610   170.3490   261.7670   272.3370     2.2200 
  169.1250   -32.1940    72.2810    24.9590   191.3800   310.1100   322.2190     2.2120 
  169.2500   -32.3180    67.4300    24.9470   208.3920   371.8470   382.5270     2.2080 
  169.3750   -32.4500    64.3100    24.9070   226.5940   431.5670   439.7720     2.2040 
  169.5000   -32.5860    64.0500    24.8700   251.7640   463.1130   474.0530     2.1920 
  169.6250   -32.6790    62.9910    24.8500   272.2500   440.7910   463.1250     2.1660 
  169.7500   -32.7690    59.7570    24.8360   278.8950   386.1820   419.0530     2.1420 
  169.8750   -32.8230    59.0180    24.8260   267.9350   323.7460   360.3480     2.1410 
  170.0000   -32.8480    62.9310    24.8610   239.0930   269.9180   304.2340     2.1640 
  170.1250   -32.7870    67.2410    24.8480   201.8630   232.6830   262.4860     2.1970 
  170.2500   -32.7360    68.3960    24.8270   174.1960   208.2120   234.3370     2.2230 
  170.3750   -32.6610    68.0910    24.7830   164.2670   193.2520   217.2600     2.2360 
  170.5000   -32.5680    68.7530    24.7520   168.0480   184.3300   207.6430     2.2390 
  170.6250   -32.4540    70.2360    24.6360   173.7010   178.4010   202.0470     2.2340 
  170.7500   -32.3030    70.0180    24.4910   174.2750   172.8350   197.1760     2.2280 
  170.8750   -32.1610    68.4630    24.3340   165.7030   167.3410   192.4270     2.2220 
  171.0000   -32.0190    67.1600    24.4020   151.4510   162.9270   188.7450     2.2140 
  171.1250   -31.9640    67.2260    24.6090   140.9310   161.5770   188.3470     2.2130 
  171.2500   -31.8850    66.1290    24.7650   138.3610   163.6170   191.6660     2.2210 
  171.3750   -31.8150    64.7740    24.9360   143.2960   168.6420   198.1840     2.2330 
  171.5000   -31.7570    64.0390    25.3120   151.8460   175.4190   206.4230     2.2400 
  171.6250   -31.7440    64.3640    25.6740   159.0760   181.9340   214.1000     2.2410 
  171.7500   -31.7510    64.2070    25.6430   159.2940   186.4730   219.3790     2.2410 
  171.8750   -31.7610    63.6210    25.7150   155.8290   188.2330   221.3480     2.2410 
  172.0000   -31.7810    64.2080    26.1280   153.6900   186.7910   219.5540     2.2410 
  172.1250   -31.7570    66.8330    26.4280   153.9000   181.0440   212.9210     2.2400 
  172.2500   -31.7540    67.9350    26.4240   152.6010   171.8280   202.4210     2.2380 
  172.3750   -31.7690    67.0660    26.2790   145.4660   160.6560   189.5470     2.2350 
  172.5000   -31.7810    66.4670    26.1760   133.2620   149.7490   176.6440     2.2320 
  172.6250   -31.8210    67.9300    26.1170   115.9700   141.7710   166.8280     2.2360 
  172.7500   -31.8690    67.3250    26.1090   106.9850   137.7030   161.5110     2.2410 
  172.8750   -31.9140    64.3950    26.0540   112.5540   137.9000   161.1830     2.2430 
  173.0000   -31.9580    63.4530    25.9010   126.4900   141.8950   165.1950     2.2450 
  173.1250   -31.9840    64.4890    25.8300   141.7670   148.6720   172.2390     2.2590 
  173.2500   -31.9850    64.1320    25.8240   153.1580   155.9890   179.8470     2.2760 
  173.3750   -31.9320    62.6960    25.8120   162.2230   162.5040   186.6010     2.2790 
  173.5000   -31.8240    62.9800    25.7790   164.8980   167.7050   191.8920     2.2630 
  173.6250   -31.6030    67.0000    25.7270   160.2200   171.9220   195.8850     2.2370 
  173.7500   -31.3050    71.2810    25.6960   158.1270   175.8060   199.2300     2.2180 
  173.8750   -30.9300    73.0220    25.6770   163.4560   179.0430   201.6270     2.2090 
  174.0000   -30.5000    72.3240    25.6560   171.9660   180.8090   202.2570     2.2030 
  174.1250   -30.0170    71.4340    25.6540   171.8880   179.9260   199.9410     2.1960 
  174.2500   -29.4940    70.8570    25.6420   163.7250   176.5140   194.9570     2.1940 
  174.3750   -28.9520    70.7150    25.6290   155.1100   170.9180   187.7990     2.1980 
  174.5000   -28.4380    71.7340    25.6280   151.4430   164.0380   179.4270     2.2020 
  174.6250   -27.9760    73.5740    25.6190   150.3190   157.3700   171.2610     2.1990 
  174.7500   -27.5600    74.4950    25.5770   144.9280   152.1640   164.5260     2.1950 
  174.8750   -27.1890    73.5000    25.5080   135.6620   149.0470   159.9480     2.1960 
  175.0000   -26.8580    71.6020    25.4250   129.6620   148.2050   157.8260     2.2050 
  175.1250   -26.5820    69.9050    25.2980   134.6640   149.6910   158.2120     2.2140 
  175.2500   -26.3280    70.5280    25.2030   147.2760   152.4700   159.8760     2.2160 
  175.3750   -26.1100    71.1340    25.1470   156.6790   155.6850   161.8480     2.2110 
  175.5000   -25.9010    68.8610    25.0870   154.3770   158.4790   163.2570     2.2020 
  175.6250   -25.6920    67.5890    25.0470   144.9200   160.0270   163.3240     2.1910 
  175.7500   -25.4580    68.6550    25.0240   141.5790   160.4110   162.1920     2.1850 
  175.8750   -25.2250    68.4330    24.9760   143.2790   159.9530   160.2360     2.1840 
  176.0000   -24.9550    64.7340    24.8980   142.9880   159.0400   157.9930     2.1890 
  176.1250   -24.6780    62.8280    24.8590   139.6130   157.8140   156.1250     2.2000 
  176.2500   -24.3820    65.5070    24.8410   135.3660   156.2730   154.9790     2.2120 
  176.3750   -24.0680    68.0210    24.8170   130.6270   154.4490   154.4710     2.2180 
  176.5000   -23.7170    68.3720    24.7650   125.6470   152.5190   154.2560     2.2170 
  176.6250   -23.3290    68.2520    24.7190   120.6230   150.7960   153.9510     2.2050 
  176.7500   -22.9240    70.1040    24.7010   117.0270   149.6450   153.6590     2.1900 
  176.8750   -22.4910    72.6510    24.7000   113.6710   149.2600   153.7670     2.1810 
  177.0000   -22.0700    71.2850    24.6990   109.6900   148.0390   153.3410     2.1860 
  177.1250   -21.5990    68.2550    24.6920   105.3860   138.1970   146.1520     2.2010 
  177.2500   -21.1300    68.9840    24.6710   101.9760   115.2460   126.5550     2.2100 
  177.3750   -20.6390    72.5250    24.6260    98.4020    84.2750    95.8240     2.2070 
  177.5000   -20.1540    74.3950    24.5390    86.0530    55.6720    63.4620     2.2010 
  177.6250   -19.6950    76.3180    24.5100    59.6440    36.3720    39.9270     2.2210 
  177.7500   -19.2910    81.9640    24.4980    32.1950    24.3560    25.1110     2.2750 
  177.8750   -18.9370    89.1370    24.4990    16.6360    16.8990    16.9890     2.3430 
  178.0000   -18.6360    95.3340    24.6780    11.3420    12.4260    12.7990     2.4010 
  178.1250   -18.4160    99.2290    24.8710     9.8220    10.2690    10.8840     2.4400 
  178.2500   -18.2540   100.1620    24.8800     9.0590     9.2970    10.1930     2.4690 
  178.3750   -18.1700    98.0780    24.8720     8.9340     9.1420    10.3040     2.4850 
  178.5000   -18.1540    95.6830    24.9740     9.5840     9.5270    10.8860     2.4810 
  178.6250   -18.1920    93.2630    25.1100    10.7910    10.2410    11.6880     2.4540 
