~V
VERS. 2.00: Ver 2.00
~W
STRT.M 60.0000:
STOP.M 233.0000:
STEP.M 0.1250:
NULL. -999.2500:
UWI. DF33019:
~C
DEPT.M :
GR.API :
RML.OHMM :
RI. :
RXO.OHMM :
CALI.CM :
DEN.GM/CC :
SP.MV :
~A
# ...
  206.2500    72.1610    78.4900    66.9140   117.9800    24.5820     2.2960   -12.7720 
  206.3750    68.9370    64.9280    57.5590    86.9650    24.6250     2.2880   -12.8660 
  206.5000    65.8610    50.6050    45.7940    48.9960    24.7120     2.2820   -12.9090 
  206.6250    65.7210    40.8000    36.6010    32.1230    24.7630     2.2720   -12.9550 
  206.7500    65.5620    34.8140    30.6940    27.4400    24.7960     2.2570   -12.9460 
  206.8750    64.1280    31.6090    27.4180    25.5440    24.8170     2.2400   -12.9360 
  207.0000    63.8410    30.2960    25.9620    24.0570    24.8200     2.2280   -12.9150 
  207.1250    66.5270    30.2750    25.7780    24.2010    24.8020     2.2270   -12.8920 
  207.2500    70.0250    30.7250    26.1080    25.1590    24.7790     2.2340   -12.8910 
  207.3750    72.2820    31.1930    26.5390    26.8770    24.7680     2.2430   -12.8620 
  207.5000    71.1530    31.3470    26.7540    27.7180    24.7670     2.2500   -12.8600 
  207.6250    67.2770    30.9230    26.4860    27.2940    24.7760     2.2500   -12.8420 
  207.7500    64.3100    30.0300    25.7890    27.3890    24.7920     2.2440   -12.8630 
  207.8750    63.6560    28.8540    24.7960    27.5590    24.7940     2.2380   -12.8750 
  208.0000    64.9160    27.6690    23.7270    25.6060    24.7640     2.2350   -12.9090 
  208.1250    66.0980    26.8490    22.8900    22.2560    24.7420     2.2380   -12.9490 
  208.2500    67.2220    26.5760    22.4660    20.5840    24.7380     2.2430   -13.0370 
  208.3750    69.8490    26.9360    22.5510    20.6780    24.7210     2.2470   -13.1620 
  208.5000    73.0410    27.9060    23.1550    21.7610    24.7050     2.2470   -13.3060 
  208.6250    71.3410    29.4070    24.2510    23.6800    24.7080     2.2440   -13.4350 
  208.7500    65.9980    31.1030    25.5750    25.7950    24.7250     2.2390   -13.5860 
  208.8750    63.2440    32.7160    26.9040    27.5420    24.7330     2.2360   -13.7600 
  209.0000    64.0560    33.9720    28.0080    28.0580    24.7430     2.2350   -13.9340 
  209.1250    64.3300    34.5380    28.6080    28.6980    24.8040     2.2340   -14.1360 
  209.2500    65.0490    34.4230    28.6750    29.2440    24.9510     2.2310   -14.2880 
  209.3750    67.9720    33.7170    28.2460    29.7050    25.0210     2.2260   -14.4590 
  209.5000    70.2280    32.6600    27.4730    29.5950    25.1790     2.2220   -14.6060 
  209.6250    67.9730    31.6130    26.6090    28.1580    25.2500     2.2220   -14.7830 
  209.7500    65.4040    30.8850    25.9260    26.2000    25.2650     2.2270   -14.9540 
  209.8750    64.7140    30.6190    25.5740    24.0070    25.2670     2.2350   -15.1110 
  210.0000    64.3080    30.8220    25.6030    23.9650    25.2670     2.2410   -15.2710 
  210.1250    63.2780    31.4180    25.9980    26.4940    25.2450     2.2400   -15.4070 
  210.2500    62.2460    32.1690    26.5750    28.2080    25.1160     2.2350   -15.5850 
  210.3750    61.1360    32.9710    27.2330    28.8680    24.9230     2.2280   -15.7230 
  210.5000    61.1310    33.8160    27.9340    29.1300    24.6000     2.2220   -15.8750 
  210.6250    62.5650    34.7990    28.7260    29.6120    24.5480     2.2220   -15.9610 
  210.7500    62.9520    35.9690    29.6520    30.0010    24.5250     2.2250   -16.0890 
  210.8750    61.7720    37.3000    30.7150    31.3140    24.4770     2.2290   -16.1900 
  211.0000    61.5610    38.6650    31.8410    32.5230    24.4000     2.2310   -16.2960 
  211.1250    61.9100    39.8250    32.8660    32.6560    24.3180     2.2320   -16.3960 
  211.2500    60.2810    40.6360    33.6560    32.3340    24.2420     2.2330   -16.4700 
  211.3750    59.0680    41.0240    34.1360    31.6580    24.2060     2.2320   -16.5590 
  211.5000    60.1580    40.9860    34.2790    31.3710    24.2000     2.2300   -16.6380 
  211.6250    61.4860    40.4980    34.0510    31.6170    24.2000     2.2250   -16.7630 
  211.7500    60.2670    39.6690    33.5320    31.1280    24.2000     2.2160   -16.8150 
  211.8750    59.9520    38.5450    32.7530    29.5800    24.2000     2.2070   -16.8720 
  212.0000    62.9540    37.1870    31.7580    29.0290    24.2000     2.1990   -16.9010 
  212.1250    64.5600    35.6750    30.6020    28.9470    24.2000     2.1970   -16.9140 
  212.2500    62.4430    34.1540    29.4050    27.7890    24.2020     2.1980   -16.8980 
  212.3750    60.6100    32.7370    28.2590    25.9810    24.2090     2.2020   -16.8850 
  212.5000    62.3000    31.5330    27.2460    24.8690    24.2660     2.2070   -16.8460 
  212.6250    62.6220    30.6770    26.4730    24.0390    24.3370     2.2110   -16.8690 
  212.7500    59.8390    30.1580    25.9470    23.2580    24.4930     2.2160   -16.8670 
  212.8750    57.9900    29.9640    25.6710    22.9950    24.6230     2.2210   -16.9070 
  213.0000    58.2110    30.0580    25.6290    23.2360    24.6740     2.2250   -16.9370 
  213.1250    58.4060    30.4560    25.8350    23.7930    24.5060     2.2280   -17.0360 
  213.2500    59.6070    31.1390    26.2630    24.7450    24.5220     2.2300   -17.1780 
  213.3750    63.5510    32.1690    26.9510    25.0020    24.5530     2.2310   -17.3520 
  213.5000    68.3790    33.6100    27.9490    25.0830    24.5760     2.2310   -17.5540 
  213.6250    70.1420    35.5590    29.3480    26.1490    24.5780     2.2300   -17.7490 
  213.7500    67.5940    37.8720    31.0630    28.8340    24.5420     2.2260   -18.0050 
  213.8750    62.3460    40.4320    33.0200    31.8250    24.4500     2.2190   -18.2850 
  214.0000    57.0880    43.1370    35.1420    34.8790    24.3100     2.2130   -18.6220 
  214.1250    55.8850    45.9710    37.4140    37.4580    24.2400     2.2090   -18.9560 
  214.2500    57.2790    48.9180    39.8200    38.5890    24.2260     2.2060   -19.2780 
  214.3750    59.1570    51.9000    42.3380    40.1610    24.2370     2.2040   -19.6090 
  214.5000    60.5580    54.6580    44.8320    45.7900    24.2450     2.2010   -19.9650 
  214.6250    62.2310    56.5340    46.8870    57.1100    24.2140     2.1970   -20.3020 
  214.7500    63.5620    57.1360    48.1380    60.5280    24.1800     2.1950   -20.6120 
  214.8750    62.3490    56.3530    48.3710    56.3200    24.1530     2.2000   -20.8570 
  215.0000    60.4400    54.5090    47.6610    51.6810    24.1300     2.2170   -21.0630 
  215.1250    62.3790    52.1590    46.2480    49.1780    24.0970     2.2590   -21.1940 
  215.2500    65.9190    49.7280    44.5120    44.5200    24.0790     2.3200   -21.2860 
  215.3750    67.7010    46.9810    42.3660    40.9020    24.0740     2.3870   -21.2680 
  215.5000    67.7100    43.3180    39.3940    39.0270    24.0800     2.4410   -21.2040 
  215.6250    68.3990    37.8850    34.8940    38.1020    24.0940     2.4600   -20.9980 
  215.7500    69.8480    31.1830    29.1800    37.7250    24.1060     2.4580   -20.8040 
  215.8750    72.4210    24.1380    23.0180    38.0540    24.0990     2.4490   -20.5920 
  216.0000    77.5220    17.9320    17.3940    29.9140    24.1020     2.4480   -20.4100 
  216.1250    81.1600    13.3290    13.2240    17.4550    24.1450     2.4550   -20.2360 
  216.2500    79.5060    10.2800    10.4160     9.4880    24.0720     2.4590   -20.1720 
  216.3750    77.0270     8.7690     8.7590     7.6670    24.0210     2.4520   -20.1900 
  216.5000    78.4540     8.3460     7.9790     7.8170    23.9930     2.4360   -20.2760 
  216.6250    81.7190     8.5120     7.8790     8.1690    23.9370     2.4170   -20.4620 
  216.7500    82.3600     8.8950     8.0960     8.3390    23.9000     2.4040   -20.6330 
  216.8750    81.1630     9.2980     8.4320     8.5190    23.8610     2.3990   -20.8500 
  217.0000    81.7410     9.6050     8.7480     8.6110    23.8000     2.3980   -21.0270 
  217.1250    84.8760     9.7670     8.9550     8.6750    23.7390     2.3960   -21.2230 
  217.2500    88.0620     9.8410     9.0660     8.6560    23.7020     2.3910   -21.3350 
  217.3750    90.2060     9.8660     9.0970     8.7110    23.6720     2.3860   -21.4100 
