~V
VERS. 2.00: Ver 2.00
~W
STRT.M 60.0000:
STOP.M 235.0000:
STEP.M 0.1250:
NULL. -999.2500:
UWI. DF33014:
~C
DEPT.M :
SP.MV :
GR.API :
RML.OHMM :
RI. :
RXO.OHMM :
CALI.CM :
DEN.GM/CC :
~A
   60.0000    54.7460    52.8430     0.3070     0.0350    -1.1080    26.0930     2.4500 
   60.1250    46.4160    51.6530     0.3200     0.0450     0.1080    26.2830     2.2640 
   60.2500    36.9820    52.5590     1.2710     0.1530     2.3700    26.5160     2.0470 
   60.3750    27.0350    55.6320     3.4410     0.4200     5.0580    27.0940     1.8470 
   60.5000    17.1970    57.8200     6.7670     0.8990     6.3530    28.2910     1.7020 
   60.6250     7.9870    56.5890    10.5470     1.6320     5.6980    28.9060     1.6520 
   60.7500    -0.3680    56.6650    13.1530     2.4970     5.1740    28.5270     1.6900 
   60.8750    -7.5930    61.7420    13.1780     3.3630     5.3180    27.2760     1.8000 
   61.0000   -13.4050    68.1290    11.1760     4.1270     6.0630    26.0260     1.9450 
   61.1250   -17.3880    68.2710     9.6110     4.7650     7.0530    25.4120     2.0710 
   61.2500   -20.0400    65.5360     9.0080     5.3360     8.4860    25.2040     2.1480 
   61.3750   -21.8770    65.6790     8.9730     5.8430    11.3120    25.0850     2.1800 
   61.5000   -23.3110    70.0530     9.1530     6.2530    14.7700    24.8690     2.1880 
   61.6250   -24.4510    73.0330     9.2860     6.5150    14.0910    24.6600     2.1890 
   61.7500   -25.4230    72.9970     9.2640     6.6460    10.7330    24.5230     2.1900 
   61.8750   -26.1930    72.1740     9.0880     6.6600     8.5620    24.4330     2.1890 
   62.0000   -26.7290    72.2890     8.8170     6.5830     8.0240    24.3600     2.1860 
   62.1250   -27.1080    71.3480     8.5350     6.4450     7.9340    24.3030     2.1810 
   62.2500   -27.3940    69.5400     8.3160     6.2990     7.7900    24.2820     2.1750 
   62.3750   -27.5100    69.3590     8.2000     6.1820     7.5680    24.2900     2.1720 
   62.5000   -27.5340    71.1610     8.2000     6.1230     7.3340    24.3190     2.1740 
   62.6250   -27.5280    72.6090     8.3100     6.1390     7.2480    24.3500     2.1900 
   62.7500   -27.3600    71.6630     8.4510     6.1950     7.1210    24.4000     2.2210 
   62.8750   -27.0040    71.7100     8.5430     6.2460     6.9370    24.5780     2.2600 
   63.0000   -26.5080    76.0890     8.5100     6.2440     6.6340    24.9630     2.2890 
   63.1250   -25.8570    82.9760     8.2890     6.1480     5.9750    25.2460     2.2880 
   63.2500   -25.1500    86.6800     7.9590     5.9900     5.1000    25.3020     2.2600 
   63.3750   -24.5760    86.4590     7.6200     5.8220     4.6070    25.3020     2.2220 
   63.5000   -24.1700    86.0980     7.3770     5.7020     4.9990    25.2760     2.1940 
   63.6250   -23.9530    85.6720     7.3240     5.6870     5.8410    25.0720     2.1890 
   63.7500   -24.0420    83.3000     7.4220     5.7660     6.2050    24.6690     2.1980 
   63.8750   -24.4140    80.9710     7.6070     5.9140     6.0820    24.2260     2.2040 
   64.0000   -25.0120    79.4140     7.8120     6.1000     6.0060    23.7820     2.1970 
   64.1250   -25.8710    77.8610     8.0020     6.2960     6.2540    23.7150     2.1740 
   64.2500   -26.8250    76.2530     8.1890     6.4820     6.5480    24.0470     2.1520 
   64.3750   -27.7050    73.6330     8.3620     6.6340     6.8300    24.5090     2.1420 
   64.5000   -28.3630    69.2170     8.4570     6.7090     7.1320    24.7830     2.1510 
   64.6250   -28.6390    65.7290     8.3170     6.6330     7.2300    24.8800     2.1740 
   64.7500   -28.5980    66.9700     7.8850     6.3910     6.5930    25.0150     2.1960 
   64.8750   -28.2820    72.3280     7.1850     6.0000     5.2100    25.3260     2.2070 
   65.0000   -27.7520    80.3080     6.3500     5.5180     3.7840    25.8300     2.2080 
   65.1250   -26.9800    89.9570     5.5990     5.0530     3.1170    26.3760     2.2030 
   65.2500   -26.1010    98.2440     5.1160     4.7230     3.0970    26.6870     2.2000 
   65.3750   -25.2770   101.5850     5.0410     4.6310     3.3670    26.7330     2.2070 
   65.5000   -24.6510    97.0300     5.4520     4.8500     4.1140    26.5960     2.2260 
   65.6250   -24.3610    87.4370     6.3730     5.4290     6.7870    26.4080     2.2480 
   65.7500   -24.3980    80.6230     7.4880     6.1920    10.4010    26.1220     2.2580 
   65.8750   -24.7450    76.8000     8.4340     6.9320    11.2640    25.6840     2.2490 
   66.0000   -25.2550    72.1430     8.8200     7.4110     8.5180    25.2460     2.2240 
   66.1250   -25.8880    67.0740     8.3410     7.3890     6.3390    24.9900     2.1970 
   66.2500   -26.6040    63.9310     7.4030     6.9850     6.0660    24.9310     2.1800 
   66.3750   -27.2370    63.2790     6.4760     6.4230     6.3550    24.9110     2.1800 
   66.5000   -27.7450    66.2300     5.9200     5.9720     6.1490    24.9440     2.1940 
   66.6250   -28.1460    72.6520     6.0420     5.9230     5.6420    24.9960     2.2240 
   66.7500   -28.4250    76.4170     6.7950     6.3100     6.0580    25.0820     2.2600 
   66.8750   -28.6170    74.1400     8.0600     7.0730     9.0330    25.0860     2.2890 
   67.0000   -28.8490    67.9380     9.5340     8.0280    14.7700    25.0240     2.2950 
   67.1250   -29.1790    61.8980    10.6170     8.8340    16.6980    24.7060     2.2690 
   67.2500   -29.5790    59.9830    10.8390     9.1820    12.3640    24.3580     2.2280 
   67.3750   -30.1020    61.4690    10.0770     8.9270     8.3040    24.0730     2.1890 
   67.5000   -30.6920    61.2390     8.6980     8.1620     7.1050    23.8520     2.1650 
   67.6250   -31.2200    56.8820     7.3820     7.2140     7.3550    23.7020     2.1600 
   67.7500   -31.6200    53.7090     6.5910     6.5120     7.4570    23.6760     2.1700 
   67.8750   -31.9100    54.7550     6.6050     6.3680     7.5260    23.8180     2.1990 
   68.0000   -32.0710    58.7380     7.7280     7.0700     8.1010    24.0170     2.2560 
   68.1250   -32.1230    60.7950    10.3800     8.9940    11.5860    24.1920     2.3460 
   68.2500   -32.0930    58.4360    14.0680    11.8190    22.0830    24.3660     2.4400 
   68.3750   -31.9660    54.9930    17.8890    14.9350    43.4710    24.4920     2.4990 
   68.5000   -31.8450    54.5370    20.4610    17.3400    54.3590    24.5040     2.4930 
   68.6250   -31.8510    56.2210    19.8610    17.5700    31.7870    24.3550     2.4160 
   68.7500   -32.0010    55.1760    16.5950    15.6740    15.5380    24.1450     2.3210 
   68.8750   -32.2190    53.5290    12.4920    12.6380     9.0550    23.9830     2.2400 
   69.0000   -32.4740    54.8670     9.3060     9.7740     7.6180    23.9160     2.1890 
   69.1250   -32.6810    56.7580     7.6990     7.9430     7.9630    23.9110     2.1700 
   69.2500   -32.8300    56.9970     7.0930     6.9730     8.0740    23.9140     2.1670 
   69.3750   -32.9940    55.6260     7.1150     6.6250     8.0400    23.9160     2.1690 
   69.5000   -33.1020    53.1340     7.4510     6.6520     8.1050    23.9270     2.1690 
   69.6250   -33.0880    52.0650     7.8410     6.8460     8.3150    23.9620     2.1670 
   69.7500   -32.9920    54.0740     8.1070     7.0250     8.5310    24.0180     2.1610 
   69.8750   -32.8360    57.9880     8.1970     7.1200     8.6190    24.0480     2.1540 
   70.0000   -32.6070    59.1750     8.1230     7.1140     8.5190    24.0460     2.1470 
   70.1250   -32.2910    57.4120     7.9280     7.0130     8.1700    23.9770     2.1420 
   70.2500   -31.8930    57.1710     7.7150     6.8720     7.6330    23.9730     2.1380 
   70.3750   -31.3940    60.5110     7.5690     6.7390     7.0330    24.0110     2.1360 
   70.5000   -30.8000    65.6020     7.5620     6.6630     6.6740    24.0370     2.1360 
   70.6250   -30.1580    67.6510     7.7520     6.6900     6.8930    23.9620     2.1400 
   70.7500   -29.5550    68.1750     8.0680     6.7990     7.4750    23.8260     2.1490 
   70.8750   -29.0390    69.0760     8.4110     6.9450     8.0490    23.7480     2.1630 
   71.0000   -28.6580    68.7000     8.6570     7.0600     8.3420    23.7380     2.1800 
   71.1250   -28.3980    63.8170     8.6690     7.0620     8.2880    23.7670     2.1970 
