~V
VERS. 2.00: Ver 2.00
~W
STRT.M 60.0000:
STOP.M 235.0000:
STEP.M 0.1250:
NULL. -999.2500:
UWI. DF33014:
~C
DEPT.M :
SP.MV :
GR.API :
RML.OHMM :
RI. :
RXO.OHMM :
CALI.CM :
DEN.GM/CC :
~A
# ...
   82.5000   -20.1230    61.1990     9.1670     7.2300     7.8840    23.3800     2.2050 
   82.6250   -20.2380    63.2950     9.0270     7.1160     7.4620    23.4150     2.2100 
   82.7500   -20.3490    64.7580     8.8910     6.9590     7.4510    23.4160     2.2140 
   82.8750   -20.3640    66.7260     8.7980     6.8060     7.6540    23.3850     2.2160 
   83.0000   -20.4160    69.5940     8.7220     6.6710     7.7740    23.3590     2.2130 
   83.1250   -20.4710    70.3050     8.5820     6.5380     7.6360    23.3650     2.2050 
   83.2500   -20.4980    67.4520     8.3550     6.3960     7.3740    23.3970     2.1940 
   83.3750   -20.6080    63.0850     8.1190     6.2770     7.1970    23.4260     2.1850 
   83.5000   -20.7090    61.3520     8.0690     6.2740     7.3170    23.4380     2.1890 
   83.6250   -20.9700    62.8240     8.5760     6.5880     8.2330    23.4350     2.2240 
   83.7500   -21.2370    64.0850     9.7420     7.2880    10.9240    23.4200     2.2840 
   83.8750   -21.5580    63.4120    11.4640     8.3450    17.4360    23.3880     2.3500 
   84.0000   -21.8990    61.4470    13.3470     9.5680    29.7180    23.3750     2.3920 
   84.1250   -22.1900    59.4170    14.5980    10.5360    38.3880    23.3980     2.3780 
   84.2500   -22.5480    58.1170    14.7010    10.8980    29.0930    23.4080     2.3250 
   84.3750   -22.8340    57.9370    13.6220    10.5290    16.6850    23.3610     2.2610 
   84.5000   -23.1310    58.2200    11.9040     9.6130    10.7060    23.2540     2.2120 
   84.6250   -23.2650    58.7040    10.3950     8.5700     9.1260    23.1890     2.1900 
   84.7500   -23.3750    59.5240     9.4860     7.7760     8.6330    23.1670     2.1840 
   84.8750   -23.4250    59.1020     9.1570     7.3380     8.3640    23.1690     2.1860 
   85.0000   -23.4120    56.9760     9.2350     7.2220     8.3340    23.1780     2.1890 
   85.1250   -23.4570    56.6890     9.5220     7.3350     8.5540    23.1890     2.1940 
   85.2500   -23.4270    59.6190     9.8100     7.5090     8.7050    23.1920     2.1980 
   85.3750   -23.3960    63.0880    10.0080     7.6620     8.6950    23.1950     2.2030 
   85.5000   -23.3560    63.7580    10.0860     7.7490     8.5710    23.2000     2.2070 
   85.6250   -23.3360    61.2760    10.0380     7.7510     8.4030    23.2030     2.2080 
   85.7500   -23.3410    59.6030     9.9190     7.6920     8.3180    23.2120     2.2060 
   85.8750   -23.3090    60.3480     9.7590     7.5930     8.3690    23.2240     2.2000 
   86.0000   -23.2770    60.1180     9.5740     7.4720     8.4450    23.2240     2.1930 
   86.1250   -23.1820    58.5120     9.3760     7.3430     8.3500    23.0980     2.1860 
   86.2500   -23.0720    58.3950     9.1910     7.2250     8.1220    23.0160     2.1810 
   86.3750   -22.9900    59.0430     9.0560     7.1340     7.9020    22.9860     2.1780 
   86.5000   -22.8000    58.1960     9.0060     7.0840     7.7720    22.9790     2.1780 
   86.6250   -22.6750    56.6200     9.0750     7.0880     7.7080    22.9720     2.1780 
   86.7500   -22.4610    57.5620     9.2130     7.1200     7.6670    22.9690     2.1780 
   86.8750   -22.2710    59.0130     9.3500     7.1470     7.6770    22.9690     2.1780 
   87.0000   -22.0740    59.2790     9.3950     7.1210     7.6830    22.9690     2.1780 
   87.1250   -21.7590    58.6310     9.2350     6.9810     7.4730    22.9690     2.1820 
   87.2500   -21.4840    57.5600     8.8840     6.7320     6.9940    22.9760     2.1890 
   87.3750   -21.1230    57.7400     8.4130     6.4100     6.3520    23.0020     2.1980 
   87.5000   -20.8470    59.8930     7.9520     6.0840     5.7080    23.0640     2.2070 
   87.6250   -20.5240    62.2930     7.6880     5.8660     5.4810    23.1400     2.2140 
   87.7500   -20.3120    63.0680     7.7010     5.8150     5.9490    23.2280     2.2190 
   87.8750   -20.1320    61.9190     8.0180     5.9630     6.9910    23.3070     2.2240 
   88.0000   -19.9550    61.6280     8.6020     6.3020     8.0620    23.3500     2.2310 
   88.1250   -19.9370    63.9170     9.3630     6.7960     8.7800    23.3590     2.2400 
   88.2500   -19.9030    67.2190    10.1190     7.3360     9.8800    23.3590     2.2480 
   88.3750   -19.9930    69.7770    10.7290     7.8320    11.5140    23.3590     2.2530 
   88.5000   -20.0770    70.4400    11.0870     8.2080    12.3540    23.3590     2.2540 
   88.6250   -20.1990    68.4910    11.0930     8.3830    11.1900    23.3590     2.2490 
   88.7500   -20.2990    66.6590    10.8320     8.3810     9.7300    23.3600     2.2390 
   88.8750   -20.3450    66.0020    10.4020     8.2390     8.9790    23.3650     2.2260 
   89.0000   -20.4550    65.3560     9.9230     8.0160     8.7080    23.3790     2.2130 
   89.1250   -20.4080    62.4310     9.5280     7.7820     8.4200    23.4020     2.2010 
   89.2500   -20.2900    58.9000     9.2660     7.5840     8.1340    23.4390     2.1930 
   89.3750   -20.0760    57.2890     9.1190     7.4210     7.9020    23.4940     2.1930 
   89.5000   -19.7160    57.2250     9.0030     7.2560     7.7100    23.5550     2.2020 
   89.6250   -19.2870    58.0370     8.7710     7.0120     7.5290    23.6440     2.2220 
   89.7500   -18.6690    60.4910     8.3450     6.6530     7.2000    23.7560     2.2480 
   89.8750   -18.0470    64.5520     7.7370     6.1860     6.3770    23.9310     2.2770 
   90.0000   -17.3350    69.6670     7.0620     5.6740     5.1190    24.1650     2.3000 
   90.1250   -16.7520    74.3970     6.5490     5.2450     4.1310    24.4210     2.3090 
   90.2500   -16.3680    78.9650     6.3580     5.0070     3.8060    24.5710     2.3060 
   90.3750   -16.1710    81.9600     6.5540     5.0230     4.2070    24.5440     2.2940 
   90.5000   -16.2240    80.9010     7.1130     5.3050     5.3170    24.3130     2.2780 
   90.6250   -16.5260    77.1880     7.9460     5.8340     6.9410    23.9760     2.2640 
   90.7500   -17.0330    75.5100     8.8300     6.4670     8.2240    23.6970     2.2520 
   90.8750   -17.6540    74.0220     9.6010     7.0900     8.7020    23.5610     2.2410 
   91.0000   -18.3850    69.4060    10.1550     7.6030     8.6580    23.5250     2.2300 
   91.1250   -19.0250    64.4680    10.4340     7.9250     8.4510    23.5230     2.2170 
   91.2500   -19.6570    64.2780    10.5220     8.0870     8.2240    23.5230     2.2030 
   91.3750   -20.1700    65.8150    10.4590     8.1150     8.1500    23.5240     2.1910 
   91.5000   -20.5940    64.8060    10.2670     8.0350     8.2940    23.5260     2.1830 
   91.6250   -20.9000    61.3840     9.9620     7.8620     8.5180    23.5240     2.1830 
   91.7500   -21.0970    59.4050     9.6300     7.6470     8.7180    23.5140     2.1900 
   91.8750   -21.2850    59.7960     9.3550     7.4400     8.8910    23.4860     2.1990 
   92.0000   -21.3810    61.5350     9.2030     7.2860     9.0530    23.4510     2.2090 
   92.1250   -21.5350    63.2390     9.2090     7.2250     9.3810    23.4280     2.2150 
   92.2500   -21.6340    62.9390     9.3020     7.2290     9.8030    23.4260     2.2160 
   92.3750   -21.6870    62.2150     9.4170     7.2700     9.9130    23.4270     2.2120 
   92.5000   -21.7590    63.7480     9.4990     7.3120     9.5220    23.4280     2.2070 
   92.6250   -21.7220    67.5100     9.5150     7.3270     9.1510    23.4290     2.2030 
   92.7500   -21.7740    69.7940     9.4880     7.3140     9.1730    23.4340     2.2000 
   92.8750   -21.7430    67.5360     9.4390     7.2800     9.3350    23.4480     2.1970 
   93.0000   -21.7770    62.3920     9.3860     7.2380     9.2900    23.4850     2.1910 
   93.1250   -21.8000    57.0770     9.3320     7.1950     8.9990    23.5610     2.1820 
   93.2500   -21.7430    53.6010     9.2740     7.1560     8.6600    23.6470     2.1730 
   93.3750   -21.7370    53.6770     9.2140     7.1200     8.3530    23.6940     2.1680 
   93.5000   -21.6600    56.1750     9.1550     7.0880     8.1590    23.6830     2.1690 
   93.6250   -21.6240    57.7300     9.1050     7.0640     8.2470    23.6060     2.1770 
