~V
VERS. 2.00: Ver 2.00
~W
STRT.M 55.0000:
STOP.M 246.0000:
STEP.M 0.1250:
NULL. -999.2500:
UWI. DF33025:
~C
DEPT.M :
SP.MV :
GR.API :
CALI.CM :
RXO.OHMM :
RI. :
RML.OHMM :
DEN.GM/CC :
~A
# ...
   66.2500   -33.3580    87.8670    22.6290     9.3710     7.4480     8.4040     2.1910 
   66.3750   -33.4130    83.2660    22.7680     9.2490     7.2080     8.3090     2.1820 
   66.5000   -33.4950    79.4350    22.8150     8.6800     7.1130     8.3310     2.1730 
   66.6250   -33.5910    82.0700    22.9310     8.3920     7.0950     8.3800     2.1620 
   66.7500   -33.6630    83.0480    23.2450     8.4500     7.1100     8.4370     2.1520 
   66.8750   -33.6750    79.2570    23.7040     8.9060     7.1380     8.4990     2.1460 
   67.0000   -33.6050    77.0550    24.1470     9.5950     7.1590     8.5480     2.1450 
   67.1250   -33.5160    80.4380    24.2610     9.8490     7.1510     8.5430     2.1480 
   67.2500   -33.4430    81.6250    24.0570     9.5080     7.1030     8.4950     2.1500 
   67.3750   -33.3330    79.1120    23.7710     9.0200     7.0170     8.4440     2.1530 
   67.5000   -33.1470    76.8680    23.6670     8.8080     6.9150     8.4310     2.1580 
   67.6250   -33.0120    76.3440    23.6720     8.8640     6.8410     8.4660     2.1630 
   67.7500   -32.9000    74.6740    23.5580     8.8890     6.8060     8.5120     2.1670 
   67.8750   -32.7800    73.5260    23.4290     8.9100     6.7880     8.5360     2.1660 
   68.0000   -32.7810    75.0000    23.3940     8.9820     6.7630     8.5190     2.1640 
   68.1250   -32.9000    77.6350    23.3550     9.0910     6.7180     8.4740     2.1650 
   68.2500   -32.9740    79.3190    23.4150     9.1750     6.6640     8.4380     2.1680 
   68.3750   -33.0880    81.0120    23.5470     9.2670     6.6090     8.4360     2.1700 
   68.5000   -33.2690    82.3900    23.6940     9.4440     6.5560     8.4710     2.1680 
   68.6250   -33.4420    81.2710    23.7210     9.5900     6.5210     8.5380     2.1610 
   68.7500   -33.5350    81.1620    23.9430     9.6000     6.5090     8.6140     2.1530 
   68.8750   -33.6370    83.9810    24.1810     9.5380     6.5080     8.6800     2.1430 
   69.0000   -33.7020    85.8500    24.2900     9.5350     6.4920     8.7260     2.1340 
   69.1250   -33.7270    82.3410    24.2970     9.6030     6.4370     8.7480     2.1290 
   69.2500   -33.7450    77.4710    24.3100     9.6580     6.3650     8.7550     2.1300 
   69.3750   -33.7310    74.5970    24.3260     9.6720     6.2940     8.7540     2.1380 
   69.5000   -33.6780    73.1930    24.3390     9.6630     6.2320     8.7460     2.1510 
   69.6250   -33.5880    73.7950    24.3570     9.6320     6.1810     8.7390     2.1580 
   69.7500   -33.5070    76.0310    24.3710     9.5740     6.1330     8.7360     2.1560 
   69.8750   -33.4260    76.8080    24.3840     9.5270     6.0820     8.7260     2.1540 
   70.0000   -33.3000    75.1230    24.3910     9.5340     6.0250     8.6930     2.1610 
   70.1250   -33.1610    74.0300    24.3930     9.5440     5.9600     8.6210     2.1800 
   70.2500   -33.0560    76.0810    24.4220     9.4650     5.8950     8.5340     2.2000 
   70.3750   -32.9600    79.1850    24.5050     9.3390     5.8500     8.4730     2.2090 
   70.5000   -32.8850    79.8060    24.6220     9.2800     5.8480     8.4800     2.2020 
   70.6250   -32.8640    79.7980    24.5430     9.4070     5.9130     8.5980     2.1900 
   70.7500   -32.8610    80.8110    24.2170     9.6650     6.0250     8.7920     2.1890 
   70.8750   -32.8760    80.9870    23.8200     9.9270     6.1520     9.0090     2.1990 
   71.0000   -32.9100    78.5900    23.7530    10.0600     6.2610     9.1840     2.2120 
   71.1250   -32.9340    76.7840    23.8630    10.0920     6.3190     9.2610     2.2140 
   71.2500   -32.9400    76.8870    23.9680    10.0530     6.3390     9.2700     2.2070 
   71.3750   -32.9550    76.9450    23.8270     9.9620     6.3440     9.2590     2.1950 
   71.5000   -32.9340    77.3990    23.6410     9.8790     6.3600     9.2690     2.1800 
   71.6250   -32.8450    78.2870    23.6260     9.8070     6.4020     9.3210     2.1690 
   71.7500   -32.7540    76.3130    23.7770     9.7410     6.4520     9.3870     2.1680 
   71.8750   -32.6350    74.6750    23.9300     9.6900     6.4930     9.4350     2.1760 
   72.0000   -32.5430    77.6340    24.0960     9.6530     6.5160     9.4420     2.1820 
   72.1250   -32.3710    80.9590    24.1730     9.6080     6.4880     9.3720     2.1770 
   72.2500   -32.1560    78.7210    24.1420     9.5960     6.3910     9.2150     2.1590 
   72.3750   -31.8630    76.8580    23.9720     9.5930     6.2320     8.9770     2.1400 
   72.5000   -31.5680    81.0110    23.6150     9.3710     6.0420     8.6940     2.1350 
   72.6250   -31.2140    88.5120    23.5170     8.7000     5.8620     8.4250     2.1640 
   72.7500   -30.8540    93.4660    23.4820     8.0480     5.7250     8.2360     2.2100 
   72.8750   -30.4760    95.1930    23.5920     7.9370     5.6580     8.1740     2.2480 
   73.0000   -30.0790    95.4810    23.8510     8.3080     5.6820     8.2580     2.2600 
   73.1250   -29.7090    96.8010    23.9850     8.6350     5.8080     8.4790     2.2500 
   73.2500   -29.3500    97.3720    24.0650     8.7960     5.9830     8.7370     2.2380 
   73.3750   -28.9830    93.4740    24.0880     9.0550     6.1460     8.9470     2.2210 
   73.5000   -28.5480    85.4240    24.0330     9.4090     6.2380     9.0420     2.1900 
   73.6250   -28.0780    79.0230    24.1490     9.4340     6.2140     8.9700     2.1560 
   73.7500   -27.5380    79.5500    24.1870     9.0080     6.0890     8.7360     2.1400 
   73.8750   -26.9620    86.3880    24.1980     8.4580     5.8770     8.3400     2.1460 
   74.0000   -26.3400    94.4600    24.2040     8.3030     5.6360     7.8720     2.1630 
   74.1250   -25.7130    98.4210    24.2410     8.4450     5.4790     7.5720     2.1810 
   74.2500   -25.0890    97.9450    24.3440     8.0600     5.4910     7.6250     2.2070 
   74.3750   -24.5200    96.8620    24.5410     7.5650     5.7190     8.1030     2.2550 
   74.5000   -24.0580    97.8190    24.7690     8.1230     6.1460     8.9390     2.3250 
   74.6250   -23.7120    98.9780    24.7090    10.3960     6.6390     9.8480     2.3920 
   74.7500   -23.4240    97.7840    24.4350    11.2730     6.9460    10.3720     2.4170 
   74.8750   -23.1720    96.1920    24.2940    10.0780     6.8940    10.2120     2.3870 
   75.0000   -22.9240    98.5080    24.3870     8.4400     6.4680     9.3860     2.3230 
   75.1250   -22.7120   103.2110    24.4990     7.4220     5.8410     8.2410     2.2690 
   75.2500   -22.5150   105.2890    24.5900     6.9410     5.3160     7.3020     2.2460 
   75.3750   -22.3500   105.3200    24.6400     6.7690     5.0600     6.8330     2.2480 
   75.5000   -22.1800   104.6730    24.5720     6.8410     5.1590     6.9370     2.2630 
   75.6250   -21.9840   103.2570    24.3370     7.7240     5.7480     7.7710     2.2920 
   75.7500   -21.7740   100.7510    24.4190     9.7510     6.8310     9.2880     2.3390 
   75.8750   -21.5730    96.9200    24.7060    12.9490     8.3890    11.4140     2.4010 
   76.0000   -21.4290    91.2960    25.0040    15.8200    10.1670    13.7500     2.4710 
   76.1250   -21.3100    85.4990    25.3980    17.9630    11.3920    15.1900     2.5360 
   76.2500   -21.2430    82.5090    25.4840    19.1700    11.4250    14.9200     2.5770 
   76.3750   -21.1990    84.5400    25.3370    17.7510    10.2610    13.0520     2.5750 
   76.5000   -21.1850    91.1310    25.1790    13.1340     8.5040    10.5490     2.5190 
   76.6250   -21.2480    99.3750    25.1650     8.3730     6.8710     8.4620     2.4280 
   76.7500   -21.4140   107.4250    25.2170     6.0860     5.6410     7.0500     2.3510 
   76.8750   -21.6850   114.0790    25.2530     5.3100     4.8270     6.2440     2.3210 
   77.0000   -22.0390   116.5660    25.3570     5.1940     4.3800     5.9110     2.3300 
   77.1250   -22.5140   113.9920    25.4600     5.2650     4.2800     5.9580     2.3450 
   77.2500   -23.0580   113.3490    25.4390     5.3100     4.4100     6.2280     2.3420 
   77.3750   -23.6940   115.7620    25.2940     5.5760     4.7300     6.6840     2.3290 
