~V
VERS. 2.00: Ver 2.00
~W
STRT.M 50.0000:
STOP.M 235.0000:
STEP.M 0.1250:
NULL. -999.2500:
UWI. DF33017:
~C
DEPT.M :
GR.API :
CALI.CM :
RXO.OHMM :
RI. :
RML.OHMM :
DEN.GM/CC :
SP.MV :
~A
# ...
   72.5000   111.2420    26.5660     5.0490     4.9290     6.8130     2.3460   -28.4630 
   72.6250   106.0330    26.4650     5.8550     5.8490     8.1790     2.3580   -28.8790 
   72.7500   100.1510    26.2260     8.9550     7.1110    10.2070     2.4050   -29.4170 
   72.8750    93.1290    25.9060    14.7240     8.4440    12.4470     2.4730   -30.0750 
   73.0000    82.5060    25.4090    19.0940     9.3960    13.9370     2.5200   -30.7990 
   73.1250    71.2730    24.9640    16.9050     9.4580    13.6240     2.4980   -31.4530 
   73.2500    65.5480    24.7730    12.7880     8.8770    12.2690     2.4220   -32.0310 
   73.3750    66.9000    24.7980    10.1760     8.0580    10.8290     2.3270   -32.5680 
   73.5000    71.4470    24.7190     8.9370     7.3490     9.8850     2.2500   -33.0190 
   73.6250    73.4080    24.3660     8.4230     6.9930     9.6700     2.2150   -33.2620 
   73.7500    71.5530    24.2670     8.2590     6.9540     9.9030     2.2040   -33.3580 
   73.8750    68.0720    24.3330     8.2830     7.1300    10.3220     2.1990   -33.3260 
   74.0000    66.6190    24.3770     8.3050     7.3570    10.6850     2.1930   -33.2150 
   74.1250    67.5400    24.2720     8.1840     7.4560    10.8280     2.1900   -33.0300 
   74.2500    69.7160    24.1920     8.0250     7.4050    10.8010     2.1900   -32.8120 
   74.3750    72.8260    24.2280     7.9030     7.2730    10.6900     2.1920   -32.5620 
   74.5000    76.2910    24.2820     7.8950     7.1520    10.5810     2.1940   -32.3300 
   74.6250    76.6350    24.2100     8.0700     7.0890    10.5270     2.1960   -32.1530 
   74.7500    74.4310    24.0890     8.3090     7.0420    10.5060     2.1980   -32.0490 
   74.8750    73.6180    24.0500     8.4410     6.9780    10.4980     2.1980   -32.0330 
   75.0000    75.9390    24.0700     8.4430     6.9210    10.5110     2.1960   -32.0860 
   75.1250    79.4860    24.0790     8.5440     6.9430    10.5650     2.1950   -32.2140 
   75.2500    79.9060    24.1580     8.8700     7.0270    10.6420     2.1960   -32.3760 
   75.3750    78.4850    24.4070     9.2900     7.0970    10.7090     2.2010   -32.5740 
   75.5000    76.8960    24.5570     9.5010     7.0710    10.7220     2.2070   -32.8180 
   75.6250    75.6670    24.4350     9.3340     6.9070    10.6320     2.2100   -33.1400 
   75.7500    76.3760    24.0940     9.1620     6.7000    10.4640     2.2090   -33.4520 
   75.8750    79.2290    23.8680     9.3430     6.5430    10.2640     2.2020   -33.6960 
   76.0000    82.1440    23.8550     9.9450     6.4810    10.0960     2.1910   -33.8730 
   76.1250    80.2000    24.1980    10.3990     6.4990    10.0520     2.1760   -34.0180 
   76.2500    74.4760    24.4360    10.3140     6.5520    10.1620     2.1620   -34.1660 
   76.3750    70.3460    24.6040     9.9820     6.6470    10.4090     2.1550   -34.2680 
   76.5000    70.5860    24.6790     9.7580     6.7820    10.7020     2.1640   -34.2580 
   76.6250    73.4050    24.5440     9.8340     6.8960    10.8650     2.1900   -34.1450 
   76.7500    76.5270    24.2370    10.2950     6.8890    10.7810     2.2130   -33.9980 
   76.8750    78.7320    24.1410    10.8410     6.7090    10.4360     2.2200   -33.7970 
   77.0000    78.9240    24.1990    11.0930     6.4010     9.9430     2.2110   -33.5440 
   77.1250    76.6060    24.2920    11.0510     6.1350     9.5180     2.2000   -33.2500 
   77.2500    74.2520    24.4110    10.8170     6.0490     9.2980     2.1890   -32.8970 
   77.3750    72.6570    24.8260    10.4640     6.1570     9.2960     2.1810   -32.5770 
   77.5000    72.1080    25.4430    10.0100     6.3720     9.4320     2.1810   -32.3060 
   77.6250    75.3790    26.0630     9.4720     6.5470     9.5640     2.2000   -32.0170 
   77.7500    78.5270    26.7890     9.1480     6.6050     9.5730     2.2230   -31.6530 
   77.8750    76.4080    27.4560     9.0120     6.5740     9.4390     2.2300   -31.2560 
   78.0000    69.9240    27.8260     8.8740     6.5270     9.2210     2.2140   -30.8110 
   78.1250    66.6900    27.7760     8.5970     6.5040     9.0050     2.1870   -30.3230 
   78.2500    69.3720    27.4660     8.3690     6.4460     8.8170     2.1700   -29.7220 
   78.3750    73.3780    27.1230     8.3760     6.2790     8.6080     2.1700   -28.9520 
   78.5000    73.9360    26.8660     8.6020     5.9770     8.3020     2.1820   -28.0170 
   78.6250    72.8450    26.8670     8.2620     5.5700     7.8220     2.1990   -26.9930 
   78.7500    76.1530    27.4400     7.1360     5.1460     7.2430     2.2160   -25.9740 
   78.8750    84.3910    28.5330     5.8730     4.7450     6.6780     2.2380   -25.0280 
   79.0000    92.8080    29.7270     5.1200     4.3770     6.2350     2.2600   -24.1870 
   79.1250    97.4210    30.4040     4.8900     4.0810     5.9990     2.2750   -23.4260 
   79.2500   101.1530    30.2840     4.8020     3.9000     5.9260     2.2800   -22.7870 
   79.3750   106.0620    29.6710     4.7770     3.8700     5.9680     2.2860   -22.2940 
   79.5000   110.2250    28.9720     4.8370     3.9740     6.0670     2.3010   -21.9720 
   79.6250   109.2950    28.3780     5.0420     4.1330     6.1770     2.3200   -21.8590 
   79.7500   105.2220    27.9090     5.2770     4.2510     6.2840     2.3300   -21.8380 
   79.8750   102.0490    27.6560     5.3210     4.3030     6.3970     2.3320   -21.8810 
   80.0000   100.8470    27.5630     5.1290     4.3180     6.5230     2.3330   -21.9780 
   80.1250   100.0930    27.4440     5.1780     4.3780     6.6530     2.3360   -22.2180 
   80.2500    98.6000    27.1830     5.5270     4.5540     6.8030     2.3360   -22.5940 
   80.3750    95.0040    26.8530     5.9690     4.8830     7.0340     2.3300   -23.0760 
   80.5000    90.2650    26.6080     6.2580     5.3580     7.4260     2.3150   -23.6070 
   80.6250    88.3260    26.5080     6.4750     5.9550     8.0690     2.3020   -24.1180 
   80.7500    89.9320    26.4320     7.2590     6.5890     8.8890     2.3110   -24.7200 
   80.8750    91.7200    26.3690     8.6720     7.2020     9.7540     2.3500   -25.3870 
   81.0000    91.8650    26.3540     9.8660     7.7290    10.4730     2.4010   -26.1140 
   81.1250    90.4790    26.2690     9.7250     8.0800    10.8490     2.4170   -26.8250 
   81.2500    88.3850    26.0260     8.8090     8.2370    10.9820     2.3810   -27.4560 
   81.3750    86.0690    25.8020     8.2570     8.1800    10.9960     2.3080   -27.9820 
   81.5000    82.7910    25.8390     8.2230     7.9020    10.9290     2.2290   -28.4140 
   81.6250    79.1510    26.2360     8.3990     7.3750    10.6070     2.1750   -28.7650 
   81.7500    78.5570    26.3780     8.4670     6.6680     9.8600     2.1510   -28.9870 
   81.8750    82.3240    26.3920     8.2580     5.8930     8.7290     2.1540   -29.1180 
   82.0000    87.9980    26.4840     7.5140     5.2460     7.5810     2.1800   -29.1700 
   82.1250    92.8550    26.6210     6.4430     5.0470     7.0700     2.2250   -29.1580 
   82.2500    97.9090    26.7450     6.0560     5.4710     7.5380     2.2780   -29.1920 
   82.3750    99.9020    26.6820     7.5480     6.7520     9.3190     2.3330   -29.3390 
   82.5000    94.4000    26.4840    14.1010     9.1640    12.8310     2.3930   -29.6580 
   82.6250    83.9360    26.3090    29.4540    12.9410    18.5280     2.4680   -30.1320 
   82.7500    75.4850    26.2430    43.1180    16.7530    24.0570     2.5500   -30.6620 
   82.8750    70.3220    26.2190    41.5770    18.4090    25.3790     2.6050   -31.2460 
   83.0000    68.2570    26.0310    27.3560    16.9230    21.5920     2.5910   -31.8970 
   83.1250    70.4030    26.0690    16.9710    13.7540    16.5450     2.4940   -32.5820 
   83.2500    74.3810    26.1390    12.0090    10.8960    12.9300     2.3750   -33.1990 
   83.3750    76.8520    26.3150     9.8450     8.8430    10.8470     2.2820   -33.7300 
   83.5000    76.4080    26.4520     8.9250     7.6290     9.9060     2.2280   -34.1480 
   83.6250    75.4990    26.2620     8.6810     7.2230     9.7620     2.2030   -34.5120 
