~V
VERS. 2.00: Ver 2.00
~W
STRT.M 60.0000:
STOP.M 233.0000:
STEP.M 0.1250:
NULL. -999.2500:
UWI. DF33019:
~C
DEPT.M :
GR.API :
RML.OHMM :
RI. :
RXO.OHMM :
CALI.CM :
DEN.GM/CC :
SP.MV :
~A
# ...
   71.2500    66.7350     7.8870     6.2390     6.2990    22.3650     2.1590   -28.9760 
   71.3750    66.0210     8.0650     6.3060     6.5030    22.2230     2.1510   -28.5670 
   71.5000    66.5830     8.2630     6.3900     6.9940    22.1040     2.1520   -28.1860 
   71.6250    68.0390     8.3710     6.4500     7.5270    22.0160     2.1650   -27.8370 
   71.7500    68.7740     8.3000     6.4410     7.9430    21.9340     2.1860   -27.4990 
   71.8750    68.9040     8.0070     6.3380     8.0840    21.8610     2.2090   -27.0980 
   72.0000    68.1830     7.5310     6.1470     7.8590    21.8450     2.2230   -26.6300 
   72.1250    67.9500     7.0390     5.9290     7.1090    21.9350     2.2190   -26.1180 
   72.2500    71.0220     6.7730     5.7970     6.4500    22.0770     2.2030   -25.5830 
   72.3750    75.7080     6.8960     5.8490     6.3070    22.1960     2.1910   -24.9920 
   72.5000    78.8050     7.4410     6.1270     6.4980    22.2660     2.2040   -24.3710 
   72.6250    79.5210     8.2580     6.5930     7.1660    22.2810     2.2630   -23.7870 
   72.7500    80.8240     8.9420     7.0440     8.9170    22.2960     2.3550   -23.2670 
   72.8750    82.0740     9.1460     7.2750    10.6490    22.3340     2.4530   -22.8380 
   73.0000    84.1070     8.6870     7.1390    10.0240    22.4220     2.5220   -22.5400 
   73.1250    90.3920     7.6410     6.5840     8.3470    22.5110     2.5330   -22.3800 
   73.2500    97.4550     6.5020     5.8560     6.4160    22.6300     2.5050   -22.3660 
   73.3750   101.0620     5.5930     5.1590     5.0230    22.7360     2.4600   -22.5360 
   73.5000   100.5510     5.0600     4.6360     4.5580    22.7090     2.4180   -22.8330 
   73.6250    99.8230     4.9310     4.3730     4.6840    22.6560     2.3870   -23.2770 
   73.7500   102.4440     5.0330     4.3030     4.7280    22.6300     2.3660   -23.8310 
   73.8750   106.6260     5.2680     4.3750     4.8420    22.6280     2.3500   -24.5130 
   74.0000   109.1940     5.5780     4.5440     4.9850    22.6350     2.3360   -25.2870 
   74.1250   104.4060     5.9720     4.8030     5.2060    22.6570     2.3180   -26.1730 
   74.2500    92.8500     6.4910     5.1470     5.2690    22.6880     2.2940   -27.0510 
   74.3750    80.1020     7.1940     5.5980     5.8410    22.7030     2.2660   -27.8910 
   74.5000    70.3420     8.0900     6.1600     6.8840    22.7060     2.2460   -28.6800 
   74.6250    66.2950     9.0890     6.7910     7.5810    22.6750     2.2510   -29.4130 
   74.7500    65.1100     9.9630     7.3680     7.8710    22.6090     2.2840   -30.0110 
   74.8750    64.8150    10.4990     7.7690     7.9790    22.5750     2.3300   -30.5080 
   75.0000    65.5270    10.5680     7.9080     8.2860    22.6590     2.3620   -30.8650 
   75.1250    67.3840    10.1810     7.7500     8.6900    22.8760     2.3510   -31.1230 
   75.2500    70.0420     9.6790     7.4610     8.4810    23.1870     2.3060   -31.3020 
   75.3750    70.2670     9.3220     7.1870     7.9690    23.5480     2.2470   -31.4390 
   75.5000    66.4240     9.2430     7.0360     7.5530    23.8820     2.1970   -31.5060 
   75.6250    61.7130     9.4320     7.0500     7.4890    24.0790     2.1760   -31.5320 
   75.7500    58.2190     9.6650     7.1370     7.6150    24.0090     2.1800   -31.5460 
   75.8750    56.8280     9.7590     7.1990     7.6890    23.6500     2.2000   -31.5830 
   76.0000    59.1300     9.6100     7.1600     7.5340    23.2120     2.2230   -31.6470 
   76.1250    65.3500     9.2390     6.9890     7.4400    23.0260     2.2320   -31.7290 
   76.2500    71.2820     8.8580     6.7690     7.4630    22.9810     2.2260   -31.8600 
   76.3750    72.8920     8.6140     6.5770     7.5080    22.9800     2.2090   -32.0460 
   76.5000    71.2600     8.5590     6.4690     7.5540    22.9800     2.1920   -32.3000 
   76.6250    69.9460     8.6570     6.4650     7.6820    22.9800     2.1850   -32.6400 
   76.7500    68.8060     8.7730     6.5120     7.8590    22.9800     2.1860   -33.0170 
   76.8750    65.7940     8.8250     6.5630     8.0130    22.9800     2.1930   -33.3850 
   77.0000    63.1540     8.7890     6.5890     8.1760    22.9800     2.1990   -33.7710 
   77.1250    64.5610     8.6900     6.5790     8.2120    22.9800     2.2020   -34.1090 
   77.2500    65.7660     8.5850     6.5520     8.1280    22.9800     2.1980   -34.4270 
   77.3750    63.1340     8.4970     6.5220     8.1330    22.9800     2.1890   -34.7170 
   77.5000    59.5460     8.4410     6.5000     8.5820    22.9800     2.1780   -34.9670 
   77.6250    60.0630     8.4370     6.5000     9.3740    22.9810     2.1690   -35.1360 
   77.7500    62.8510     8.4810     6.5230     9.5520    22.9920     2.1640   -35.2570 
   77.8750    63.1890     8.5590     6.5610     8.9410    23.0100     2.1640   -35.3040 
   78.0000    60.3500     8.6360     6.5960     9.0020    22.9850     2.1710   -35.2780 
   78.1250    58.5690     8.6460     6.5940     9.9940    22.8510     2.1820   -35.2260 
   78.2500    60.0020     8.5510     6.5360    10.1590    22.6610     2.1880   -35.1160 
   78.3750    62.0530     8.3520     6.4170     8.8080    22.5320     2.1870   -34.9840 
   78.5000    62.5200     8.0930     6.2550     7.5980    22.4690     2.1770   -34.8200 
   78.6250    63.2020     7.8590     6.0880     7.2490    22.3960     2.1640   -34.5930 
   78.7500    62.6180     7.7140     5.9580     7.1900    22.3050     2.1570   -34.3380 
   78.8750    60.8450     7.6850     5.8900     7.0560    22.2410     2.1570   -34.0790 
   79.0000    60.5950     7.7630     5.8900     6.9370    22.2180     2.1620   -33.8070 
   79.1250    62.1710     7.9260     5.9510     7.1100    22.2180     2.1700   -33.5010 
   79.2500    62.6520     8.1140     6.0390     7.3900    22.2180     2.1760   -33.2270 
   79.3750    61.7700     8.2850     6.1320     7.6860    22.2180     2.1790   -32.9500 
   79.5000    61.5090     8.3990     6.2090     7.7710    22.2180     2.1820   -32.6720 
   79.6250    62.1820     8.4040     6.2470     7.7660    22.2170     2.1820   -32.4030 
   79.7500    62.5420     8.3040     6.2470     7.8210    22.2140     2.1810   -32.1650 
   79.8750    63.8910     8.1140     6.2150     8.0260    22.2120     2.1760   -31.8950 
   80.0000    65.0250     7.8720     6.1670     8.2580    22.2130     2.1680   -31.5980 
   80.1250    64.2480     7.6440     6.1290     8.5160    22.2140     2.1570   -31.2680 
   80.2500    61.9780     7.4960     6.1250     8.7740    22.2170     2.1470   -30.8260 
   80.3750    60.4170     7.4740     6.1720     8.9670    22.2230     2.1400   -30.2830 
   80.5000    60.2380     7.5910     6.2710     8.9500    22.2470     2.1370   -29.6450 
   80.6250    60.5480     7.8280     6.4060     8.8400    22.3170     2.1370   -28.8860 
   80.7500    62.6410     8.0820     6.5210     8.7270    22.4030     2.1390   -28.0000 
   80.8750    67.6350     8.2600     6.5620     8.7320    22.4660     2.1460   -27.0580 
   81.0000    74.4740     8.2780     6.4850     8.4660    22.4970     2.1600   -26.1050 
   81.1250    79.6900     8.0500     6.2500     7.4520    22.5430     2.1860   -25.2360 
   81.2500    83.6420     7.6140     5.9000     6.4190    22.6310     2.2210   -24.4900 
   81.3750    88.9250     7.0100     5.4790     5.8600    22.7120     2.2600   -23.8770 
   81.5000    94.9270     6.2980     5.0370     5.5660    22.7520     2.2970   -23.4500 
   81.6250    96.8070     5.5890     4.6510     5.3100    22.7620     2.3210   -23.3170 
   81.7500    95.2880     5.0710     4.4070     5.0250    22.7670     2.3300   -23.4040 
   81.8750    94.0170     5.0360     4.4460     4.7390    22.7670     2.3280   -23.7380 
   82.0000    93.4280     5.9010     4.9900     4.7380    22.7500     2.3270   -24.2490 
   82.1250    90.8210     8.2980     6.4280     5.9580    22.7180     2.3510   -24.9070 
   82.2500    85.8940    12.0040     8.7010     9.1280    22.7000     2.4070   -25.6740 
   82.3750    79.3540    16.3550    11.5010    14.4020    22.6980     2.4880   -26.5430 
