~V
VERS. 2.00: Ver 2.00
~W
STRT.M 50.0000:
STOP.M 235.0000:
STEP.M 0.1250:
NULL. -999.2500:
UWI. DF33017:
~C
DEPT.M :
GR.API :
CALI.CM :
RXO.OHMM :
RI. :
RML.OHMM :
DEN.GM/CC :
SP.MV :
~A
# ...
   61.2500    85.0290    24.1980     8.7530     4.2700     4.9690     2.2020   -18.1810 
   61.3750    82.9790    24.1030     9.0280     4.8830     4.9460     2.2110   -22.4980 
   61.5000    80.0540    23.9940     9.4580     5.3640     5.1180     2.2160   -25.2110 
   61.6250    78.0130    23.8880     9.6210     5.6770     5.3640     2.2070   -27.0000 
   61.7500    77.3320    23.7480     9.7450     5.8050     5.5140     2.1910   -28.3680 
   61.8750    78.9670    23.6430     9.6980     5.7680     5.5230     2.1760   -29.4430 
   62.0000    81.2780    23.8770     9.2020     5.6270     5.4660     2.1690   -30.2930 
   62.1250    82.2910    24.3230     8.5050     5.4820     5.5180     2.1680   -30.9910 
   62.2500    83.0030    24.4040     8.2320     5.4340     5.7140     2.1720   -31.6350 
   62.3750    81.9030    24.2030     8.4250     5.5210     6.0000     2.1770   -32.2550 
   62.5000    78.1500    24.1820     8.8280     5.7210     6.3060     2.1810   -32.8970 
   62.6250    74.2110    24.1410     9.4260     5.9810     6.5320     2.1760   -33.5850 
   62.7500    72.8620    23.8990     9.9320     6.2260     6.6330     2.1660   -34.3030 
   62.8750    72.0360    23.5750    10.1980     6.3950     6.6180     2.1630   -34.9990 
   63.0000    71.3330    23.3940    10.2660     6.4590     6.5390     2.1720   -35.6670 
   63.1250    73.7770    23.3550    10.1960     6.4320     6.4630     2.1870   -36.2390 
   63.2500    76.8280    23.3500    10.2120     6.3710     6.4200     2.1960   -36.7650 
   63.3750    76.8230    23.3520    10.2740     6.3070     6.4240     2.1990   -37.3140 
   63.5000    75.2460    23.3550    10.3700     6.2700     6.4620     2.1980   -37.7530 
   63.6250    74.7180    23.3800    10.5000     6.2460     6.4960     2.1930   -38.0340 
   63.7500    74.4550    23.4880    10.5860     6.1890     6.5260     2.1820   -38.2160 
   63.8750    74.2770    23.7560    10.6030     6.0770     6.5380     2.1700   -38.3130 
   64.0000    74.4010    24.1920    10.4860     5.9200     6.5040     2.1630   -38.3630 
   64.1250    77.3380    24.6830    10.1850     5.7480     6.4200     2.1660   -38.4010 
   64.2500    80.9360    25.0240     9.9780     5.6120     6.3560     2.1700   -38.4600 
   64.3750    82.3850    25.1520    10.1370     5.5460     6.3920     2.1660   -38.4930 
   64.5000    80.7210    25.1870    10.5230     5.5480     6.5600     2.1520   -38.5340 
   64.6250    75.3460    25.2230    10.7330     5.6060     6.8140     2.1390   -38.6510 
   64.7500    70.6940    25.2390    10.7560     5.6810     7.0110     2.1340   -38.8110 
   64.8750    69.0380    25.2430    10.6990     5.7470     7.0590     2.1350   -38.9900 
   65.0000    70.8430    25.2430    10.6110     5.7890     6.9640     2.1350   -39.1930 
   65.1250    72.1410    25.2430    10.5010     5.7970     6.8130     2.1330   -39.3850 
   65.2500    71.8440    25.2390    10.4160     5.7770     6.7100     2.1340   -39.4580 
   65.3750    71.6210    25.2230    10.4350     5.7350     6.6890     2.1390   -39.4850 
   65.5000    71.8480    25.1870    10.5220     5.6850     6.7550     2.1430   -39.5100 
   65.6250    69.8540    25.1690    10.5200     5.6390     6.8630     2.1460   -39.4990 
   65.7500    68.9210    25.1630    10.5360     5.5970     6.9220     2.1500   -39.4980 
   65.8750    72.3830    25.1630    10.5060     5.5470     6.8730     2.1560   -39.5740 
   66.0000    75.9150    25.1630    10.3440     5.4840     6.6910     2.1610   -39.6810 
   66.1250    73.3760    25.1630    10.0720     5.4370     6.4280     2.1620   -39.8060 
   66.2500    69.9070    25.1630     9.8420     5.4360     6.2440     2.1620   -40.0220 
   66.3750    69.9370    25.1640     9.7670     5.4720     6.2350     2.1590   -40.2200 
   66.5000    72.4060    25.1730     9.8620     5.5210     6.3600     2.1520   -40.4000 
   66.6250    73.3520    25.1400    10.0020     5.5550     6.4740     2.1430   -40.5820 
   66.7500    73.3790    25.0790    10.0870     5.5500     6.4790     2.1370   -40.7270 
   66.8750    72.7570    25.0930    10.0360     5.5130     6.3880     2.1370   -40.8120 
   67.0000    71.6920    25.1780     9.8800     5.4720     6.2870     2.1410   -40.7660 
   67.1250    71.6870    25.2160     9.8140     5.4480     6.3310     2.1380   -40.6610 
   67.2500    71.5590    25.1830     9.8100     5.4490     6.5260     2.1260   -40.4860 
   67.3750    70.6710    25.1540     9.9360     5.4840     6.7970     2.1140   -40.2920 
   67.5000    70.2170    25.1470    10.1890     5.5320     7.0390     2.1120   -40.0770 
   67.6250    70.7470    25.1550    10.4040     5.5390     7.1090     2.1230   -39.8410 
   67.7500    72.5040    25.1790    10.2440     5.4980     7.0450     2.1390   -39.5860 
   67.8750    74.9500    25.2310     9.7040     5.4470     7.0090     2.1580   -39.2990 
   68.0000    76.7000    25.2080     9.2940     5.4430     7.1110     2.1740   -39.0830 
   68.1250    77.0580    24.9650     9.5610     5.5370     7.3590     2.1850   -38.8370 
   68.2500    76.7170    24.5520    10.0690     5.6960     7.6370     2.1880   -38.5790 
   68.3750    76.4330    24.2400    10.1780     5.8430     7.8640     2.1840   -38.2810 
   68.5000    77.2140    24.1200     9.9310     5.9030     7.9980     2.1810   -37.9480 
   68.6250    77.5380    24.1520     9.5570     5.8390     8.0540     2.1850   -37.5440 
   68.7500    76.1430    24.3240     9.0630     5.7050     8.1080     2.1920   -37.1000 
   68.8750    74.7610    24.6180     8.6570     5.5430     8.1740     2.1940   -36.6110 
   69.0000    76.3150    24.7860     8.6650     5.3880     8.1990     2.1860   -36.0080 
   69.1250    79.4410    24.6780     9.0920     5.2700     8.0860     2.1750   -35.2920 
   69.2500    80.5540    24.5270     9.3490     5.1800     7.8520     2.1720   -34.4410 
   69.3750    81.6060    24.5300     9.0470     5.0900     7.5620     2.1810   -33.5210 
   69.5000    84.1270    24.7950     8.3020     4.9750     7.2990     2.2090   -32.6170 
   69.6250    86.3380    25.3420     7.3510     4.8600     7.1600     2.2670   -31.8240 
   69.7500    88.9280    25.8300     6.6680     4.8040     7.1500     2.3380   -31.0730 
   69.8750    92.2810    25.8990     6.1960     4.8470     7.2290     2.3940   -30.3870 
   70.0000    94.4090    25.7380     5.9160     4.9740     7.3440     2.4120   -29.7860 
   70.1250    94.0560    25.5450     5.8830     5.1150     7.4590     2.3820   -29.3210 
   70.2500    94.8680    25.5140     6.0470     5.2140     7.5590     2.3320   -28.9780 
   70.3750    97.9510    25.7370     6.2050     5.2780     7.6240     2.2920   -28.6990 
   70.5000    99.4440    26.1600     6.3080     5.3280     7.6170     2.2820   -28.4500 
   70.6250    98.6300    26.3670     6.7720     5.3170     7.4680     2.3010   -28.1840 
   70.7500    99.8570    26.4370     7.4020     5.1770     7.1590     2.3260   -27.8800 
   70.8750   104.5740    26.5110     7.2020     4.8950     6.7300     2.3450   -27.5670 
   71.0000   110.3430    26.6360     6.0080     4.5570     6.2920     2.3650   -27.2850 
   71.1250   114.8680    26.5890     5.2390     4.3190     5.9970     2.3860   -27.0440 
   71.2500   117.6440    26.2010     4.8620     4.2340     5.8890     2.3930   -26.8920 
   71.3750   119.3430    25.8390     4.8610     4.2830     5.9780     2.3840   -26.8630 
   71.5000   121.9100    25.7020     5.1190     4.4160     6.2380     2.3710   -26.9130 
   71.6250   122.6630    25.7890     5.5710     4.5930     6.5920     2.3700   -27.0030 
   71.7500   118.5010    26.0650     5.7020     4.7700     6.8930     2.3730   -27.1540 
   71.8750   110.9820    26.4680     5.4330     4.8860     7.0270     2.3710   -27.3050 
   72.0000   104.9210    26.7740     5.1850     4.8600     6.9160     2.3620   -27.4440 
   72.1250   104.6480    26.8720     5.1280     4.6620     6.5680     2.3580   -27.6420 
   72.2500   107.9100    26.8110     5.1180     4.4780     6.2570     2.3580   -27.9070 
   72.3750   111.4600    26.6760     5.0510     4.5140     6.2630     2.3540   -28.1770 
