~V
VERS. 2.00: Ver 2.00
~W
STRT.M 60.0000:
STOP.M 268.0000:
STEP.M 0.1250:
NULL. -999.2500:
UWI. DF33031:
~C
DEPT.M :
SP.MV :
GR.API :
CALI.CM :
RXO.OHMM :
RI. :
RML.OHMM :
DEN.GM/CC :
~A
# ...
  240.0000   -10.7420    85.0620    24.2770    10.3300     9.9620    11.0630     2.3470 
  240.1250   -10.7450    84.2080    24.2770    10.4090     9.5430    10.7280     2.3120 
  240.2500   -10.7730    84.1260    24.2770    10.8280     9.6840    10.9950     2.2840 
  240.3750   -10.8230    86.3760    24.2770    11.6690    10.4750    12.0050     2.2790 
  240.5000   -10.9130    88.3240    24.2770    14.0430    12.0500    13.9410     2.2980 
  240.6250   -10.9540    82.6860    24.2770    20.7460    14.6730    17.0770     2.3170 
  240.7500   -11.0320    72.3760    24.2770    28.5550    18.0200    20.9550     2.3160 
  240.8750   -11.0870    65.1190    24.2770    32.9840    21.4280    24.7260     2.2970 
  241.0000   -11.1690    64.2060    24.2770    33.4570    23.9020    27.2210     2.2740 
  241.1250   -11.2210    67.0230    24.2770    32.5100    24.5460    27.5150     2.2550 
  241.2500   -11.2790    69.6800    24.2770    29.5250    24.1020    26.6570     2.2430 
  241.3750   -11.3050    71.4070    24.2770    25.5500    23.4710    25.7640     2.2450 
  241.5000   -11.3090    71.8250    24.2770    23.4010    23.2980    25.5610     2.2630 
  241.6250   -11.3380    72.1680    24.2770    26.2420    23.8880    26.3600     2.2960 
  241.7500   -11.2940    73.7220    24.2770    31.1290    24.9480    27.7600     2.3330 
  241.8750   -11.2320    77.2240    24.2770    34.5990    26.1570    29.3320     2.3630 
  242.0000   -11.1020    81.3710    24.2770    35.0930    27.1490    30.5690     2.3770 
  242.1250   -10.9210    85.8500    24.2730    32.8800    27.3710    30.7650     2.3710 
  242.2500   -10.6840    89.2040    24.2550    31.2840    26.5170    29.6470     2.3620 
  242.3750   -10.3790    88.7190    24.2110    29.0600    24.3870    27.0970     2.3620 
  242.5000   -10.0470    85.5040    24.1540    26.4540    21.1580    23.3940     2.3770 
  242.6250    -9.6620    83.8590    24.0700    23.0520    17.4170    19.2330     2.3960 
  242.7500    -9.2870    84.0460    24.0020    18.2070    13.9800    15.4780     2.4070 
  242.8750    -8.9400    81.8140    23.9520    12.4600    11.2600    12.5620     2.4020 
  243.0000    -8.5890    76.6900    23.8810     8.2360     9.3840    10.6080     2.3770 
  243.1250    -8.3280    74.1350    23.7770     7.0390     8.3790     9.6300     2.3440 
  243.2500    -8.0980    74.8330    23.7260     6.7880     7.9370     9.2560     2.3300 
  243.3750    -7.9180    75.7080    23.7770     6.8940     7.8740     9.2510     2.3430 
  243.5000    -7.8020    73.5770    23.8920     7.0560     7.9870     9.3730     2.3680 
  243.6250    -7.7150    69.5140    23.9180     7.1050     8.0670     9.3760     2.3800 
  243.7500    -7.6590    66.8250    23.8570     7.0110     7.9930     9.1840     2.3760 
  243.8750    -7.6250    66.6710    23.7130     6.8990     7.7630     8.8450     2.3650 
  244.0000    -7.6310    68.1780    23.5350     7.0400     7.4410     8.4560     2.3580 
  244.1250    -7.6560    67.7880    23.4400     7.1740     7.1290     8.1390     2.3630 
  244.2500    -7.6400    65.5800    23.7020     7.0710     6.9110     7.9520     2.3770 
  244.3750    -7.6840    64.4980    24.0380     6.7330     6.8080     7.9090     2.3910 
  244.5000    -7.7040    65.5100    24.2070     6.3830     6.8000     7.9840     2.3950 
  244.6250    -7.7490    66.7060    24.2610     6.1960     6.8490     8.1330     2.3880 
  244.7500    -7.8600    65.6570    24.3130     6.1910     6.9060     8.2890     2.3830 
  244.8750    -7.9120    64.1230    24.3530     6.3460     6.9630     8.4190     2.3840 
  245.0000    -7.9730    62.7270    24.3690     6.5270     7.0210     8.5120     2.3870 
  245.1250    -8.0430    62.3200    24.3690     6.5600     7.0740     8.5750     2.3870 
  245.2500    -8.1190    63.5960    24.3690     6.5280     7.1330     8.6420     2.3920 
  245.3750    -8.1910    65.8400    24.3690     6.6930     7.2080     8.7540     2.4030 
  245.5000    -8.2960    67.8790    24.3690     7.4730     7.3250     8.9500     2.4130 
  245.6250    -8.3400    67.6420    24.3690     9.2910     7.5330     9.2760     2.4140 
  245.7500    -8.3020    66.2810    24.3690    11.2170     7.8350     9.7220     2.4200 
  245.8750    -8.3420    65.3860    24.3690    12.6350     8.2150    10.2600     2.4390 
  246.0000    -8.3510    65.3720    24.3690    13.7090     8.6200    10.8290     2.4650 
  246.1250    -8.2620    67.0030    24.3690    14.4090     8.9450    11.2980     2.4760 
  246.2500    -8.2200    69.2900    24.3690    14.9650     9.1220    11.5620     2.4690 
  246.3750    -8.1220    70.7650    24.3690    15.2380     9.1280    11.5700     2.4580 
  246.5000    -7.9540    71.1140    24.3690    14.6740     9.0140    11.3600     2.4520 
  246.6250    -7.8710    70.8810    24.3690    12.9620     8.8740    11.0750     2.4550 
  246.7500    -7.7840    70.4660    24.3690    11.1570     8.8120    10.9110     2.4590 
  246.8750    -7.6370    69.1380    24.3690    10.7890     8.8910    10.9800     2.4610 
  247.0000    -7.5520    67.6440    24.3690    12.4330     9.1440    11.3130     2.4630 
  247.1250    -7.4820    68.3740    24.3690    14.3080     9.5980    11.8750     2.4720 
  247.2500    -7.3900    69.7310    24.3690    14.7470    10.1830    12.5080     2.4820 
  247.3750    -7.3630    69.7800    24.3690    13.6250    10.8320    13.1120     2.4840 
  247.5000    -7.3440    67.6910    24.3690    11.9900    11.4740    13.6520     2.4790 
  247.6250    -7.3200    64.7580    24.3690    11.1100    12.0540    14.1580     2.4750 
  247.7500    -7.3630    62.7480    24.3690    11.2470    12.5420    14.6490     2.4830 
  247.8750    -7.3730    61.8180    24.3690    12.3950    12.8730    15.0350     2.5010 
  248.0000    -7.3140    63.2690    24.3690    14.0470    12.9500    15.1430     2.5170 
  248.1250    -7.3370    68.9180    24.3690    15.2170    12.6360    14.7440     2.5220 
  248.2500    -7.3600    75.7530    24.3690    15.6850    12.0300    13.9710     2.5160 
  248.3750    -7.3050    79.4730    24.3690    15.6310    11.3010    13.0800     2.4990 
  248.5000    -7.2590    77.9070    24.3690    14.8720    10.6670    12.3710     2.4740 
  248.6250    -7.2390    73.4250    24.3690    14.2410    10.3970    12.1450     2.4580 
  248.7500    -7.2100    69.8990    24.3690    14.9410    10.5490    12.3980     2.4610 
  248.8750    -7.2130    69.5400    24.3690    17.2790    11.1160    13.0660     2.4800 
  249.0000    -7.2100    71.1250    24.3690    19.5870    12.0000    14.0120     2.5040 
  249.1250    -7.1370    69.6970    24.3670    20.7930    13.0470    15.0820     2.5190 
  249.2500    -7.0700    65.8170    24.3540    21.2310    14.1040    16.1470     2.5240 
  249.3750    -7.0670    63.6420    24.3210    21.4860    15.1480    17.1990     2.5190 
  249.5000    -7.0760    65.3550    24.2870    21.9800    16.1990    18.2670     2.5070 
  249.6250    -7.0410    68.0600    24.2700    22.0190    17.2290    19.3160     2.4940 
  249.7500    -6.9940    70.0800    24.2610    21.9900    18.1150    20.2170     2.4870 
  249.8750    -6.9690    71.8150    24.2420    22.5820    18.7360    20.8360     2.4840 
  250.0000    -6.9720    71.4250    24.2010    23.2750    19.0590    21.1270     2.4770 
  250.1250    -6.9940    70.3590    24.1800    23.2030    19.1470    21.1420     2.4700 
  250.2500    -7.0000    72.0600    24.1730    22.0230    19.1660    21.0840     2.4790 
  250.3750    -6.9970    75.2310    24.1730    20.9930    19.1840    21.0610     2.5060 
  250.5000    -6.9970    75.5510    24.1730    20.4090    19.2030    21.1050     2.5360 
  250.6250    -6.9920    72.5630    24.1730    20.1820    19.1860    21.1820     2.5510 
  250.7500    -6.9510    71.7230    24.1730    20.6340    19.1380    21.2440     2.5590 
  250.8750    -6.8960    72.7700    24.1730    21.0750    19.0880    21.2830     2.5670 
  251.0000    -6.9110    72.7390    24.1730    21.3560    19.0600    21.2910     2.5740 
  251.1250    -7.0000    70.5970    24.1720    22.3260    19.0300    21.2130     2.5700 
