~V
VERS. 2.00: Ver 2.00
~W
STRT.M 55.0000:
STOP.M 272.0000:
STEP.M 0.1250:
NULL. -999.2500:
UWI. DF33042:
~C
DEPT.M :
SP.MV :
GR.API :
RML.OHMM :
RI. :
RXO.OHMM :
CALI.CM :
DEN.GM/CC :
~A
# ...
  100.0000   -26.5290    64.3690     8.4830     7.4250    11.3390    23.1030     2.1870 
  100.1250   -26.5920    62.7820     8.5690     7.5750    10.2010    23.1310     2.2020 
  100.2500   -26.6430    60.9890     9.3220     8.1220     9.8420    23.2060     2.2380 
  100.3750   -26.6800    59.8500    10.6730     9.0930    11.0760    23.3150     2.2900 
  100.5000   -26.7080    61.2720    12.2270    10.2930    15.5250    23.5270     2.3400 
  100.6250   -26.7870    63.9270    13.2170    11.2420    26.2240    23.9150     2.3620 
  100.7500   -26.8670    64.1910    13.1580    11.5130    28.7510    24.1290     2.3480 
  100.8750   -26.9830    62.0740    12.0430    10.9640    18.4880    23.9210     2.3040 
  101.0000   -27.1060    61.2390    10.3970     9.8330    11.4100    23.5390     2.2520 
  101.1250   -27.2160    61.8860     8.9850     8.6430     9.5870    23.2810     2.2110 
  101.2500   -27.3020    61.0930     8.0970     7.7820     9.5560    23.1320     2.1860 
  101.3750   -27.3600    59.4650     7.6840     7.3330     9.8310    23.0300     2.1740 
  101.5000   -27.3940    59.1750     7.5970     7.2190    10.0040    23.0000     2.1700 
  101.6250   -27.3700    60.3620     7.6880     7.2990     9.9760    23.0030     2.1710 
  101.7500   -27.3520    61.1110     7.8080     7.3890     9.7370    22.9830     2.1740 
  101.8750   -27.3250    61.5520     7.9110     7.4090     9.4220    22.8880     2.1800 
  102.0000   -27.2850    63.4770     7.9870     7.3510     9.0490    22.7550     2.1870 
  102.1250   -27.2770    64.9810     8.0650     7.2500     8.8140    22.6260     2.1940 
  102.2500   -27.2680    65.0130     8.1460     7.1660     8.6840    22.5910     2.1990 
  102.3750   -27.2500    63.1630     8.2280     7.1290     8.7000    22.5640     2.2010 
  102.5000   -27.2070    61.3530     8.2850     7.1440     8.7210    22.4780     2.1990 
  102.6250   -27.1480    62.1230     8.2730     7.1930     9.1270    22.2650     2.1930 
  102.7500   -27.0520    61.9150     8.2950     7.2380     9.5320    21.9790     2.1860 
  102.8750   -26.9110    58.5130     8.3080     7.2600     9.5740    21.7550     2.1810 
  103.0000   -26.7570    55.8050     8.3090     7.2520     9.1950    21.6480     2.1780 
  103.1250   -26.6140    59.7910     8.3080     7.2300     9.3820    21.6330     2.1780 
  103.2500   -26.5170    64.2290     8.3100     7.2200     9.6940    21.6290     2.1780 
  103.3750   -26.4880    62.7810     8.3170     7.2380     9.8470    21.6340     2.1800 
  103.5000   -26.5020    59.1880     8.3320     7.2860     9.9040    21.6630     2.1810 
  103.6250   -26.6060    59.7540     8.3650     7.3480     9.9570    21.8000     2.1830 
  103.7500   -26.7350    62.1200     8.4160     7.3960     9.9540    22.0520     2.1820 
  103.8750   -26.9140    63.8760     8.4790     7.4130     9.8320    22.3490     2.1780 
  104.0000   -27.0890    64.6490     8.5390     7.3940     9.7540    22.6100     2.1700 
  104.1250   -27.2360    61.5940     8.5830     7.3420     9.6770    22.7080     2.1570 
  104.2500   -27.3250    58.0150     8.6040     7.2780     9.6950    22.6220     2.1440 
  104.3750   -27.3730    58.7270     8.6050     7.2140     9.5940    22.3810     2.1350 
  104.5000   -27.3960    62.3130     8.5910     7.1560     9.4150    22.0920     2.1310 
  104.6250   -27.3230    63.2390     8.5660     7.0980     9.2870    21.8060     2.1360 
  104.7500   -27.2170    63.4910     8.5380     7.0360     9.3040    21.5910     2.1440 
  104.8750   -27.0510    65.1620     8.5200     6.9690     9.2820    21.4840     2.1550 
  105.0000   -26.8720    66.7350     8.5270     6.9130     9.2960    21.4390     2.1630 
  105.1250   -26.6760    67.5760     8.5900     6.9000     9.2970    21.4620     2.1690 
  105.2500   -26.5100    68.8870     8.7190     6.9450     8.9520    21.6160     2.1750 
  105.3750   -26.3260    70.9760     8.9170     7.0390     8.3920    21.9450     2.1830 
  105.5000   -26.1410    71.3660     9.1140     7.1510     8.2910    22.3530     2.1930 
  105.6250   -25.9480    69.3440     9.1850     7.2170     8.8510    22.5230     2.1990 
  105.7500   -25.7450    68.4330     9.0670     7.1990     8.7850    22.5850     2.1970 
  105.8750   -25.5290    69.3740     8.7750     7.0950     8.3560    22.5940     2.1900 
  106.0000   -25.3000    69.2010     8.4190     6.9470     7.8610    22.5950     2.1810 
  106.1250   -24.9960    65.3560     8.1950     6.8450     8.4750    22.5940     2.1810 
  106.2500   -24.6480    63.0990     8.2020     6.8520     8.6780    22.5820     2.1900 
  106.3750   -24.2870    65.8740     8.4280     6.9780     8.5470    22.5540     2.2050 
  106.5000   -23.8860    69.5140     8.7570     7.1670     8.2670    22.5340     2.2180 
  106.6250   -23.4730    69.3740     8.9690     7.2890     8.0980    22.5290     2.2220 
  106.7500   -23.0260    67.4710     8.9030     7.2280     7.9620    22.5470     2.2210 
  106.8750   -22.5740    67.6640     8.5050     6.9330     7.9180    22.6110     2.2250 
  107.0000   -22.1290    70.7480     7.8390     6.4350     7.8970    22.7610     2.2400 
  107.1250   -21.7980    76.2620     7.0640     5.8360     7.3020    23.0740     2.2670 
  107.2500   -21.5650    82.1340     6.3760     5.2850     6.1820    23.5450     2.2950 
  107.3750   -21.4560    86.8150     5.8980     4.8750     5.4280    24.0160     2.3120 
  107.5000   -21.4900    90.1570     5.7030     4.6690     5.3310    24.3070     2.3110 
  107.6250   -21.7020    91.2480     5.8770     4.7370     5.6200    24.3690     2.2930 
  107.7500   -22.0520    89.8950     6.3470     5.0350     5.7480    24.2270     2.2680 
  107.8750   -22.4840    86.0920     7.0500     5.5230     5.9270    23.8660     2.2470 
  108.0000   -22.9380    78.9830     7.8740     6.1270     6.5060    23.3690     2.2340 
  108.1250   -23.3330    70.3010     8.6500     6.7390     7.9300    23.0680     2.2270 
  108.2500   -23.6100    64.9390     9.2340     7.2470     8.8850    22.9510     2.2220 
  108.3750   -23.7260    64.9090     9.5490     7.5890     8.9280    22.9310     2.2150 
  108.5000   -23.6650    65.6390     9.5770     7.7380     8.7100    22.9400     2.2050 
  108.6250   -23.4050    64.8950     9.3100     7.6730     8.7720    22.9750     2.1990 
  108.7500   -22.9760    65.7060     8.8700     7.4660     8.9590    23.0290     2.1980 
  108.8750   -22.4380    66.2530     8.3440     7.1630     8.8720    23.1250     2.2020 
  109.0000   -21.8600    66.7170     7.8160     6.8120     8.2290    23.3560     2.2100 
  109.1250   -21.2960    69.7330     7.3690     6.4640     7.1340    23.7580     2.2180 
  109.2500   -20.7770    73.8740     7.0290     6.1620     6.3450    24.0700     2.2240 
  109.3750   -20.3460    76.7150     6.8040     5.9350     6.3400    24.1020     2.2310 
  109.5000   -19.9810    79.1410     6.6900     5.7960     6.5390    24.0010     2.2390 
  109.6250   -19.7210    83.0270     6.7000     5.7520     6.2080    23.9850     2.2460 
  109.7500   -19.5240    84.9260     6.7810     5.7620     6.1330    24.0350     2.2530 
  109.8750   -19.3830    85.9980     6.8630     5.7820     5.9710    24.1080     2.2590 
  110.0000   -19.2380    88.5300     6.8500     5.7640     5.9960    24.1750     2.2650 
  110.1250   -19.1320    90.3440     6.6270     5.6500     6.1380    24.3220     2.2720 
  110.2500   -19.0470    90.8950     6.2260     5.4410     5.8980    24.5570     2.2770 
  110.3750   -18.9800    91.9360     5.7460     5.1660     5.5940    24.7310     2.2770 
  110.5000   -18.9770    95.4410     5.3150     4.8810     5.3700    24.7960     2.2730 
  110.6250   -19.0400   100.3630     5.0630     4.6720     5.1190    24.8000     2.2650 
  110.7500   -19.2070   104.4690     4.9940     4.5850     4.8620    24.7780     2.2600 
  110.8750   -19.4510   105.7830     5.1130     4.6450     4.6710    24.6350     2.2580 
  111.0000   -19.7660   102.7570     5.4390     4.8530     4.8970    24.3130     2.2580 
  111.1250   -20.1200    94.6230     6.0330     5.2180     5.6180    23.9430     2.2540 
