~V
VERS. 2.00: Ver 2.00
~W
STRT.M 63.0000:
STOP.M 272.0000:
STEP.M 0.1250:
NULL. -999.2500:
UWI. DF33040:
~C
DEPT.M :
SP.MV :
GR.API :
CALI.CM :
RXO.OHMM :
RI. :
RML.OHMM :
DEN.GM/CC :
~A
# ...
  175.5000   -19.8140    76.7130    23.7330    13.6310    18.9980    20.1280     2.3270 
  175.6250   -20.1260    76.3380    23.7630    20.8720    26.5010    28.7400     2.2870 
  175.7500   -20.5120    71.0460    23.7800    33.1250    37.8600    41.1750     2.2600 
  175.8750   -20.9420    63.5230    23.7830    47.6950    52.8220    57.2300     2.2470 
  176.0000   -21.3890    60.0590    23.7770    59.4470    69.1330    74.9630     2.2480 
  176.1250   -21.8060    61.3600    23.7440    64.1350    81.8700    89.6610     2.2590 
  176.2500   -22.1900    62.8590    23.6870    63.8280    88.7060    98.6070     2.2680 
  176.3750   -22.5290    63.9290    23.6460    61.2320    90.5200   102.6050     2.2650 
  176.5000   -22.8070    64.3690    23.6510    58.9840    89.8660   104.3770     2.2540 
  176.6250   -23.0000    63.6890    23.6850    58.5470    89.0790   106.2750     2.2460 
  176.7500   -23.1060    61.6160    23.7020    58.8490    89.0490   108.8700     2.2470 
  176.8750   -23.1380    59.5500    23.6950    59.2910    89.5440   111.6010     2.2520 
  177.0000   -23.1140    57.8590    23.6880    59.4470    90.0170   113.6330     2.2550 
  177.1250   -23.0400    59.4920    23.6740    58.3910    89.7750   113.9150     2.2530 
  177.2500   -22.9350    65.0600    23.6430    56.4100    88.2830   111.8900     2.2510 
  177.3750   -22.8080    69.8090    23.6110    54.6580    84.9100   106.8580     2.2500 
  177.5000   -22.6790    70.3420    23.5970    54.3190    79.3770    98.7770     2.2500 
  177.6250   -22.5650    69.0550    23.6000    52.8020    72.1700    88.8570     2.2500 
  177.7500   -22.4740    69.7100    23.5940    46.6030    65.1080    79.7080     2.2550 
  177.8750   -22.4180    70.1820    23.5670    37.4030    59.6480    73.1220     2.2650 
  178.0000   -22.3970    69.4710    23.5330    30.8780    56.8050    70.1430     2.2770 
  178.1250   -22.4080    68.7540    23.5130    30.8290    57.4920    71.6500     2.2800 
  178.2500   -22.4520    68.1620    23.5050    34.8420    60.9980    76.5650     2.2740 
  178.3750   -22.5360    67.9950    23.4880    40.3320    66.7090    84.0500     2.2600 
  178.5000   -22.6530    68.3810    23.4600    45.5990    73.6250    92.8500     2.2490 
  178.6250   -22.8220    67.3480    23.4630    49.3170    80.2230   101.1160     2.2450 
  178.7500   -23.0460    63.9740    23.5080    51.8690    85.3040   107.4930     2.2440 
  178.8750   -23.3180    61.7290    23.5700    53.8930    88.4470   111.5750     2.2470 
  179.0000   -23.6220    63.8850    23.6190    55.5910    89.7990   113.6020     2.2530 
  179.1250   -23.9920    67.4010    23.6410    56.7180    89.5990   113.8170     2.2610 
  179.2500   -24.3930    69.3340    23.6470    58.3470    88.5510   112.9460     2.2690 
  179.3750   -24.8170    69.5300    23.6460    61.6140    87.0850   111.4670     2.2820 
  179.5000   -25.2490    69.0520    23.6580    65.5580    85.7720   110.1150     2.3020 
  179.6250   -25.6610    67.7540    23.6920    66.0260    85.6770   110.3100     2.3160 
  179.7500   -26.0350    64.9590    23.7180    62.9420    87.6610   113.1620     2.3170 
  179.8750   -26.3540    62.1770    23.7210    60.6620    92.4990   119.5750     2.3060 
  180.0000   -26.6200    61.2730    23.7160    63.9510   100.3720   129.6930     2.2930 
  180.1250   -26.7910    62.7580    23.7320    74.4780   110.3620   142.2090     2.2820 
  180.2500   -26.9000    65.2390    23.7640    85.2860   119.1660   152.6510     2.2710 
  180.3750   -26.9410    69.7030    23.7840    88.3580   123.2320   156.0240     2.2660 
  180.5000   -26.9270    75.2160    23.7660    80.8380   120.0540   149.2390     2.2690 
  180.6250   -26.8660    76.7050    23.7260    67.8520   109.3910   133.4370     2.2760 
  180.7500   -26.7690    72.9330    23.7100    56.7370    96.1530   115.9070     2.2820 
  180.8750   -26.6830    66.3280    23.7340    48.7050    83.7210   100.6640     2.2890 
  181.0000   -26.6240    60.8220    23.7760    43.2440    73.9460    89.3030     2.2940 
  181.1250   -26.6240    59.5400    23.8070    40.5620    67.8060    82.5080     2.2910 
  181.2500   -26.6950    61.4550    23.8320    39.9980    64.5140    79.1400     2.2810 
  181.3750   -26.8480    62.6980    23.8560    40.5720    63.7870    78.8560     2.2680 
  181.5000   -27.0730    61.7530    23.8660    41.4590    65.4890    81.5100     2.2550 
  181.6250   -27.3640    63.2120    23.8330    43.9160    70.0310    87.6290     2.2470 
  181.7500   -27.6960    69.3520    23.7790    49.6270    77.1070    96.8750     2.2480 
  181.8750   -28.0380    74.4080    23.7320    58.2450    86.6990   109.3090     2.2530 
  182.0000   -28.3710    72.3850    23.6930    67.0540    98.4850   124.6860     2.2530 
  182.1250   -28.6650    65.4980    23.6350    74.2940   111.8060   142.3730     2.2390 
  182.2500   -28.8900    61.6740    23.5760    81.3680   125.0810   160.2630     2.2210 
  182.3750   -29.0140    62.0180    23.5390    87.6120   136.9560   176.4070     2.2080 
  182.5000   -29.0370    62.3990    23.5140    90.6010   146.3870   189.2540     2.2010 
  182.6250   -28.9440    61.1780    23.4820    90.1490   152.6910   197.8060     2.1930 
  182.7500   -28.7830    61.8600    23.4590    89.3160   157.0160   203.5640     2.1880 
  182.8750   -28.5740    64.3650    23.4600    88.6190   160.2840   207.6360     2.1950 
  183.0000   -28.3410    65.3270    23.4700    87.9920   163.2340   210.7940     2.2130 
  183.1250   -28.1280    62.1540    23.4660    88.6980   165.8100   212.4580     2.2220 
  183.2500   -27.9690    59.1650    23.4290    89.6690   166.6210   210.5470     2.2210 
  183.3750   -27.9030    59.1380    23.3570    87.2160   163.4810   202.2490     2.2200 
  183.5000   -27.9480    61.1590    23.2980    80.0100   154.7350   186.2330     2.2260 
  183.6250   -28.1530    62.4070    23.3110    71.1950   139.6450   163.2530     2.2330 
  183.7500   -28.4950    63.2170    23.3620    64.3140   121.4220   138.3600     2.2350 
  183.8750   -28.9580    63.4890    23.3970    60.7170   103.0500   115.2510     2.2360 
  184.0000   -29.5070    62.0980    23.4460    60.2340    86.9920    96.1560     2.2380 
  184.1250   -30.0850    62.3710    23.7050    59.9690    74.9930    82.3100     2.2400 
  184.2500   -30.6230    67.5810    24.1700    58.9260    66.5190    72.5820     2.2400 
  184.3750   -31.0550    74.0400    24.6460    59.4860    61.5070    66.7750     2.2390 
  184.5000   -31.3380    75.0330    24.9210    61.1460    60.0900    64.9460     2.2380 
  184.6250   -31.3780    69.8390    24.9620    60.3140    63.3040    68.1110     2.2350 
  184.7500   -31.1740    64.3130    24.9510    61.3010    71.1420    76.0230     2.2310 
  184.8750   -30.7330    60.7010    24.9500    75.4980    83.8890    88.6780     2.2240 
  185.0000   -30.0920    60.4570    24.9540   110.8860   100.1920   104.4410     2.2150 
  185.1250   -29.2700    63.0350    24.9450   148.4280   114.1650   116.8020     2.2090 
  185.2500   -28.3370    65.8920    24.9230   156.3240   117.7260   117.3930     2.2130 
  185.3750   -27.3560    67.3090    24.8860   131.2040   106.8910   103.3160     2.2270 
  185.5000   -26.3890    66.7410    24.8300    92.0400    85.9640    81.0280     2.2420 
  185.6250   -25.5200    65.5150    24.7310    58.3980    65.0570    61.2500     2.2480 
  185.7500   -24.7920    67.2640    24.6060    37.2830    50.0140    47.9350     2.2490 
  185.8750   -24.2180    71.0980    24.5550    27.8680    41.0370    40.4810     2.2490 
  186.0000   -23.7980    71.9050    24.6600    29.1860    36.7930    37.4800     2.2510 
  186.1250   -23.5560    68.6860    24.8560    45.5820    36.6370    38.4150     2.2520 
  186.2500   -23.4690    65.7120    24.9620    63.5370    39.4610    42.2990     2.2480 
  186.3750   -23.5320    63.4410    24.9240    67.4540    45.4750    49.4180     2.2370 
  186.5000   -23.7210    60.5880    24.8090    63.1500    55.9280    60.9210     2.2190 
  186.6250   -24.0170    59.0480    24.7220    90.9290    74.7490    80.2980     2.1990 
