~V
VERS. 2.00: Ver 2.00
~W
STRT.M 55.0000:
STOP.M 252.0000:
STEP.M 0.1250:
NULL. -999.2500:
UWI. DF33023:
~C
DEPT.M :
GR.API :
CALI.CM :
RXO.OHMM :
RI. :
RML.OHMM :
DEN.GM/CC :
SP.MV :
~A
# ...
  145.0000    63.5310    24.9630    15.8280    15.7480    19.1880     2.5520   -15.8000 
  145.1250    65.0700    24.9550    14.8170    15.0770    18.2520     2.5650   -15.7870 
  145.2500    63.5450    24.9520    14.1870    14.4810    17.4510     2.5760   -15.7950 
  145.3750    62.1220    24.9520    13.9720    14.0240    16.8550     2.5740   -15.8110 
  145.5000    63.1100    24.9280    14.0510    13.7250    16.4640     2.5650   -15.8300 
  145.6250    64.3810    24.9050    14.1990    13.5820    16.2570     2.5590   -15.8420 
  145.7500    63.4990    24.9120    14.1600    13.5430    16.1710     2.5550   -15.8540 
  145.8750    60.9090    24.9200    13.8460    13.5970    16.2080     2.5460   -15.8700 
  146.0000    59.5220    24.8710    13.4270    13.7340    16.3600     2.5420   -15.8930 
  146.1250    59.4480    24.7630    13.4380    13.9090    16.5650     2.5550   -15.9020 
  146.2500    60.4370    24.6530    14.2060    14.0210    16.6740     2.5770   -15.8950 
  146.3750    63.2670    24.5960    15.4390    13.9600    16.5360     2.5920   -15.8930 
  146.5000    66.0630    24.6400    16.2210    13.6370    16.0380     2.5870   -15.9030 
  146.6250    65.4380    24.7470    15.6020    13.0060    15.1390     2.5690   -15.9270 
  146.7500    62.8920    24.7860    14.0690    12.2250    14.0730     2.5600   -15.9540 
  146.8750    61.3200    24.7740    12.3960    11.4400    13.0430     2.5640   -15.9880 
  147.0000    61.4820    24.8260    11.2040    10.7790    12.2140     2.5650   -16.0340 
  147.1250    61.9790    25.0080    10.8840    10.3660    11.7310     2.5460   -16.1060 
  147.2500    62.6610    25.1830    11.1350    10.1960    11.5560     2.5190   -16.2080 
  147.3750    64.3240    25.2560    11.5740    10.2480    11.6350     2.4980   -16.3270 
  147.5000    67.6700    25.2420    11.9360    10.4780    11.8850     2.4860   -16.4440 
  147.6250    70.9130    25.2260    12.3100    10.8320    12.2170     2.4840   -16.5630 
  147.7500    71.8370    25.2400    12.8200    11.2210    12.5320     2.4910   -16.6930 
  147.8750    70.6690    25.2520    13.2640    11.5930    12.7830     2.5010   -16.8270 
  148.0000    69.2320    25.2430    13.3470    11.9020    12.9390     2.5020   -16.9420 
  148.1250    69.0190    25.2280    13.0620    12.0560    12.9100     2.4820   -17.0240 
  148.2500    70.2440    25.2090    12.8000    11.9770    12.6280     2.4470   -17.0760 
  148.3750    73.4520    25.1950    12.5070    11.5900    12.0280     2.4120   -17.0920 
  148.5000    78.7830    25.2180    11.7180    10.8960    11.1360     2.3880   -17.0840 
  148.6250    85.6360    25.3090    10.0410     9.9900    10.0820     2.3760   -17.0430 
  148.7500    92.2470    25.4250     8.1370     9.0780     9.0860     2.3700   -16.9810 
  148.8750    96.9450    25.4890     6.8040     8.2670     8.2570     2.3720   -16.9040 
  149.0000    97.1550    25.4590     6.4910     7.5940     7.6080     2.3740   -16.8350 
  149.1250    92.6470    25.3720     7.0390     7.0690     7.1180     2.3690   -16.7770 
  149.2500    89.4350    25.3120     7.5230     6.6590     6.7320     2.3610   -16.7450 
  149.3750    91.3110    25.2990     7.5530     6.3970     6.5060     2.3620   -16.7410 
  149.5000    94.2510    25.2940     7.3980     6.3720     6.5960     2.3730   -16.7860 
  149.6250    89.3490    25.2630     7.6520     6.8100     7.3600     2.3770   -16.9060 
  149.7500    80.1350    25.2350     9.0220     7.8660     9.0150     2.3590   -17.0840 
  149.8750    73.5950    25.2580    13.3260     9.8220    11.8840     2.3180   -17.3130 
  150.0000    71.1300    25.3290    22.8760    13.0410    16.3140     2.2720   -17.5910 
  150.1250    68.7360    25.3910    35.7770    18.0800    22.8210     2.2400   -17.9320 
  150.2500    65.8590    25.4190    44.3040    24.4190    30.7110     2.2170   -18.2990 
  150.3750    64.9150    25.4290    47.5930    31.1080    38.8250     2.1980   -18.6880 
  150.5000    64.9600    25.4260    50.2130    36.9700    45.7610     2.1890   -19.0700 
  150.6250    63.1350    25.3350    52.7650    41.1900    50.6900     2.2000   -19.4150 
  150.7500    60.7590    25.0860    53.6880    44.4220    54.6720     2.2250   -19.7460 
  150.8750    60.3580    24.7420    55.8020    47.1930    58.4760     2.2490   -20.0540 
  151.0000    62.2820    24.5550    60.9630    49.5490    62.0750     2.2580   -20.3190 
  151.1250    64.5100    24.7230    65.5540    50.7500    64.2390     2.2390   -20.5700 
  151.2500    64.9640    24.9820    65.7670    50.2820    63.9510     2.2080   -20.8340 
  151.3750    64.3730    25.1210    60.7750    47.9370    60.8510     2.1840   -20.9440 
  151.5000    64.1270    25.1490    51.9150    44.1340    55.7070     2.1780   -21.0220 
  151.6250    65.4720    25.1820    43.0490    39.9030    50.2280     2.1880   -21.0570 
  151.7500    67.3820    25.2370    37.2360    36.3490    45.8900     2.2040   -21.0540 
  151.8750    68.9450    25.2990    33.5680    33.9430    43.1960     2.2210   -21.0280 
  152.0000    69.3570    25.3600    30.5330    32.7750    42.1490     2.2290   -20.9830 
  152.1250    69.1520    25.3900    29.1680    32.8370    42.6330     2.2250   -20.9290 
  152.2500    68.4930    25.3930    30.6240    33.6060    43.8990     2.2240   -20.8830 
  152.3750    66.5840    25.3930    33.9030    34.6920    45.3900     2.2360   -20.8550 
  152.5000    64.1860    25.4090    36.7940    35.7050    46.5630     2.2510   -20.8510 
  152.6250    63.9950    25.4430    38.0180    36.2650    46.9260     2.2440   -20.8450 
  152.7500    66.0330    25.4750    38.6920    36.4230    46.7040     2.2170   -20.8360 
  152.8750    66.8390    25.4990    39.3930    36.4760    46.4420     2.1910   -20.8170 
  153.0000    65.3240    25.5110    39.6920    36.8960    46.8650     2.1830   -20.7830 
  153.1250    64.1460    25.5200    39.0250    38.2990    48.7740     2.1920   -20.7080 
  153.2500    63.3640    25.5550    39.0990    40.8410    51.8900     2.1990   -20.5880 
  153.3750    61.7980    25.5850    42.0090    41.2500    51.4050     2.2020   -20.4080 
  153.5000    61.2380    25.5390    45.7250    36.9840    44.4290     2.2080   -20.1680 
  153.6250    65.3470    25.4280    42.4380    29.3230    33.8390     2.2280   -19.8740 
  153.7500    72.9290    25.3140    31.4060    21.5030    24.0310     2.2600   -19.5410 
  153.8750    79.8680    25.2210    19.4350    15.2620    16.6630     2.2930   -19.1860 
  154.0000    82.8390    25.1620    12.3830    10.9900    11.7830     2.3170   -18.8310 
  154.1250    83.1470    25.1400     9.5880     8.4820     9.0100     2.3320   -18.5070 
  154.2500    85.2280    25.1270     7.5890     6.9380     7.3890     2.3490   -18.2280 
  154.3750    90.7320    25.1050     5.8800     6.0480     6.5220     2.3700   -18.0180 
  154.5000    96.3490    25.0790     4.9690     5.6010     6.1240     2.3850   -17.8840 
  154.6250    94.1780    25.0770     4.9380     5.4820     6.0390     2.3790   -17.8290 
  154.7500    86.6890    25.0660     5.1040     5.5420     6.1160     2.3600   -17.8450 
  154.8750    82.8140    24.9570     5.2890     5.7190     6.2920     2.3430   -17.9190 
  155.0000    84.7140    24.6690     5.4880     5.9510     6.4900     2.3390   -18.0260 
  155.1250    85.9230    24.3070     5.6210     6.1640     6.6210     2.3440   -18.1430 
  155.2500    85.0660    24.1660     5.6360     6.3170     6.6630     2.3430   -18.2600 
  155.3750    84.7480    24.3340     5.5830     6.3980     6.6310     2.3390   -18.3550 
  155.5000    83.9130    24.6230     5.5550     6.4160     6.5680     2.3410   -18.4310 
  155.6250    82.8550    24.7670     5.5830     6.3950     6.5380     2.3540   -18.4940 
  155.7500    83.5780    24.7880     5.6210     6.3800     6.5890     2.3660   -18.5330 
  155.8750    85.0710    24.7650     5.6450     6.3930     6.7400     2.3660   -18.5500 
  156.0000    84.5010    24.7120     5.6730     6.4350     6.9730     2.3580   -18.5570 
  156.1250    82.9760    24.5770     5.7640     6.4750     7.2130     2.3500   -18.5430 
