~V
VERS. 2.00: Ver 2.00
~W
STRT.M 63.0000:
STOP.M 272.0000:
STEP.M 0.1250:
NULL. -999.2500:
UWI. DF33040:
~C
DEPT.M :
SP.MV :
GR.API :
CALI.CM :
RXO.OHMM :
RI. :
RML.OHMM :
DEN.GM/CC :
~A
   63.0000    14.6200    85.5740    24.8930    11.0070     0.9800     0.1360     2.4960 
   63.1250    10.3390    94.2340    24.3990     9.2620     1.6580     1.0180     2.4360 
   63.2500     5.9170    98.4810    23.9710     6.6410     2.6410     2.5100     2.3610 
   63.3750     1.5370    98.4430    23.6740     5.0840     3.6480     3.7990     2.3080 
   63.5000    -2.5460    96.1950    23.5220     4.9500     4.3500     4.0880     2.2750 
   63.6250    -5.8740    92.6900    23.2060     5.3640     4.6800     3.9170     2.2490 
   63.7500    -8.3980    88.9230    22.5720     5.5840     4.8760     3.8550     2.2330 
   63.8750   -10.1880    88.3330    21.9310     5.4600     5.0220     3.9210     2.2340 
   64.0000   -11.4100    93.7570    21.6940     5.0530     5.1080     4.0280     2.2470 
   64.1250   -12.2310    99.3100    21.9580     4.7300     5.1140     4.0950     2.2570 
   64.2500   -12.8790    98.5640    22.4420     4.7230     5.1100     4.1500     2.2640 
   64.3750   -13.4180    96.1310    23.0910     4.8970     5.1650     4.2550     2.2780 
   64.5000   -13.8660    96.2200    23.8230     5.0380     5.3140     4.4430     2.2960 
   64.6250   -14.2230    95.3810    24.3260     5.1870     5.5430     4.7120     2.2930 
   64.7500   -14.5190    91.1780    24.3270     5.4650     5.7690     4.9910     2.2700 
   64.8750   -14.7470    87.6940    23.9110     5.7110     5.9270     5.2110     2.2460 
   65.0000   -14.8820    88.6070    23.5470     5.6570     5.9820     5.3220     2.2330 
   65.1250   -14.8980    93.6200    23.7200     5.3870     5.9350     5.3180     2.2230 
   65.2500   -14.8240    97.1490    23.9840     5.3420     5.8470     5.2700     2.2130 
   65.3750   -14.6830    98.2570    23.9000     5.5470     5.7510     5.2200     2.2150 
   65.5000   -14.4930    99.3090    23.6380     5.6590     5.6530     5.1850     2.2340 
   65.6250   -14.2960   101.6440    23.8040     5.4460     5.5220     5.1260     2.2570 
   65.7500   -14.1770   103.0570    24.3290     5.1800     5.3270     4.9900     2.2680 
   65.8750   -14.1800   103.2440    24.7890     4.9890     5.0710     4.7840     2.2660 
   66.0000   -14.3520   104.3380    24.9610     4.7800     4.8060     4.5770     2.2530 
   66.1250   -14.7530   106.0430    24.9380     4.4960     4.6450     4.4990     2.2360 
   66.2500   -15.3320   103.2390    24.8760     4.3690     4.6580     4.6150     2.2200 
   66.3750   -16.0430    94.8660    24.7070     4.6140     4.8790     4.9560     2.2020 
   66.5000   -16.8460    83.7300    24.2750     5.2390     5.2970     5.5090     2.1780 
   66.6250   -17.6590    76.0650    23.6320     5.9440     5.8500     6.1860     2.1560 
   66.7500   -18.3720    73.3860    23.1400     6.3970     6.3850     6.7910     2.1440 
   66.8750   -18.9350    72.7600    22.9720     6.5880     6.7850     7.1820     2.1450 
   67.0000   -19.2930    72.3960    23.0070     6.6620     6.9910     7.3140     2.1600 
   67.1250   -19.3500    73.8820    23.0330     6.7020     6.9900     7.2250     2.1860 
   67.2500   -19.1600    78.9260    23.0810     6.6820     6.8700     7.0440     2.2040 
   67.3750   -18.7690    86.3000    23.2400     6.5230     6.6690     6.8210     2.2060 
   67.5000   -18.2080    89.8790    23.5380     6.1450     6.4100     6.5780     2.2050 
   67.6250   -17.5460    87.4610    23.9640     5.6310     6.1140     6.3400     2.2210 
   67.7500   -16.8970    85.6280    24.3620     5.2520     5.8330     6.1530     2.2440 
   67.8750   -16.2930    88.5730    24.5770     5.0920     5.6070     6.0440     2.2560 
   68.0000   -15.7700    92.3060    24.5830     5.1010     5.4500     6.0030     2.2510 
   68.1250   -15.3850    91.3000    24.5440     5.3690     5.3510     5.9670     2.2360 
   68.2500   -15.1170    87.9260    24.5010     5.8440     5.2840     5.9100     2.2240 
   68.3750   -14.9610    85.6700    24.3400     6.1990     5.2940     5.9300     2.2230 
   68.5000   -14.9330    85.0940    24.1740     6.0960     5.5010     6.2240     2.2450 
   68.6250   -15.0660    82.4380    24.2760     6.0470     6.1730     7.1650     2.2970 
   68.7500   -15.3240    75.8180    24.5380     7.9600     7.4280     8.9440     2.3660 
   68.8750   -15.6990    66.9560    24.6940    14.5000     9.3030    11.7110     2.4320 
   69.0000   -16.2010    62.4070    24.6430    25.9090    11.5140    15.0870     2.4670 
   69.1250   -16.8430    64.4560    24.4940    30.8520    13.0150    17.0230     2.4340 
   69.2500   -17.5760    65.3040    24.1840    24.3330    12.9710    16.1330     2.3470 
   69.3750   -18.3700    64.7210    23.5790    13.9090    11.5750    13.5520     2.2470 
   69.5000   -19.2030    66.2510    22.8070     8.2030     9.7390    11.0740     2.1760 
   69.6250   -20.0200    69.9720    22.2290     7.0730     8.2980     9.5730     2.1490 
   69.7500   -20.7640    70.4530    21.9460     6.9800     7.4100     8.8220     2.1410 
   69.8750   -21.4150    67.6850    21.8420     6.8880     6.9880     8.5870     2.1380 
   70.0000   -21.9610    64.7000    21.8330     6.7120     6.8720     8.6440     2.1380 
   70.1250   -22.3690    61.7760    21.8770     6.6590     6.9090     8.8110     2.1390 
   70.2500   -22.6700    60.2510    21.8890     6.6890     6.9660     8.9560     2.1370 
   70.3750   -22.8910    62.9390    21.8620     6.7170     7.0010     9.0470     2.1350 
   70.5000   -23.0370    68.2960    21.8250     6.6970     7.0030     9.0790     2.1370 
   70.6250   -23.1200    70.8610    21.7950     6.6600     6.9680     9.0590     2.1440 
   70.7500   -23.1870    70.0700    21.7860     6.6780     6.9140     9.0310     2.1510 
   70.8750   -23.2410    68.7540    21.7990     6.7620     6.8580     9.0310     2.1590 
   71.0000   -23.2640    67.6460    21.8210     6.8790     6.8090     9.0760     2.1640 
   71.1250   -23.2470    68.7020    21.8290     7.0050     6.7660     9.1540     2.1670 
   71.2500   -23.1910    71.1530    21.8280     7.1040     6.7190     9.2170     2.1670 
   71.3750   -23.0940    72.9020    21.8300     7.0940     6.6530     9.2300     2.1660 
   71.5000   -22.9520    72.9260    21.8230     6.9600     6.5660     9.1790     2.1600 
   71.6250   -22.7760    72.1750    21.7840     6.8470     6.4640     9.0740     2.1530 
   71.7500   -22.5740    71.7790    21.7270     6.8840     6.3670     8.9660     2.1480 
   71.8750   -22.3720    71.2630    21.6840     7.0270     6.2890     8.8890     2.1450 
   72.0000   -22.1790    70.2390    21.6610     7.1720     6.2350     8.8550     2.1430 
   72.1250   -22.0130    69.3950    21.6510     7.2660     6.2020     8.8520     2.1430 
   72.2500   -21.9060    69.1590    21.6470     7.3160     6.1740     8.8410     2.1470 
   72.3750   -21.8730    70.6680    21.6380     7.3210     6.1440     8.8060     2.1550 
   72.5000   -21.9360    72.6640    21.6170     7.2870     6.1150     8.7600     2.1600 
   72.6250   -22.1080    70.7700    21.6130     7.2260     6.1100     8.7500     2.1530 
   72.7500   -22.3730    67.3690    21.6530     7.1770     6.1410     8.8050     2.1370 
   72.8750   -22.7130    66.8420    21.7400     7.4530     6.2120     8.9310     2.1250 
   73.0000   -23.1440    69.7360    21.8920     8.4360     6.3100     9.1110     2.1290 
   73.1250   -23.6740    71.1150    22.1140     9.5690     6.4040     9.2960     2.1530 
   73.2500   -24.2310    69.6800    22.3200     9.6060     6.4570     9.4250     2.1820 
   73.3750   -24.7790    68.5490    22.4450     8.6090     6.4540     9.4720     2.2000 
   73.5000   -25.2710    68.8620    22.4930     7.6510     6.4010     9.4520     2.1970 
   73.6250   -25.6660    68.5180    22.5540     7.3550     6.3170     9.4010     2.1720 
   73.7500   -25.9670    68.4460    22.7080     7.2500     6.2270     9.3440     2.1430 
   73.8750   -26.1720    69.8620    22.9170     7.1390     6.1310     9.2390     2.1270 
   74.0000   -26.2570    70.5140    23.0510     7.0750     6.0100     9.0130     2.1320 
   74.1250   -26.2020    67.0120    23.0180     7.0360     5.8610     8.6750     2.1470 
