~V
VERS. 2.00: Ver 2.00
~W
STRT.M 60.0000:
STOP.M 236.0000:
STEP.M 0.1250:
NULL. -999.2500:
UWI. DF33015:
~C
DEPT.M :
DEN.GM/CC :
GR.API :
RML.OHMM :
RI. :
RXO.OHMM :
CALI.CM :
SP.MV :
~A
# ...
   71.2500     2.1410    61.2040     8.3600     7.0010     8.1630    22.8740   -41.6640 
   71.3750     2.1320    59.3760     8.2010     6.8680     7.9510    22.8750   -41.5190 
   71.5000     2.1270    59.1190     8.0340     6.7210     7.7270    22.8760   -41.2800 
   71.6250     2.1320    60.5390     7.9070     6.5910     7.6410    22.8770   -40.9970 
   71.7500     2.1420    59.9860     7.8360     6.4940     7.6400    22.8760   -40.6450 
   71.8750     2.1560    57.7720     7.8280     6.4390     7.6140    22.8680   -40.2790 
   72.0000     2.1690    56.1220     7.8750     6.4250     7.5090    22.8380   -39.8820 
   72.1250     2.1780    57.3620     7.9700     6.4520     7.4580    22.7690   -39.5040 
   72.2500     2.1830    60.2120     8.0790     6.4990     7.6330    22.7340   -39.1190 
   72.3750     2.1820    63.3550     8.1700     6.5510     7.9990    22.8100   -38.7800 
   72.5000     2.1770    64.6040     8.2020     6.5880     8.3090    23.0290   -38.4420 
   72.6250     2.1690    62.8700     8.1310     6.5870     8.3180    23.2280   -38.1070 
   72.7500     2.1620    60.8800     7.9750     6.5480     8.1890    23.3570   -37.7880 
   72.8750     2.1570    59.0660     7.7920     6.4940     8.0720    23.4110   -37.4560 
   73.0000     2.1570    57.1800     7.6800     6.4700     8.0000    23.4230   -37.0800 
   73.1250     2.1700    56.8730     7.7940     6.5640     7.9340    23.4220   -36.5800 
   73.2500     2.2000    60.2450     8.1670     6.8110     7.8870    23.4200   -36.0640 
   73.3750     2.2490    64.3870     8.7370     7.1910     8.0060    23.4130   -35.3790 
   73.5000     2.3100    65.4610     9.3220     7.6040     8.4010    23.3940   -34.6630 
   73.6250     2.3590    63.1900     9.5900     7.8460     9.2460    23.3900   -33.7740 
   73.7500     2.3810    63.0690     9.3710     7.7800     9.8700    23.4990   -32.8660 
   73.8750     2.3720    68.7400     8.6660     7.3730     9.0440    23.7430   -31.9170 
   74.0000     2.3460    79.8420     7.6740     6.7150     7.0090    23.9980   -31.0990 
   74.1250     2.3250    89.9580     6.7110     5.9860     5.4700    24.2190   -30.4310 
   74.2500     2.3170    94.9690     5.9630     5.3550     4.9030    24.3230   -29.9210 
   74.3750     2.3190    96.8210     5.4460     4.8850     4.8730    24.3050   -29.6270 
   74.5000     2.3190    98.0160     5.1330     4.5940     4.8680    24.2130   -29.5430 
   74.6250     2.3170    97.4230     5.1190     4.5650     4.8080    24.1520   -29.7520 
   74.7500     2.3250    95.3190     5.5650     4.8760     4.8430    24.1010   -30.1440 
   74.8750     2.3540    93.0640     6.7050     5.6650     5.2070    24.0510   -30.6820 
   75.0000     2.4050    89.9310     8.6390     7.0050     6.3930    23.9900   -31.3130 
   75.1250     2.4540    83.1580    11.1860     8.8200    10.1030    23.9160   -32.0270 
   75.2500     2.4720    75.5630    13.5470    10.6080    17.4300    23.8830   -32.7840 
   75.3750     2.4450    69.4440    14.9150    11.8370    23.6650    23.8610   -33.5360 
   75.5000     2.3830    65.5130    14.7330    12.0860    19.4140    23.8090   -34.2670 
   75.6250     2.3110    66.0270    13.0880    11.2340    12.1660    23.6550   -34.8890 
   75.7500     2.2490    68.2530    11.2080     9.9810     9.1460    23.4500   -35.4260 
   75.8750     2.2030    68.7080     9.7910     8.8300     8.6370    23.2510   -35.8670 
   76.0000     2.1700    68.2360     9.0340     8.0330     8.6330    23.1500   -36.2140 
   76.1250     2.1530    68.6370     8.8880     7.6640     8.4610    23.1360   -36.4980 
   76.2500     2.1510    68.6290     9.0360     7.5510     8.3360    23.1380   -36.6070 
   76.3750     2.1630    67.0060     9.3020     7.5830     8.3040    23.1400   -36.7170 
   76.5000     2.1810    65.7070     9.5640     7.6750     8.3760    23.1440   -36.6960 
   76.6250     2.1950    66.0340     9.7280     7.7580     8.5250    23.1420   -36.7360 
   76.7500     2.1990    65.8190     9.7740     7.7920     8.6420    23.1370   -36.7260 
   76.8750     2.1940    66.2100     9.7090     7.7640     8.6550    23.1360   -36.7360 
   77.0000     2.1840    66.8980     9.5750     7.6810     8.5400    23.1370   -36.6840 
   77.1250     2.1740    66.7450     9.4280     7.5690     8.3560    23.1380   -36.6180 
   77.2500     2.1680    65.5680     9.3060     7.4570     8.2610    23.1380   -36.5590 
   77.3750     2.1640    62.9280     9.2120     7.3580     8.3690    23.1380   -36.4490 
   77.5000     2.1600    59.3800     9.1300     7.2710     8.5900    23.1390   -36.3110 
   77.6250     2.1530    59.2370     9.0420     7.1910     8.5740    23.1400   -36.0750 
   77.7500     2.1450    62.7090     8.9470     7.1170     8.2760    23.1410   -35.7830 
   77.8750     2.1400    64.9540     8.8610     7.0530     7.9570    23.1390   -35.4370 
   78.0000     2.1400    63.2370     8.7930     7.0060     7.8670    23.1380   -35.0420 
   78.1250     2.1440    60.9370     8.7420     6.9790     8.0100    23.1380   -34.5730 
   78.2500     2.1490    60.6150     8.6860     6.9620     8.1470    23.1380   -34.0680 
   78.3750     2.1520    61.0270     8.6050     6.9450     8.1040    23.1380   -33.5040 
   78.5000     2.1520    61.9030     8.4890     6.9200     7.8370    23.1380   -32.9300 
   78.6250     2.1550    64.3550     8.3450     6.8840     7.5130    23.1390   -32.3430 
   78.7500     2.1640    68.4150     8.1980     6.8450     7.3510    23.1430   -31.7400 
   78.8750     2.1800    72.6340     8.0650     6.8020     7.3660    23.1460   -31.0960 
   79.0000     2.2020    75.1010     7.9600     6.7560     7.4160    23.1490   -30.4340 
   79.1250     2.2240    75.2690     7.9050     6.7110     7.3300    23.1900   -29.7500 
   79.2500     2.2430    76.6100     7.9020     6.6710     6.9620    23.2900   -29.1180 
   79.3750     2.2590    79.9900     7.9350     6.6320     6.3270    23.4120   -28.5140 
   79.5000     2.2710    84.0510     7.9470     6.5690     5.7750    23.4880   -28.0410 
   79.6250     2.2780    87.2300     7.8100     6.4230     5.7470    23.5070   -27.5740 
   79.7500     2.2760    88.6830     7.4430     6.1570     5.8960    23.5340   -27.2020 
   79.8750     2.2640    88.9570     6.8220     5.7610     5.6810    23.6180   -26.9350 
   80.0000     2.2460    89.5740     6.0410     5.2810     5.0820    23.7910   -26.8140 
   80.1250     2.2360    94.4620     5.3930     4.8720     4.6760    23.8950   -26.8600 
   80.2500     2.2490    98.7230     5.2400     4.7430     4.6570    23.9520   -27.0280 
   80.3750     2.2890    97.4040     5.8760     5.0900     4.9330    23.9660   -27.3610 
   80.5000     2.3500    90.6220     7.4150     6.0300     6.0190    23.9770   -27.7730 
   80.6250     2.4070    83.2880     9.7220     7.5600    10.5230    23.9950   -28.3940 
   80.7500     2.4340    78.2260    12.0140     9.2300    19.6770    23.9620   -29.1000 
   80.8750     2.4200    73.9460    13.4900    10.5380    26.2890    23.7740   -29.8570 
   81.0000     2.3730    71.2090    13.5410    11.0330    19.8200    23.4520   -30.6410 
   81.1250     2.3190    72.2870    12.1630    10.5150    12.1690    23.1700   -31.3510 
   81.2500     2.2810    75.3920    10.6250     9.6390     9.3000    23.0360   -32.0210 
   81.3750     2.2650    78.2660     9.7810     8.9850     9.1470    23.0210   -32.5850 
   81.5000     2.2640    79.2000     9.9250     8.8900    10.4630    23.0940   -33.0830 
   81.6250     2.2650    76.8540    10.9690     9.4430    12.7470    23.2900   -33.4500 
   81.7500     2.2590    72.7210    12.2550    10.2690    16.0450    23.5620   -33.7480 
   81.8750     2.2410    68.0570    13.2190    10.9950    21.3140    23.7660   -34.0040 
   82.0000     2.2120    64.3100    13.4080    11.2820    28.1460    23.8110   -34.2480 
   82.1250     2.1770    62.4990    12.5790    10.8700    26.8370    23.7340   -34.4860 
   82.2500     2.1430    62.1840    11.2600    10.0140    18.0370    23.6400   -34.6760 
   82.3750     2.1150    62.8490     9.9360     9.0130    11.4760    23.5390   -34.8510 
