~V
VERS. 2.00: Ver 2.00
~W
STRT.M 60.0000:
STOP.M 233.0000:
STEP.M 0.1250:
NULL. -999.2500:
UWI. DF33019:
~C
DEPT.M :
GR.API :
RML.OHMM :
RI. :
RXO.OHMM :
CALI.CM :
DEN.GM/CC :
SP.MV :
~A
# ...
  116.2500    70.4030     7.8990     6.3830     7.6550    23.5840     2.2320   -18.0360 
  116.3750    73.8610     7.7800     6.3000     7.4770    23.6230     2.2400   -17.5000 
  116.5000    78.9340     7.6730     6.2000     6.6320    23.7130     2.2510   -16.9860 
  116.6250    83.4140     7.5830     6.0850     5.9050    23.8030     2.2630   -16.5210 
  116.7500    85.5600     7.4670     5.9490     5.8870    23.8500     2.2720   -16.0580 
  116.8750    86.4340     7.2720     5.7760     6.1830    23.9120     2.2770   -15.6600 
  117.0000    88.1910     6.9740     5.5620     6.0900    24.0530     2.2810   -15.3380 
  117.1250    89.6180     6.6200     5.3310     5.5860    24.2150     2.2850   -15.2080 
  117.2500    89.5680     6.3490     5.1470     5.2210    24.3270     2.2900   -15.2560 
  117.3750    89.8990     6.2930     5.0770     5.0040    24.3550     2.2880   -15.4630 
  117.5000    92.0150     6.5340     5.1740     4.7470    24.2990     2.2780   -15.7960 
  117.6250    91.0540     7.1090     5.4790     5.2260    24.1380     2.2610   -16.2830 
  117.7500    83.6990     7.8430     5.9120     6.3600    23.9780     2.2440   -16.8700 
  117.8750    73.2270     8.5620     6.3810     8.0930    23.8020     2.2320   -17.4990 
  118.0000    65.9400     9.0870     6.7810     9.2160    23.6520     2.2240   -18.1760 
  118.1250    64.0270     9.2580     6.9960     8.5310    23.5520     2.2180   -18.8050 
  118.2500    62.1770     9.1570     7.0370     7.9030    23.5260     2.2100   -19.3450 
  118.3750    61.3360     8.9090     6.9550     7.5630    23.5310     2.2000   -19.7800 
  118.5000    64.6060     8.6450     6.8250     7.3980    23.5200     2.1880   -20.1350 
  118.6250    69.7920     8.4700     6.7190     7.4510    23.5070     2.1770   -20.3200 
  118.7500    71.5450     8.4010     6.6700     7.4790    23.4880     2.1670   -20.4500 
  118.8750    69.4990     8.4450     6.6910     7.4150    23.4630     2.1580   -20.5060 
  119.0000    66.8400     8.6040     6.7860     7.3750    23.4450     2.1520   -20.4650 
  119.1250    64.6750     8.8830     6.9670     7.5370    23.4390     2.1520   -20.3050 
  119.2500    62.1360     9.2110     7.2010     8.2020    23.4390     2.1580   -20.1020 
  119.3750    61.7350     9.5090     7.4470     9.4310    23.4390     2.1700   -19.8440 
  119.5000    63.3610     9.6920     7.6590    10.4040    23.4390     2.1850   -19.5190 
  119.6250    64.3290     9.6760     7.7840     9.4110    23.4390     2.1960   -19.1440 
  119.7500    63.9840     9.5030     7.8290     8.7650    23.4390     2.1990   -18.7130 
  119.8750    64.3860     9.2380     7.8180     8.4400    23.4390     2.1930   -18.2190 
  120.0000    66.7250     8.9570     7.7820     8.0290    23.4390     2.1850   -17.6940 
  120.1250    67.8510     8.7200     7.7270     7.7190    23.4400     2.1830   -17.1190 
  120.2500    66.6710     8.5250     7.6390     7.6210    23.4520     2.1930   -16.4700 
  120.3750    66.8790     8.3480     7.4990     7.8660    23.4950     2.2160   -15.7670 
  120.5000    70.0610     8.1530     7.2940     7.9610    23.5800     2.2500   -15.0450 
  120.6250    72.2350     7.8890     7.0170     7.2380    23.7150     2.2860   -14.3330 
  120.7500    71.2090     7.5440     6.6910     6.2210    23.8150     2.3160   -13.6840 
  120.8750    70.6960     7.1170     6.3340     6.4620    23.8890     2.3320   -13.0630 
  121.0000    72.3340     6.6210     5.9640     6.2080    23.9970     2.3340   -12.5240 
  121.1250    74.1270     6.0770     5.6110     5.2980    24.0640     2.3210   -12.0960 
  121.2500    76.6020     5.5630     5.3310     4.9820    24.0970     2.3000   -11.7920 
  121.3750    79.7120     5.3130     5.2200     5.1410    24.0690     2.2770   -11.5710 
  121.5000    80.7300     5.5970     5.4390     5.3500    23.9970     2.2580   -11.4070 
  121.6250    77.6120     7.1410     6.3090     5.5630    23.8650     2.2520   -11.2910 
  121.7500    73.9590     9.7760     7.8610     6.4060    23.7540     2.2690   -11.1600 
  121.8750    70.5870    13.2450     9.9430     9.1870    23.7100     2.3130   -11.0790 
  122.0000    65.4560    16.7020    12.0810    17.0070    23.7040     2.3820   -10.9860 
  122.1250    58.2520    17.8390    13.3330    23.4960    23.6960     2.4590   -10.9220 
  122.2500    54.4830    16.8950    13.1550    23.6490    23.6770     2.5180   -10.8400 
  122.3750    58.3680    14.2670    11.6080    17.2170    23.6630     2.5410   -10.7670 
  122.5000    69.3640    11.2700     9.4520     9.5220    23.6620     2.5230   -10.6990 
  122.6250    80.1100     9.3790     7.7740     6.2060    23.6630     2.4740   -10.6510 
  122.7500    85.3440     8.9470     7.0830     5.2940    23.6530     2.4210   -10.5960 
  122.8750    84.4150    10.0920     7.5860     5.9640    23.6310     2.3850   -10.5540 
  123.0000    76.9290    12.8390     9.3760     8.4290    23.6130     2.3830   -10.4920 
  123.1250    65.6600    17.1200    12.5010    14.8160    23.6080     2.4220   -10.4050 
  123.2500    56.7350    21.8900    16.2210    20.9480    23.6070     2.4820   -10.3210 
  123.3750    51.6950    26.0270    19.7220    22.5850    23.5970     2.5410   -10.2370 
  123.5000    48.1480    28.4990    22.1840    20.4390    23.5720     2.5770   -10.1380 
  123.6250    45.3720    28.7930    23.0360    19.4830    23.5270     2.5810   -10.0300 
  123.7500    46.1570    28.1390    22.9790    18.2940    23.4950     2.5690    -9.9300 
  123.8750    50.6850    27.4900    22.6870    18.2160    23.4590     2.5540    -9.8130 
  124.0000    55.0970    27.2860    22.5730    19.7060    23.4240     2.5440    -9.7410 
  124.1250    55.5920    27.5360    22.7390    20.9850    23.3880     2.5400    -9.6770 
  124.2500    53.7640    27.9500    23.0200    20.3660    23.3770     2.5390    -9.6500 
  124.3750    51.6730    28.3810    23.3200    19.3080    23.3660     2.5420    -9.6180 
  124.5000    50.4930    28.7790    23.6070    18.4970    23.3300     2.5490    -9.6190 
  124.6250    49.9000    29.1550    23.9030    19.0610    23.2620     2.5630    -9.6070 
  124.7500    49.8480    29.5430    24.2390    20.1000    23.2310     2.5800    -9.6310 
  124.8750    50.8510    29.9330    24.6150    21.8400    23.2240     2.5960    -9.6830 
  125.0000    52.2330    30.2710    24.9870    22.5250    23.2240     2.6050    -9.7410 
  125.1250    54.0200    30.4590    25.2710    22.7940    23.2240     2.6050    -9.8070 
  125.2500    55.3150    30.4770    25.4270    23.7910    23.2280     2.5950    -9.8510 
  125.3750    54.4670    30.3290    25.4450    22.4030    23.2440     2.5770    -9.9230 
  125.5000    52.1560    30.0480    25.3420    20.0690    23.2720     2.5530    -9.9610 
  125.6250    51.8360    29.6930    25.1540    19.8470    23.2670     2.5290   -10.0600 
  125.7500    55.2940    29.3750    24.9720    20.6460    23.2430     2.5090   -10.1290 
  125.8750    58.8860    29.1880    24.8750    20.7360    23.2270     2.4990   -10.1840 
  126.0000    58.7620    29.2040    24.9330    19.6860    23.2240     2.5000   -10.2110 
  126.1250    55.6870    29.4740    25.2100    18.8220    23.2250     2.5120   -10.2620 
  126.2500    53.2990    29.8960    25.6410    18.7880    23.2360     2.5290   -10.2940 
  126.3750    52.4090    30.3510    26.1400    20.7350    23.2880     2.5480   -10.3260 
  126.5000    52.1680    30.7020    26.5940    22.4750    23.4320     2.5640   -10.3580 
  126.6250    53.7040    30.7890    26.8520    22.6370    23.6640     2.5720   -10.3900 
  126.7500    55.8570    30.6190    26.8760    22.4370    23.8770     2.5680   -10.3820 
  126.8750    55.9520    30.2560    26.6850    23.2550    23.9840     2.5530   -10.4020 
  127.0000    55.4060    29.8250    26.3620    24.8740    24.0330     2.5320   -10.4130 
  127.1250    55.9290    29.4660    26.0250    23.4460    24.0320     2.5120   -10.4290 
  127.2500    56.7260    29.2340    25.7600    21.0530    23.9790     2.5010   -10.4460 
  127.3750    56.4660    29.1200    25.5880    20.3160    23.8560     2.5010   -10.4490 
