~V
VERS. 2.00: Ver 2.00
~W
STRT.M 60.0000:
STOP.M 236.0000:
STEP.M 0.1250:
NULL. -999.2500:
UWI. DF33015:
~C
DEPT.M :
DEN.GM/CC :
GR.API :
RML.OHMM :
RI. :
RXO.OHMM :
CALI.CM :
SP.MV :
~A
# ...
   82.5000     2.1000    63.9320     8.9410     8.1360     8.6000    23.3860   -34.9380 
   82.6250     2.1020    64.6520     8.4510     7.5700     7.9710    23.2780   -35.0330 
   82.7500     2.1150    64.9030     8.3160     7.2720     7.9430    23.3210   -35.0360 
   82.8750     2.1340    64.7660     8.4050     7.1730     7.9860    23.4110   -35.0300 
   83.0000     2.1500    66.2060     8.5860     7.1850     8.1220    23.4810   -34.9260 
   83.1250     2.1580    67.9040     8.7590     7.2410     8.2390    23.4980   -34.8830 
   83.2500     2.1620    65.9120     8.9040     7.3080     8.2310    23.5010   -34.8370 
   83.3750     2.1690    61.3160     9.0560     7.3980     8.2290    23.5020   -34.8240 
   83.5000     2.1880    59.4720     9.2680     7.5380     8.3700    23.5190   -34.8160 
   83.6250     2.2280    62.7500     9.5840     7.7500     8.5420    23.5560   -34.8310 
   83.7500     2.2770    66.1550     9.9430     7.9920     8.5620    23.6000   -34.9110 
   83.8750     2.3150    68.3410    10.2400     8.1960     8.5090    23.5800   -35.0040 
   84.0000     2.3250    70.3470    10.3480     8.2800     8.5480    23.4590   -35.1270 
   84.1250     2.2990    70.1230    10.1430     8.1580     8.7030    23.2560   -35.2280 
   84.2500     2.2580    65.5740     9.7170     7.8780     8.7750    23.2190   -35.3010 
   84.3750     2.2220    60.8660     9.2110     7.5210     8.6050    23.2880   -35.3420 
   84.5000     2.1960    61.5000     8.7820     7.1840     8.3460    23.3640   -35.3900 
   84.6250     2.1830    66.1190     8.5820     6.9730     8.3620    23.4570   -35.4160 
   84.7500     2.1750    67.8860     8.6250     6.9160     8.6340    23.5650   -35.4260 
   84.8750     2.1740    66.7620     8.9090     7.0260     8.9030    23.6790   -35.4230 
   85.0000     2.1830    66.6070     9.4020     7.2910     9.0400    23.8170   -35.4510 
   85.1250     2.2040    68.1140    10.0290     7.6760     9.2180    23.9690   -35.4600 
   85.2500     2.2300    67.9220    10.6030     8.0670    10.0070    24.0890   -35.5000 
   85.3750     2.2480    64.8490    10.9530     8.3550    11.6500    24.0610   -35.5760 
   85.5000     2.2470    60.5380    10.9480     8.4450    12.8850    23.8410   -35.6770 
   85.6250     2.2210    58.4800    10.5270     8.2630    11.6380    23.5340   -35.8000 
   85.7500     2.1870    60.8940     9.9200     7.9100     9.5020    23.3680   -35.8960 
   85.8750     2.1570    63.3570     9.3400     7.4980     8.1370    23.3200   -36.0060 
   86.0000     2.1400    61.1610     8.9440     7.1370     7.7530    23.3190   -36.0610 
   86.1250     2.1390    57.7170     8.8160     6.9150     7.8170    23.3120   -36.1600 
   86.2500     2.1450    57.2810     8.8540     6.8160     7.9520    23.2780   -36.2500 
   86.3750     2.1520    58.6180     8.9640     6.8080     8.0320    23.2420   -36.3220 
   86.5000     2.1580    58.7520     9.0680     6.8410     8.0390    23.2260   -36.3910 
   86.6250     2.1600    57.7370     9.1210     6.8780     8.0390    23.2260   -36.4300 
   86.7500     2.1610    57.4720     9.1380     6.9000     8.0240    23.2260   -36.5010 
   86.8750     2.1600    58.0840     9.1390     6.9090     7.9710    23.2260   -36.5570 
   87.0000     2.1580    59.5290     9.1380     6.9100     7.9160    23.2270   -36.6350 
   87.1250     2.1530    60.7180     9.1450     6.9150     7.9020    23.2330   -36.6700 
   87.2500     2.1470    61.0050     9.1650     6.9290     7.9370    23.2510   -36.6780 
   87.3750     2.1410    59.8490     9.2020     6.9540     8.0350    23.2750   -36.6530 
   87.5000     2.1360    58.2680     9.2520     6.9890     8.1850    23.2760   -36.5860 
   87.6250     2.1330    58.6170     9.3070     7.0280     8.3330    23.2650   -36.4760 
   87.7500     2.1340    61.3340     9.3530     7.0620     8.4310    23.2230   -36.3330 
   87.8750     2.1400    64.1330     9.3850     7.0900     8.4430    23.1370   -36.1760 
   88.0000     2.1500    64.3130     9.4050     7.1140     8.3680    23.0770   -36.0120 
   88.1250     2.1620    62.8600     9.4220     7.1340     8.2830    23.0540   -35.8340 
   88.2500     2.1730    61.4880     9.4390     7.1500     8.2350    23.0510   -35.6550 
   88.3750     2.1810    60.8960     9.4540     7.1620     8.2130    23.0500   -35.5090 
   88.5000     2.1860    60.6800     9.4570     7.1640     8.2200    23.0500   -35.3840 
   88.6250     2.1880    61.2650     9.4390     7.1580     8.3020    23.0500   -35.2920 
   88.7500     2.1890    64.5940     9.4030     7.1470     8.4160    23.0500   -35.1980 
   88.8750     2.1870    68.3910     9.3610     7.1380     8.4820    23.0500   -35.1170 
   89.0000     2.1830    69.1430     9.3290     7.1350     8.4530    23.0500   -35.0110 
   89.1250     2.1760    66.4490     9.3280     7.1500     8.3480    23.0500   -34.9270 
   89.2500     2.1700    64.6990     9.3600     7.1870     8.2510    23.0510   -34.7950 
   89.3750     2.1660    64.8540     9.4230     7.2500     8.1880    23.0530   -34.6160 
   89.5000     2.1660    65.5810     9.5080     7.3350     8.1480    23.0600   -34.4070 
   89.6250     2.1670    66.3210     9.5870     7.4240     8.1700    23.0990   -34.1320 
   89.7500     2.1670    67.3840     9.6160     7.4860     8.2630    23.1700   -33.8330 
   89.8750     2.1670    68.1910     9.5460     7.4880     8.3430    23.1850   -33.4430 
   90.0000     2.1670    67.8210     9.3400     7.4010     8.2860    23.1080   -33.0090 
   90.1250     2.1710    67.6900     8.9890     7.2040     8.0180    23.0840   -32.4520 
   90.2500     2.1770    69.1050     8.5940     6.9450     7.5180    23.1580   -31.8920 
   90.3750     2.1860    71.6320     8.2480     6.6730     6.8370    23.2980   -31.3100 
   90.5000     2.1950    73.3310     8.0090     6.4290     6.1880    23.4180   -30.7210 
   90.6250     2.2040    72.7610     7.8680     6.2350     5.9880    23.4370   -30.1500 
   90.7500     2.2160    70.3250     7.7250     6.0590     6.3180    23.3860   -29.5820 
   90.8750     2.2310    69.4970     7.5020     5.8730     6.8350    23.3910   -29.0700 
   91.0000     2.2460    72.8120     7.1830     5.6640     6.8170    23.5620   -28.6450 
   91.1250     2.2550    77.0090     6.8700     5.4760     6.0440    23.9530   -28.4210 
   91.2500     2.2560    78.3580     6.7360     5.3890     5.3290    24.2590   -28.3590 
   91.3750     2.2480    78.6420     6.9010     5.4710     5.0980    24.3580   -28.4790 
   91.5000     2.2340    79.4680     7.3890     5.7510     5.4810    24.2380   -28.7250 
   91.6250     2.2210    78.8320     8.1240     6.2140     6.4990    23.9300   -29.1170 
   91.7500     2.2120    76.3160     8.8680     6.7320     7.6100    23.6410   -29.5820 
   91.8750     2.2080    73.5540     9.4410     7.1940     8.1400    23.4710   -30.1440 
   92.0000     2.2060    71.7890     9.7480     7.5230     8.0390    23.4200   -30.7210 
   92.1250     2.2030    72.6130     9.7850     7.6740     7.9790    23.4060   -31.2360 
   92.2500     2.1950    73.7960     9.7090     7.7160     8.2090    23.3660   -31.6730 
   92.3750     2.1840    70.9830     9.6070     7.7020     8.5710    23.3170   -31.9950 
   92.5000     2.1750    64.7280     9.5190     7.6710     8.8070    23.3060   -32.2770 
   92.6250     2.1700    60.9470     9.4460     7.6380     8.7050    23.3100   -32.3990 
   92.7500     2.1690    60.4010     9.3830     7.6040     8.4680    23.3160   -32.5210 
   92.8750     2.1700    60.8440     9.3400     7.5720     8.3510    23.3250   -32.5380 
   93.0000     2.1710    61.5220     9.3310     7.5470     8.4070    23.3490   -32.4850 
   93.1250     2.1690    63.3070     9.3650     7.5340     8.4150    23.4190   -32.3260 
   93.2500     2.1650    65.2650     9.4220     7.5290     8.2440    23.5260   -32.1430 
   93.3750     2.1620    66.0630     9.4910     7.5280     8.0480    23.6250   -31.9320 
   93.5000     2.1620    65.3400     9.5600     7.5270     8.0290    23.6700   -31.6610 
   93.6250     2.1670    64.8860     9.6050     7.5140     8.1960    23.7000   -31.4190 
