~V
VERS. 2.00: Ver 2.00
~W
STRT.M 50.0000:
STOP.M 277.0000:
STEP.M 0.1250:
NULL. -999.2500:
UWI. DF5031:
~C
DEPT.M :
DEN.GM/CC :
GR.API :
CALI.CM :
RXO.OHMM :
RI. :
RML.OHMM :
SP.MV :
~A
# ...
  207.5000     2.2190    95.3580    23.8190     5.6150     5.4830     6.9820   -11.7240 
  207.6250     2.2730    99.1880    24.0000     5.6330     5.3470     6.7990   -12.1980 
  207.7500     2.3080    97.5050    24.4460     5.6810     5.2470     6.7350   -12.4610 
  207.8750     2.3320    92.6600    24.8680     5.7200     5.2580     6.8640   -12.9180 
  208.0000     2.3370    89.2290    25.1040     5.8420     5.4630     7.2590   -13.5420 
  208.1250     2.3250    86.8440    25.0820     6.5760     5.9700     8.0480   -14.1500 
  208.2500     2.3160    82.7480    24.9250     8.3490     6.7560     9.1980   -14.8530 
  208.3750     2.3210    80.1680    24.6240    10.6210     7.7510    10.5890   -15.5340 
  208.5000     2.3280    83.6630    24.3700    12.4090     8.7700    11.9190   -16.2140 
  208.6250     2.3220    89.5870    24.2790    12.7460     9.4690    12.6620   -16.7750 
  208.7500     2.3100    90.9190    24.2680    12.4330     9.7260    12.7250   -17.2600 
  208.8750     2.3020    89.8800    24.2690    11.9040     9.6690    12.3900   -17.6580 
  209.0000     2.3010    88.9980    24.2880    13.1180     9.6240    12.1800   -17.9770 
  209.1250     2.3000    87.2230    24.3390    19.3540    10.0850    12.7840   -18.2190 
  209.2500     2.2990    84.3230    24.4080    27.4130    11.3750    14.5530   -18.3610 
  209.3750     2.3030    80.9460    24.4550    31.6580    13.8380    17.8600   -18.4570 
  209.5000     2.3190    76.2330    24.5060    33.9120    17.8160    23.0770   -18.4890 
  209.6250     2.3430    72.3130    24.5720    43.6910    23.7350    30.6410   -18.4720 
  209.7500     2.3520    72.3330    24.6440    52.2290    30.7490    39.3080   -18.3920 
  209.8750     2.3290    73.6580    24.6980    54.8180    37.5970    47.2190   -18.3290 
  210.0000     2.2800    72.7480    24.7300    53.4430    43.1530    52.8720   -18.2700 
  210.1250     2.2330    71.0680    24.7110    53.7470    47.3210    56.5420   -18.2070 
  210.2500     2.2100    69.8520    24.6570    59.1420    51.3550    60.3560   -18.1080 
  210.3750     2.2090    68.2370    24.6690    68.1380    55.9880    65.3750   -18.0320 
  210.5000     2.2220    65.6410    24.7410    78.4370    61.3140    71.6630   -17.9710 
  210.6250     2.2330    64.6540    24.7120    87.8700    66.6610    78.1560   -17.9750 
  210.7500     2.2310    66.1210    24.5590    92.2700    71.0910    83.3170   -17.9460 
  210.8750     2.2190    68.7420    24.4340    92.0620    74.2450    86.5860   -17.9450 
  211.0000     2.2030    70.8330    24.4250    92.0940    76.4970    88.5460   -17.9710 
  211.1250     2.1840    70.7370    24.5030    94.8900    78.7070    90.4490   -18.0240 
  211.2500     2.1630    70.0840    24.4920    95.0730    81.4900    93.1110   -18.0800 
  211.3750     2.1480    69.4760    24.3670    93.6970    84.8450    96.4840   -18.1550 
  211.5000     2.1460    68.6830    24.2790    95.8410    88.2530    99.8540   -18.2940 
  211.6250     2.1560    68.4610    24.2660   104.8000    90.6330   101.7770   -18.4220 
  211.7500     2.1700    68.7900    24.2680   114.5340    91.4700   101.6550   -18.6750 
  211.8750     2.1850    69.6880    24.3180   115.4560    90.7510    99.6090   -18.9100 
  212.0000     2.1980    70.1730    24.4570   106.4580    88.7840    96.1750   -19.1660 
  212.1250     2.2040    68.7110    24.4940    95.6310    85.7070    91.6670   -19.3860 
  212.2500     2.1940    66.8990    24.3670    91.0780    81.7730    86.3920   -19.6360 
  212.3750     2.1730    66.7230    24.2440    87.2560    77.1130    80.5130   -19.8310 
  212.5000     2.1580    67.5480    24.2100    80.3440    72.1520    74.5260   -19.9470 
  212.6250     2.1590    68.0970    24.2420    69.7290    68.5450    69.4040   -19.9820 
  212.7500     2.1640    69.2630    24.3020    59.6870    67.6590    65.9070   -19.9590 
  212.8750     2.1660    71.3880    24.3970    55.1380    66.2870    64.7420   -19.8810 
  213.0000     2.1660    73.9520    24.4840    57.5360    67.0300    65.5120   -19.7580 
  213.1250     2.1700    76.4370    24.4250    64.1290    69.5490    67.9480   -19.6370 
  213.2500     2.1750    76.1440    24.2310    70.5590    72.4230    70.8290   -19.5750 
  213.3750     2.1770    72.9250    24.0560    75.6690    74.5820    73.2550   -19.5350 
  213.5000     2.1750    70.2820    23.9600    77.0750    75.6430    74.8600   -19.5320 
  213.6250     2.1720    70.1720    23.9300    73.2750    76.3750    76.1880   -19.5950 
  213.7500     2.1760    69.8970    23.9270    73.0640    78.2100    78.3770   -19.6690 
  213.8750     2.1850    68.8940    23.9300    80.5120    82.0330    82.1570   -19.8130 
  214.0000     2.1950    68.2860    23.9400    93.3980    87.9020    87.5550   -19.9710 
  214.1250     2.2010    66.8590    23.9630   100.1000    94.7870    93.6750   -20.1510 
  214.2500     2.2010    65.7270    23.9750    98.7180   100.7040    98.9440   -20.2640 
  214.3750     2.1940    65.8540    23.9620    95.5210   104.6860   102.6320   -20.3910 
  214.5000     2.1820    66.7270    23.9410    95.7000   107.1680   105.1200   -20.4840 
  214.6250     2.1710    67.1370    23.9490   100.9440   110.2010   108.2580   -20.6100 
  214.7500     2.1660    67.2930    24.0020   109.1820   115.8980   114.0390   -20.6700 
  214.8750     2.1650    67.1170    24.1050   113.8000   125.3480   123.4780   -20.7430 
  215.0000     2.1680    66.2550    24.2380   104.5050   138.4190   136.3050   -20.8010 
  215.1250     2.1770    66.3860    24.3250    92.1730   153.6210   150.9800   -20.8240 
  215.2500     2.1850    69.0090    24.2960    96.7130   167.8760   164.8980   -20.8620 
  215.3750     2.1750    73.1880    24.2800   121.0950   179.1610   176.5480   -20.9600 
  215.5000     2.1460    75.0490    24.3100   154.5900   186.9150   185.4820   -21.1490 
  215.6250     2.1340    70.5990    24.3580   185.1300   191.5080   191.8020   -21.3030 
  215.7500     2.1670    64.7410    24.3680   195.8870   193.8540   196.1080   -21.5570 
  215.8750     2.2310    62.2990    24.3130   220.1360   193.0910   197.6400   -21.8030 
  216.0000     2.2880    63.4950    24.2480   249.5790   187.3610   194.8310   -22.0760 
  216.1250     2.3020    65.5950    24.2170   231.8140   174.0620   185.0040   -22.3720 
  216.2500     2.2850    67.8840    24.1740   181.9270   155.6830   169.4270   -22.6310 
  216.3750     2.2550    70.2670    24.1010   144.8640   135.4210   150.3320   -22.7990 
  216.5000     2.2230    72.3450    24.0550   121.9260   116.2470   130.6600   -22.8750 
  216.6250     2.1960    73.7350    23.9440   100.7990   100.5410   113.4380   -22.8400 
  216.7500     2.1840    73.7470    23.8180    84.2500    88.2080    99.4870   -22.7260 
  216.8750     2.1870    71.7050    23.7540    75.9080    79.0050    88.8830   -22.4880 
  217.0000     2.1980    69.7090    23.7800    71.9050    72.7800    81.5970   -22.1860 
  217.1250     2.2100    71.3760    23.7660    68.9840    70.2200    78.4910   -21.7890 
  217.2500     2.2310    73.9280    23.7590    66.1740    71.1500    79.4680   -21.3840 
  217.3750     2.2570    73.8060    23.7650    66.1770    76.0370    85.1560   -20.9410 
  217.5000     2.2720    71.1120    23.8300    78.8880    85.2890    95.9420   -20.5020 
  217.6250     2.2520    70.4040    24.0010   107.5930    98.5950   110.8730   -20.1910 
  217.7500     2.2110    71.8740    24.2140   136.6160   111.3740   124.6270   -19.8460 
  217.8750     2.1740    74.2310    24.3740   151.5350   117.8420   131.6760   -19.5380 
  218.0000     2.1610    75.5510    24.4220   149.9490   114.4690   128.9000   -19.1910 
  218.1250     2.1690    73.7340    24.3660   130.4440   103.2280   117.5200   -18.9220 
  218.2500     2.1770    70.8310    24.2860   102.0260    91.4320   104.5970   -18.6260 
  218.3750     2.1770    69.6810    24.2520    83.9390    82.3580    94.0580   -18.4130 
  218.5000     2.1740    71.1270    24.2500    80.6780    76.6840    87.1780   -18.1660 
  218.6250     2.1740    71.8130    24.2510    82.3490    74.0620    83.8050   -17.9230 
