~V
VERS. 2.00: Ver 2.00
~W
STRT.M 67.0000:
STOP.M 277.0000:
STEP.M 0.1250:
NULL. -999.2500:
UWI. DF5013:
~C
DEPT.M :
SP.MV :
GR.API :
RML.OHMM :
RI. :
RXO.OHMM :
CALI.CM :
DEN.GM/CC :
~A
# ...
  202.0000    -7.5980    53.4900    42.3200    36.5150    37.5940    24.1150     2.5690 
  202.1250    -7.2730    54.8310    42.8140    36.6110    39.2840    24.1000     2.5810 
  202.2500    -6.9480    57.1780    41.8060    35.5190    38.2010    24.0700     2.5940 
  202.3750    -6.6110    58.7370    38.5700    32.7390    35.3380    24.0110     2.6090 
  202.5000    -6.2980    58.5200    32.6780    27.9300    32.6310    23.9790     2.6220 
  202.6250    -5.9890    57.0870    25.6410    22.1350    29.7000    23.9530     2.6290 
  202.7500    -5.7150    55.1770    18.9580    16.4630    23.8020    23.9000     2.6260 
  202.8750    -5.4580    52.5260    13.7040    11.8090    16.0680    23.8050     2.6160 
  203.0000    -5.2420    51.2150    10.2500     8.7090    10.1100    23.6840     2.6010 
  203.1250    -5.0490    52.0460     8.0010     6.7580     6.7530    23.6050     2.5870 
  203.2500    -4.8870    52.1730     6.5330     5.6690     5.6080    23.5520     2.5720 
  203.3750    -4.7440    51.0490     5.5860     5.1860     5.3150    23.4850     2.5500 
  203.5000    -4.6470    50.4770     5.4740     5.1380     5.1880    23.4020     2.5200 
  203.6250    -4.5790    50.2760     5.7100     5.2770     5.0930    23.3470     2.4860 
  203.7500    -4.5280    48.5880     5.9220     5.4730     5.1030    23.3290     2.4540 
  203.8750    -4.5120    46.4480     6.0290     5.6300     5.2200    23.3270     2.4300 
  204.0000    -4.5380    47.5350     5.9970     5.6660     5.3840    23.3260     2.4140 
  204.1250    -4.6000    50.7460     5.8680     5.5810     5.3950    23.3160     2.4010 
  204.2500    -4.6990    53.9100     5.6990     5.4030     5.2700    23.2790     2.3900 
  204.3750    -4.8530    54.6850     5.5410     5.1940     5.0860    23.2060     2.3790 
  204.5000    -5.0530    53.0780     5.4220     5.0610     4.9690    23.1130     2.3720 
  204.6250    -5.2930    52.1700     5.3980     5.0800     5.0590    23.0230     2.3720 
  204.7500    -5.5830    51.2890     5.5380     5.2960     5.3730    22.9640     2.3800 
  204.8750    -5.8970    50.7130     5.8860     5.7140     5.8870    22.9490     2.3940 
  205.0000    -6.2020    56.3440     6.4670     6.3060     6.6110    22.9680     2.4070 
  205.1250    -6.5320    67.1470     7.2400     6.9470     7.4380    23.0070     2.4140 
  205.2500    -6.8840    75.0420     7.9820     7.5330     8.1920    23.0640     2.4160 
  205.3750    -7.2580    75.9730     8.5500     7.9900     8.7910    23.1560     2.4140 
  205.5000    -7.6250    74.6950     8.9110     8.2760     9.2340    23.2970     2.4130 
  205.6250    -8.0090    75.5970     9.1700     8.4670     9.5670    23.4590     2.4130 
  205.7500    -8.3980    77.8750     9.4030     8.6220     9.7870    23.6030     2.4170 
  205.8750    -8.8030    80.2990     9.6450     8.7750    10.0070    23.7280     2.4220 
  206.0000    -9.2300    83.8540     9.8620     8.9090    10.2160    23.8330     2.4290 
  206.1250    -9.6690    89.2270     9.9890     8.9790    10.3610    23.8860     2.4320 
  206.2500   -10.1000    93.9510     9.9850     8.9500    10.3870    23.9020     2.4300 
  206.3750   -10.5180    94.1390     9.8630     8.8240    10.2560    23.8920     2.4200 
  206.5000   -10.9370    90.8010     9.7080     8.6570    10.0610    23.8510     2.4040 
  206.6250   -11.3810    91.7960     9.6410     8.5460     9.7880    23.7790     2.3880 
  206.7500   -11.8530    96.2260     9.7410     8.5630     9.6340    23.7500     2.3760 
  206.8750   -12.3370    97.7550    10.0330     8.7460     9.9060    23.8350     2.3700 
  207.0000   -12.8430    94.4940    10.5050     9.1110    10.7800    24.0150     2.3690 
  207.1250   -13.3380    91.3640    11.0520     9.5720    11.9720    24.0870     2.3710 
  207.2500   -13.8140    88.9730    11.5850    10.0520    13.0290    24.0660     2.3730 
  207.3750   -14.2410    84.5770    12.0210    10.4660    13.5690    24.0050     2.3740 
  207.5000   -14.5990    81.3210    12.2460    10.7060    13.6690    23.9780     2.3750 
  207.6250   -14.8330    83.1980    12.2360    10.7440    13.6380    23.9750     2.3760 
  207.7500   -14.9520    89.3860    11.9810    10.5690    13.5440    23.9920     2.3760 
  207.8750   -14.9670    93.8310    11.5260    10.2180    13.1900    24.0190     2.3770 
  208.0000   -14.8630    92.5530    11.0110     9.7840    12.4530    24.0320     2.3820 
  208.1250   -14.7200    91.0480    10.6440     9.4240    11.6290    24.0470     2.3900 
  208.2500   -14.5950    91.3870    10.5810     9.2570    10.9240    24.0950     2.4010 
  208.3750   -14.5520    90.5820    10.8920     9.3510    10.6220    24.1720     2.4110 
  208.5000   -14.5660    86.4730    11.5600     9.7310    11.2290    24.2630     2.4160 
  208.6250   -14.6740    83.0060    12.3310    10.2440    12.4740    24.2180     2.4130 
  208.7500   -14.8330    81.9990    12.9710    10.7410    13.4940    24.0850     2.4070 
  208.8750   -15.0410    82.2200    13.2920    11.0820    13.8460    23.9930     2.3980 
  209.0000   -15.2830    83.7760    13.1670    11.1490    13.5820    23.9690     2.3890 
  209.1250   -15.5170    84.7090    12.7790    11.0200    13.3720    23.9690     2.3820 
  209.2500   -15.6540    83.6420    12.3380    10.8190    13.3520    23.9690     2.3770 
  209.3750   -15.6330    82.4720    12.0870    10.7160    13.5340    23.9690     2.3760 
  209.5000   -15.4650    82.6330    12.3730    10.9680    13.8980    23.9730     2.3790 
  209.6250   -15.1320    83.2910    13.2810    11.6700    14.6230    23.9890     2.3880 
  209.7500   -14.6480    84.1970    14.7330    12.8030    15.9320    24.0240     2.4040 
  209.8750   -14.0090    84.1120    16.3540    14.1330    17.8210    24.0870     2.4280 
  210.0000   -13.2050    81.0750    17.2900    15.0840    19.8080    24.1720     2.4530 
  210.1250   -12.2790    75.1590    16.9400    15.1340    20.6490    24.2410     2.4730 
  210.2500   -11.2840    68.7570    15.1270    14.0540    19.1620    24.2220     2.4820 
  210.3750   -10.2740    63.0540    12.4730    12.0880    15.5180    24.1000     2.4770 
  210.5000    -9.3090    57.2230     9.9400     9.8920    10.6560    23.9050     2.4600 
  210.6250    -8.4550    51.0760     8.2370     8.0930     7.2940    23.6710     2.4380 
  210.7500    -7.7520    46.4840     7.3240     6.8840     5.9680    23.5030     2.4170 
  210.8750    -7.2220    46.9690     6.7850     6.2340     5.7690    23.4120     2.4000 
  211.0000    -6.8710    52.7210     6.7580     6.0490     5.8850    23.3540     2.3880 
  211.1250    -6.6700    59.8450     6.8980     6.0790     5.9430    23.2760     2.3820 
  211.2500    -6.6190    67.8480     7.0300     6.1880     5.9300    23.2120     2.3780 
  211.3750    -6.7220    76.5450     7.1230     6.2930     5.8770    23.1760     2.3780 
  211.5000    -6.9350    83.4840     7.2230     6.3750     5.8500    23.1550     2.3770 
  211.6250    -7.2370    87.6090     7.2980     6.4630     5.9280    23.2040     2.3750 
  211.7500    -7.5900    87.1200     7.3910     6.5720     6.1560    23.4020     2.3710 
  211.8750    -7.9910    82.6930     7.5300     6.6920     6.4880    23.7610     2.3660 
  212.0000    -8.4430    79.6250     7.6450     6.7840     6.7910    24.1010     2.3610 
  212.1250    -8.9560    79.8550     7.7010     6.8230     6.9290    24.2910     2.3580 
  212.2500    -9.4820    81.2860     7.6550     6.8080     6.8780    24.3480     2.3570 
  212.3750    -9.9990    84.9130     7.6110     6.7680     6.8350    24.3530     2.3580 
  212.5000   -10.4920    89.9340     7.6370     6.7600     6.9230    24.3530     2.3600 
  212.6250   -10.9580    90.4590     7.7310     6.8230     7.1360    24.3530     2.3640 
  212.7500   -11.4140    85.8760     7.8880     6.9800     7.4970    24.3530     2.3680 
  212.8750   -11.8300    81.6920     8.1420     7.2390     8.0770    24.3530     2.3720 
  213.0000   -12.2230    81.4560     8.5610     7.6340     8.6980    24.3530     2.3760 
  213.1250   -12.5780    81.0960     9.3020     8.1810     9.3520    24.3530     2.3820 
