~V
VERS. 2.00: Ver 2.00
~W
STRT.M 67.0000:
STOP.M 277.0000:
STEP.M 0.1250:
NULL. -999.2500:
UWI. DF5013:
~C
DEPT.M :
SP.MV :
GR.API :
RML.OHMM :
RI. :
RXO.OHMM :
CALI.CM :
DEN.GM/CC :
~A
# ...
   78.2500   -27.5700    77.5480     8.6670     7.6700     7.9470    22.9610     2.1890 
   78.3750   -27.4270    75.2490     8.6430     7.6610     7.7930    22.8170     2.1860 
   78.5000   -27.2830    74.2820     8.5670     7.6200     7.5930    22.5780     2.1810 
   78.6250   -27.1950    75.0470     8.4520     7.5430     7.3180    22.3060     2.1760 
   78.7500   -27.1200    74.9790     8.3340     7.4470     7.0580    22.1370     2.1700 
   78.8750   -27.0910    72.8550     8.2640     7.3640     6.8710    22.0770     2.1630 
   79.0000   -27.1320    71.5150     8.2890     7.3330     6.8940    22.0750     2.1530 
   79.1250   -27.2190    72.1620     8.3850     7.3600     7.1250    22.1260     2.1390 
   79.2500   -27.3660    72.2200     8.5150     7.4340     7.5570    22.3010     2.1240 
   79.3750   -27.5430    70.0320     8.6390     7.5300     8.1740    22.6390     2.1120 
   79.5000   -27.7430    68.0060     8.7280     7.6120     8.5250    22.9660     2.1080 
   79.6250   -27.9550    66.0530     8.7860     7.6640     8.6500    23.1570     2.1090 
   79.7500   -28.1390    64.2420     8.8280     7.6850     8.6550    23.2180     2.1150 
   79.8750   -28.3240    64.9710     8.8700     7.6880     8.6420    23.2230     2.1230 
   80.0000   -28.4420    68.2860     8.9270     7.6950     8.5440    23.1960     2.1290 
   80.1250   -28.4860    70.0730     9.0010     7.7170     8.3350    23.1330     2.1360 
   80.2500   -28.4750    68.3030     9.0820     7.7540     8.0880    23.0110     2.1440 
   80.3750   -28.4040    65.0570     9.1580     7.7970     7.9130    22.8150     2.1540 
   80.5000   -28.3390    64.4470     9.2070     7.8320     7.8450    22.5660     2.1620 
   80.6250   -28.1990    65.5390     9.2270     7.8480     7.7590    22.4770     2.1660 
   80.7500   -28.0820    65.8050     9.2220     7.8410     7.6780    22.5140     2.1640 
   80.8750   -27.9890    64.8170     9.2090     7.8120     7.6780    22.6180     2.1580 
   81.0000   -27.9270    65.0050     9.2100     7.7700     7.8060    22.7760     2.1520 
   81.1250   -27.9310    67.3520     9.2320     7.7340     8.0470    22.9680     2.1500 
   81.2500   -27.9340    69.0940     9.2700     7.7190     8.3420    23.1570     2.1520 
   81.3750   -27.9890    68.5010     9.3100     7.7370     8.5900    23.2420     2.1570 
   81.5000   -28.0300    65.5820     9.3370     7.7910     8.8020    23.2180     2.1600 
   81.6250   -28.1260    62.4120     9.3460     7.8640     9.0200    23.1670     2.1600 
   81.7500   -28.2360    62.2130     9.3420     7.9420     9.2300    23.1260     2.1550 
   81.8750   -28.2750    65.3040     9.3410     8.0120     9.3830    23.1020     2.1490 
   82.0000   -28.2710    67.6490     9.3710     8.0640     9.3970    23.0810     2.1450 
   82.1250   -28.1930    66.8730     9.4430     8.1030     9.3770    23.0470     2.1430 
   82.2500   -28.1110    64.8400     9.5530     8.1380     9.3630    23.0190     2.1430 
   82.3750   -27.9700    64.0620     9.6740     8.1700     9.3660    23.0530     2.1440 
   82.5000   -27.7670    65.1020     9.7600     8.1920     9.3340    23.1420     2.1460 
   82.6250   -27.5310    67.1530     9.7860     8.1900     9.1970    23.2350     2.1470 
   82.7500   -27.2440    68.8320     9.7520     8.1540     8.9710    23.2880     2.1460 
   82.8750   -26.9940    69.6210     9.6660     8.0740     8.7420    23.3170     2.1430 
   83.0000   -26.7310    71.1640     9.5220     7.9380     8.4420    23.3470     2.1370 
   83.1250   -26.4840    73.8270     9.3210     7.7610     8.2130    23.3760     2.1330 
   83.2500   -26.2370    75.5800     9.0710     7.5630     8.1690    23.4260     2.1350 
   83.3750   -25.9750    76.1860     8.8090     7.3720     8.1550    23.5110     2.1470 
   83.5000   -25.8220    77.7570     8.6070     7.2330     7.9660    23.6290     2.1660 
   83.6250   -25.7120    79.3330     8.5240     7.1680     7.7160    23.7420     2.1860 
   83.7500   -25.6430    79.1330     8.5830     7.1890     7.5870    23.7990     2.1990 
   83.8750   -25.6140    76.1670     8.7610     7.2890     7.7870    23.8070     2.2020 
   84.0000   -25.5890    71.7840     9.0060     7.4580     8.0870    23.7700     2.1920 
   84.1250   -25.5810    68.9860     9.2540     7.6620     8.3240    23.7190     2.1750 
   84.2500   -25.5500    67.1560     9.4890     7.8890     8.5430    23.6790     2.1580 
   84.3750   -25.5230    64.2330     9.7260     8.1260     8.7670    23.6360     2.1480 
   84.5000   -25.3570    59.6880     9.9500     8.3390     8.9600    23.5470     2.1520 
   84.6250   -25.0800    58.2880    10.0640     8.4610     9.0190    23.4550     2.1660 
   84.7500   -24.7400    62.3910     9.9300     8.4030     8.8600    23.3860     2.1870 
   84.8750   -24.2530    67.9450     9.4510     8.0970     8.4090    23.3500     2.2080 
   85.0000   -23.6840    72.9000     8.6160     7.5100     7.5180    23.4070     2.2240 
   85.1250   -23.0660    80.1880     7.6830     6.7880     6.5430    23.6380     2.2360 
   85.2500   -22.4390    92.0900     6.8820     6.0830     5.9120    23.9560     2.2480 
   85.3750   -21.8850   105.9500     6.3810     5.5390     5.7520    24.1540     2.2610 
   85.5000   -21.4840   113.0550     6.3080     5.3120     5.7940    24.1980     2.2700 
   85.6250   -21.1990   109.8850     6.5760     5.3910     5.8950    24.1820     2.2720 
   85.7500   -20.9820   101.0430     7.0970     5.7370     6.1000    24.1160     2.2670 
   85.8750   -20.8290    92.4310     7.7190     6.2460     6.5000    24.0000     2.2570 
   86.0000   -20.7210    86.7300     8.1940     6.7330     6.9250    23.8840     2.2520 
   86.1250   -20.5820    84.9300     8.3470     7.0170     7.0810    23.8480     2.2540 
   86.2500   -20.4480    90.8760     8.1240     7.0090     6.9210    23.9110     2.2630 
   86.3750   -20.2740   101.5630     7.6180     6.7290     6.5120    24.0500     2.2750 
   86.5000   -20.0010   106.6740     7.0370     6.2930     6.0470    24.1160     2.2870 
   86.6250   -19.6970   107.7930     6.5670     5.8810     5.7900    24.1360     2.2980 
   86.7500   -19.3660   110.0270     6.2570     5.5730     5.6920    24.1310     2.3090 
   86.8750   -19.0900   114.6240     6.0880     5.3850     5.6560    24.1140     2.3190 
   87.0000   -18.8410   118.6070     6.0180     5.2970     5.6300    24.0800     2.3270 
   87.1250   -18.6990   119.3960     5.9870     5.2440     5.5950    24.0650     2.3330 
   87.2500   -18.6310   116.4290     5.9750     5.1930     5.5320    24.0610     2.3390 
   87.3750   -18.5590   111.4760     5.9740     5.1330     5.4850    24.0610     2.3450 
   87.5000   -18.5760   107.9980     5.9850     5.0760     5.5040    24.0610     2.3450 
   87.6250   -18.5740   109.0640     6.0000     5.0390     5.4850    24.0610     2.3380 
   87.7500   -18.6140   114.9360     6.0210     5.0350     5.4660    24.0610     2.3240 
   87.8750   -18.6930   121.0530     6.0540     5.0650     5.4830    24.0610     2.3070 
   88.0000   -18.7790   121.1510     6.1090     5.1240     5.5260    24.0610     2.2940 
   88.1250   -18.8610   117.1810     6.1760     5.1880     5.5560    24.0610     2.2910 
   88.2500   -18.8890   114.2330     6.2270     5.2400     5.6180    24.0610     2.2980 
   88.3750   -18.9310   112.6310     6.2330     5.2660     5.6990    24.0610     2.3110 
   88.5000   -18.9500   111.7350     6.1850     5.2610     5.6760    24.0530     2.3240 
   88.6250   -18.9800   111.1790     6.1380     5.2500     5.5630    24.0130     2.3340 
   88.7500   -19.0020   110.6380     6.1460     5.2580     5.5300    23.9230     2.3420 
   88.8750   -18.9930   111.5660     6.2480     5.3020     5.6990    23.8290     2.3490 
   89.0000   -19.0780   113.6320     6.4570     5.3940     6.0070    23.7620     2.3550 
   89.1250   -19.1850   114.3000     6.7230     5.5210     6.2940    23.7410     2.3560 
   89.2500   -19.3600   113.6190     7.0010     5.6680     6.3770    23.7420     2.3470 
   89.3750   -19.6030   113.2820     7.2480     5.8170     6.1740    23.7590     2.3290 
