~V
VERS. 2.00: Ver 2.00
~W
STRT.M 64.0000:
STOP.M 271.0000:
STEP.M 0.1250:
NULL. -999.2500:
UWI. DF5037:
~C
DEPT.M :
SP.MV :
GR.API :
RML.OHMM :
RI. :
RXO.OHMM :
CALI.CM :
DEN.GM/CC :
~A
# ...
   97.7500   -23.6240    80.5820     9.0360     6.9610    12.4150    21.5880     2.3950 
   97.8750   -24.2310    78.4560     8.8280     7.0150    10.5630    20.8630     2.3610 
   98.0000   -24.7690    76.1030     8.2640     6.7750     8.3200    20.3420     2.3200 
   98.1250   -25.2100    75.2860     7.6760     6.4360     7.4100    20.1140     2.2850 
   98.2500   -25.5050    77.3930     7.3440     6.1930     7.2430    20.0010     2.2660 
   98.3750   -25.6820    81.0970     7.2600     6.0970     7.1850    19.8810     2.2570 
   98.5000   -25.7580    87.9140     7.3250     6.1140     7.1400    19.7770     2.2530 
   98.6250   -25.7510    96.6420     7.4260     6.1800     7.1040    19.7300     2.2490 
   98.7500   -25.6620    99.9750     7.4820     6.2340     7.0720    19.7240     2.2450 
   98.8750   -25.5310    94.2580     7.4810     6.2530     7.0110    19.7240     2.2400 
   99.0000   -25.3800    87.9340     7.4330     6.2350     6.9320    19.7300     2.2360 
   99.1250   -25.2490    87.8760     7.3450     6.1870     6.8940    19.7450     2.2330 
   99.2500   -25.1990    91.0920     7.2220     6.1190     6.8860    19.7720     2.2320 
   99.3750   -25.1810    92.9520     7.0840     6.0450     6.8610    19.7970     2.2340 
   99.5000   -25.1530    92.3820     6.9420     5.9750     6.8220    19.8530     2.2380 
   99.6250   -25.0760    91.8390     6.8130     5.9170     6.7850    19.9610     2.2420 
   99.7500   -24.9950    91.4350     6.7130     5.8760     6.7520    20.0310     2.2440 
   99.8750   -24.9410    90.8400     6.6480     5.8550     6.7520    20.0760     2.2420 
  100.0000   -24.8910    87.6640     6.6250     5.8550     6.7840    20.1360     2.2360 
  100.1250   -24.8300    82.0080     6.6610     5.8840     6.8420    20.2300     2.2280 
  100.2500   -24.7330    81.0800     6.7830     5.9570     6.9170    20.3470     2.2210 
  100.3750   -24.5880    85.3840     6.9750     6.0740     6.9660    20.4110     2.2180 
  100.5000   -24.4150    89.8120     7.1950     6.2220     7.0210    20.4410     2.2200 
  100.6250   -24.2180    86.7700     7.3670     6.3620     7.0950    20.4900     2.2280 
  100.7500   -23.9720    77.8020     7.3500     6.4080     7.1500    20.6050     2.2390 
  100.8750   -23.6920    75.2060     7.0970     6.3070     7.1020    20.7220     2.2520 
  101.0000   -23.3890    80.4120     6.6230     6.0420     6.8800    20.8430     2.2640 
  101.1250   -23.0620    88.6160     6.0270     5.6560     6.4240    21.1240     2.2740 
  101.2500   -22.7320    95.9000     5.4900     5.2540     5.7660    21.7170     2.2790 
  101.3750   -22.4570   101.1150     5.1450     4.9470     5.1510    22.4480     2.2790 
  101.5000   -22.2370   100.1100     5.0280     4.7910     4.8150    22.8620     2.2760 
  101.6250   -22.0840    95.1640     5.0880     4.7770     4.8350    22.8910     2.2730 
  101.7500   -22.0330    94.2520     5.1940     4.8450     5.0220    22.7330     2.2740 
  101.8750   -22.0550    97.2680     5.2030     4.8810     5.2060    22.5460     2.2770 
  102.0000   -22.1510    99.0970     5.0590     4.8200     5.2550    22.4170     2.2820 
  102.1250   -22.3500    99.5340     4.7970     4.6570     5.1280    22.5330     2.2850 
  102.2500   -22.6380   100.5990     4.5500     4.4590     4.7700    22.8850     2.2870 
  102.3750   -22.9900   100.6010     4.4600     4.3390     4.3680    23.0930     2.2880 
  102.5000   -23.4290    96.7130     4.6060     4.3780     4.3640    23.0230     2.2860 
  102.6250   -23.9230    90.7080     5.0150     4.6180     4.8270    22.7580     2.2810 
  102.7500   -24.4140    83.8220     5.6990     5.0990     5.6470    22.4570     2.2700 
  102.8750   -24.9050    75.5780     6.5440     5.7380     6.8600    22.2710     2.2570 
  103.0000   -25.3960    67.8290     7.4460     6.4570     8.6020    22.2440     2.2420 
  103.1250   -25.8440    66.1980     8.2900     7.1540    10.5640    22.2690     2.2280 
  103.2500   -26.2550    72.2350     8.9310     7.6980    12.3730    22.1690     2.2120 
  103.3750   -26.6270    78.0460     9.3140     8.0370    13.2230    22.0080     2.1980 
  103.5000   -26.9300    79.6960     9.4200     8.1520    11.6820    21.8840     2.1850 
  103.6250   -27.1850    77.0760     9.2800     8.0680     9.3950    21.8240     2.1750 
  103.7500   -27.4040    71.4720     8.9660     7.8350     8.4310    21.7700     2.1690 
  103.8750   -27.5780    67.3290     8.6150     7.5520     8.0560    21.6860     2.1680 
  104.0000   -27.6870    67.5990     8.3010     7.2750     7.9020    21.6040     2.1730 
  104.1250   -27.7380    72.4520     8.0540     7.0320     7.8220    21.5680     2.1830 
  104.2500   -27.7130    79.0100     7.8730     6.8350     7.7550    21.5850     2.1960 
  104.3750   -27.6580    82.9330     7.7430     6.6790     7.7440    21.6160     2.2050 
  104.5000   -27.5750    83.1400     7.7020     6.5890     7.8960    21.6220     2.2090 
  104.6250   -27.4680    82.5180     7.8490     6.6230     8.2920    21.5870     2.2070 
  104.7500   -27.3190    83.2240     8.4170     6.9340     8.9480    21.5790     2.2060 
  104.8750   -27.1340    83.4910     9.4840     7.5970     9.8880    21.6460     2.2180 
  105.0000   -26.9310    81.3130    11.0120     8.6220    11.5850    21.8680     2.2490 
  105.1250   -26.7270    75.0250    12.7290     9.8700    14.3770    22.2950     2.3030 
  105.2500   -26.5900    66.9870    14.0290    10.9710    17.8710    22.8480     2.3660 
  105.3750   -26.5160    66.1170    14.4160    11.5320    20.7500    23.1620     2.4100 
  105.5000   -26.5150    72.8750    13.7000    11.3370    20.7350    23.0080     2.4150 
  105.6250   -26.5790    76.7740    12.1340    10.4580    16.0900    22.4520     2.3790 
  105.7500   -26.7140    71.9660    10.3530     9.2520    11.0040    21.9850     2.3210 
  105.8750   -26.9020    70.0750     8.9560     8.1840     8.7540    21.8060     2.2700 
  106.0000   -27.1440    75.8260     8.1170     7.4370     8.1730    21.8100     2.2360 
  106.1250   -27.4190    81.6620     7.7720     7.0310     8.0810    21.9040     2.2170 
  106.2500   -27.6650    77.9480     7.7770     6.9200     8.0390    22.0110     2.2090 
  106.3750   -27.8370    71.9670     7.9070     6.9480     8.0010    22.0460     2.2060 
  106.5000   -27.9220    71.3090     8.0720     7.0380     8.0100    22.0230     2.2050 
  106.6250   -27.9240    75.0080     8.2280     7.1470     8.1370    22.0420     2.2060 
  106.7500   -27.8610    74.4980     8.3400     7.2470     8.3880    22.1830     2.2080 
  106.8750   -27.7580    70.4630     8.3800     7.3170     8.5890    22.3580     2.2090 
  107.0000   -27.6100    67.4870     8.3250     7.3320     8.6760    22.4790     2.2090 
  107.1250   -27.4220    66.9240     8.1740     7.2790     8.5070    22.4640     2.2090 
  107.2500   -27.2350    70.0840     7.9530     7.1570     8.1840    22.2890     2.2090 
  107.3750   -27.0450    76.5200     7.7270     7.0070     8.0140    22.1080     2.2090 
  107.5000   -26.8510    82.4470     7.5330     6.8580     8.0200    22.0340     2.2100 
  107.6250   -26.6810    84.8700     7.3860     6.7320     7.9700    22.0250     2.2110 
  107.7500   -26.5310    89.8510     7.2740     6.6330     7.8320    22.0280     2.2110 
  107.8750   -26.3840    96.8350     7.1650     6.5430     7.7730    22.0290     2.2100 
  108.0000   -26.2510    96.8020     7.0410     6.4450     7.7620    22.0310     2.2090 
  108.1250   -26.1240    88.3160     6.9080     6.3380     7.7640    22.0320     2.2100 
  108.2500   -25.9370    86.3910     6.7970     6.2400     7.7750    22.0270     2.2140 
  108.3750   -25.7230    93.3810     6.7430     6.1790     7.7480    22.0100     2.2220 
  108.5000   -25.5000    97.4920     6.7660     6.1780     7.7300    21.9850     2.2300 
  108.6250   -25.2430    94.2180     6.8660     6.2450     7.7620    21.9700     2.2370 
  108.7500   -24.9790    88.4400     7.0180     6.3690     7.8890    21.9630     2.2390 
  108.8750   -24.7390    83.2180     7.1540     6.5040     8.0480    21.9620     2.2390 
