~V
VERS. 2.00: Ver 2.00
~W
STRT.M 59.0000:
STOP.M 277.0000:
STEP.M 0.1250:
NULL. -999.2500:
UWI. DF5027:
~C
DEPT.M :
GR.API :
RML.OHMM :
RI. :
RXO.OHMM :
CALI.CM :
DEN.GM/CC :
SP.MV :
~A
# ...
  182.7500    77.0210    38.5000    33.3950    32.8790    25.0220     2.2970   -20.6210 
  182.8750    74.2880    37.4510    32.4980    33.0500    25.0220     2.2960   -20.8180 
  183.0000    70.9130    36.6740    31.7120    32.5180    25.0240     2.2970   -21.0490 
  183.1250    72.0920    36.5890    31.4410    31.6070    25.0240     2.2960   -21.2090 
  183.2500    76.2480    37.2080    31.7420    30.2380    25.0230     2.2940   -21.4820 
  183.3750    79.8650    38.4180    32.5640    30.3240    25.0190     2.2890   -21.6910 
  183.5000    82.0630    39.9670    33.7300    37.9690    25.0120     2.2830   -21.9520 
  183.6250    84.2220    41.5170    34.9730    43.6630    24.9980     2.2770   -22.1400 
  183.7500    84.8870    42.7510    36.0050    44.2290    24.9790     2.2740   -22.3240 
  183.8750    81.6210    43.4940    36.6440    39.1290    24.9680     2.2730   -22.5550 
  184.0000    76.6520    43.6910    36.8130    35.5180    24.9660     2.2740   -22.7270 
  184.1250    73.4760    43.3320    36.4770    33.9260    24.9650     2.2760   -22.9250 
  184.2500    72.1450    42.6750    35.8360    33.9960    24.9530     2.2780   -23.0440 
  184.3750    73.0530    41.9770    35.0940    33.3520    24.8970     2.2800   -23.2000 
  184.5000    76.2780    41.5830    34.5290    32.1100    24.7780     2.2830   -23.3370 
  184.6250    77.1460    42.0000    34.5630    32.4150    24.6150     2.2880   -23.5070 
  184.7500    73.8260    43.5440    35.5120    32.0740    24.4740     2.2940   -23.7650 
  184.8750    70.8910    46.6690    37.8150    30.8840    24.2500     2.2990   -23.9310 
  185.0000    71.9040    51.8460    41.9320    30.9770    23.9480     2.3010   -24.1430 
  185.1250    74.7730    59.7920    48.5170    33.6240    23.7680     2.2970   -24.3290 
  185.2500    75.7330    70.0290    57.1080    41.9730    23.6700     2.2880   -24.6100 
  185.3750    74.9530    81.9920    67.1760    59.4920    23.6420     2.2750   -24.8590 
  185.5000    73.3930    94.5670    77.7720    80.5380    23.6390     2.2620   -25.1320 
  185.6250    71.2150   105.7410    87.2830   103.3950    23.6860     2.2500   -25.4220 
  185.7500    69.3530   113.9440    94.4450   120.8270    23.8370     2.2400   -25.6900 
  185.8750    68.6010   118.2840    98.5150   131.1500    24.1060     2.2340   -25.9820 
  186.0000    69.2200   118.7120    99.3850   126.1880    24.4440     2.2300   -26.2430 
  186.1250    69.2610   115.8240    97.3700   121.7190    24.7090     2.2320   -26.6030 
  186.2500    66.0680   111.7170    94.1220   118.3950    24.8420     2.2380   -26.8500 
  186.3750    62.0230   107.5690    90.6390   114.8080    24.8760     2.2460   -27.1660 
  186.5000    61.9390   104.2500    87.7230   109.7200    24.8840     2.2530   -27.4140 
  186.6250    65.7630   102.9900    86.5210   100.9440    24.8940     2.2560   -27.6950 
  186.7500    69.3650   104.3490    87.7220    97.4880    24.8670     2.2560   -27.9670 
  186.8750    71.0860   108.9010    92.0310   104.6690    24.8060     2.2540   -28.1560 
  187.0000    70.6640   117.1980   100.0340   125.6080    24.7440     2.2550   -28.3970 
  187.1250    67.0890   130.6820   112.9520   148.8480    24.6890     2.2550   -28.5300 
  187.2500    61.6930   149.1350   130.1600   168.8430    24.6680     2.2510   -28.6930 
  187.3750    56.8570   172.3580   150.9030   186.6600    24.6550     2.2390   -28.8010 
  187.5000    54.2310   199.1200   173.4930   223.6710    24.6280     2.2220   -28.8490 
  187.6250    54.0360   226.4630   194.9500   312.2500    24.5750     2.2060   -28.9080 
  187.7500    53.6590   250.0900   212.3900   389.9890    24.5550     2.1960   -28.8920 
  187.8750    53.9290   266.7150   223.9260   416.9280    24.5680     2.1940   -28.9390 
  188.0000    57.6000   274.9200   229.0840   414.0760    24.5850     2.1970   -28.8920 
  188.1250    62.6710   274.4270   228.1290   405.8400    24.5440     2.2010   -28.8530 
  188.2500    63.3950   269.2840   224.1090   390.3160    24.5370     2.2020   -28.7880 
  188.3750    59.8360   262.2880   219.0300   345.6730    24.6560     2.1970   -28.7540 
  188.5000    56.5010   255.0990   214.1110   292.7130    24.7510     2.1890   -28.7450 
  188.6250    57.9270   247.2830   209.0890   251.9910    24.6960     2.1790   -28.6550 
  188.7500    61.5560   237.8060   202.8930   256.3230    24.4520     2.1720   -28.6170 
  188.8750    62.6050   226.1940   194.8700   239.6430    24.0720     2.1710   -28.5470 
  189.0000    60.6630   212.6050   184.8540   232.9310    23.7720     2.1760   -28.5010 
  189.1250    61.7200   197.5720   172.9530   281.7870    23.6630     2.1870   -28.4150 
  189.2500    66.4300   182.6010   160.3950   296.7540    23.6280     2.1990   -28.4030 
  189.3750    69.6890   168.8890   148.2600   235.5730    23.5930     2.2080   -28.2950 
  189.5000    68.5080   157.2750   137.4620   179.8980    23.5630     2.2120   -28.2380 
  189.6250    66.4460   148.7200   129.0130   145.7610    23.5710     2.2130   -28.1190 
  189.7500    64.8090   143.1600   123.0850   145.1000    23.6480     2.2130   -27.9000 
  189.8750    63.3960   140.9070   120.1440   143.1480    23.8040     2.2170   -27.6940 
  190.0000    63.3280   142.4820   120.8890   136.1740    23.9750     2.2240   -27.3900 
  190.1250    64.4370   149.8630   127.3910   128.2910    24.0640     2.2320   -27.0930 
  190.2500    64.1520   163.9300   140.2290   128.6230    24.0560     2.2340   -26.5840 
  190.3750    62.6940   186.6210   160.3960   154.4340    23.9870     2.2280   -26.0120 
  190.5000    60.3340   219.6070   188.0660   204.8800    23.8980     2.2140   -25.3510 
  190.6250    57.2300   264.2490   222.5260   268.3350    23.7880     2.2040   -24.5670 
  190.7500    54.4300   313.8680   258.4780   348.4830    23.7010     2.2120   -23.8320 
  190.8750    52.0810   359.1320   289.9640   401.8740    23.7350     2.2460   -22.9860 
  191.0000    49.9040   388.3550   310.4780   408.0830    23.8350     2.2990   -22.2020 
  191.1250    48.6350   387.2830   311.9760   393.5460    23.9000     2.3520   -21.2930 
  191.2500    49.5530   359.9280   296.3990   381.8460    23.8990     2.3870   -20.4660 
  191.3750    51.4250   316.1160   268.0690   388.5370    23.8450     2.4030   -19.6660 
  191.5000    52.5890   269.6130   234.1750   393.9840    23.7810     2.4090   -18.8880 
  191.6250    53.6680   232.6830   202.6770   380.3210    23.7150     2.4140   -18.2360 
  191.7500    55.2130   205.8080   176.9730   327.6120    23.7190     2.4080   -17.5150 
  191.8750    57.5130   185.1200   156.7470   216.7740    23.8960     2.3820   -16.8620 
  192.0000    59.1120   164.8250   139.2750   135.2690    24.1660     2.3380   -16.1540 
  192.1250    57.6630   138.7610   120.4670   119.8760    24.3320     2.3070   -15.5940 
  192.2500    56.2970   108.2450    99.1080   141.3280    24.3660     2.3180   -14.9760 
  192.3750    57.0160    78.0890    76.3840   166.9490    24.3120     2.3800   -14.4080 
  192.5000    57.5180    52.8720    54.7300   184.8540    24.1190     2.4740   -13.7910 
  192.6250    56.2200    35.5830    37.3560   167.2960    23.7880     2.5520   -13.2250 
  192.7500    54.7330    24.1090    24.6540    79.3830    23.5350     2.5830   -12.7750 
  192.8750    53.3120    16.7640    16.2160    25.5410    23.5750     2.5680   -12.3340 
  193.0000    52.2750    12.1240    11.1240    11.3420    23.6500     2.5320   -12.0210 
  193.1250    53.8760     9.6670     8.6670     9.2860    23.6170     2.5030   -11.6410 
  193.2500    57.0790     8.4840     7.4840     8.8280    23.4780     2.4880   -11.4020 
  193.3750    59.4320     7.9820     6.9820     8.2380    23.2770     2.4820   -11.1850 
  193.5000    60.4570     7.8410     6.8410     8.1100    23.1320     2.4760   -11.0080 
  193.6250    60.1630     7.8390     6.8390     7.4930    23.1050     2.4690   -10.8820 
  193.7500    56.5790     7.7900     6.7900     6.7640    23.2180     2.4670   -10.6730 
  193.8750    51.7140     7.6270     6.6270     6.1670    23.3280     2.4720   -10.4680 
