~V
VERS. 2.00: Ver 2.00
~W
STRT.M 59.0000:
STOP.M 277.0000:
STEP.M 0.1250:
NULL. -999.2500:
UWI. DF5027:
~C
DEPT.M :
GR.API :
RML.OHMM :
RI. :
RXO.OHMM :
CALI.CM :
DEN.GM/CC :
SP.MV :
~A
# ...
  126.5000    58.0980    12.9340    10.7630     9.7820    23.7470     2.2050   -32.5900 
  126.6250    60.7750    12.2040    10.3540     9.9100    23.8550     2.2030   -32.7200 
  126.7500    63.3190    11.3380     9.7620     9.8180    23.9050     2.2040   -32.7700 
  126.8750    65.5200    10.6100     9.1870     9.3260    23.9140     2.2060   -32.7200 
  127.0000    68.4390    10.2070     8.7890     8.5330    23.8910     2.2060   -32.6510 
  127.1250    70.9660    10.2750     8.7130     8.1730    23.8430     2.1970   -32.4190 
  127.2500    70.7740    10.6800     8.9120     8.3570    23.8220     2.1740   -32.1970 
  127.3750    66.4420    11.2250     9.2760     8.8070    23.8150     2.1400   -31.9010 
  127.5000    61.1700    11.6430     9.6310     9.4830    23.7980     2.1100   -31.4730 
  127.6250    59.7590    11.6140     9.7540    10.0600    23.7560     2.1100   -31.0990 
  127.7500    60.5450    11.1240     9.5750    10.3100    23.7330     2.1510   -30.6220 
  127.8750    61.4560    10.2900     9.1150    10.1620    23.8180     2.2280   -30.2040 
  128.0000    63.2600     9.3620     8.5000     9.7060    24.0150     2.3160   -29.7950 
  128.1250    67.8020     8.6780     7.9390     8.6160    24.2590     2.3690   -29.5190 
  128.2500    71.5070     8.3540     7.5730     7.4690    24.3540     2.3700   -29.3130 
  128.3750    72.3030     8.3630     7.4310     7.1650    24.2130     2.3330   -29.0840 
  128.5000    71.0230     8.5960     7.4720     7.8900    24.0560     2.2870   -28.9460 
  128.6250    68.1060     8.8570     7.5850     8.5790    24.0890     2.2640   -28.6870 
  128.7500    64.4520     8.9390     7.6190     8.7770    24.2060     2.2660   -28.5160 
  128.8750    62.4130     8.7430     7.4900     8.5440    24.3190     2.2810   -28.3130 
  129.0000    64.1000     8.2720     7.1780     7.7510    24.4230     2.2940   -28.1410 
  129.1250    69.3340     7.6120     6.7200     6.7480    24.4920     2.2930   -27.9740 
  129.2500    75.0140     6.9670     6.2480     6.1520    24.4570     2.2800   -27.7350 
  129.3750    79.3190     6.4660     5.8640     6.3840    24.3820     2.2660   -27.6190 
  129.5000    80.2790     6.1810     5.6380     6.6560    24.3440     2.2580   -27.5370 
  129.6250    78.4560     6.2460     5.6880     6.6490    24.2810     2.2550   -27.5750 
  129.7500    77.3970     6.7330     6.0810     6.6170    24.1320     2.2510   -27.6710 
  129.8750    77.3120     7.7430     6.9130     7.0730    23.9920     2.2400   -27.7620 
  130.0000    75.2220     9.3010     8.2270     8.6210    23.9330     2.2290   -27.8230 
  130.1250    70.3270    11.2840     9.9650    11.1630    23.9280     2.2360   -27.7790 
  130.2500    66.8490    13.1870    11.7290    15.3130    23.9370     2.2720   -27.7530 
  130.3750    65.2420    14.4780    13.0950    21.6090    23.9990     2.3370   -27.6770 
  130.5000    63.3560    14.6910    13.6590    29.6960    24.1520     2.4140   -27.5910 
  130.6250    63.5660    13.4700    13.0300    34.2800    24.3630     2.4650   -27.5660 
  130.7500    67.9190    11.4410    11.5740    30.4230    24.5670     2.4700   -27.4540 
  130.8750    74.5590     9.2780     9.7620    19.5680    24.7650     2.4300   -27.4390 
  131.0000    79.5440     7.4880     8.0520     9.3650    24.8620     2.3670   -27.4020 
  131.1250    82.4340     6.3490     6.7870     6.5550    24.7850     2.3120   -27.4420 
  131.2500    85.1750     5.7360     5.9840     6.0850    24.7300     2.2800   -27.4750 
  131.3750    86.6460     5.5370     5.5860     6.0800    24.7860     2.2720   -27.5140 
  131.5000    86.2580     5.6070     5.4850     6.0770    24.8430     2.2780   -27.5790 
  131.6250    84.9220     5.7990     5.5780     6.1170    24.8670     2.2850   -27.5260 
  131.7500    83.8600     5.9650     5.7210     5.8860    24.8910     2.2850   -27.5610 
  131.8750    82.0820     6.0310     5.8330     5.6320    24.8290     2.2780   -27.5320 
  132.0000    78.6000     5.9870     5.8700     5.7020    24.6440     2.2690   -27.5550 
  132.1250    77.4440     5.8710     5.8290     6.0430    24.5060     2.2670   -27.5810 
  132.2500    80.1940     5.7530     5.7490     6.0480    24.5660     2.2760   -27.6430 
  132.3750    84.9430     5.6680     5.6580     5.5370    24.6760     2.2920   -27.7650 
  132.5000    87.6690     5.6470     5.5860     5.3460    24.7540     2.3070   -27.8420 
  132.6250    85.4770     5.7200     5.5680     5.4080    24.7440     2.3130   -28.0930 
  132.7500    83.5650     5.8570     5.6050     5.8070    24.6780     2.3090   -28.3420 
  132.8750    84.1690     6.0510     5.7030     6.3760    24.5830     2.2970   -28.5860 
  133.0000    84.4630     6.3190     5.8830     6.8200    24.4650     2.2820   -28.8670 
  133.1250    80.7470     6.7370     6.2210     7.1880    24.2830     2.2670   -29.0720 
  133.2500    76.0440     7.4000     6.7900     7.6550    24.1680     2.2520   -29.2910 
  133.3750    74.3520     8.4660     7.7210     8.4690    24.1860     2.2380   -29.4380 
  133.5000    74.0200    10.0870     9.1470    10.1000    24.3460     2.2260   -29.5870 
  133.6250    71.7150    12.4040    11.1890    13.7020    24.5620     2.2300   -29.7090 
  133.7500    67.6030    15.1170    13.5920    20.3010    24.7170     2.2560   -29.7310 
  133.8750    62.9970    17.7810    15.9940    29.4590    24.7780     2.3080   -29.8210 
  134.0000    59.0750    19.7650    17.8920    36.1900    24.7330     2.3760   -29.8680 
  134.1250    57.5510    20.2440    18.5970    43.5880    24.6680     2.4290   -30.0330 
  134.2500    58.2480    19.3300    18.1180    45.0960    24.5440     2.4440   -30.1980 
  134.3750    60.0420    17.4710    16.7220    37.7220    24.3460     2.4140   -30.3530 
  134.5000    62.3930    15.3350    14.8950    25.4160    24.1690     2.3530   -30.5390 
  134.6250    63.7210    13.5660    13.1820    18.6980    24.0350     2.2800   -30.6000 
  134.7500    61.7330    12.3250    11.8560    13.0520    23.8910     2.2150   -30.7380 
  134.8750    56.8230    11.5860    10.9720    11.0470    23.7600     2.1640   -30.7560 
  135.0000    53.6240    11.2770    10.5030    10.7580    23.6650     2.1300   -30.7710 
  135.1250    57.1360    11.3540    10.4250    10.6010    23.6210     2.1180   -30.7090 
  135.2500    62.7910    11.6470    10.5770    10.3160    23.6490     2.1210   -30.5880 
  135.3750    65.9140    12.0360    10.8550     9.8100    23.7310     2.1330   -30.4860 
  135.5000    65.8170    12.3520    11.1240     9.3880    23.8420     2.1500   -30.2770 
  135.6250    65.7650    12.3240    11.1760     9.4010    23.9030     2.1710   -30.1000 
  135.7500    66.2750    11.8650    10.9210    10.3150    23.9340     2.2020   -29.8560 
  135.8750    65.5530    10.9950    10.3430    11.7690    23.9950     2.2450   -29.6070 
  136.0000    65.1620     9.8530     9.5130    13.1970    24.1550     2.2960   -29.4230 
  136.1250    68.6000     8.7190     8.5920    14.4620    24.4110     2.3350   -29.2590 
  136.2500    74.4660     7.8670     7.8070    12.6280    24.6560     2.3450   -29.2150 
  136.3750    77.9660     7.4230     7.2920     8.0280    24.7150     2.3230   -29.2580 
  136.5000    75.3670     7.3910     7.0970     6.1580    24.5210     2.2790   -29.4470 
  136.6250    68.2350     7.7110     7.2220     6.9460    24.2400     2.2340   -29.7110 
  136.7500    63.9370     8.1380     7.4930     8.3210    24.0810     2.2030   -29.9410 
  136.8750    65.3470     8.4900     7.7690     9.1350    23.9590     2.1890   -30.2360 
  137.0000    69.9820     8.6390     7.9380     9.4050    23.8630     2.1880   -30.3930 
  137.1250    73.9810     8.5150     7.9080     8.2840    23.8280     2.1960   -30.5710 
  137.2500    76.8800     8.2310     7.7220     7.1550    23.7890     2.2080   -30.6650 
  137.3750    77.6120     7.8950     7.4450     6.1470    23.6610     2.2200   -30.6980 
  137.5000    76.0790     7.5880     7.1480     5.8210    23.4370     2.2300   -30.7100 
  137.6250    73.2700     7.3420     6.8790     6.0580    23.2350     2.2350   -30.6340 
