~V
VERS. 2.00: Ver 2.00
~W
STRT.M 60.0000:
STOP.M 256.0000:
STEP.M 0.1250:
NULL. -999.2500:
UWI. DF5048:
~C
DEPT.M :
GR.API :
CALI.CM :
RXO.OHMM :
RI. :
RML.OHMM :
DEN.GM/CC :
SP.MV :
~A
# ...
  228.7500    97.0160    25.1270     8.4960     8.1250     7.6290     2.3700   -22.8170 
  228.8750   103.2390    25.1310     8.6620     8.1680     7.9580     2.3690   -23.0460 
  229.0000   109.3640    25.1440     8.8770     8.4870     8.6600     2.3620   -23.3260 
  229.1250   111.0900    25.1480     9.8860     9.2340     9.9040     2.3520   -23.6410 
  229.2500   107.2170    25.1450    12.5330    10.3930    11.6020     2.3420   -23.9180 
  229.3750    97.4190    25.1260    15.7960    11.9100    13.5850     2.3370   -24.1590 
  229.5000    86.5080    25.0890    17.7910    13.6000    15.5360     2.3330   -24.3570 
  229.6250    82.4940    25.0650    18.8330    15.0720    16.9610     2.3300   -24.4660 
  229.7500    82.4330    25.0620    18.8760    16.0210    17.6870     2.3240   -24.5010 
  229.8750    80.4210    25.0620    18.5580    16.3530    17.7560     2.3170   -24.4670 
  230.0000    75.8210    25.0490    18.3180    16.2090    17.4090     2.3130   -24.4120 
  230.1250    74.8000    25.0340    17.4950    15.8520    16.9720     2.3160   -24.3410 
  230.2500    77.5790    25.0290    16.7140    15.5790    16.7410     2.3220   -24.3090 
  230.3750    81.5190    25.0280    16.3070    15.5500    16.8810     2.3240   -24.2310 
  230.5000    83.6980    25.0290    16.4550    15.8610    17.4780     2.3200   -24.1260 
  230.6250    81.7950    25.0310    17.5310    16.5890    18.5840     2.3120   -24.0520 
  230.7500    78.7610    25.0330    18.9780    17.5880    19.9230     2.3030   -23.9700 
  230.8750    77.7660    25.0320    20.0640    18.5790    21.0560     2.2990   -23.9610 
  231.0000    78.5690    25.0240    20.6580    19.0200    21.3300     2.2990   -23.9300 
  231.1250    80.6340    25.0040    20.0160    18.0820    19.9420     2.3040   -23.9330 
  231.2500    83.3240    24.9740    19.8680    16.0280    17.3670     2.3130   -23.9270 
  231.3750    85.4480    24.9480    19.3330    13.6100    14.5330     2.3270   -23.9760 
  231.5000    87.7400    24.9560    15.8240    11.6310    12.4550     2.3420   -24.0710 
  231.6250    94.3650    25.0060    10.1340    10.8190    12.2080     2.3480   -24.2150 
  231.7500   100.9240    25.0370     9.9130    11.3850    14.0690     2.3430   -24.4300 
  231.8750    99.1430    25.0180    18.3180    13.7910    18.4530     2.3260   -24.6270 
  232.0000    88.3200    24.9740    29.3470    18.7060    25.6620     2.3010   -24.8150 
  232.1250    77.0520    24.9260    45.3720    27.1710    35.7050     2.2750   -24.9730 
  232.2500    70.4060    24.8460    55.0640    37.6030    46.1010     2.2530   -25.1380 
  232.3750    66.4890    24.7420    58.1100    46.7370    53.5760     2.2380   -25.3120 
  232.5000    64.7560    24.6830    58.6650    51.1530    55.6320     2.2310   -25.5220 
  232.6250    66.6410    24.7210    58.1800    49.7850    52.3130     2.2300   -25.7110 
  232.7500    70.4350    24.7920    49.8740    45.9510    47.2920     2.2310   -25.9070 
  232.8750    73.0880    24.8410    39.2520    41.6280    42.4700     2.2360   -26.0930 
  233.0000    73.5850    24.8490    34.9560    37.8260    38.6390     2.2440   -26.2910 
  233.1250    73.6570    24.8350    33.2830    35.0520    36.1300     2.2550   -26.4690 
  233.2500    73.2700    24.8240    32.5290    33.1590    34.5960     2.2670   -26.6600 
  233.3750    72.8770    24.8140    31.4340    32.0390    33.8360     2.2750   -26.8460 
  233.5000    73.3250    24.8040    29.7800    31.5700    33.6810     2.2790   -27.0110 
  233.6250    74.8930    24.7960    29.7740    31.7450    34.1070     2.2760   -27.2110 
  233.7500    77.4840    24.7820    30.4970    32.4060    34.9710     2.2690   -27.4100 
  233.8750    80.2950    24.7630    31.0840    33.4720    36.1840     2.2590   -27.6650 
  234.0000    82.0210    24.7530    32.3650    34.7970    37.5810     2.2510   -27.9620 
  234.1250    79.1080    24.7540    33.2370    36.1620    38.9720     2.2490   -28.2090 
  234.2500    73.3770    24.7550    34.5240    37.4630    40.3840     2.2510   -28.4170 
  234.3750    71.4860    24.7650    35.6830    38.8860    42.1300     2.2540   -28.5830 
  234.5000    75.2790    24.8000    36.5720    40.8060    44.6510     2.2530   -28.7250 
  234.6250    78.3910    24.8330    37.2040    43.7540    48.4720     2.2500   -28.8100 
  234.7500    75.1010    24.8220    41.3660    47.6980    53.3650     2.2450   -28.8650 
  234.8750    69.9170    24.7880    54.7590    52.3490    58.8380     2.2400   -28.8740 
  235.0000    68.6010    24.7860    75.5190    57.0550    64.0470     2.2340   -28.8410 
  235.1250    69.8070    24.8350    79.1920    60.8090    67.8650     2.2300   -28.8770 
  235.2500    69.6130    24.8730    70.4100    63.3800    70.3160     2.2270   -28.9320 
  235.3750    68.8440    24.8780    62.1540    65.1840    72.1190     2.2260   -28.9960 
  235.5000    68.2920    24.8760    63.7350    67.0970    74.3570     2.2270   -29.0360 
  235.6250    65.9310    24.8890    75.3950    70.2610    78.1590     2.2290   -29.0560 
  235.7500    62.7550    24.8980    86.8540    74.8660    83.4300     2.2320   -29.0630 
  235.8750    61.5610    24.8970    93.8270    80.5950    89.6480     2.2360   -29.0340 
  236.0000    61.6550    24.8910    99.3630    86.8240    96.1100     2.2420   -28.9750 
  236.1250    60.5380    24.8820   101.9090    92.9990   102.2860     2.2470   -28.8510 
  236.2500    60.7870    24.8700   105.1920    98.9260   108.1020     2.2450   -28.6610 
  236.3750    63.6080    24.8580   110.8540   104.4270   113.3430     2.2370   -28.4340 
  236.5000    65.9260    24.8590   117.8270   108.9930   117.3250     2.2260   -28.1760 
  236.6250    65.2600    24.8780   125.1130   111.1510   118.2330     2.2240   -27.8620 
  236.7500    63.8510    24.9000   129.3780   110.0660   115.3570     2.2370   -27.4590 
  236.8750    63.8250    24.9120   123.4770   105.5790   108.9730     2.2630   -27.0020 
  237.0000    64.6880    24.9130   114.4920    98.7840   100.7440     2.2900   -26.4740 
  237.1250    67.5660    24.9040   100.9900    91.6900    93.0850     2.3020   -25.9490 
  237.2500    71.0480    24.8800    84.3100    85.9950    87.4090     2.2940   -25.3490 
  237.3750    72.6600    24.8290    71.6920    82.4150    84.1360     2.2760   -24.7660 
  237.5000    71.9730    24.7460    80.4190    81.0670    83.1050     2.2610   -24.1320 
  237.6250    71.5620    24.6950    91.2710    81.6280    83.7470     2.2570   -23.4800 
  237.7500    73.2890    24.7360    89.5140    82.6780    84.5920     2.2600   -22.8510 
  237.8750    75.0910    24.8430    86.2770    83.0400    84.5090     2.2610   -22.2800 
  238.0000    74.2690    24.9270    92.4090    81.7950    82.7400     2.2550   -21.6610 
  238.1250    69.6380    24.9310    98.7470    78.5560    79.1430     2.2410   -21.0400 
  238.2500    65.5320    24.9080    88.7130    74.4760    74.9410     2.2300   -20.5780 
  238.3750    66.2840    24.8980    74.9650    70.5070    70.9930     2.2260   -20.0430 
  238.5000    71.6440    24.9200    65.9540    67.1480    67.6490     2.2320   -19.4410 
  238.6250    74.2560    24.9690    69.4990    64.3640    64.7180     2.2410   -18.7960 
  238.7500    70.8570    25.0100    73.7590    61.5490    61.5820     2.2460   -18.3120 
  238.8750    66.1170    25.0320    73.3940    58.3260    57.9550     2.2460   -17.8560 
  239.0000    63.8710    25.0400    67.1840    54.8130    54.1180     2.2460   -17.3970 
  239.1250    62.9120    25.0400    58.3590    51.8070    50.9940     2.2570   -16.8380 
  239.2500    62.1430    25.0290    48.1170    49.8340    49.0020     2.2820   -16.2810 
  239.3750    62.0370    25.0170    43.9940    48.7570    47.8120     2.3170   -15.8980 
  239.5000    61.3620    25.0140    51.1020    47.6890    46.3800     2.3520   -15.6950 
  239.6250    60.8800    25.0030    72.7720    44.8510    43.0000     2.3670   -15.4830 
  239.7500    60.9080    24.9690    74.8600    39.7010    37.4710     2.3580   -15.0820 
  239.8750    60.7890    24.9240    51.8650    33.0800    30.7720     2.3320   -14.7090 
