~V
VERS. 2.00: Ver 2.00
~W
STRT.M 58.0000:
STOP.M 250.0000:
STEP.M 0.1250:
NULL. -999.2500:
UWI. DF5046:
~C
DEPT.M :
GR.API :
CALI.CM :
RXO.OHMM :
RI. :
RML.OHMM :
DEN.GM/CC :
SP.MV :
~A
# ...
  103.0000    63.4530    23.4430     7.9670     7.2200    10.2240     2.1920   -24.1520 
  103.1250    64.4700    23.4400     8.0660     7.3150    10.4070     2.1860   -24.3930 
  103.2500    66.2230    23.4560     8.1680     7.4010    10.5160     2.1850   -24.6560 
  103.3750    64.5580    23.4820     8.2330     7.4430    10.4960     2.1920   -24.9220 
  103.5000    60.4190    23.5030     8.1880     7.4170    10.3280     2.2010   -25.1830 
  103.6250    59.0900    23.5080     7.9930     7.3140    10.0470     2.2020   -25.3780 
  103.7500    60.4300    23.5130     7.7950     7.1740     9.7610     2.1930   -25.5130 
  103.8750    62.8150    23.5440     7.7030     7.0300     9.5440     2.1800   -25.5870 
  104.0000    65.1350    23.5930     7.7110     6.9080     9.4280     2.1700   -25.6220 
  104.1250    67.6330    23.5840     7.7260     6.8240     9.4070     2.1700   -25.6350 
  104.2500    69.4720    23.4910     7.7090     6.7680     9.4200     2.1740   -25.6380 
  104.3750    70.5380    23.3880     7.6820     6.7350     9.4350     2.1790   -25.6360 
  104.5000    70.3450    23.4020     7.6650     6.7200     9.4470     2.1860   -25.6350 
  104.6250    66.3470    23.5350     7.6810     6.7280     9.4700     2.1950   -25.6760 
  104.7500    61.6510    23.5020     7.7820     6.7530     9.5150     2.2040   -25.7350 
  104.8750    59.6680    23.3140     8.0190     6.7870     9.5720     2.2080   -25.7950 
  105.0000    60.8290    23.2940     8.3580     6.8160     9.6130     2.2030   -25.8240 
  105.1250    63.5790    23.6360     8.5810     6.8130     9.5960     2.1950   -25.8690 
  105.2500    66.7830    23.9730     8.5340     6.7710     9.5110     2.1890   -25.9550 
  105.3750    67.9820    24.0810     8.2950     6.6920     9.3690     2.1830   -26.0720 
  105.5000    64.4640    24.0480     8.0680     6.5920     9.2030     2.1720   -26.2020 
  105.6250    60.5200    23.9990     7.9910     6.5070     9.0710     2.1560   -26.3320 
  105.7500    60.3320    23.8690     8.0250     6.4610     9.0020     2.1430   -26.4520 
  105.8750    61.3260    23.5060     8.1810     6.4550     8.9830     2.1290   -26.5590 
  106.0000    60.0350    22.9060     8.5960     6.4750     8.9750     2.1130   -26.6350 
  106.1250    58.6240    22.5620     9.2760     6.4900     8.9260     2.1080   -26.5720 
  106.2500    58.7670    22.8030     9.6170     6.4760     8.8100     2.1210   -26.3670 
  106.3750    59.1340    23.3610     9.1690     6.4260     8.6330     2.1430   -26.0140 
  106.5000    60.4530    23.7610     8.2280     6.3450     8.4290     2.1590   -25.5130 
  106.6250    63.3150    23.8480     7.5780     6.2500     8.2420     2.1630   -24.8170 
  106.7500    65.7850    23.8470     7.2540     6.1600     8.0940     2.1610   -23.9850 
  106.8750    66.5440    23.7970     6.8820     6.0850     7.9920     2.1550   -23.0150 
  107.0000    67.1070    23.6740     6.3790     6.0260     7.9230     2.1530   -21.9440 
  107.1250    69.9910    23.5080     6.1320     5.9540     7.8250     2.1610   -20.8770 
  107.2500    73.9250    23.3450     6.2280     5.8350     7.6300     2.1730   -19.8700 
  107.3750    78.7810    23.2050     6.3260     5.6530     7.3180     2.1840   -18.9510 
  107.5000    86.4370    23.1110     6.0440     5.4160     6.9190     2.1920   -18.1130 
  107.6250    94.7970    23.1230     5.4470     5.1640     6.5120     2.2040   -17.4240 
  107.7500    97.2170    23.2250     5.0400     4.9490     6.1900     2.2240   -16.8450 
  107.8750    94.6380    23.3740     4.9500     4.8020     5.9970     2.2480   -16.3790 
  108.0000    93.7690    23.4970     4.9790     4.7260     5.9230     2.2650   -16.0330 
  108.1250    98.9680    23.5180     4.9480     4.6990     5.8920     2.2650   -15.8040 
  108.2500   105.1350    23.5390     4.8850     4.6700     5.8010     2.2590   -15.6490 
  108.3750   107.8250    23.7190     4.7810     4.6100     5.6070     2.2620   -15.5350 
  108.5000   104.2040    24.0740     4.5860     4.5210     5.3420     2.2770   -15.4600 
  108.6250    96.4590    24.4170     4.3940     4.4440     5.1210     2.2950   -15.4280 
  108.7500    91.6150    24.6290     4.3970     4.4230     5.0400     2.3040   -15.4290 
  108.8750    92.4060    24.7410     4.6450     4.4750     5.1250     2.3040   -15.4490 
  109.0000    95.8680    24.7790     5.0290     4.5870     5.3300     2.2970   -15.4660 
  109.1250    98.0540    24.7260     5.3100     4.7180     5.5530     2.2820   -15.4600 
  109.2500    98.9860    24.6420     5.3300     4.8110     5.6970     2.2670   -15.4170 
  109.3750    99.3110    24.5920     5.1080     4.8350     5.7250     2.2650   -15.3470 
  109.5000    99.3940    24.6220     4.8280     4.7810     5.6570     2.2830   -15.2710 
  109.6250    96.8780    24.7470     4.7280     4.6560     5.5330     2.3030   -15.2070 
  109.7500    92.9580    24.8770     4.8170     4.5010     5.3820     2.3040   -15.1730 
  109.8750    90.8760    24.9350     4.9660     4.3420     5.2130     2.2850   -15.1900 
  110.0000    91.8140    24.9230     5.0770     4.2270     5.0860     2.2610   -15.2890 
  110.1250    91.4100    24.9170     5.1400     4.2770     5.2080     2.2490   -15.5070 
  110.2500    88.2970    24.9450     5.4180     4.6190     5.8010     2.2580   -15.8410 
  110.3750    84.5430    24.9710     6.8550     5.4460     7.1400     2.2990   -16.2890 
  110.5000    79.9910    24.9420    11.3500     7.0450     9.5770     2.3750   -16.8870 
  110.6250    74.2630    24.8310    22.2160    10.0560    13.9320     2.4770   -17.6250 
  110.7500    69.2710    24.6920    36.3080    14.5520    20.3340     2.5830   -18.4490 
  110.8750    67.2640    24.5780    46.0470    19.9440    27.8810     2.6660   -19.3320 
  111.0000    67.5420    24.5210    47.5220    24.2170    33.0680     2.7030   -20.2300 
  111.1250    67.5620    24.4950    42.9890    24.2370    31.0240     2.6850   -21.0730 
  111.2500    68.7830    24.4180    35.0090    20.9890    25.0100     2.6320   -21.8190 
  111.3750    71.1220    24.2280    24.4770    16.6960    18.8870     2.5450   -22.4780 
  111.5000    74.0480    23.9470    15.3240    12.9270    14.2690     2.4280   -23.0120 
  111.6250    75.3400    23.7370    10.8150    10.3260    11.4370     2.3090   -23.3850 
  111.7500    74.5430    23.7030     9.0030     8.6090     9.7520     2.2310   -23.6280 
  111.8750    73.7610    23.7480     8.3300     7.5700     8.8990     2.1990   -23.7560 
  112.0000    74.4040    23.7090     7.9810     7.0200     8.6070     2.1890   -23.7800 
  112.1250    75.0550    23.5570     7.7670     6.8160     8.6390     2.1730   -23.7250 
  112.2500    75.1340    23.4550     7.6670     6.7470     8.7210     2.1540   -23.6190 
  112.3750    74.7020    23.4730     7.6080     6.7300     8.7550     2.1460   -23.4710 
  112.5000    73.5150    23.5700     7.5230     6.7250     8.7370     2.1480   -23.2740 
  112.6250    71.8260    23.6510     7.4950     6.7280     8.7150     2.1550   -23.0740 
  112.7500    70.8130    23.6700     7.6010     6.7420     8.7310     2.1620   -22.9050 
  112.8750    70.5780    23.6240     7.8040     6.7680     8.7960     2.1670   -22.7720 
  113.0000    70.7510    23.5340     8.0030     6.8030     8.8980     2.1660   -22.6820 
  113.1250    73.8040    23.4440     8.1300     6.8340     9.0220     2.1600   -22.6390 
  113.2500    79.5130    23.4030     8.2080     6.8540     9.1530     2.1640   -22.6460 
  113.3750    82.3420    23.4200     8.2570     6.8570     9.2800     2.1800   -22.6700 
  113.5000    79.3070    23.4730     8.2700     6.8350     9.3780     2.1980   -22.7010 
  113.6250    73.2060    23.5290     8.2340     6.7770     9.3870     2.2030   -22.6880 
  113.7500    69.9080    23.5610     8.1830     6.6930     9.2900     2.1970   -22.5940 
  113.8750    70.6150    23.5630     8.1180     6.5990     9.1100     2.1910   -22.3800 
  114.0000    72.9810    23.5690     7.9670     6.5210     8.9230     2.1890   -22.0050 
  114.1250    73.0680    23.6050     7.6920     6.5040     8.8470     2.1860   -21.4300 
