~V
VERS. 2.00: Ver 2.00
~W
STRT.M 55.0000:
STOP.M 274.0000:
STEP.M 0.1250:
NULL. -999.2500:
UWI. DF5015:
~C
DEPT.M :
DEN.GM/CC :
GR.API :
CALI.CM :
RXO.OHMM :
RI. :
RML.OHMM :
SP.MV :
~A
# ...
  235.0000     2.1480    71.7520    24.5250   144.1350   103.3500   112.4360   -15.2770 
  235.1250     2.1520    70.2900    24.3740   138.5710    97.6120   105.2790   -15.1720 
  235.2500     2.1570    68.1770    24.1970   132.1060    91.4510    97.7210   -15.0560 
  235.3750     2.1640    67.9710    24.0320   118.1870    85.0930    90.1160   -14.9310 
  235.5000     2.1710    70.6340    23.9150    98.7200    78.6660    82.8220   -14.8030 
  235.6250     2.1770    73.7530    23.8730    83.9260    72.3420    76.3580   -14.6740 
  235.7500     2.1830    75.0930    23.8550    78.2700    66.2630    70.0950   -14.5380 
  235.8750     2.1900    75.1220    23.8480    75.3910    60.5000    64.0670   -14.3940 
  236.0000     2.1970    75.4960    23.8970    70.3530    55.1560    58.4300   -14.2420 
  236.1250     2.1990    77.5940    23.9950    62.2160    50.4850    53.5020   -14.0940 
  236.2500     2.1990    80.7970    24.0920    54.8110    46.5060    49.3040   -13.9610 
  236.3750     2.2010    84.0510    24.1220    49.4640    43.2760    45.8960   -13.8450 
  236.5000     2.2080    86.5600    24.1120    46.1230    40.8860    43.3740   -13.7420 
  236.6250     2.2270    87.9230    24.1010    42.6670    39.6180    42.0370   -13.6530 
  236.7500     2.2470    87.7540    24.1040    39.5080    39.4270    41.8350   -13.5840 
  236.8750     2.2580    85.3110    24.0980    38.2740    40.3040    42.7610   -13.5420 
  237.0000     2.2480    81.1670    24.1000    40.1250    42.0950    44.6500   -13.5270 
  237.1250     2.2240    78.0530    24.2390    44.8680    44.4900    47.1770   -13.5350 
  237.2500     2.2060    77.5690    24.3570    51.6710    46.8710    49.6890   -13.5590 
  237.3750     2.2020    78.7630    24.3780    60.2590    48.7810    51.7040   -13.5950 
  237.5000     2.2030    80.2900    24.3090    69.0430    49.9020    52.8860   -13.6460 
  237.6250     2.1960    81.6900    24.2470    69.3640    50.0750    53.0690   -13.7130 
  237.7500     2.1920    82.1830    24.1870    61.9480    49.7720    52.7490   -13.7900 
  237.8750     2.2010    80.6370    24.1060    51.3760    49.4280    52.3870   -13.8820 
  238.0000     2.2220    77.7320    23.9920    44.7280    49.4320    52.3900   -13.9900 
  238.1250     2.2300    76.1460    23.9430    46.3260    50.1160    53.1120   -14.1250 
  238.2500     2.2200    76.7250    24.0020    52.8530    51.3780    54.4440   -14.2810 
  238.3750     2.2030    78.4150    24.0970    59.6150    53.0000    56.1550   -14.4600 
  238.5000     2.1950    79.5410    24.1370    62.6070    54.6410    57.8870   -14.6650 
  238.6250     2.2000    78.5070    24.1150    61.5220    55.8370    59.1480   -14.9010 
  238.7500     2.2060    75.8300    24.1020    59.8190    56.2740    59.6090   -15.1580 
  238.8750     2.2060    73.3500    24.1090    61.3590    55.6830    58.9860   -15.4210 
  239.0000     2.2010    72.6960    24.1390    66.5470    53.9240    57.1290   -15.6800 
  239.1250     2.1930    74.6630    24.1650    69.8580    50.9850    54.0290   -15.9240 
  239.2500     2.1910    78.1100    24.1640    66.6400    47.5730    50.4290   -16.1570 
  239.3750     2.2010    81.7500    24.1380    58.3120    44.4020    47.0840   -16.3790 
  239.5000     2.2180    84.1750    24.1120    49.2100    42.2850    44.8500   -16.5920 
  239.6250     2.2310    84.8640    24.0750    42.4770    42.4690    45.0450   -16.7850 
  239.7500     2.2340    84.3900    24.0660    39.3660    45.4220    48.1600   -16.9610 
  239.8750     2.2320    81.9690    24.1030    45.5940    51.4660    54.5360   -17.1240 
  240.0000     2.2300    77.1020    24.1450    68.4210    60.4270    63.9900   -17.2810 
  240.1250     2.2230    72.0310    24.1930   107.0440    71.7690    75.9560   -17.4300 
  240.2500     2.2050    69.6350    24.2680   139.1490    83.4950    88.3270   -17.5650 
  240.3750     2.1830    69.7150    24.3630   153.4840    93.7100    99.1040   -17.6810 
  240.5000     2.1720    70.3420    24.4090   150.7440   100.7390   106.5200   -17.7810 
  240.6250     2.1770    70.4900    24.3620   137.6180   103.0860   108.9960   -17.8680 
  240.7500     2.1820    70.3620    24.2670   119.8100   101.8160   107.6560   -17.9500 
  240.8750     2.1810    69.9710    24.1900   111.5850    98.0350   103.6670   -18.0390 
  241.0000     2.1740    69.8600    24.1630   115.4860    92.9510    98.3030   -18.1440 
  241.1250     2.1710    71.0340    24.1750   119.7340    87.4650    92.5160   -18.2760 
  241.2500     2.1750    73.3130    24.1860   116.7100    82.3460    87.1150   -18.4380 
  241.3750     2.1850    75.9830    24.1760   104.8200    78.4030    82.9550   -18.6320 
  241.5000     2.1940    78.6070    24.1440    87.2450    76.6190    81.0730   -18.8590 
  241.6250     2.1960    80.2180    24.0690    73.2670    78.6780    83.2460   -19.1150 
  241.7500     2.2080    80.2470    23.9500    72.1190    84.8710    89.7790   -19.3880 
  241.8750     2.2400    79.6290    23.8400    89.3820    95.4600   100.9500   -19.6590 
  242.0000     2.2860    79.8700    23.7800   122.4290   110.0840   116.3790   -19.9070 
  242.1250     2.3220    80.4780    23.7970   152.4230   127.7740   135.0420   -20.1080 
  242.2500     2.3380    78.8720    23.7760   170.2400   145.6360   153.8860   -20.2630 
  242.3750     2.3360    74.3700    23.7360   183.9530   160.8930   169.9820   -20.3680 
  242.5000     2.3220    69.3470    23.7350   205.7910   170.9070   180.5470   -20.4250 
  242.6250     2.3020    67.2640    23.8910   227.9310   172.6470   182.3830   -20.4320 
  242.7500     2.2830    67.2780    24.1190   230.4710   167.1240   176.5560   -20.3960 
  242.8750     2.2670    67.3070    24.3180   214.8150   155.6930   164.4960   -20.3280 
  243.0000     2.2560    66.6890    24.3830   195.8150   140.4940   148.4610   -20.2400 
  243.1250     2.2560    67.0040    24.3150   176.6180   123.6690   130.7110   -20.1470 
  243.2500     2.2680    68.6280    24.2060   156.4520   107.2450   113.3830   -20.0530 
  243.3750     2.2910    70.5310    24.0740   133.9240    92.3320    97.6500   -19.9580 
  243.5000     2.3180    71.3050    23.9020   106.7010    79.7820    84.4100   -19.8570 
  243.6250     2.3400    70.4650    23.7130    79.2100    70.5190    74.6380   -19.7430 
  243.7500     2.3380    70.0150    23.5240    61.3270    64.2140    67.9860   -19.6210 
  243.8750     2.3020    71.8470    23.3420    54.4930    60.9420    64.5330   -19.4890 
  244.0000     2.2590    76.2230    23.3890    49.6680    60.9070    64.4970   -19.3450 
  244.1250     2.2610    81.2540    23.6660    44.9590    65.1130    68.9340   -19.1780 
  244.2500     2.3130    84.2030    23.9180    49.6150    73.2010    77.4670   -18.9930 
  244.3750     2.3890    83.7830    23.9840    68.4720    84.7080    89.6060   -18.7890 
  244.5000     2.4710    81.0390    23.8890   101.7750    98.1530   103.7910   -18.5700 
  244.6250     2.5570    80.2420    23.7680   145.9770   110.5260   116.8450   -18.3370 
  244.7500     2.6390    82.6900    23.6310   177.5430   118.6940   125.4620   -18.0890 
  244.8750     2.6940    85.1510    23.4840   179.4400   120.4450   127.3100   -17.8270 
  245.0000     2.6970    84.5610    23.3140   156.2120   115.6120   122.2100   -17.5410 
  245.1250     2.6370    81.5760    23.2310   123.2670   106.4650   112.5610   -17.2250 
  245.2500     2.5500    79.0370    23.1600    93.6340    97.7270   103.3420   -16.8770 
  245.3750     2.4660    77.5970    23.0400    71.5500    91.9120    97.2080   -16.4920 
  245.5000     2.4050    77.2620    22.8830    61.4180    89.7450    94.9210   -16.0670 
  245.6250     2.3840    77.8020    22.8210    64.5350    90.0900    95.2850   -15.5880 
  245.7500     2.4090    77.4610    23.0170    80.3230    89.2470    94.3950   -15.0670 
  245.8750     2.4740    74.5030    23.3960   112.1990    84.0350    88.8970   -14.5030 
  246.0000     2.5510    67.9360    23.6820   157.1000    72.9560    77.2080   -13.9140 
  246.1250     2.6090    57.5360    23.7790   183.5920    57.1030    60.4840   -13.3170 
