~V
VERS. 2.00: Ver 2.00
~W
STRT.M 55.0000:
STOP.M 250.0000:
STEP.M 0.1250:
NULL. -999.2500:
UWI. DF5052:
~C
DEPT.M :
SP.MV :
GR.API :
CALI.CM :
RXO.OHMM :
RI. :
RML.OHMM :
DEN.GM/CC :
~A
   55.0000  -999.2500    47.2100    25.3040     1.6500     0.0660     0.4400  -999.2500 
   55.1250  -999.2500    48.1990    25.3040     1.6370     0.0600     0.4340  -999.2500 
   55.2500  -999.2500    50.0200    25.3040     1.6620     0.0540     0.4270  -999.2500 
   55.3750  -999.2500    51.4280    25.3040     1.6790     0.0500     0.4230  -999.2500 
   55.5000  -999.2500    51.4470    25.3040     1.6730     0.0520     0.4250  -999.2500 
   55.6250  -999.2500    50.4820    25.3040     1.6660     0.0640     0.4380  -999.2500 
   55.7500  -999.2500    49.4460    25.3040     1.6760     0.0860     0.4610  -999.2500 
   55.8750  -999.2500    48.3730    25.3040     1.6900     0.1150     0.4920  -999.2500 
   56.0000  -999.2500    47.2940    25.3040     1.6850     0.1470     0.5260  -999.2500 
   56.1250  -999.2500    46.8840    25.3040     1.6600     0.1750     0.5560  -999.2500 
   56.2500    33.0250    47.0600    25.3040     1.6270     0.1950     0.5760  -999.2500 
   56.3750    33.0250    47.1280    25.3040     1.5830     0.2040     0.5860  -999.2500 
   56.5000    33.0230    46.9560    25.3040     1.5300     0.2030     0.5850  -999.2500 
   56.6250    33.0650    47.3970    25.3040     1.4740     0.1900     0.5710  -999.2500 
   56.7500    33.1480    48.2640    25.3040     1.4220     0.1680     0.5480  -999.2500 
   56.8750    33.2580    48.7990    25.3040     1.3780     0.1460     0.5250  -999.2500 
   57.0000    33.3850    50.2830    25.3040     1.3400     0.1300     0.5080  -999.2500 
   57.1250    33.5340    55.5330    25.3040     1.3120     0.1220     0.5000  -999.2500 
   57.2500    33.7140    60.8300    25.3040     1.2860     0.1220     0.4990  -999.2500 
   57.3750    33.9290    61.0900    25.3040     1.2410     0.1290     0.5070  -999.2500 
   57.5000    34.1720    56.5830    25.3040     1.1490     0.1410     0.5190  -999.2500 
   57.6250    34.4230    53.6800    25.3040     0.9810     0.1530     0.5320  -999.2500 
   57.7500    34.6680    54.5830    25.3040     0.7390     0.1570     0.5370  -999.2500 
   57.8750    34.9070    56.4360    25.3040     0.4540     0.1500     0.5290  -999.2500 
   58.0000    35.1340    57.4200    25.3040     0.2180     0.1310     0.5090  -999.2500 
   58.1250    35.3180    57.8430    25.2840     0.1840     0.1070     0.4840  -999.2500 
   58.2500    35.4350    58.4800    25.2350     0.3390     0.0860     0.4610  -999.2500 
   58.3750    35.4660    59.5560    25.1590     0.5130     0.0720     0.4460  -999.2500 
   58.5000    35.4120    61.3990    25.0510     0.5060     0.0650     0.4390  -999.2500 
   58.6250    35.2790    63.9160    24.7120     0.3530     0.0710     0.4450  -999.2500 
   58.7500    35.0890    65.7600    24.2700     0.2990     0.0890     0.4640  -999.2500 
   58.8750    34.8510    66.2140    23.8310     0.3830     0.1160     0.4930  -999.2500 
   59.0000    34.5770    66.3830    23.5450     0.4880     0.1440     0.5230     2.5050 
   59.1250    34.2940    69.1150    23.4550     0.5200     0.1630     0.5430     2.5050 
   59.2500    34.0350    74.0830    23.4110     0.5180     0.1710     0.5510     2.5070 
   59.3750    33.8080    78.3470    23.3310     0.5220     0.1710     0.5510     2.5100 
   59.5000    33.6090    79.4740    23.2680     0.5370     0.1660     0.5460     2.5160 
   59.6250    33.4210    77.9680    23.2530     0.5470     0.1580     0.5370     2.5220 
   59.7500    33.2250    75.7700    23.2600     0.5530     0.1520     0.5310     2.5240 
   59.8750    33.0010    72.7410    23.2610     0.5640     0.1510     0.5300     2.5270 
   60.0000    32.7160    69.2740    23.2480     0.5800     0.1560     0.5350     2.5300 
   60.1250    32.3070    68.2930    23.2100     0.5890     0.1630     0.5430     2.5270 
   60.2500    31.7550    69.5220    23.1490     0.5900     0.1660     0.5460     2.5170 
   60.3750    31.0440    68.9980    23.0780     0.6000     0.1580     0.5370     2.5070 
   60.5000    30.1630    64.5630    23.0680     0.6330     0.1370     0.5160     2.5030 
   60.6250    29.0600    59.8070    23.0560     0.6930     0.1050     0.4820     2.5180 
   60.7500    27.7340    59.1960    23.0790     0.7460     0.0680     0.4430     2.5570 
   60.8750    26.1640    61.7890    23.0750     0.7570     0.0330     0.4050     2.5920 
   61.0000    24.3350    64.2380    23.0570     0.7230     0.0050     0.3750     2.5600 
   61.1250    22.1820    65.5380    23.0370     0.6750    -0.0020     0.3680     2.3830 
   61.2500    19.7140    68.4790    23.0350     0.6680     0.0250     0.3970     2.1310 
   61.3750    16.8910    74.6780    23.0480     0.8240     0.1130     0.4890     1.9460 
   61.5000    13.6920    83.8310    22.8950     1.3600     0.2940     0.6810     1.9330 
   61.6250    10.0930    93.9400    22.5880     2.4560     0.6370     1.0450     2.0700 
   61.7500     6.2360   100.3690    22.3220     3.7230     1.1470     1.5860     2.1880 
   61.8750     2.2290    99.2600    22.1850     4.7660     1.8110     2.2890     2.2200 
   62.0000    -1.8150    91.4350    22.1370     5.4690     2.5650     3.0880     2.1960 
   62.1250    -5.7330    82.7160    22.2080     5.9850     3.2900     3.8570     2.1720 
   62.2500    -9.3960    77.5240    22.3670     6.4520     3.8920     4.4960     2.1630 
   62.3750   -12.6850    75.1490    22.6570     6.8370     4.3470     4.9770     2.1570 
   62.5000   -15.5170    74.5080    23.0340     7.0430     4.6860     5.3370     2.1480 
   62.6250   -17.7780    75.2560    23.2720     7.0130     4.9570     5.6250     2.1340 
   62.7500   -19.5760    76.6260    23.3680     6.8780     5.2100     5.8930     2.1220 
   62.8750   -20.9650    78.4080    23.3890     6.7560     5.4550     6.1530     2.1210 
   63.0000   -22.0170    80.2550    23.2970     6.7760     5.6830     6.3940     2.1330 
   63.1250   -22.7850    80.6530    22.9820     7.0920     5.8670     6.5890     2.1480 
   63.2500   -23.4020    79.7450    22.6250     7.3480     5.9950     6.7250     2.1530 
   63.3750   -23.9260    79.7320    22.3850     7.3570     6.0610     6.7940     2.1450 
   63.5000   -24.3930    82.4740    22.3160     7.2760     6.0720     6.8060     2.1270 
   63.6250   -24.8130    85.8670    22.3950     7.3300     6.0490     6.7820     2.1070 
   63.7500   -25.2020    86.0920    22.5460     7.4000     6.0210     6.7520     2.0920 
   63.8750   -25.5650    82.8400    22.7020     7.3870     6.0030     6.7330     2.0900 
   64.0000   -25.8940    78.3410    22.8140     7.3150     6.0040     6.7340     2.0960 
   64.1250   -26.1600    74.5790    22.8940     7.2850     6.0300     6.7620     2.0970 
   64.2500   -26.3560    71.2960    22.9850     7.3320     6.0690     6.8030     2.0910 
   64.3750   -26.4800    68.9550    23.0860     7.4300     6.1220     6.8600     2.0860 
   64.5000   -26.5450    68.6630    23.1390     7.5180     6.1950     6.9370     2.0830 
   64.6250   -26.5510    70.5660    23.1700     7.5750     6.2890     7.0360     2.0750 
   64.7500   -26.5020    72.8450    23.3100     7.5980     6.3820     7.1350     2.0750 
   64.8750   -26.3990    75.1590    23.4850     7.5870     6.4530     7.2100     2.1090 
   65.0000   -26.2570    77.9260    23.5150     7.5460     6.4820     7.2410     2.1820 
   65.1250   -26.1000    81.0190    23.2540     7.5290     6.4550     7.2130     2.2480 
   65.2500   -25.9460    83.4180    22.9280     7.5050     6.3960     7.1500     2.2600 
   65.3750   -25.7920    84.1700    22.7530     7.4000     6.3310     7.0810     2.2230 
   65.5000   -25.6300    82.8570    22.7660     7.2020     6.2860     7.0330     2.1770 
   65.6250   -25.4640    80.0860    22.8430     7.0220     6.2930     7.0410     2.1510 
   65.7500   -25.3090    77.6530    22.9930     6.9940     6.3530     7.1040     2.1370 
   65.8750   -25.1740    76.5260    23.1370     7.2100     6.4490     7.2060     2.1300 
   66.0000   -25.0500    76.8230    23.1750     7.6200     6.5510     7.3140     2.1360 
   66.1250   -24.9160    78.1600    23.1410     7.9790     6.5990     7.3650     2.1550 
