~V
VERS. 2.00: Ver 2.00
~W
STRT.M 55.0000:
STOP.M 271.0000:
STEP.M 0.1250:
NULL. -999.2500:
UWI. DF5028:
~C
DEPT.M :
SP.MV :
GR.API :
RML.OHMM :
RI. :
RXO.OHMM :
CALI.CM :
DEN.GM/CC :
~A
# ...
  133.7500   -26.4480    79.8020     9.9450     8.8090     7.3450    24.0120     2.3320 
  133.8750   -26.8770    71.2450    11.6670    10.5050     8.2700    24.0260     2.3910 
  134.0000   -27.3760    64.8950    13.2080    12.0720    10.0680    23.9830     2.4680 
  134.1250   -27.8490    62.6900    14.0670    13.0460    12.9740    23.8190     2.5270 
  134.2500   -28.4200    61.3410    14.1320    13.2840    16.1890    23.6350     2.5390 
  134.3750   -28.9220    60.1670    13.5210    12.8430    16.9090    23.5380     2.4930 
  134.5000   -29.4210    60.0720    12.5750    11.9830    13.9190    23.5220     2.4090 
  134.6250   -29.7790    60.0120    11.7240    11.0650    11.2970    23.5150     2.3200 
  134.7500   -30.1290    59.6130    11.1960    10.3630    10.2550    23.4940     2.2540 
  134.8750   -30.3910    59.3840    11.0160     9.9610    10.0870    23.4630     2.2170 
  135.0000   -30.5800    59.8430    11.1090     9.8400    10.1460    23.4200     2.2030 
  135.1250   -30.6520    61.1150    11.3530     9.9340    10.1450    23.3690     2.2030 
  135.2500   -30.6810    62.3710    11.5810    10.0920    10.0920    23.3470     2.2040 
  135.3750   -30.6550    63.1300    11.7100    10.2320    10.0040    23.3560     2.2030 
  135.5000   -30.6110    63.4820    11.7170    10.3080     9.9200    23.3850     2.1990 
  135.6250   -30.5830    64.7690    11.6160    10.3060     9.8750    23.4100     2.1970 
  135.7500   -30.4760    66.0030    11.4750    10.2590     9.9040    23.4130     2.1960 
  135.8750   -30.4020    64.9620    11.3430    10.1930    10.0330    23.4050     2.1990 
  136.0000   -30.2200    62.6530    11.2550    10.1320    10.1870    23.3970     2.2020 
  136.1250   -30.1030    62.5350    11.2220    10.0840    10.2060    23.3840     2.2060 
  136.2500   -29.9240    63.9800    11.1970    10.0290    10.0860    23.3520     2.2070 
  136.3750   -29.6770    64.9630    11.1110     9.9210     9.9260    23.3120     2.2050 
  136.5000   -29.3900    65.0470    10.8820     9.7020     9.8240    23.2850     2.1990 
  136.6250   -28.9860    64.6560    10.4260     9.3030     9.8010    23.2750     2.1930 
  136.7500   -28.5750    67.0540     9.7960     8.7570     9.7550    23.2730     2.1910 
  136.8750   -28.0500    72.5790     9.0740     8.1200     9.5830    23.2640     2.1980 
  137.0000   -27.5830    77.5810     8.3760     7.4780     9.2920    23.2550     2.2130 
  137.1250   -27.0710    80.5720     7.8510     6.9520     8.9190    23.3480     2.2300 
  137.2500   -26.5610    83.3480     7.5400     6.6020     8.3050    23.5630     2.2410 
  137.3750   -26.1750    84.1480     7.4440     6.4470     7.5060    23.7740     2.2380 
  137.5000   -25.7950    80.9170     7.5280     6.4750     6.8690    23.8230     2.2230 
  137.6250   -25.5390    77.0300     7.7330     6.6460     6.7790    23.6950     2.2070 
  137.7500   -25.2520    76.9000     7.9420     6.8480     7.0590    23.5760     2.1980 
  137.8750   -25.0660    79.5990     8.0820     7.0010     7.4380    23.5440     2.2010 
  138.0000   -25.0380    83.5830     8.1010     7.0460     7.7040    23.5900     2.2130 
  138.1250   -24.8150    84.8340     7.9560     6.9270     7.5750    23.6940     2.2280 
  138.2500   -24.6570    82.7270     7.6880     6.6720     7.2410    23.7980     2.2410 
  138.3750   -24.4200    81.3380     7.3400     6.3220     7.0630    23.8800     2.2520 
  138.5000   -24.1780    82.0680     6.9440     5.9190     7.0780    23.9640     2.2610 
  138.6250   -23.9050    83.8430     6.5450     5.5120     6.9330    24.0810     2.2700 
  138.7500   -23.6770    86.9540     6.2140     5.1660     6.5400    24.1970     2.2790 
  138.8750   -23.5370    91.6800     6.0210     4.9390     6.1780    24.2750     2.2860 
  139.0000   -23.4330    94.4980     6.0240     4.8780     6.0170    24.3250     2.2920 
  139.1250   -23.5120    91.2720     6.3070     5.0600     6.0050    24.3280     2.3010 
  139.2500   -23.5830    86.7080     6.8340     5.4610     6.1230    24.2270     2.3150 
  139.3750   -23.8500    83.4730     7.5500     6.0410     6.4280    24.0340     2.3330 
  139.5000   -24.1900    81.3300     8.3550     6.7160     7.0040    23.8340     2.3510 
  139.6250   -24.6800    77.5170     9.0910     7.3640     8.0800    23.7430     2.3610 
  139.7500   -25.2670    71.9190     9.6230     7.8690     9.1980    23.7410     2.3540 
  139.8750   -25.8360    69.7390     9.8790     8.1640     9.4580    23.7190     2.3280 
  140.0000   -26.4540    71.5340     9.8870     8.2520     8.9140    23.6500     2.2870 
  140.1250   -26.9550    72.4010     9.7370     8.1850     8.6450    23.6400     2.2420 
  140.2500   -27.4670    71.3250     9.5780     8.0820     8.7850    23.7050     2.2050 
  140.3750   -27.8610    70.2900     9.4970     8.0200     8.8940    23.7460     2.1830 
  140.5000   -28.1940    70.4570     9.5230     8.0370     8.8950    23.7010     2.1720 
  140.6250   -28.4010    70.5730     9.6540     8.1370     8.9700    23.6500     2.1690 
  140.7500   -28.4620    71.0170     9.8290     8.2710     9.0270    23.6420     2.1650 
  140.8750   -28.4460    70.7660     9.9990     8.3980     9.0840    23.6420     2.1590 
  141.0000   -28.2610    69.1920    10.0930     8.4650     9.2010    23.6270     2.1530 
  141.1250   -27.9760    68.7340    10.0230     8.3980     9.3240    23.6060     2.1510 
  141.2500   -27.5560    68.9960     9.7880     8.1950     9.3500    23.5860     2.1540 
  141.3750   -27.0590    68.5050     9.4000     7.8580     9.2430    23.5490     2.1630 
  141.5000   -26.4360    69.8690     8.9050     7.4180     9.0650    23.4880     2.1800 
  141.6250   -25.7870    76.3120     8.3820     6.9300     8.9250    23.4740     2.2080 
  141.7500   -25.0570    83.1490     7.9170     6.4700     8.5500    23.5700     2.2440 
  141.8750   -24.3990    86.3360     7.5550     6.0850     7.7060    23.7300     2.2790 
  142.0000   -23.8050    86.0170     7.3180     5.7990     6.7380    23.8330     2.3040 
  142.1250   -23.2760    86.1160     7.2020     5.6270     6.2220    23.7760     2.3100 
  142.2500   -22.9230    88.4340     7.1380     5.5200     6.1210    23.6290     2.3010 
  142.3750   -22.5980    91.3220     7.0750     5.4420     6.1890    23.4750     2.2880 
  142.5000   -22.4080    92.2420     6.9700     5.3580     6.2250    23.3400     2.2790 
  142.6250   -22.2440    93.1400     6.7860     5.2370     6.1720    23.2440     2.2830 
  142.7500   -22.1390    95.8510     6.5430     5.0840     6.1280    23.2770     2.2940 
  142.8750   -22.0700    97.8400     6.2760     4.9170     6.1740    23.5090     2.3090 
  143.0000   -21.9500    96.1950     6.0240     4.7650     6.2220    23.8700     2.3230 
  143.1250   -21.8860    93.6620     5.8410     4.6650     6.0650    24.1760     2.3370 
  143.2500   -21.7550    92.9420     5.7430     4.6300     5.8600    24.3550     2.3490 
  143.3750   -21.6550    92.0190     5.7330     4.6670     5.8230    24.4330     2.3580 
  143.5000   -21.5650    92.5080     5.8020     4.7710     5.9590    24.4360     2.3600 
  143.6250   -21.4460    97.4780     5.9330     4.9310     6.1820    24.4040     2.3470 
  143.7500   -21.4490   100.5050     6.0740     5.1070     6.3870    24.4030     2.3230 
  143.8750   -21.4020    97.5830     6.1900     5.2690     6.5230    24.4400     2.2940 
  144.0000   -21.4680    90.8850     6.2560     5.3920     6.5880    24.4770     2.2670 
  144.1250   -21.4770    86.7750     6.2700     5.4670     6.6160    24.4400     2.2460 
  144.2500   -21.4550    85.0390     6.2850     5.5270     6.7050    24.3300     2.2360 
  144.3750   -21.4940    83.6130     6.3590     5.6090     6.8370    24.2430     2.2340 
  144.5000   -21.4800    84.7230     6.5190     5.7380     6.8890    24.2810     2.2400 
  144.6250   -21.5580    87.8340     6.7610     5.9190     6.8110    24.4390     2.2530 
  144.7500   -21.5470    88.6080     7.0110     6.1080     6.7600    24.5700     2.2700 
  144.8750   -21.5870    86.5490     7.1800     6.2420     6.9420    24.6060     2.2870 
