~V
VERS. 2.00: Ver 2.00
~W
STRT.M 60.0000:
STOP.M 256.0000:
STEP.M 0.1250:
NULL. -999.2500:
UWI. DF5048:
~C
DEPT.M :
GR.API :
CALI.CM :
RXO.OHMM :
RI. :
RML.OHMM :
DEN.GM/CC :
SP.MV :
~A
# ...
   71.2500    69.4690    23.9610     6.9260     6.9070     7.8820     2.0940   -36.5390 
   71.3750    68.7570    23.9060     6.8000     6.8670     7.8720     2.0930   -36.4230 
   71.5000    66.6600    23.8660     6.7340     6.8390     7.8700     2.0960   -36.2770 
   71.6250    65.5360    23.8410     6.6690     6.8450     7.8980     2.1000   -36.1270 
   71.7500    65.4240    23.8200     6.5910     6.8830     7.9530     2.1030   -35.9600 
   71.8750    63.7720    23.7930     6.5540     6.9400     8.0200     2.1050   -35.7960 
   72.0000    62.9040    23.7290     6.5760     6.9960     8.0780     2.1080   -35.6240 
   72.1250    65.5780    23.6010     6.5730     7.0210     8.0960     2.1130   -35.4180 
   72.2500    67.5050    23.4540     6.5020     7.0020     8.0640     2.1160   -35.1940 
   72.3750    66.2420    23.3370     6.3910     6.9400     7.9880     2.1170   -34.9970 
   72.5000    64.6660    23.2680     6.3150     6.8520     7.8870     2.1160   -34.8190 
   72.6250    66.2900    23.2270     6.3720     6.7710     7.8000     2.1160   -34.6330 
   72.7500    67.5380    23.1720     6.4520     6.7250     7.7600     2.1160   -34.4890 
   72.8750    66.7800    23.0900     6.5250     6.7260     7.7860     2.1190   -34.3090 
   73.0000    65.5300    23.0180     6.6460     6.7660     7.8660     2.1250   -34.1420 
   73.1250    64.3530    23.0860     6.8300     6.8210     7.9600     2.1350   -33.9270 
   73.2500    62.4770    23.3300     7.0150     6.8610     8.0210     2.1460   -33.7420 
   73.3750    61.2000    23.6670     7.1010     6.8730     8.0310     2.1540   -33.5300 
   73.5000    63.4040    23.9470     7.0840     6.8670     8.0120     2.1570   -33.3060 
   73.6250    68.8710    24.0660     7.1300     6.8820     8.0270     2.1560   -33.0150 
   73.7500    71.8680    24.1210     7.2270     6.9450     8.1060     2.1580   -32.7230 
   73.8750    70.2960    24.2120     7.2390     7.0480     8.2180     2.1680   -32.4140 
   74.0000    66.7410    24.3450     7.1690     7.1370     8.2790     2.1850   -32.1100 
   74.1250    65.0950    24.4480     7.2430     7.0980     8.1500     2.2040   -31.8160 
   74.2500    66.7540    24.5580     7.2610     6.8850     7.8130     2.2180   -31.5430 
   74.3750    71.1360    24.7560     6.9570     6.5210     7.3300     2.2240   -31.3160 
   74.5000    77.4300    25.0210     6.4090     6.1000     6.8380     2.2220   -31.1100 
   74.6250    84.6350    25.2060     5.8460     5.7660     6.5060     2.2150   -31.0410 
   74.7500    88.8350    25.2010     5.6200     5.5860     6.3700     2.2040   -30.9610 
   74.8750    89.1740    24.9930     5.6370     5.5600     6.3880     2.1930   -30.9440 
   75.0000    87.3700    24.6810     5.7540     5.6280     6.4670     2.1840   -30.9210 
   75.1250    85.8210    24.4640     5.9270     5.6930     6.4920     2.1830   -30.9960 
   75.2500    84.5430    24.4080     5.9160     5.6900     6.4270     2.1880   -31.0340 
   75.3750    82.0460    24.4710     5.7030     5.6180     6.3000     2.1960   -31.0490 
   75.5000    80.6160    24.5880     5.3490     5.5170     6.1680     2.1990   -31.0860 
   75.6250    82.7090    24.6630     5.2560     5.4310     6.0760     2.1950   -31.0510 
   75.7500    86.3500    24.6330     5.7210     5.3690     6.0200     2.1860   -31.0730 
   75.8750    88.6690    24.5780     6.5190     5.3260     5.9840     2.1800   -31.0730 
   76.0000    88.4690    24.6590     6.5010     5.2950     5.9620     2.1780   -31.1280 
   76.1250    90.1280    24.9000     5.9250     5.2830     5.9730     2.1770   -31.1510 
   76.2500    94.6550    25.0450     5.4620     5.3090     6.0450     2.1720   -31.2410 
   76.3750    97.6180    24.9400     5.7290     5.3930     6.2000     2.1600   -31.3450 
   76.5000    93.5650    24.6520     6.0940     5.5440     6.4290     2.1450   -31.4270 
   76.6250    83.2050    24.4140     6.2270     5.7360     6.6690     2.1350   -31.4840 
   76.7500    76.7020    24.3190     6.2530     5.8980     6.8430     2.1290   -31.5370 
   76.8750    76.4670    24.2980     6.3660     6.0040     6.9440     2.1270   -31.5950 
   77.0000    77.4740    24.2470     6.4910     6.0940     7.0540     2.1270   -31.6350 
   77.1250    76.3480    24.1240     6.6440     6.2920     7.3340     2.1380   -31.6280 
   77.2500    76.5870    24.0340     7.2430     6.6600     7.8330     2.1610   -31.5980 
   77.3750    78.2450    24.0910    11.1980     7.2030     8.5300     2.1930   -31.5490 
   77.5000    78.4810    24.3240    18.9480     7.8720     9.3360     2.2230   -31.5550 
   77.6250    77.0840    24.5600    23.3570     8.5600    10.0770     2.2330   -31.6330 
   77.7500    76.6430    24.6110    19.0190     9.0970    10.5510     2.2270   -31.6010 
   77.8750    75.7710    24.5100    12.1970     9.3240    10.6050     2.2210   -31.5740 
   78.0000    72.3040    24.4180     9.5390     9.1470    10.1890     2.2260   -31.4580 
   78.1250    68.9490    24.4560    13.0310     8.5470     9.3450     2.2450   -31.3980 
   78.2500    70.4620    24.5900    14.3180     7.7440     8.3430     2.2660   -31.3240 
   78.3750    78.0660    24.8040    10.8400     6.9020     7.3720     2.2790   -31.2760 
   78.5000    88.3650    25.0620     6.3670     6.1570     6.5760     2.2750   -31.1830 
   78.6250    94.6720    25.2230     6.3400     5.6330     6.0850     2.2520   -31.1210 
   78.7500    97.2910    25.2400     6.6820     5.3390     5.8640     2.2220   -31.1220 
   78.8750    98.3890    25.1600     6.2650     5.2620     5.8530     2.1940   -31.1600 
   79.0000    97.6530    25.0340     5.7910     5.3310     5.9400     2.1760   -31.2440 
   79.1250    92.7630    24.8970     5.9240     5.4180     5.9760     2.1720   -31.3270 
   79.2500    85.7460    24.8260     6.0660     5.4150     5.8880     2.1800   -31.4210 
   79.3750    81.8550    24.8610     5.6160     5.3050     5.6930     2.1920   -31.5200 
   79.5000    82.0710    24.9460     5.0000     5.1260     5.4610     2.2030   -31.6280 
   79.6250    85.4510    24.9530     4.8310     4.9520     5.2910     2.2060   -31.7320 
   79.7500    88.1550    24.8650     5.0500     4.8470     5.2450     2.2040   -31.8510 
   79.8750    86.8090    24.7490     5.1460     4.8460     5.3430     2.1990   -31.9520 
   80.0000    82.6610    24.6710     4.9250     4.9500     5.5650     2.1930   -32.0980 
   80.1250    79.4480    24.6380     4.9620     5.1380     5.8530     2.1870   -32.2450 
   80.2500    78.5650    24.6180     5.5160     5.3400     6.1210     2.1810   -32.3850 
   80.3750    79.4700    24.6100     5.9810     5.5060     6.3210     2.1730   -32.5250 
   80.5000    81.0640    24.6190     6.0250     5.6130     6.4430     2.1650   -32.6590 
   80.6250    82.5850    24.6330     6.0610     5.6610     6.5120     2.1520   -32.7510 
   80.7500    82.0460    24.6290     6.0640     5.7010     6.6100     2.1330   -32.8670 
   80.8750    79.9440    24.6120     6.0650     5.8090     6.8430     2.1120   -32.9510 
   81.0000    75.8890    24.6360     6.4750     6.0820     7.3280     2.1030   -33.0440 
   81.1250    70.6730    24.7470     7.1730     6.6470     8.1820     2.1210   -33.0440 
   81.2500    66.0890    24.8210     7.8910     7.4650     9.2740     2.1670   -33.0710 
   81.3750    61.9030    24.7600     9.2730     8.4170    10.3830     2.2380   -33.0760 
   81.5000    58.2960    24.6310    13.4270     9.2530    11.1870     2.3140   -33.0680 
   81.6250    57.3330    24.5550    15.0350     9.5600    11.2690     2.3410   -33.0740 
   81.7500    57.4520    24.4770    12.1680     9.2860    10.7240     2.3100   -33.0380 
   81.8750    57.6720    24.3560     8.3130     8.6120     9.8400     2.2510   -33.0150 
   82.0000    60.1150    24.2670     7.2460     7.8380     8.9720     2.1950   -32.9460 
   82.1250    66.4850    24.3040     7.2390     7.2390     8.4110     2.1590   -32.9720 
   82.2500    70.2170    24.4090     7.3010     6.8850     8.1600     2.1360   -32.9490 
   82.3750    68.8270    24.5240     7.3370     6.7550     8.1580     2.1240   -32.9130 
