~V
VERS. 2.00: Ver 2.00
~W
STRT.M 55.0000:
STOP.M 250.0000:
STEP.M 0.1250:
NULL. -999.2500:
UWI. DF5052:
~C
DEPT.M :
SP.MV :
GR.API :
CALI.CM :
RXO.OHMM :
RI. :
RML.OHMM :
DEN.GM/CC :
~A
# ...
  133.7500   -13.7900    98.8120    24.0060     5.7260     5.1840     5.2770     2.2610 
  133.8750   -13.5450   100.6990    24.2040     5.3160     5.0850     5.1890     2.2960 
  134.0000   -13.3180   100.8960    24.2440     5.0810     4.9380     5.0440     2.3020 
  134.1250   -13.1280    99.5720    24.1980     5.1130     4.7400     4.8510     2.2910 
  134.2500   -12.9710    98.6390    24.1660     5.2330     4.5430     4.6690     2.2860 
  134.3750   -12.8350    99.1270    24.1560     5.1980     4.4190     4.5700     2.2910 
  134.5000   -12.7100   101.3150    24.1570     4.9340     4.4630     4.6530     2.3050 
  134.6250   -12.6040   104.6380    24.1550     4.6860     4.8380     5.0830     2.3230 
  134.7500   -12.5340   106.8110    24.1480     4.8330     5.5770     5.8850     2.3380 
  134.8750   -12.5100   105.6410    24.1400     5.6860     6.6860     7.0600     2.3560 
  135.0000   -12.5270   100.2800    24.1320     8.0080     8.0730     8.5160     2.3910 
  135.1250   -12.5600    91.0750    24.1090    13.0240     9.4620     9.9570     2.4530 
  135.2500   -12.5780    81.4260    24.0540    19.3870    10.4240    10.9060     2.5160 
  135.3750   -12.5670    75.0220    23.9380    23.1910    10.6330    10.9950     2.5420 
  135.5000   -12.5270    74.5260    23.7730    21.1590    10.0110    10.2510     2.5040 
  135.6250   -12.4590    79.3410    23.6120    14.8770     8.7410     9.0350     2.4100 
  135.7500   -12.3590    84.5100    23.5890     9.6330     7.3460     7.8530     2.3230 
  135.8750   -12.2090    88.8680    23.7680     6.9690     6.1200     6.6980     2.2780 
  136.0000   -11.9980    93.9970    24.0200     5.7600     5.2030     5.7500     2.2730 
  136.1250   -11.7280   100.4670    24.1200     4.9580     4.6610     5.1770     2.2750 
  136.2500   -11.4440   105.2450    24.0530     4.3460     4.3820     4.8810     2.2660 
  136.3750   -11.1830   106.3710    23.9430     4.0180     4.2960     4.7910     2.2560 
  136.5000   -10.9650   104.4580    23.8070     3.9990     4.3340     4.8310     2.2550 
  136.6250   -10.7980   101.5790    23.7020     4.2940     4.4430     4.9460     2.2620 
  136.7500   -10.6720   100.4540    23.6690     4.7350     4.5770     5.0880     2.2610 
  136.8750   -10.5950   101.6780    23.6550     5.1110     4.7150     5.2330     2.2520 
  137.0000   -10.5840   103.5810    23.6320     5.2800     4.8360     5.3620     2.2450 
  137.1250   -10.6580   102.5810    23.6140     5.2500     4.9180     5.4480     2.2340 
  137.2500   -10.7850    98.8000    23.6120     5.1960     4.9500     5.4820     2.2100 
  137.3750   -10.9300    95.0390    23.6100     5.2350     4.9220     5.4520     2.1820 
  137.5000   -11.0600    93.9640    23.6040     5.3140     4.8310     5.3570     2.1740 
  137.6250   -11.1580    95.3650    23.5440     5.1960     4.6860     5.2030     2.2020 
  137.7500   -11.2390    96.2010    23.5950     4.8570     4.5190     5.0260     2.2420 
  137.8750   -11.3190    95.8960    23.7930     4.4910     4.3580     4.8560     2.2720 
  138.0000   -11.4010    95.2970    23.9620     4.3200     4.2270     4.7180     2.2830 
  138.1250   -11.4740    94.8470    24.0770     4.3490     4.1490     4.6350     2.2790 
  138.2500   -11.5300    94.7210    24.0950     4.4100     4.1170     4.6020     2.2740 
  138.3750   -11.5780    95.6360    24.0840     4.4060     4.1240     4.6090     2.2760 
  138.5000   -11.6370    97.9120    24.0600     4.3180     4.1560     4.6430     2.2850 
  138.6250   -11.7330   100.7640    23.9190     4.2030     4.1980     4.6870     2.2940 
  138.7500   -11.8590   103.0010    23.6340     4.1210     4.2380     4.7300     2.2900 
  138.8750   -11.9980   103.9630    23.3420     4.1050     4.2780     4.7710     2.2720 
  139.0000   -12.1340   103.8780    23.2550     4.1240     4.3210     4.8170     2.2490 
  139.1250   -12.2660   103.6030    23.3630     4.1570     4.3750     4.8750     2.2400 
  139.2500   -12.4130   103.3360    23.5880     4.2570     4.4480     4.9520     2.2400 
  139.3750   -12.5920   103.4980    23.8450     4.4220     4.5420     5.0510     2.2420 
  139.5000   -12.8000   104.9550    24.0160     4.5440     4.6540     5.1690     2.2410 
  139.6250   -13.0230   106.9470    24.0560     4.5080     4.7640     5.2860     2.2330 
  139.7500   -13.2400   107.3790    23.9990     4.4890     4.8490     5.3750     2.2220 
  139.8750   -13.4520   105.7240    23.9230     4.6690     4.8900     5.4190     2.2120 
  140.0000   -13.6710   102.9400    23.8730     5.0330     4.8830     5.4110     2.2090 
  140.1250   -13.9040   101.2710    23.8650     5.2430     4.8270     5.3520     2.2160 
  140.2500   -14.1380   103.8350    23.8490     5.0650     4.7470     5.2680     2.2280 
  140.3750   -14.3540   111.8590    23.8000     4.5990     4.6680     5.1840     2.2450 
  140.5000   -14.5410   121.0280    23.7100     4.2180     4.6100     5.1230     2.2690 
  140.6250   -14.7050   123.4790    23.6010     4.2550     4.5940     5.1060     2.3020 
  140.7500   -14.8720   119.5780    23.5230     4.5580     4.6120     5.1240     2.3320 
  140.8750   -15.0590   114.0730    23.4640     4.7720     4.6580     5.1740     2.3440 
  141.0000   -15.2630   109.9500    23.4410     4.7150     4.7500     5.2710     2.3300 
  141.1250   -15.4680   106.5320    23.5580     4.6890     4.9500     5.4820     2.3090 
  141.2500   -15.6570   103.6150    23.7140     5.0390     5.3080     5.8610     2.3110 
  141.3750   -15.8300   102.0470    23.8260     5.8120     5.8910     6.4770     2.3430 
  141.5000   -15.9980   100.5450    23.8560     6.6360     6.7660     7.4020     2.3850 
  141.6250   -16.1790    94.9250    23.8270     8.1480     8.0320     8.7400     2.4160 
  141.7500   -16.3680    85.5580    23.7950    11.3170     9.6010    10.3990     2.4430 
  141.8750   -16.5540    75.8580    23.7800    15.9250    11.3500    12.2460     2.4830 
  142.0000   -16.7250    68.3460    23.7270    19.8600    13.0510    14.0450     2.5380 
  142.1250   -16.8800    63.4710    23.6180    21.1920    14.3750    15.4450     2.5820 
  142.2500   -17.0400    60.4950    23.5600    21.0400    15.2260    16.3440     2.5960 
  142.3750   -17.2220    59.6450    23.5670    19.6990    15.6330    16.7740     2.5890 
  142.5000   -17.4280    59.8340    23.6040    17.4710    15.7410    16.8880     2.5780 
  142.6250   -17.6450    58.6620    23.6300    15.4770    15.7690    16.9180     2.5730 
  142.7500   -17.8530    56.4140    23.5760    14.6660    15.9070    17.0640     2.5670 
  142.8750   -18.0540    55.2960    23.5350    15.0170    16.1980    17.3710     2.5600 
  143.0000   -18.2640    56.5570    23.5300    16.3840    16.6090    17.8050     2.5530 
  143.1250   -18.5070    58.7390    23.5130    18.0090    17.0700    18.2930     2.5490 
  143.2500   -18.7860    59.4040    23.4600    18.7510    17.4880    18.7350     2.5450 
  143.3750   -19.0880    58.0630    23.4580    18.5800    17.8000    19.0650     2.5390 
  143.5000   -19.3920    56.1470    23.5660    18.0900    17.9680    19.2420     2.5330 
  143.6250   -19.6880    55.7130    23.7430    17.9440    17.9340    19.2060     2.5310 
  143.7500   -19.9840    56.9460    23.8110    18.0390    17.7220    18.9820     2.5310 
  143.8750   -20.2890    59.1990    23.7770    18.4050    17.3550    18.5940     2.5320 
  144.0000   -20.6080    62.2850    23.7990    18.5200    16.8650    18.0770     2.5310 
  144.1250   -20.9300    65.9500    23.9630    17.9570    16.3010    17.4800     2.5290 
  144.2500   -21.2360    68.7550    24.0680    16.9300    15.7600    16.9090     2.5280 
  144.3750   -21.5170    70.0220    24.0990    15.9160    15.3180    16.4420     2.5270 
  144.5000   -21.7760    70.9600    24.0950    15.1930    15.0320    16.1380     2.5250 
  144.6250   -22.0300    71.8670    24.0600    14.7760    14.9660    16.0690     2.5240 
  144.7500   -22.2940    71.4460    23.8890    14.3980    15.0890    16.1990     2.5270 
  144.8750   -22.5700    69.6740    23.6740    14.1660    15.3750    16.5020     2.5350 
