~V
VERS. 2.00: Ver 2.00
~W
STRT.M 59.0000:
STOP.M 275.0000:
STEP.M 0.1250:
NULL. -999.2500:
UWI. DF5021:
~C
DEPT.M :
SP.MV :
GR.API :
CALI.CM :
RXO.OHMM :
RI. :
RML.OHMM :
DEN.GM/CC :
~A
# ...
  194.0000   -19.8990    67.9090    25.2190   158.9690   340.6710   370.3680     2.2090 
  194.1250   -20.0110    67.8480    25.1980   159.1890   356.0600   387.0810     2.1880 
  194.2500   -20.1240    66.0560    25.1150   168.8410   375.3620   408.0430     2.1700 
  194.3750   -20.4310    64.2830    25.0990   187.1300   395.5230   429.9380     2.1640 
  194.5000   -20.8670    63.0130    25.1560   206.2090   412.6740   448.5640     2.1640 
  194.6250   -21.1410    62.3300    25.2110   219.7360   423.9580   460.8190     2.1620 
  194.7500   -21.4070    62.9600    25.1880   226.3870   427.6040   464.7780     2.1570 
  194.8750   -21.7900    64.2330    25.0640   231.7920   423.5110   460.3330     2.1620 
  195.0000   -22.0320    64.1740    24.9690   235.2700   416.9350   453.1910     2.1790 
  195.1250   -21.9770    62.5200    24.9340   229.2530   412.0310   447.8650     2.1990 
  195.2500   -21.9020    61.1130    24.9390   211.9330   410.6590   446.3750     2.2100 
  195.3750   -21.8050    61.6240    24.9220   190.3900   411.2960   447.0670     2.2110 
  195.5000   -21.4920    62.7050    24.8540   170.7070   408.6810   444.2270     2.2120 
  195.6250   -21.0570    63.1750    24.7630   161.2100   395.2940   429.6890     2.2210 
  195.7500   -20.7230    63.5330    24.6900   165.2040   361.9270   393.4530     2.2330 
  195.8750   -20.3740    64.7220    24.6580   176.4650   302.0200   328.3940     2.2450 
  196.0000   -19.9410    65.8210    24.6510   177.8050   230.5540   250.7820     2.2530 
  196.1250   -19.5590    66.2360    24.6550   158.8140   162.9500   177.3640     2.2580 
  196.2500   -19.2850    67.1980    24.6580   126.0900   109.4180   119.2270     2.2630 
  196.3750   -19.0220    70.9210    24.6580    95.5110    74.8550    81.6920     2.2800 
  196.5000   -18.7280    76.2830    24.6610    68.8000    53.8250    58.8540     2.3110 
  196.6250   -18.5420    81.0530    24.6840    44.2750    43.3980    47.5310     2.3440 
  196.7500   -18.4150    83.4690    24.7500    30.6410    41.2770    45.2270     2.3570 
  196.8750   -18.2310    82.4410    24.8830    43.8250    46.2320    50.6080     2.3410 
  197.0000   -18.0120    79.5330    25.0200    77.1200    55.0150    60.1460     2.3190 
  197.1250   -17.9230    76.4570    25.1370   108.8420    65.7480    71.8020     2.3070 
  197.2500   -17.8510    73.9020    25.1980   119.9260    76.5470    83.5300     2.3040 
  197.3750   -17.6370    70.9170    25.1850   113.2310    85.2040    92.9320     2.2990 
  197.5000   -17.4160    67.6380    25.1270   108.0720    91.3180    99.5710     2.2810 
  197.6250   -17.3020    65.3170    25.0830   104.8230    95.5990   104.2210     2.2570 
  197.7500   -17.0900    63.9520    25.0970    97.0820    98.4080   107.2710     2.2430 
  197.8750   -16.7460    61.7370    25.1200    89.8610    96.9600   105.6980     2.2600 
  198.0000   -16.4410    58.6780    25.0260   103.5130    89.0250    97.0810     2.3040 
  198.1250   -16.1860    56.6130    24.8440   138.9880    74.4900    81.2960     2.3720 
  198.2500   -15.8160    56.8240    24.6670   177.6410    56.2810    61.5210     2.4700 
  198.3750   -15.3730    58.3840    24.5530   185.2780    38.9880    42.7410     2.5830 
  198.5000   -14.9750    59.7420    24.5090   145.7220    25.2660    27.8390     2.6600 
  198.6250   -14.5200    61.3330    24.4960    81.3200    15.6100    17.3530     2.6720 
  198.7500   -13.9400    63.7530    24.5310    30.3480     9.5710    10.7940     2.6350 
  198.8750   -13.3380    65.7690    24.5340    10.2080     6.7060     7.6830     2.5920 
  199.0000   -12.8000    65.5800    24.5340     5.2150     5.5000     6.3730     2.5620 
  199.1250   -12.2690    63.0580    24.4760     4.5480     5.1800     6.0250     2.5400 
  199.2500   -11.7340    59.3950    24.3360     4.6170     5.2860     6.1410     2.5210 
  199.3750   -11.2880    56.2070    24.2180     4.6420     5.5790     6.4590     2.5000 
  199.5000   -10.9550    54.8460    24.1610     4.5770     5.8600     6.7630     2.4690 
  199.6250   -10.7040    55.7960    24.1600     4.5500     6.0420     6.9620     2.4310 
  199.7500   -10.5410    57.8020    24.1850     4.6410     6.1110     7.0370     2.3980 
  199.8750   -10.5040    58.2260    24.1810     4.7750     6.0850     7.0090     2.3810 
  200.0000   -10.5760    56.8700    24.1440     4.8560     6.0120     6.9290     2.3810 
  200.1250   -10.6870    55.4540    24.1180     4.9060     5.9160     6.8250     2.3940 
  200.2500   -10.8010    55.7620    24.1420     4.9920     5.8220     6.7220     2.4140 
  200.3750   -11.0040    58.5780    24.2410     5.1500     5.7650     6.6600     2.4290 
  200.5000   -11.2500    63.3040    24.3640     5.3210     5.7790     6.6760     2.4320 
  200.6250   -11.4040    69.6080    24.4960     5.4860     5.9000     6.8070     2.4310 
  200.7500   -11.5900    77.2700    24.6290     5.7440     6.1460     7.0740     2.4370 
  200.8750   -11.8970    85.8640    24.7440     6.3470     6.5320     7.4930     2.4550 
  201.0000   -12.1970    93.7750    24.8340     7.2550     7.0040     8.0070     2.4770 
  201.1250   -12.3690    98.6140    24.8460     8.3790     7.5070     8.5530     2.4940 
  201.2500   -12.6180    98.8320    24.7910     9.6150     7.9720     9.0580     2.5050 
  201.3750   -12.9560    96.3760    24.7820    10.6300     8.3110     9.4250     2.5120 
  201.5000   -13.2070    96.0230    24.8190    11.1010     8.4910     9.6210     2.5170 
  201.6250   -13.4300    99.0010    24.8420    10.9820     8.5070     9.6390     2.5110 
  201.7500   -13.7570   103.3580    24.8180    10.6100     8.3940     9.5150     2.4880 
  201.8750   -14.0800   106.9450    24.8300    10.4290     8.2050     9.3110     2.4480 
  202.0000   -14.3080   109.7120    24.8690    10.4810     8.0160     9.1050     2.4100 
  202.1250   -14.5570   111.4020    24.8560    10.4800     7.8710     8.9470     2.3910 
  202.2500   -14.9040   111.1290    24.7520    10.1400     7.8020     8.8730     2.3980 
  202.3750   -15.2410   108.6010    24.6550     9.5320     7.8410     8.9160     2.4180 
  202.5000   -15.5570   106.2640    24.6060     9.1550     7.9650     9.0500     2.4270 
  202.6250   -15.9710   105.4020    24.6210     9.2070     8.1550     9.2560     2.4200 
  202.7500   -16.4230   104.9190    24.6290     9.4900     8.3840     9.5060     2.4070 
  202.8750   -16.8490   102.7840    24.5780     9.7290     8.6300     9.7720     2.4000 
  203.0000   -17.2690   100.9030    24.4940     9.9700     8.8690    10.0320     2.3970 
  203.1250   -17.7750   101.1010    24.4380    10.2240     9.0890    10.2700     2.3970 
  203.2500   -18.2930   102.3710    24.4470    10.5720     9.2790    10.4770     2.3960 
  203.3750   -18.7420   102.2680    24.4850    11.1370     9.4270    10.6380     2.3840 
  203.5000   -19.1630   100.6390    24.4610    11.9110     9.5380    10.7580     2.3610 
  203.6250   -19.5920    97.5080    24.4160    12.6450     9.6090    10.8350     2.3360 
  203.7500   -19.9410    93.2200    24.4100    13.0110     9.6380    10.8670     2.3170 
  203.8750   -20.1590    91.0480    24.4580    12.8770     9.6310    10.8590     2.3060 
  204.0000   -20.3200    93.5350    24.5100    12.5360     9.6160    10.8420     2.2970 
  204.1250   -20.4710    98.5270    24.5070    12.2520     9.6220    10.8490     2.2950 
  204.2500   -20.4880   101.3430    24.4640    12.0540     9.6740    10.9060     2.3050 
  204.3750   -20.3640    98.4990    24.4730    11.8870     9.7760    11.0170     2.3260 
  204.5000   -20.2500    92.8380    24.5080    11.7280     9.8770    11.1270     2.3410 
  204.6250   -20.0890    87.9130    24.5050    11.6790     9.9190    11.1720     2.3450 
  204.7500   -19.7550    85.7980    24.4620    11.8500     9.8590    11.1070     2.3410 
  204.8750   -19.3380    86.6120    24.4640    12.3380     9.6590    10.8890     2.3470 
  205.0000   -18.9450    88.5800    24.4890    12.8650     9.3570    10.5620     2.3700 
  205.1250   -18.4820    91.2430    24.5000    12.8040     9.0000    10.1740     2.4030 
