~V
VERS. 2.00: Ver 2.00
~W
STRT.M 60.0000:
STOP.M 268.0000:
STEP.M 0.1250:
NULL. -999.2500:
UWI. DF5039:
~C
DEPT.M :
DEN.GM/CC :
GR.API :
CALI.CM :
RXO.OHMM :
RI. :
RML.OHMM :
SP.MV :
~A
# ...
  138.7500     2.2970    68.0800    24.4000     8.4590     8.4520     9.6360   -34.4100 
  138.8750     2.3210    68.5000    24.3880     9.3960     8.6670     9.8560   -34.1390 
  139.0000     2.3460    65.7420    24.4240    10.5370     8.9170    10.1260   -33.8530 
  139.1250     2.3760    62.2790    24.4840    10.8470     9.2180    10.4460   -33.5620 
  139.2500     2.4060    61.3100    24.5320    10.3200     9.5200    10.7170   -33.2890 
  139.3750     2.4240    62.6120    24.5930     9.6320     9.6890    10.7560   -33.0010 
  139.5000     2.4180    64.1350    24.6820     8.9610     9.5540    10.3820   -32.7450 
  139.6250     2.3880    65.3200    24.7590     9.7650     8.9330     9.4530   -32.5310 
  139.7500     2.3560    67.4020    24.7910    10.6450     7.9570     8.1890   -32.3570 
  139.8750     2.3320    71.6140    24.8120     9.0270     6.8130     6.8370   -32.2050 
  140.0000     2.3220    77.7330    24.8610     6.2620     5.7100     5.6320   -32.1030 
  140.1250     2.3200    85.9280    24.9190     5.0510     4.8280     4.7570   -32.0490 
  140.2500     2.3140    93.5840    24.9430     4.7240     4.1930     4.1920   -32.0360 
  140.3750     2.2980    97.9940    24.9210     4.5210     3.8210     3.9290   -32.0740 
  140.5000     2.2700    98.3500    24.8600     4.4940     3.7070     3.9460   -32.1530 
  140.6250     2.2340    96.8620    24.7760     4.6050     3.8690     4.2620   -32.2630 
  140.7500     2.1990    95.0100    24.6880     4.8380     4.2480     4.8230   -32.4200 
  140.8750     2.1700    92.3020    24.6090     5.4850     4.8290     5.5890   -32.6350 
  141.0000     2.1480    88.1170    24.5550     6.3040     5.5530     6.4470   -32.8730 
  141.1250     2.1360    82.2460    24.5710     7.0120     6.2640     7.1600   -33.1230 
  141.2500     2.1300    77.3560    24.6490     7.5430     6.7650     7.5470   -33.3090 
  141.3750     2.1280    75.5130    24.7160     7.8760     6.9560     7.5730   -33.5100 
  141.5000     2.1250    77.6230    24.7030     7.5690     6.8740     7.3620   -33.6660 
  141.6250     2.1210    81.8140    24.6480     6.8930     6.6730     7.1380   -33.7940 
  141.7500     2.1200    83.8410    24.6510     6.5380     6.5260     7.0530   -33.8570 
  141.8750     2.1260    82.3300    24.7030     6.7150     6.4730     7.0970   -33.8370 
  142.0000     2.1440    77.9660    24.7180     7.1780     6.4680     7.1700   -33.7440 
  142.1250     2.1720    73.6710    24.6550     7.4930     6.3970     7.1060   -33.5740 
  142.2500     2.1980    73.0040    24.6070     7.3250     6.1850     6.8500   -33.3750 
  142.3750     2.2120    78.4470    24.6250     6.6070     5.8410     6.4530   -33.1230 
  142.5000     2.2100    88.1860    24.6970     5.7510     5.4550     6.0520   -32.8760 
  142.6250     2.2000    93.9380    24.7520     5.4240     5.1710     5.8300   -32.6410 
  142.7500     2.1930    94.9080    24.6910     5.5320     5.0540     5.8270   -32.4080 
  142.8750     2.1950    94.2250    24.4370     5.7630     5.0990     5.9950   -32.1960 
  143.0000     2.2040    93.2630    23.9420     6.0620     5.2410     6.2250   -32.0110 
  143.1250     2.2110    91.0490    23.2970     6.4620     5.3700     6.3640   -31.8180 
  143.2500     2.2110    89.0550    22.8140     6.6130     5.4160     6.3710   -31.6930 
  143.3750     2.1990    88.7090    22.6660     6.3160     5.3920     6.3100   -31.5640 
  143.5000     2.1790    88.9250    22.7590     6.0040     5.3690     6.3120   -31.4410 
  143.6250     2.1550    89.2050    22.7430     6.0770     5.4720     6.5500   -31.2810 
  143.7500     2.1310    89.5920    22.4120     6.3720     5.7560     7.0450   -31.1210 
  143.8750     2.1110    88.7740    21.8170     6.6060     6.2310     7.7460   -30.9670 
  144.0000     2.0970    85.5840    21.2050     6.8510     6.8450     8.5200   -30.8260 
  144.1250     2.0920    82.7850    20.9170     7.2620     7.4630     9.1410   -30.7260 
  144.2500     2.0920    81.0860    21.1550     7.8550     7.9300     9.4770   -30.5580 
  144.3750     2.0970    76.0340    21.7750     8.2290     8.1730     9.5140   -30.3870 
  144.5000     2.1040    67.2260    22.3270     8.2260     8.2160     9.3500   -30.1840 
  144.6250     2.1140    62.2840    22.5410     8.2350     8.1410     9.1240   -29.9630 
  144.7500     2.1270    63.6820    22.7600     8.4770     8.0520     8.9350   -29.7250 
  144.8750     2.1480    66.4540    23.1840     8.4600     7.9670     8.7690   -29.4200 
  145.0000     2.1780    66.9170    23.5620     8.4190     7.8510     8.5510   -29.0510 
  145.1250     2.2180    67.6080    23.5720     8.1550     7.5940     8.1430   -28.6400 
  145.2500     2.2600    71.0550    23.5580     7.5530     7.1550     7.5220   -28.2630 
  145.3750     2.2940    77.3010    23.7850     6.6780     6.5540     6.7460   -27.8860 
  145.5000     2.3140    84.8790    24.2220     5.8600     5.8810     5.9410   -27.5090 
  145.6250     2.3130    91.9380    24.5550     5.1860     5.2690     5.2740   -27.1390 
  145.7500     2.2970    98.7200    24.6930     4.8990     4.7950     4.8050   -26.8050 
  145.8750     2.2730   104.9230    24.7390     4.7770     4.4800     4.5330   -26.5380 
  146.0000     2.2540   107.9680    24.7600     4.8470     4.3160     4.4340   -26.3400 
  146.1250     2.2530   105.4590    24.7710     4.9630     4.3140     4.5150   -26.1930 
  146.2500     2.2710   100.8830    24.7610     4.9590     4.4460     4.7350   -26.0500 
  146.3750     2.3040    97.5960    24.7010     4.9170     4.6820     5.0470   -25.9650 
  146.5000     2.3420    96.1520    24.5660     5.1930     4.9580     5.3700   -25.9300 
  146.6250     2.3760    94.2930    24.3870     6.3850     5.1970     5.6220   -25.9370 
  146.7500     2.4110    91.2380    24.2350     7.7640     5.3940     5.8390   -25.9400 
  146.8750     2.4500    87.7610    24.1500     7.5190     5.6220     6.1610   -25.9130 
  147.0000     2.4940    87.1270    24.1530     5.9860     6.0230     6.8270   -25.8720 
  147.1250     2.5350    89.6580    24.2380     7.0910     6.8620     8.2200   -25.8460 
  147.2500     2.5620    90.7320    24.3380    11.5170     8.2540    10.3620   -25.8590 
  147.3750     2.5730    85.8820    24.4070    16.1630    10.2530    13.1250   -25.8610 
  147.5000     2.5740    74.6790    24.4320    18.3460    12.7150    16.1180   -25.8490 
  147.6250     2.5730    64.5150    24.4250    18.7950    15.1130    18.6020   -25.8460 
  147.7500     2.5740    60.3710    24.4250    18.1930    16.8210    20.1390   -25.8240 
  147.8750     2.5780    61.7450    24.4440    17.1110    17.6700    20.7710   -25.8270 
  148.0000     2.5820    62.6730    24.3860    16.9380    17.9300    20.8970   -25.8580 
  148.1250     2.5800    59.3180    24.1580    18.8340    17.9520    20.8910   -25.8700 
  148.2500     2.5700    54.0110    23.8960    19.3810    17.9420    20.8920   -25.8980 
  148.3750     2.5540    50.6090    23.7520    17.9860    17.9300    20.9020   -25.9100 
  148.5000     2.5380    50.5130    23.7590    16.7310    17.9380    20.9400   -25.9590 
  148.6250     2.5240    50.6450    23.8900    18.1580    18.0140    21.0640   -25.9860 
  148.7500     2.5140    49.3860    24.1070    18.8200    18.1790    21.2770   -26.0270 
  148.8750     2.5090    47.9700    24.3390    17.8000    18.4290    21.5450   -26.0470 
  149.0000     2.5090    46.9960    24.4930    16.9160    18.7280    21.8140   -26.0440 
  149.1250     2.5140    46.1190    24.5530    18.0710    19.0300    22.0310   -26.0350 
  149.2500     2.5250    47.7100    24.5800    18.2190    19.3200    22.2330   -26.0290 
  149.3750     2.5370    51.6040    24.5780    17.0470    19.6400    22.5010   -25.9710 
  149.5000     2.5450    53.7310    24.5410    16.4410    20.0390    22.8940   -25.8670 
  149.6250     2.5410    51.9100    24.5060    17.7150    20.4950    23.3320   -25.7300 
  149.7500     2.5290    50.8640    24.5000    19.5690    20.8200    23.5580   -25.6700 
  149.8750     2.5140    52.8280    24.4970    20.2820    20.7950    23.3200   -25.6320 
