~V
VERS. 2.00: Ver 2.00
~W
STRT.M 59.0000:
STOP.M 260.0000:
STEP.M 0.1250:
NULL. -999.2500:
UWI. DF5044:
~C
DEPT.M :
GR.API :
CALI.CM :
RXO.OHMM :
RI. :
RML.OHMM :
DEN.GM/CC :
SP.MV :
~A
# ...
  126.5000    77.7390    23.2400     9.6660     7.4210     8.3270     2.2210   -20.2800 
  126.6250    81.4690    23.2990    10.5640     7.3170     8.2500     2.2130   -20.2410 
  126.7500    84.1150    23.3970    11.8270     7.2170     8.1780     2.2100   -20.2480 
  126.8750    82.9070    23.4560    12.2860     7.1400     8.1270     2.2160   -20.1600 
  127.0000    78.1390    23.4190    11.3250     7.0960     8.1030     2.2210   -20.1060 
  127.1250    73.2830    23.3010     9.8400     7.0860     8.1030     2.2110   -20.1700 
  127.2500    70.4110    23.2480     9.4180     7.0970     8.1180     2.1970   -20.1150 
  127.3750    69.1740    23.2370     9.5450     7.1150     8.1360     2.1920   -20.0080 
  127.5000    69.1060    23.2360     9.5340     7.1340     8.1440     2.1930   -19.9850 
  127.6250    70.3340    23.2220     9.2040     7.1520     8.1470     2.1850   -19.8500 
  127.7500    71.6340    23.1890     8.8690     7.1750     8.1610     2.1720   -19.7040 
  127.8750    71.6110    23.1690     8.6560     7.2160     8.1990     2.1660   -19.6010 
  128.0000    70.0970    23.1780     8.4950     7.2870     8.2720     2.1730   -19.3650 
  128.1250    68.1280    23.1750     8.2890     7.3860     8.3630     2.1860   -19.0240 
  128.2500    66.5050    23.1690     8.1790     7.4730     8.4240     2.1980   -18.7620 
  128.3750    65.4040    23.1930     8.1790     7.4970     8.3950     2.2070   -18.4520 
  128.5000    65.1400    23.2140     8.2250     7.4070     8.2240     2.2120   -18.0260 
  128.6250    67.3670    23.2150     8.3210     7.1470     7.8640     2.2070   -17.6650 
  128.7500    73.9050    23.2290     8.3320     6.7490     7.3670     2.1930   -17.2210 
  128.8750    84.2670    23.2470     8.1260     6.2550     6.7990     2.1810   -16.6710 
  129.0000    93.7930    23.2850     7.6660     5.7300     6.2340     2.1890   -16.2120 
  129.1250    95.5270    23.3640     7.1050     5.2480     5.7530     2.2260   -15.8070 
  129.2500    92.3510    23.4370     6.6420     4.8500     5.3750     2.2690   -15.3140 
  129.3750    90.5560    23.4450     6.2480     4.5530     5.1020     2.2960   -14.9210 
  129.5000    93.0450    23.4490     5.8880     4.3530     4.9160     2.3030   -14.6130 
  129.6250    95.2580    23.4950     5.6350     4.2410     4.7950     2.3000   -14.2850 
  129.7500    93.0770    23.5380     5.4800     4.1740     4.6990     2.2980   -14.0800 
  129.8750    88.6290    23.5960     5.2100     4.1300     4.6120     2.2940   -13.9350 
  130.0000    86.5470    23.7150     4.8690     4.0910     4.5300     2.2870   -13.7960 
  130.1250    88.7450    23.8830     4.6020     4.0530     4.4610     2.2870   -13.7190 
  130.2500    91.7100    24.0270     4.4820     4.0180     4.4100     2.2970   -13.6680 
  130.3750    93.2750    24.0950     4.4010     3.9860     4.3770     2.3130   -13.5830 
  130.5000    93.4210    24.0970     4.3500     3.9590     4.3580     2.3250   -13.5580 
  130.6250    93.4690    23.9910     4.3550     3.9360     4.3530     2.3280   -13.5280 
  130.7500    93.5870    23.8150     4.3090     3.9160     4.3490     2.3270   -13.4940 
  130.8750    93.2400    23.6650     4.2530     3.8960     4.3370     2.3240   -13.5440 
  131.0000    92.6360    23.5750     4.3190     3.8790     4.3200     2.3210   -13.5520 
  131.1250    92.0750    23.5270     4.5440     3.8800     4.3130     2.3230   -13.5310 
  131.2500    91.3800    23.5240     4.6310     3.9110     4.3380     2.3300   -13.6220 
  131.3750    91.2370    23.5950     4.5400     3.9760     4.4050     2.3360   -13.7090 
  131.5000    92.5220    23.7020     4.4570     4.0720     4.5110     2.3290   -13.7730 
  131.6250    93.6330    23.7050     4.4650     4.1760     4.6260     2.3090   -13.8490 
  131.7500    93.3460    23.6670     4.6250     4.2580     4.7170     2.2950   -13.9380 
  131.8750    92.8900    23.6100     4.9640     4.3010     4.7650     2.2940   -14.0330 
  132.0000    93.3350    23.5770     5.3790     4.3100     4.7740     2.2970   -14.1720 
  132.1250    94.9100    23.6240     5.4940     4.3100     4.7820     2.2990   -14.3300 
  132.2500    97.8130    23.8010     5.2360     4.3340     4.8300     2.3070   -14.4530 
  132.3750   101.2530    24.0710     4.8250     4.3980     4.9400     2.3220   -14.5980 
  132.5000   102.0640    24.3170     4.6260     4.4970     5.0980     2.3360   -14.7520 
  132.6250    96.9790    24.3540     4.9660     4.6030     5.2600     2.3360   -14.8790 
  132.7500    89.5540    24.2040     5.6460     4.6750     5.3610     2.3220   -15.0210 
  132.8750    84.2320    23.9320     6.3480     4.6860     5.3670     2.2980   -15.1200 
  133.0000    83.4930    23.7250     6.7210     4.6350     5.2860     2.2750   -15.1870 
  133.1250    86.7950    23.7380     6.4960     4.5610     5.1780     2.2700   -15.2580 
  133.2500    89.6940    23.8690     5.8840     4.5400     5.1480     2.2810   -15.2850 
  133.3750    89.3590    24.0030     5.2270     4.6200     5.2590     2.2970   -15.3210 
  133.5000    85.6030    24.0870     4.9440     4.8080     5.5120     2.3020   -15.3890 
  133.6250    80.6610    24.0500     5.4220     5.0670     5.8430     2.2870   -15.4360 
  133.7500    76.2180    23.9660     6.2030     5.2940     6.1140     2.2610   -15.5020 
  133.8750    72.4120    23.9390     6.8760     5.4010     6.2120     2.2310   -15.5560 
  134.0000    70.8570    23.9960     7.1570     5.3380     6.0810     2.2100   -15.5750 
  134.1250    76.2450    24.0390     6.8690     5.1070     5.7500     2.2110   -15.6010 
  134.2500    88.1470    24.1320     6.1490     4.8310     5.3920     2.2370   -15.5890 
  134.3750   101.3630    24.2640     5.2400     4.6170     5.1500     2.2820   -15.5340 
  134.5000   108.9140    24.3080     4.5310     4.5530     5.1200     2.3220   -15.5230 
  134.6250   107.0350    24.2780     4.4570     4.7170     5.3780     2.3240   -15.4880 
  134.7500   101.1110    24.1700     4.9490     5.0620     5.8380     2.3010   -15.4590 
  134.8750    95.0880    24.0780     5.8340     5.5260     6.4110     2.2870   -15.4820 
  135.0000    90.4850    24.0080     6.7900     6.0100     6.9710     2.3050   -15.4940 
  135.1250    89.3720    23.9020     7.3760     6.3590     7.3340     2.3370   -15.5830 
  135.2500    93.3600    23.8310     7.5790     6.4790     7.4030     2.3420   -15.6910 
  135.3750    99.9600    23.8020     7.5570     6.3470     7.1650     2.3090   -15.7240 
  135.5000   103.4600    23.7750     7.5070     6.0350     6.7250     2.2620   -15.7310 
  135.6250   103.4740    23.7900     7.4260     5.6950     6.2960     2.2370   -15.6940 
  135.7500   106.2000    23.8480     7.1570     5.5040     6.0820     2.2450   -15.5920 
  135.8750   110.8320    23.9260     6.6470     5.5890     6.2180     2.2790   -15.4990 
  136.0000   110.6260    24.0050     6.1920     6.0330     6.7820     2.3240   -15.3780 
  136.1250   102.3420    24.0690     6.9470     6.9270     7.8470     2.3700   -15.2650 
  136.2500    92.8060    24.0980    10.0390     8.1350     9.2570     2.4160   -15.2010 
  136.3750    85.4460    24.1160    15.6000     9.4810    10.8070     2.4610   -15.1500 
  136.5000    80.1480    24.1120    21.4330    10.6780    12.1550     2.4870   -15.1340 
  136.6250    77.2540    24.0300    23.8580    11.2920    12.7510     2.4720   -15.1970 
  136.7500    77.2940    23.8320    22.7660    11.2300    12.5010     2.4420   -15.2470 
  136.8750    79.6460    23.4560    19.6700    10.5850    11.5650     2.4170   -15.3240 
  137.0000    81.8590    23.0290    15.7090     9.5960    10.2980     2.3860   -15.3720 
  137.1250    81.6150    22.9660    12.0310     8.5390     9.0730     2.3240   -15.3280 
  137.2500    80.0120    23.1600     9.7420     7.6000     8.0660     2.2530   -15.2730 
  137.3750    79.0650    23.3370     8.5180     6.8270     7.2860     2.2040   -15.1400 
  137.5000    81.2280    23.3880     7.6030     6.2160     6.6920     2.1910   -14.9030 
  137.6250    88.8870    23.5310     6.6670     5.7690     6.2670     2.2160   -14.6620 
