~V
VERS. 2.00: Ver 2.00
~W
STRT.M 60.0000:
STOP.M 271.0000:
STEP.M 0.1250:
NULL. -999.2500:
UWI. DF5026:
~C
DEPT.M :
SP.MV :
GR.API :
CALI.CM :
RXO.OHMM :
RI. :
RML.OHMM :
DEN.GM/CC :
~A
# ...
  240.0000   -37.7100    62.8980    24.4620    47.5600    66.9920    63.8520     2.2340 
  240.1250   -37.7790    63.4980    24.4620    49.0150    66.1420    63.9300     2.2370 
  240.2500   -37.8320    67.0690    24.4620    50.1560    65.6020    64.1160     2.2510 
  240.3750   -37.8490    74.0460    24.4620    49.8600    64.9550    63.9520     2.2750 
  240.5000   -37.8320    79.5480    24.4620    59.0340    63.7830    63.0260     2.3050 
  240.6250   -37.6570    78.5380    24.4620    68.5680    61.7810    61.0910     2.3370 
  240.7500   -37.3660    76.6040    24.4620    58.3950    59.3450    58.7230     2.3640 
  240.8750   -37.0420    78.7630    24.4620    37.5650    57.0570    56.6230     2.3870 
  241.0000   -36.7400    82.5910    24.4620    29.9030    55.5690    55.4810     2.4070 
  241.1250   -36.4400    81.5050    24.4620    36.9620    55.6380    56.0240     2.4240 
  241.2500   -36.1580    79.5590    24.4620    48.2710    57.1870    58.0810     2.4380 
  241.3750   -35.8530    80.4220    24.4620    54.9570    59.9220    61.3050     2.4470 
  241.5000   -35.5390    81.9220    24.4620    56.9790    63.1730    64.9750     2.4480 
  241.6250   -35.2700    79.7800    24.4620    53.4320    65.8310    67.8540     2.4430 
  241.7500   -35.0690    75.8930    24.4620    54.8200    67.1120    69.0850     2.4350 
  241.8750   -34.9450    73.2400    24.4630    51.2120    66.6540    68.2950     2.4290 
  242.0000   -34.7880    74.1040    24.4620    46.7970    64.4690    65.5870     2.4250 
  242.1250   -34.5990    78.5020    24.4610    50.6460    60.7690    61.3780     2.4210 
  242.2500   -34.3860    82.0000    24.4760    51.3030    56.4990    56.8200     2.4150 
  242.3750   -34.2000    81.1020    24.5150    37.9740    52.3590    52.6850     2.4090 
  242.5000   -34.0010    77.9870    24.5500    24.3930    48.8810    49.4780     2.4020 
  242.6250   -33.7540    76.7530    24.5400    23.0040    46.4970    47.5560     2.3930 
  242.7500   -33.5070    77.5910    24.5110    28.0120    44.9850    46.5380     2.3810 
  242.8750   -33.2240    77.9540    24.4560    30.1060    44.0190    45.9740     2.3650 
  243.0000   -32.9340    76.4660    24.3400    29.9270    43.1470    45.2950     2.3480 
  243.1250   -32.6370    75.2430    24.1830    27.4370    41.9020    43.9400     2.3290 
  243.2500   -32.3640    76.3050    24.0840    25.3300    40.3390    42.1160     2.3070 
  243.3750   -32.0310    78.6400    24.0640    23.7450    38.9360    40.5270     2.2910 
  243.5000   -31.6530    79.9070    24.0710    22.7110    38.5210    40.1820     2.2880 
  243.6250   -31.3330    79.6860    24.0690    22.1490    40.6140    42.6110     2.3070 
  243.7500   -31.0800    79.9120    24.0690    21.5280    45.9130    48.2610     2.3470 
  243.8750   -30.7490    81.3730    24.0690    22.5350    54.2710    56.8660     2.4080 
  244.0000   -30.2560    82.4240    24.0690    34.6760    62.7270    64.8980     2.4860 
  244.1250   -29.6610    77.6970    24.0690    77.9540    62.2780    61.1990     2.5490 
  244.2500   -29.0480    66.8930    24.0690   130.1800    50.2910    45.4920     2.5570 
  244.3750   -28.5450    54.0880    24.0690   126.6980    33.5100    28.1480     2.5130 
  244.5000   -28.2310    46.8300    24.0690    60.8770    19.7290    15.9970     2.4550 
  244.6250   -28.0810    47.7690    24.0690    23.2180    11.9160     9.7020     2.4130 
  244.7500   -27.8830    51.8830    24.0690     7.3000     7.7060     6.4080     2.3900 
  244.8750   -27.5750    55.7190    24.0690     4.1570     5.5800     4.8460     2.3770 
  245.0000   -27.3460    58.0370    24.0690     3.7680     4.5850     4.2510     2.3650 
  245.1250   -27.3010    58.6400    24.0690     3.6720     4.2930     4.1930     2.3520 
  245.2500   -27.3740    58.7260    24.0690     3.6810     4.3090     4.2970     2.3380 
  245.3750   -27.5020    59.6020    24.0690     3.6980     4.4490     4.4170     2.3240 
  245.5000   -27.6210    60.0270    24.0690     3.6980     4.5940     4.4930     2.3140 
  245.6250   -27.5690    59.2260    24.0690     3.7970     4.6730     4.5150     2.3070 
  245.7500   -27.4160    58.5630    24.0690     3.8190     4.6900     4.5070     2.3010 
  245.8750   -27.3460    58.1630    24.0690     3.7860     4.6590     4.4780     2.2980 
  246.0000   -27.3400    58.9600    24.0690     3.7940     4.6050     4.4410     2.3010 
  246.1250   -27.3160    61.0510    24.0690     3.7380     4.5490     4.4160     2.3120 
  246.2500   -27.2850    62.4980    24.0690     3.7020     4.5040     4.4160     2.3260 
  246.3750   -27.2460    61.1610    24.0690     3.7640     4.4700     4.4500     2.3370 
  246.5000   -27.2180    58.6490    24.0690     3.8810     4.4480     4.5160     2.3410 
  246.6250   -27.3360    58.9300    24.0690     3.9320     4.4400     4.6060     2.3380 
  246.7500   -27.5480    60.4850    24.0700     3.9500     4.4380     4.7010     2.3340 
  246.8750   -27.6770    60.3620    24.0640     3.9790     4.4340     4.7880     2.3310 
  247.0000   -27.7250    58.1710    24.0440     4.0640     4.4240     4.8600     2.3300 
  247.1250   -27.7980    55.4300    24.0200     4.1120     4.4040     4.9090     2.3310 
  247.2500   -27.8770    54.5170    24.0080     4.0410     4.3780     4.9410     2.3320 
  247.3750   -27.9380    56.6530    24.0070     3.9170     4.3490     4.9620     2.3340 
  247.5000   -28.0050    60.8410    24.0080     3.8940     4.3250     4.9810     2.3370 
  247.6250   -27.9230    63.9300    24.0030     3.9310     4.3130     5.0080     2.3370 
  247.7500   -27.7950    63.3360    23.9980     3.9570     4.3170     5.0450     2.3350 
  247.8750   -27.8080    60.6900    23.9970     3.9800     4.3370     5.0940     2.3290 
  248.0000   -27.9320    58.6320    24.0000     4.0610     4.3670     5.1570     2.3240 
  248.1250   -28.0900    59.2880    24.0030     4.2010     4.4050     5.2340     2.3210 
  248.2500   -28.2060    61.6820    24.0030     4.3270     4.4480     5.3200     2.3230 
  248.3750   -28.2950    64.0790    24.0010     4.3710     4.4960     5.4120     2.3270 
  248.5000   -28.3220    64.1900    24.0000     4.3290     4.5470     5.5010     2.3320 
  248.6250   -28.3390    61.6160    24.0000     4.3510     4.5910     5.5750     2.3370 
  248.7500   -28.3680    59.9820    24.0000     4.3730     4.6240     5.6320     2.3390 
  248.8750   -28.4470    61.7810    24.0000     4.3600     4.6480     5.6730     2.3390 
  249.0000   -28.5850    64.9960    24.0000     4.3320     4.6680     5.7110     2.3390 
  249.1250   -28.6360    64.3120    24.0000     4.3490     4.7010     5.7770     2.3450 
  249.2500   -28.5480    61.3650    24.0000     4.3910     4.7640     5.8960     2.3560 
  249.3750   -28.4280    59.4920    24.0000     4.4750     4.8720     6.0870     2.3700 
  249.5000   -28.4320    60.1250    24.0000     4.4840     5.0360     6.3520     2.3890 
  249.6250   -28.5280    61.0570    24.0000     4.3670     5.2610     6.6820     2.4110 
  249.7500   -28.6000    60.7540    24.0000     4.2230     5.5170     7.0270     2.4390 
  249.8750   -28.6620    60.3800    24.0000     4.1760     5.7610     7.3270     2.4720 
  250.0000   -28.7070    59.6770    24.0000     4.2290     5.9410     7.5220     2.5080 
  250.1250   -28.6590    58.5090    24.0000     4.3590     5.9920     7.5460     2.5380 
  250.2500   -28.7770    58.0740    24.0000     4.4190     5.9320     7.4360     2.5510 
  250.3750   -28.9580    59.3300    24.0000     4.3960     5.7980     7.2510     2.5430 
  250.5000   -29.0120    60.9030    24.0000     4.4320     5.6390     7.0590     2.5180 
  250.6250   -29.0830    60.8410    24.0000     4.5910     5.5070     6.9230     2.4810 
  250.7500   -29.2040    60.7000    24.0010     4.8470     5.4200     6.8550     2.4420 
  250.8750   -29.2370    60.3670    23.9970     5.1640     5.3750     6.8440     2.4100 
  251.0000   -29.1640    58.8000    23.9770     5.2870     5.3590     6.8600     2.3870 
  251.1250   -29.2010    56.9230    23.9360     5.4860     5.3560     6.8730     2.3760 
