~V
VERS. 2.00: Ver 2.00
~W
STRT.M 55.0000:
STOP.M 270.0000:
STEP.M 0.1250:
NULL. -999.2500:
UWI. DF5017:
~C
DEPT.M :
SP.MV :
GR.API :
CALI.CM :
RXO.OHMM :
RI. :
RML.OHMM :
DEN.GM/CC :
~A
# ...
  235.0000   -19.4890    74.6570    23.9340    69.7400    87.5190    88.2390     2.2450 
  235.1250   -19.5890    72.5390    23.9160    71.2270    86.6070    87.4100     2.2390 
  235.2500   -19.7330    72.3360    23.8820    78.1690    86.6710    87.6640     2.2330 
  235.3750   -19.8920    75.0050    23.8540    83.3650    86.5480    87.9720     2.2370 
  235.5000   -20.0810    77.3990    23.8430    83.2820    84.9620    87.0400     2.2520 
  235.6250   -20.2690    76.2720    23.8450    76.4820    80.9110    83.5620     2.2610 
  235.7500   -20.4720    73.9830    23.8470    69.0110    75.5290    78.3330     2.2570 
  235.8750   -20.7200    72.7900    23.8480    65.1650    70.2320    72.7430     2.2470 
  236.0000   -21.0140    71.7670    23.8440    63.5570    66.1770    68.1830     2.2410 
  236.1250   -21.2580    70.6470    23.8330    59.7060    64.3600    65.9120     2.2410 
  236.2500   -21.4840    71.1260    23.8280    54.7400    64.7340    65.9900     2.2420 
  236.3750   -21.6500    72.8430    23.8270    54.0400    67.2460    68.4300     2.2410 
  236.5000   -21.7530    73.5850    23.8270    59.6150    71.4230    72.8160     2.2380 
  236.6250   -21.7860    71.7150    23.8280    67.6640    76.0060    77.8910     2.2340 
  236.7500   -21.7010    69.2310    23.8310    72.0570    78.9560    81.4090     2.2290 
  236.8750   -21.5830    67.5450    23.8370    73.5930    78.7480    81.6530     2.2230 
  237.0000   -21.3560    67.0790    23.8380    71.8490    75.1470    78.2230     2.2180 
  237.1250   -21.1350    66.7260    23.8210    65.7850    69.4720    72.3810     2.2200 
  237.2500   -20.8470    67.3610    23.8070    56.7490    64.2170    66.8350     2.2270 
  237.3750   -20.5170    70.4490    23.8060    50.2970    60.7120    63.0370     2.2330 
  237.5000   -20.1850    75.5510    23.8080    47.5970    59.5200    61.5490     2.2340 
  237.6250   -19.9210    77.5150    23.8080    48.1230    60.7710    62.4920     2.2290 
  237.7500   -19.7120    74.5370    23.8190    52.1130    63.1060    64.5820     2.2220 
  237.8750   -19.4760    70.6140    23.8600    58.9800    65.2030    66.5960     2.2160 
  238.0000   -19.2880    69.8150    23.9150    63.5140    65.9580    67.4940     2.2120 
  238.1250   -19.1460    72.8580    23.9250    59.7710    65.0310    66.8630     2.2070 
  238.2500   -19.0470    74.4810    23.8920    53.0530    63.6400    65.7400     2.2000 
  238.3750   -18.9850    73.1210    23.9100    51.6430    62.7010    65.0510     2.1980 
  238.5000   -18.9100    72.0350    24.0190    59.8240    62.4970    65.2160     2.2010 
  238.6250   -18.7930    71.7680    24.1830    70.2950    62.5770    65.9490     2.2000 
  238.7500   -18.6510    70.9530    24.3720    75.8600    62.1870    66.3670     2.1940 
  238.8750   -18.5090    69.8280    24.4700    75.0120    61.0800    65.9750     2.1920 
  239.0000   -18.3610    69.2120    24.4950    70.6160    59.5780    64.8880     2.2000 
  239.1250   -18.1670    67.9790    24.4820    67.9020    58.5910    63.9870     2.2140 
  239.2500   -17.9550    67.2370    24.4430    69.4640    58.6740    64.1160     2.2270 
  239.3750   -17.7340    67.4530    24.3850    72.9520    59.4550    65.0780     2.2400 
  239.5000   -17.5130    67.5580    24.3480    75.0070    59.4870    65.4030     2.2480 
  239.6250   -17.2570    68.9890    24.3380    75.0620    56.6480    62.7170     2.2420 
  239.7500   -17.0160    73.0040    24.3400    73.0760    51.4890    57.3840     2.2300 
  239.8750   -16.7480    78.1460    24.3430    64.9760    45.7290    51.2430     2.2350 
  240.0000   -16.4880    80.4230    24.3450    49.3880    41.0580    46.3130     2.2720 
  240.1250   -16.2080    79.8300    24.3410    39.2900    38.6250    44.1470     2.3430 
  240.2500   -15.9150    79.2910    24.3290    46.4730    37.7900    44.1810     2.4180 
  240.3750   -15.5990    79.7980    24.3240    70.9830    37.4860    45.2190     2.4710 
  240.5000   -15.2620    82.0910    24.3270    86.6920    36.4120    45.4720     2.4820 
  240.6250   -14.9330    85.8980    24.3460    78.0040    33.5260    42.9870     2.4440 
  240.7500   -14.6310    88.6340    24.3760    58.5680    29.5940    38.4250     2.3890 
  240.8750   -14.4110    88.4440    24.4040    43.0620    25.7350    33.3570     2.3370 
  241.0000   -14.2500    85.9340    24.4310    33.3010    22.8700    29.2410     2.2970 
  241.1250   -14.1830    85.5350    24.4700    29.8890    21.6640    27.0570     2.2840 
  241.2500   -14.1950    87.1290    24.5010    30.1010    21.8970    26.5790     2.3060 
  241.3750   -14.3030    86.8740    24.5100    31.0300    23.4910    27.7170     2.3490 
  241.5000   -14.4750    82.6080    24.4880    32.2760    26.3730    30.4060     2.3790 
  241.6250   -14.7300    77.8920    24.4390    35.5750    30.5290    34.6950     2.3700 
  241.7500   -15.0360    76.8460    24.3570    41.6620    35.2650    39.8130     2.3450 
  241.8750   -15.3520    79.6250    24.2870    47.8910    39.7590    44.8170     2.3260 
  242.0000   -15.6280    84.8730    24.2270    49.2740    43.0880    48.6010     2.3200 
  242.1250   -15.8830    90.2840    24.2540    44.8850    44.5010    50.1590     2.3270 
  242.2500   -16.1010    92.6230    24.2960    41.0360    44.6160    50.1120     2.3450 
  242.3750   -16.2780    91.6140    24.3170    39.8320    44.1590    49.2870     2.3720 
  242.5000   -16.4330    88.7000    24.3180    40.6250    43.8170    48.5000     2.3970 
  242.6250   -16.5660    86.8120    24.3190    41.8290    44.0230    48.3150     2.4170 
  242.7500   -16.6650    86.1850    24.3180    43.1140    44.5840    48.6280     2.4300 
  242.8750   -16.7320    84.3610    24.2990    43.1790    45.2160    49.2010     2.4210 
  243.0000   -16.7750    81.6140    24.2440    42.7370    45.6900    49.7800     2.3780 
  243.1250   -16.7510    79.8170    24.1320    43.0160    45.8020    50.0770     2.3180 
  243.2500   -16.6680    81.2700    24.0630    43.8530    45.6250    50.0620     2.2770 
  243.3750   -16.5310    83.9580    24.0760    46.2020    45.4240    49.9590     2.2750 
  243.5000   -16.3600    84.2870    24.1350    49.1550    45.6090    50.1870     2.3100 
  243.6250   -16.0840    82.8990    24.1820    47.9790    46.8210    51.4070     2.3660 
  243.7500   -15.7350    84.2030    24.1320    45.9620    49.1080    53.6880     2.4020 
  243.8750   -15.3490    88.4040    24.1080    52.6740    51.7670    56.3410     2.4030 
  244.0000   -14.9330    90.9040    24.2120    69.5870    53.0220    57.6870     2.3830 
  244.1250   -14.4800    86.8020    24.3740    78.9760    50.3800    55.3490     2.3870 
  244.2500   -13.9870    81.8760    24.3850    72.7900    44.8130    49.9610     2.4280 
  244.3750   -13.4990    81.4100    24.3040    56.3110    38.4760    43.4240     2.4830 
  244.5000   -12.9990    84.0470    24.1950    38.1780    33.3020    37.8230     2.5240 
  244.6250   -12.5660    85.9500    24.1570    34.5220    30.6370    34.8290     2.5380 
  244.7500   -12.1660    84.8570    24.1450    38.2970    30.2840    34.4140     2.5450 
  244.8750   -11.7710    81.6790    24.1440    41.6240    32.2640    36.7180     2.5580 
  245.0000   -11.4070    77.4320    24.1430    44.9000    36.7930    42.1520     2.5830 
  245.1250   -11.0820    72.1930    24.1440    56.3840    44.7790    51.9960     2.6180 
  245.2500   -10.8120    68.3670    24.1470    77.0640    55.9030    65.6520     2.6510 
  245.3750   -10.5470    66.3290    24.1670   106.0030    69.1730    81.3210     2.6730 
  245.5000   -10.2660    63.5860    24.2610   133.4300    80.7120    94.2750     2.6820 
  245.6250    -9.9290    56.4290    24.3200   129.7580    80.2860    94.4330     2.6830 
  245.7500    -9.5500    46.5790    24.3370   103.1480    66.4600    80.0660     2.6710 
  245.8750    -9.1610    39.4140    24.3010    82.5040    47.2810    57.9150     2.6320 
  246.0000    -8.7540    38.6430    24.1950    76.0210    30.8670    37.3850     2.5560 
  246.1250    -8.3170    44.9440    24.0940    63.1700    20.3130    23.9380     2.4620 
