~V
VERS. 2.00: Ver 2.00
~W
STRT.M 55.0000:
STOP.M 274.0000:
STEP.M 0.1250:
NULL. -999.2500:
UWI. DF5018:
~C
DEPT.M :
SP.MV :
GR.API :
CALI.CM :
RXO.OHMM :
RI. :
RML.OHMM :
DEN.GM/CC :
~A
# ...
  178.7500   -36.0120    83.1480    22.5580    29.0350    56.6230    57.9780     2.3040 
  178.8750   -36.0730    82.3940    22.3620    27.3040    60.6270    61.8140     2.3070 
  179.0000   -36.2140    78.7830    22.1580    26.1490    65.3770    66.4600     2.3020 
  179.1250   -36.2730    75.8090    22.0740    25.4390    70.3990    71.4650     2.2880 
  179.2500   -36.4000    74.0840    22.0480    25.8290    74.7830    75.9050     2.2760 
  179.3750   -36.5030    72.5520    22.0480    28.3060    77.6720    78.8890     2.2710 
  179.5000   -36.6160    73.3220    22.0540    32.4940    78.1840    79.4430     2.2670 
  179.6250   -36.6700    77.9410    22.0720    35.7190    74.8630    75.9230     2.2630 
  179.7500   -36.7440    81.3910    22.1090    36.6640    68.1910    68.8450     2.2650 
  179.8750   -36.8100    81.1060    22.1820    35.4120    59.5060    59.7550     2.2840 
  180.0000   -36.8780    79.8430    22.3600    31.8610    50.9020    50.9220     2.3180 
  180.1250   -36.9350    81.5450    22.6540    26.5100    44.6610    44.6660     2.3480 
  180.2500   -36.9300    83.2750    23.0290    22.9170    41.4310    41.5390     2.3560 
  180.3750   -36.9530    81.0640    23.4360    22.7710    41.5340    41.8050     2.3410 
  180.5000   -36.9400    76.4550    23.8050    26.9510    45.2500    45.6480     2.3130 
  180.6250   -37.0200    72.2740    24.0360    37.1780    53.7710    54.0410     2.2870 
  180.7500   -37.0370    67.4950    24.2310    52.1790    66.6820    66.5250     2.2680 
  180.8750   -37.0630    62.6250    24.4280    67.0130    83.1290    82.4900     2.2520 
  181.0000   -37.0310    59.0090    24.6060    77.7970   100.7650   100.0050     2.2360 
  181.1250   -36.9640    58.0820    24.7030    87.2780   115.3710   114.9930     2.2210 
  181.2500   -36.9330    59.3220    24.7480    99.6360   123.6550   123.8800     2.2130 
  181.3750   -36.8570    63.1400    24.7610   111.1850   123.1100   124.3360     2.2100 
  181.5000   -36.8180    68.5560    24.7620   112.7410   113.5270   116.1870     2.2050 
  181.6250   -36.6740    71.1440    24.7620    98.9220    97.6510   101.2650     2.1940 
  181.7500   -36.6010    71.0680    24.7620    80.4930    81.3370    84.8310     2.1810 
  181.8750   -36.5280    70.7300    24.7620    64.7910    67.4340    70.1040     2.1760 
  182.0000   -36.4760    71.6110    24.7620    54.4240    56.9480    58.7030     2.1870 
  182.1250   -36.4590    72.3520    24.7630    49.2150    50.1160    51.2550     2.2200 
  182.2500   -36.4150    71.2490    24.7660    45.9320    45.7050    46.4970     2.2610 
  182.3750   -36.4390    68.8510    24.7690    43.2650    43.1920    43.8460     2.2930 
  182.5000   -36.4270    67.2740    24.7700    41.4030    42.2060    42.9020     2.3070 
  182.6250   -36.5190    67.9130    24.7700    40.4670    42.7240    43.6440     2.3040 
  182.7500   -36.5610    69.0300    24.7700    39.9150    44.4800    45.7410     2.3020 
  182.8750   -36.6220    68.8630    24.7700    39.8390    47.4800    49.1500     2.3040 
  183.0000   -36.6530    66.7540    24.7820    39.9970    51.5820    53.6900     2.3050 
  183.1250   -36.7310    66.8670    24.8220    40.8980    56.3580    58.8640     2.3010 
  183.2500   -36.8020    71.4140    24.8940    44.2250    60.7860    63.5720     2.2910 
  183.3750   -36.8330    75.2370    24.9720    50.5900    63.9140    66.8360     2.2820 
  183.5000   -36.8970    72.7780    25.0420    58.7820    65.1120    68.0450     2.2780 
  183.6250   -36.9410    68.2670    25.0890    63.3510    64.2710    67.0680     2.2820 
  183.7500   -36.9940    68.8090    25.1060    63.4130    62.6030    65.1250     2.2890 
  183.8750   -37.0390    71.9610    25.1100    61.0090    61.0850    63.2270     2.2930 
  184.0000   -37.1710    72.6950    25.1100    59.6370    60.5080    62.2320     2.2930 
  184.1250   -37.2410    72.2490    25.1100    60.5730    61.6570    62.9710     2.2920 
  184.2500   -37.3450    72.7720    25.1100    63.0090    64.4770    65.3940     2.2920 
  184.3750   -37.4210    72.7400    25.1100    67.9920    68.8080    69.3300     2.2930 
  184.5000   -37.4270    70.3160    25.1100    75.4030    74.1410    74.2610     2.2940 
  184.6250   -37.4600    68.3820    25.1110    82.2040    79.4530    79.2870     2.2920 
  184.7500   -37.4850    69.9070    25.1120    86.4640    83.5290    83.6310     2.2880 
  184.8750   -37.5160    72.5280    25.1150    88.6540    86.1420    86.5430     2.2820 
  185.0000   -37.4520    71.3430    25.1180    89.0110    87.4340    88.0300     2.2760 
  185.1250   -37.4730    66.9060    25.1180    87.9700    87.8670    88.6850     2.2740 
  185.2500   -37.4640    66.1510    25.1180    87.5030    88.2350    89.3930     2.2740 
  185.3750   -37.4960    68.8920    25.1180    87.9170    88.8700    90.4710     2.2740 
  185.5000   -37.5980    70.5260    25.1180    86.4930    89.8550    91.9460     2.2700 
  185.6250   -37.6460    70.4840    25.1020    81.9010    91.2000    93.7430     2.2590 
  185.7500   -37.7170    70.4760    25.0440    81.0740    92.7780    95.6960     2.2410 
  185.8750   -37.7890    70.7980    24.9460    86.5000    94.5150    97.7470     2.2240 
  186.0000   -37.9520    70.3360    24.8660    92.6160    96.3380    99.8650     2.2200 
  186.1250   -38.0680    69.6330    24.8390    92.8030    98.1270   101.9710     2.2370 
  186.2500   -38.2270    69.7430    24.8350    91.0730    99.7610   103.8980     2.2600 
  186.3750   -38.3530    70.3470    24.8350    91.0400   101.1720   105.5150     2.2790 
  186.5000   -38.5190    70.5210    24.8350    92.3970   102.3870   106.8260     2.2890 
  186.6250   -38.6550    69.5170    24.8350    93.4120   103.5160   108.0030     2.2880 
  186.7500   -38.7760    69.0460    24.8350    95.0330   104.7000   109.2960     2.2830 
  186.8750   -38.8690    70.7430    24.8350    98.3250   105.9910   110.7790     2.2780 
  187.0000   -38.9100    73.9000    24.8280   103.5180   107.2980   112.3440     2.2710 
  187.1250   -38.9450    76.8910    24.8090   109.5740   108.2430   113.5360     2.2580 
  187.2500   -38.8910    77.6370    24.7830   113.6340   108.3880   113.7620     2.2490 
  187.3750   -38.8790    76.1300    24.7720   112.1060   107.3120   112.4750     2.2520 
  187.5000   -38.7630    74.6420    24.7700   105.9170   104.7930   109.4310     2.2630 
  187.6250   -38.6440    75.1190    24.7700   100.3700   100.7650   104.6700     2.2640 
  187.7500   -38.4740    75.6000    24.7700    94.5760    95.9940    99.1750     2.2570 
  187.8750   -38.3120    75.9600    24.7700    86.4760    91.1750    93.7790     2.2580 
  188.0000   -38.1470    77.3820    24.7700    78.7550    86.9930    89.2470     2.2710 
  188.1250   -37.9600    79.2220    24.7700    76.4920    84.2010    86.3580     2.2820 
  188.2500   -37.8610    78.5820    24.7700    77.5100    82.8460    85.0660     2.2850 
  188.3750   -37.7200    75.5550    24.7700    80.3040    82.8810    85.2660     2.2870 
  188.5000   -37.6720    73.2930    24.7630    84.9080    84.0370    86.6300     2.2890 
  188.6250   -37.6270    72.7640    24.7410    90.6860    85.8800    88.6410     2.2820 
  188.7500   -37.6590    71.1750    24.7120    94.5400    87.7070    90.5500     2.2660 
  188.8750   -37.6870    68.5320    24.6990    93.2610    89.1240    91.9530     2.2520 
  189.0000   -37.7140    66.0110    24.6970    88.2780    90.0050    92.7330     2.2450 
  189.1250   -37.7600    65.7260    24.6980    82.8260    90.4970    93.0850     2.2420 
  189.2500   -37.7320    67.5450    24.7070    78.5000    91.0230    93.5160     2.2400 
  189.3750   -37.7190    69.6780    24.7260    75.9330    91.7720    94.2740     2.2390 
  189.5000   -37.6410    69.6250    24.7410    75.9790    92.6560    95.2760     2.2380 
  189.6250   -37.5970    67.0020    24.7460    78.8830    93.3050    96.0320     2.2380 
  189.7500   -37.4790    65.2500    24.7480    81.6350    93.4560    96.1060     2.2430 
  189.8750   -37.3300    66.0980    24.7480    81.4660    93.0790    95.4200     2.2550 
