~V
VERS. 2.00: Ver 2.00
~W
STRT.M 61.0000:
STOP.M 267.0000:
STEP.M 0.1250:
NULL. -999.2500:
UWI. DF5036:
~C
DEPT.M :
SP.MV :
GR.API :
RML.OHMM :
RI. :
RXO.OHMM :
CALI.CM :
DEN.GM/CC :
~A
# ...
  184.7500   -22.1610    67.7220   105.4170   105.7140    92.4260    24.1090     2.2580 
  184.8750   -22.3830    70.6700    97.3640    97.5100    85.7530    24.1220     2.2690 
  185.0000   -22.6210    72.0050    95.6610    95.4420    83.5340    24.1830     2.2760 
  185.1250   -22.8760    73.1310   101.1630   100.6500    87.0600    24.2670     2.2750 
  185.2500   -23.1330    73.0160   111.3630   110.7480   100.6480    24.3730     2.2670 
  185.3750   -23.4270    68.7600   123.8920   123.3440   124.8120    24.4380     2.2570 
  185.5000   -23.7250    61.2530   135.8840   135.4590   156.0130    24.4570     2.2470 
  185.6250   -23.9840    57.2830   144.1760   143.7400   168.9410    24.4440     2.2420 
  185.7500   -24.2700    60.0970   148.6680   147.9500   158.3980    24.3970     2.2410 
  185.8750   -24.5800    64.5360   151.4120   149.6140   139.8640    24.3220     2.2390 
  186.0000   -24.8830    64.9140   155.3760   151.6270   131.7070    24.2730     2.2350 
  186.1250   -25.1740    60.6260   164.6410   158.3710   139.6380    24.2750     2.2250 
  186.2500   -25.4260    57.1290   180.6090   172.1640   157.6360    24.3230     2.2120 
  186.3750   -25.5810    55.3790   204.1330   194.3710   197.1110    24.3980     2.2000 
  186.5000   -25.6750    53.9200   233.8690   224.7390   255.2250    24.4570     2.1910 
  186.6250   -25.7540    52.0290   269.5990   261.3870   320.3770    24.5100     2.1900 
  186.7500   -25.7540    50.1580   307.8000   298.4960   376.2260    24.5810     2.1920 
  186.8750   -25.6160    49.2300   346.4150   331.2690   399.4200    24.6540     2.1960 
  187.0000   -25.3560    48.8400   377.6980   356.4370   392.7170    24.6930     2.2000 
  187.1250   -25.0430    47.4390   399.5530   372.6610   381.5350    24.7030     2.2010 
  187.2500   -24.7000    45.7300   416.2710   384.2920   372.4280    24.7050     2.2010 
  187.3750   -24.2920    44.6240   431.8090   394.9420   379.6760    24.7060     2.2000 
  187.5000   -23.7800    45.0210   449.7470   407.7210   412.0870    24.7060     2.2020 
  187.6250   -23.2480    47.8220   473.4510   425.6970   443.5990    24.6800     2.2080 
  187.7500   -22.7330    51.8320   501.6670   448.3850   468.0600    24.5930     2.2190 
  187.8750   -22.1960    54.3670   529.0440   472.7790   465.7220    24.4200     2.2340 
  188.0000   -21.6250    53.1460   546.3780   492.0340   463.3730    24.1930     2.2500 
  188.1250   -21.0730    51.2880   536.6880   492.0890   471.4910    24.0560     2.2640 
  188.2500   -20.5740    52.0750   496.3050   466.3620   465.7460    24.0740     2.2720 
  188.3750   -20.1020    53.9540   430.8310   415.0050   438.5050    24.1910     2.2740 
  188.5000   -19.6580    54.0840   358.1230   347.8480   378.4660    24.3430     2.2720 
  188.6250   -19.2690    52.7600   294.5660   281.3950   295.4320    24.4140     2.2670 
  188.7500   -18.8880    52.7760   243.1210   226.9350   218.7880    24.3880     2.2620 
  188.8750   -18.5260    54.4750   200.4420   187.0490   166.0940    24.2760     2.2570 
  189.0000   -18.2100    56.6860   172.3000   160.7470   144.4970    24.1690     2.2480 
  189.1250   -17.9000    59.0150   159.9190   149.1770   136.3190    24.1330     2.2330 
  189.2500   -17.5840    59.2380   161.0710   150.2530   131.7690    24.1420     2.2160 
  189.3750   -17.2630    57.7630   173.9670   162.3060   129.3220    24.1440     2.2080 
  189.5000   -16.8970    57.1550   192.1120   179.2640   128.9000    24.0400     2.2240 
  189.6250   -16.4550    56.0920   200.6900   187.2810   126.1250    23.8360     2.2770 
  189.7500   -16.0080    51.6340   187.5390   174.9890   118.2180    23.6060     2.3540 
  189.8750   -15.5560    47.4760   150.0230   139.9280   105.0000    23.4120     2.4300 
  190.0000   -15.0400    52.2600   100.2280    93.3910    77.6560    23.3160     2.4760 
  190.1250   -14.4600    65.8530    60.0940    55.8820    43.4700    23.3100     2.4730 
  190.2500   -13.8580    77.5580    35.7560    33.1370    21.5520    23.4110     2.4470 
  190.3750   -13.2570    85.8380    23.1610    21.3660    13.0510    23.6390     2.4260 
  190.5000   -12.6520    93.4520    17.0910    15.6930    10.6090    23.8900     2.4280 
  190.6250   -11.9710    97.9680    14.2310    13.0200    10.4560    24.0060     2.4520 
  190.7500   -11.2320    93.9030    12.3430    11.2550    10.5560    24.0730     2.4740 
  190.8750   -10.4840    83.0380    10.8470     9.8570     9.9870    24.1550     2.4780 
  191.0000    -9.7390    71.3100     9.5660     8.6600     8.1690    24.2070     2.4610 
  191.1250    -9.0160    62.3830     8.5670     7.7260     6.2630    24.1990     2.4320 
  191.2500    -8.3350    55.8000     7.8810     7.0850     4.9470    24.0840     2.4100 
  191.3750    -7.7360    50.0460     7.5230     6.7510     4.5050    23.9320     2.4030 
  191.5000    -7.2360    45.9680     7.4520     6.6870     4.4580    23.8210     2.4120 
  191.6250    -6.9030    43.7800     7.5950     6.8180     4.4910    23.8550     2.4260 
  191.7500    -6.7350    42.4160     7.7960     6.9970     4.4910    23.8970     2.4340 
  191.8750    -6.7130    40.9980     7.9690     7.1410     4.4530    23.9690     2.4300 
  192.0000    -6.8130    41.0890     8.0700     7.2080     4.4170    24.1160     2.4140 
  192.1250    -7.0110    43.6600     8.0740     7.2000     4.4120    24.2020     2.3990 
  192.2500    -7.2790    47.4240     7.9910     7.1140     4.4910    24.1760     2.3950 
  192.3750    -7.6530    52.7580     7.8070     6.9640     4.6350    24.0360     2.4040 
  192.5000    -8.1420    61.3240     7.5100     6.7330     4.8440    23.8810     2.4210 
  192.6250    -8.6810    72.4670     7.1070     6.3610     5.0820    23.9140     2.4360 
  192.7500    -9.2190    82.8100     6.6750     5.9580     5.2540    24.1320     2.4430 
  192.8750    -9.7850    90.8480     6.2920     5.6000     5.3700    24.2870     2.4430 
  193.0000   -10.4420    96.9270     6.0270     5.3520     5.4200    24.3140     2.4390 
  193.1250   -11.1770    99.9610     5.9540     5.2840     5.5300    24.2990     2.4380 
  193.2500   -11.9400   102.3430     6.0480     5.3720     5.8790    24.2540     2.4420 
  193.3750   -12.7070   105.5460     6.2860     5.5940     6.4440    24.2580     2.4450 
  193.5000   -13.4930   107.4230     6.6330     5.9170     7.0240    24.3020     2.4400 
  193.6250   -14.2920   103.7560     7.0520     6.3120     7.2480    24.2610     2.4150 
  193.7500   -15.0450    98.1450     7.4870     6.7240     7.2860    24.2320     2.3760 
  193.8750   -15.7390    95.6860     7.9010     7.1150     7.4060    24.4140     2.3350 
  194.0000   -16.3660    95.0570     8.2520     7.4250     7.7710    24.8420     2.3060 
  194.1250   -16.8850    95.3280     8.4790     7.5960     8.3030    25.1830     2.3020 
  194.2500   -17.2690    98.0330     8.5770     7.6090     8.8470    25.4640     2.3140 
  194.3750   -17.4970    99.0760     8.5700     7.5050     9.1670    25.9620     2.3260 
  194.5000   -17.6100    94.3660     8.5260     7.4500     9.0420    26.5620     2.3270 
  194.6250   -17.6260    87.3460     8.5800     7.5240     8.6610    26.5890     2.3180 
  194.7500   -17.5910    85.1990     8.8360     7.8490     8.7700    25.7890     2.3140 
  194.8750   -17.5100    85.8150     9.3530     8.4200     9.6230    24.9430     2.3270 
  195.0000   -17.3520    85.6710    10.1160     9.1370    10.9610    24.4140     2.3550 
  195.1250   -17.1760    86.7000    11.0200    10.0180    12.6000    24.2400     2.3860 
  195.2500   -17.0040    88.7410    11.8500    10.9390    13.8860    24.1600     2.4040 
  195.3750   -16.7850    90.0470    12.4270    11.7310    14.3770    24.1350     2.4070 
  195.5000   -16.5210    90.5050    12.6330    12.2690    13.9860    24.1550     2.3990 
  195.6250   -16.2520    92.2200    12.3820    12.1710    13.0720    24.2210     2.3920 
  195.7500   -15.9740    94.6510    11.8160    11.5370    12.2500    24.2780     2.3870 
  195.8750   -15.6410    95.7810    11.0450    10.5150    11.5730    24.3470     2.3860 
