~V
VERS. 2.00: Ver 2.00
~W
STRT.M 64.0000:
STOP.M 243.0000:
STEP.M 0.1250:
NULL. -999.2500:
UWI. DF5061:
~C
DEPT.M :
GR.API :
RML.OHMM :
RI. :
RXO.OHMM :
CALI.CM :
DEN.GM/CC :
SP.MV :
~A
   64.0000    45.8250     0.1920     0.1670     0.3280    24.1180     2.5510    43.2570 
   64.1250    48.8840     0.1020     0.1220     0.8420    24.1790     2.6030    42.8740 
   64.2500    53.6040     0.2120     0.1400     2.0150    24.2460     2.5880    40.8300 
   64.3750    58.9230     0.5720     0.3090     4.3520    24.3270     2.5210    36.6090 
   64.5000    66.1360     1.1750     0.6990     7.4720    24.3930     2.4490    30.6760 
   64.6250    74.9090     1.9950     1.3670     9.7140    24.4000     2.3850    23.4140 
   64.7500    80.8210     2.9250     2.3020     9.9780    24.3980     2.3360    15.3780 
   64.8750    82.1470     3.7440     3.4040     8.8390    24.5370     2.2950     7.1140 
   65.0000    82.7650     4.3210     4.4630     8.5250    24.7460     2.2540    -0.8380 
   65.1250    81.6220     4.7160     5.3700     8.8010    24.9530     2.2100    -8.1180 
   65.2500    73.0250     5.1030     6.1190     9.1790    25.1510     2.1650   -14.4180 
   65.3750    60.1060     5.5950     6.7350     9.4450    25.1900     2.1300   -19.2860 
   65.5000    54.6760     6.1170     7.2380     9.8030    25.0470     2.1150   -22.9630 
   65.6250    57.7840     6.5430     7.5870    10.4050    24.8080     2.1290   -25.6410 
   65.7500    64.1230     6.7680     7.7320    11.0340    24.5580     2.1680   -27.5610 
   65.8750    68.0210     6.7160     7.6240    11.6860    24.3310     2.2200   -28.7950 
   66.0000    70.0320     6.4920     7.3410    11.7820    24.1280     2.2600   -29.5700 
   66.1250    73.8850     6.1990     6.9720    10.7400    24.0370     2.2760   -29.9760 
   66.2500    78.7630     5.9430     6.6140     9.6970    24.0860     2.2700   -30.1600 
   66.3750    79.1710     5.8290     6.3720     9.3010    24.2180     2.2510   -30.2420 
   66.5000    75.3190     5.8610     6.2600     9.4440    24.3500     2.2320   -30.3300 
   66.6250    72.6100     6.0110     6.2600     9.9570    24.4200     2.2150   -30.4690 
   66.7500    72.9410     6.2260     6.3370    10.3720    24.4030     2.1980   -30.6750 
   66.8750    72.2280     6.4620     6.4750    10.7060    24.3430     2.1820   -30.9120 
   67.0000    70.1720     6.7110     6.6690    10.8800    24.2860     2.1750   -31.0990 
   67.1250    69.4250     6.9910     6.9310    11.3110    24.2630     2.1880   -31.2100 
   67.2500    69.8250     7.2960     7.2490    12.4470    24.2600     2.2290   -31.1830 
   67.3750    70.0670     7.5690     7.5630    14.3600    24.2580     2.2980   -30.9720 
   67.5000    72.0980     7.7390     7.7790    16.3260    24.2230     2.3610   -30.6030 
   67.6250    77.0880     7.7640     7.8240    17.0890    24.1170     2.3910   -30.0980 
   67.7500    80.2650     7.6580     7.6750    15.0970    23.9740     2.3730   -29.5050 
   67.8750    78.4650     7.4970     7.3670    11.7120    23.8220     2.3200   -28.9050 
   68.0000    77.3270     7.3600     7.0190     9.6210    23.7000     2.2700   -28.3660 
   68.1250    80.9290     7.2520     6.6990     8.6870    23.6540     2.2380   -27.8820 
   68.2500    85.9630     7.1330     6.4280     8.1950    23.7040     2.2290   -27.4300 
   68.3750    88.5120     6.9360     6.1930     7.6990    23.7450     2.2400   -26.9960 
   68.5000    90.0300     6.6560     5.9620     7.1340    23.7280     2.2600   -26.5850 
   68.6250    90.8250     6.3340     5.7340     6.5340    23.6650     2.2840   -26.2100 
   68.7500    90.7590     6.0390     5.5370     6.0490    23.5820     2.3030   -25.9140 
   68.8750    91.3900     5.8490     5.4290     5.8580    23.5360     2.3100   -25.7530 
   69.0000    92.5440     5.7870     5.4350     5.9280    23.4960     2.3000   -25.7600 
   69.1250    92.0480     5.8770     5.5650     6.3530    23.4330     2.2800   -25.9740 
   69.2500    88.6950     6.1230     5.8060     7.1220    23.3420     2.2550   -26.4170 
   69.3750    83.9590     6.4970     6.1290     8.1050    23.3190     2.2370   -27.0920 
   69.5000    79.5790     6.8970     6.4710     9.1770    23.4300     2.2250   -27.8990 
   69.6250    75.1530     7.2530     6.7900    10.1370    23.6560     2.2190   -28.7400 
   69.7500    69.6250     7.5300     7.0470    10.8240    23.9120     2.2120   -29.5040 
   69.8750    64.1650     7.7010     7.1810    11.0300    24.0530     2.2020   -30.0690 
   70.0000    61.5310     7.7650     7.1650    10.8280    24.0720     2.1940   -30.3720 
   70.1250    63.4730     7.6900     6.9730    10.2630    24.0100     2.1950   -30.3500 
   70.2500    70.8450     7.4420     6.6140     9.3670    23.8870     2.2090   -29.9920 
   70.3750    83.1960     7.0130     6.1380     7.9920    23.7110     2.2350   -29.2910 
   70.5000    95.0020     6.5230     5.6580     6.6630    23.5640     2.2660   -28.4010 
   70.6250   101.9990     6.0890     5.2580     5.9130    23.4680     2.2950   -27.4480 
   70.7500   104.5270     5.8090     4.9990     5.7210    23.4030     2.3180   -26.5400 
   70.8750   103.1110     5.7740     4.9360     5.8840    23.4040     2.3300   -25.7920 
   71.0000   100.8130     5.9390     5.0350     6.2460    23.5370     2.3320   -25.2580 
   71.1250    98.7110     6.2410     5.2600     6.8030    23.7730     2.3210   -24.9820 
   71.2500    95.0380     6.5880     5.5600     7.4780    23.9940     2.2950   -24.9780 
   71.3750    87.3730     6.8700     5.8620     8.0500    24.2300     2.2580   -25.2780 
   71.5000    80.4180     7.0340     6.1040     8.5600    24.5060     2.2220   -25.7470 
   71.6250    78.7250     7.0780     6.2610     8.8600    24.7470     2.1950   -26.2780 
   71.7500    80.9980     7.0580     6.3460     8.9710    24.8990     2.1820   -26.7910 
   71.8750    82.7450     7.0810     6.4100     8.9590    24.9620     2.1820   -27.1670 
   72.0000    82.6100     7.2200     6.5090     8.9390    24.9770     2.1850   -27.3630 
   72.1250    80.2250     7.4670     6.6530     9.0950    24.9720     2.1860   -27.3760 
   72.2500    74.9590     7.7350     6.8020     9.4890    24.9750     2.1850   -27.1740 
   72.3750    70.6760     7.8570     6.8540     9.7500    25.0020     2.1910   -26.6950 
   72.5000    73.2980     7.7490     6.7490     9.5450    25.0420     2.2100   -25.9830 
   72.6250    83.4150     7.4210     6.4780     8.7640    25.0720     2.2410   -25.0670 
   72.7500    95.5010     6.9760     6.0920     7.4650    25.0320     2.2800   -23.9770 
   72.8750   104.3230     6.5820     5.6970     6.1990    24.9280     2.3110   -22.7870 
   73.0000   110.2750     6.3410     5.3860     5.5700    24.8690     2.3280   -21.6160 
   73.1250   113.8530     6.2510     5.1860     5.3920    24.8270     2.3320   -20.5120 
   73.2500   115.4470     6.2400     5.0720     5.3450    24.7600     2.3300   -19.5290 
   73.3750   112.8400     6.1780     4.9790     5.3290    24.6020     2.3330   -18.7430 
   73.5000   107.9140     5.9800     4.8390     5.3510    24.3610     2.3420   -18.1530 
   73.6250   105.0720     5.6540     4.6430     5.3700    24.1560     2.3530   -17.7750 
   73.7500   107.7760     5.3250     4.4510     5.3640    24.1550     2.3630   -17.6030 
   73.8750   114.6020     5.3090     4.4570     5.4960    24.3280     2.3760   -17.6260 
   74.0000   117.7350     5.9010     4.8750     6.0530    24.4810     2.3970   -17.7550 
   74.1250   109.9750     7.3350     5.9160     7.4380    24.5080     2.4310   -17.9660 
   74.2500    91.7210     9.6330     7.6700    10.0060    24.4430     2.4720   -18.2410 
   74.3750    74.6880    12.4510    10.0060    13.7660    24.3530     2.4990   -18.5830 
   74.5000    66.0970    14.8840    12.2460    17.0840    24.2620     2.4940   -19.0250 
   74.6250    61.6330    16.1170    13.6930    18.4760    24.1390     2.4510   -19.5610 
   74.7500    58.9460    15.7120    13.8370    17.3950    24.0140     2.3840   -20.1790 
   74.8750    61.0220    13.9070    12.6560    13.4690    23.9050     2.3170   -20.8620 
   75.0000    65.4040    11.9550    11.1290    10.8040    23.7250     2.2680   -21.5520 
   75.1250    67.0970    10.5630     9.8680     9.6960    23.4450     2.2390   -22.2070 
