~V
VERS. 2.00: Ver 2.00
~W
STRT.M 55.0000:
STOP.M 268.0000:
STEP.M 0.1250:
NULL. -999.2500:
UWI. DF5007:
~C
DEPT.M :
SP.MV :
GR.API :
RML.OHMM :
RI. :
RXO.OHMM :
CALI.CM :
DEN.GM/CC :
~A
# ...
  122.5000   -23.3410    85.1850     7.8300     6.8530     7.6150    23.0080     2.2450 
  122.6250   -23.3690    77.8030     7.9470     7.0330     8.3000    23.0490     2.2400 
  122.7500   -23.2010    73.4180     7.9270     7.0940     8.6360    23.0440     2.2420 
  122.8750   -22.8690    71.6050     7.7860     7.0280     8.7110    23.0200     2.2510 
  123.0000   -22.4320    72.3170     7.5750     6.8660     8.3420    23.0230     2.2630 
  123.1250   -21.9430    77.0800     7.3730     6.6620     7.4020    23.0370     2.2690 
  123.2500   -21.4590    83.0360     7.2220     6.4730     6.6860    23.0080     2.2670 
  123.3750   -20.9530    87.5280     7.1270     6.3200     6.4750    22.9800     2.2560 
  123.5000   -20.3520    88.5560     7.0590     6.1970     6.5050    22.9460     2.2410 
  123.6250   -19.9150    87.8060     6.9510     6.0660     6.5330    22.8720     2.2300 
  123.7500   -19.5980    87.2850     6.7690     5.8950     6.6560    22.8490     2.2300 
  123.8750   -19.3040    87.6880     6.5150     5.6830     6.5700    22.9990     2.2410 
  124.0000   -19.0950    89.6050     6.2280     5.4540     6.1420    23.2240     2.2620 
  124.1250   -18.9150    91.8210     6.0250     5.2940     5.8010    23.3490     2.2860 
  124.2500   -18.7750    91.9140     6.0090     5.2960     5.6870    23.3440     2.3090 
  124.3750   -18.7120    87.0960     6.2340     5.5180     5.9600    23.2820     2.3320 
  124.5000   -18.7600    79.8240     6.6910     5.9660     6.6430    23.1730     2.3620 
  124.6250   -18.8180    76.6830     7.3170     6.6030     7.7950    23.0440     2.4050 
  124.7500   -18.8850    77.3720     7.9120     7.2570     8.7800    22.9410     2.4510 
  124.8750   -19.0530    77.6030     8.2930     7.7560    10.3470    22.7700     2.4830 
  125.0000   -19.1270    74.8980     8.3460     7.9540    11.6990    22.4950     2.4820 
  125.1250   -19.1680    73.7360     8.0030     7.7340    10.3830    22.2710     2.4410 
  125.2500   -19.1330    77.0250     7.4950     7.2310     7.9780    22.1380     2.3860 
  125.3750   -18.9880    81.5020     7.0020     6.5980     6.4660    22.1030     2.3410 
  125.5000   -18.8460    82.7870     6.6550     5.9970     5.9850    22.1570     2.3200 
  125.6250   -18.7370    81.7920     6.5430     5.5830     5.9310    22.3530     2.3230 
  125.7500   -18.6910    82.4510     6.4350     5.3880     5.8010    22.5650     2.3330 
  125.8750   -18.6640    82.5800     6.5530     5.4140     5.6770    22.6740     2.3360 
  126.0000   -18.6640    80.4600     6.8310     5.6230     5.7880    22.6690     2.3230 
  126.1250   -18.7430    77.9300     7.1790     5.9450     6.1830    22.6610     2.2950 
  126.2500   -18.7920    76.9830     7.4830     6.2670     6.6580    22.7480     2.2640 
  126.3750   -18.8370    75.6290     7.6710     6.5160     6.9720    22.9540     2.2400 
  126.5000   -18.8600    72.6090     7.6990     6.6430     6.9650    23.2390     2.2310 
  126.6250   -18.8670    70.0050     7.5490     6.6040     6.7070    23.4270     2.2390 
  126.7500   -18.8260    71.0130     7.3080     6.4490     6.3860    23.4950     2.2600 
  126.8750   -18.6980    75.9150     7.0390     6.2270     6.2640    23.5110     2.2870 
  127.0000   -18.5980    82.7120     6.7990     5.9890     6.1100    23.5010     2.3140 
  127.1250   -18.4150    87.6600     6.6360     5.7810     5.8770    23.5570     2.3300 
  127.2500   -18.3330    88.4020     6.5330     5.6160     5.6350    23.6360     2.3340 
  127.3750   -18.3600    85.2290     6.4620     5.4870     5.5500    23.6500     2.3310 
  127.5000   -18.3600    80.4040     6.3910     5.3820     5.5760    23.5290     2.3290 
  127.6250   -18.3960    77.4240     6.3040     5.2960     5.5960    23.3560     2.3370 
  127.7500   -18.5010    77.5680     6.2310     5.2380     5.4730    23.2220     2.3520 
  127.8750   -18.7480    79.8200     6.2260     5.2440     5.3930    23.1340     2.3670 
  128.0000   -19.0380    82.0340     6.3450     5.3560     5.4810    23.1060     2.3790 
  128.1250   -19.4840    83.0810     6.6420     5.6300     5.7380    23.1690     2.3910 
  128.2500   -19.9790    84.4290     7.0870     6.0460     6.2540    23.2790     2.4100 
  128.3750   -20.4730    85.9910     7.6390     6.5730     7.0050    23.3640     2.4330 
  128.5000   -21.1140    85.2560     8.2250     7.1510     8.0760    23.3100     2.4470 
  128.6250   -21.7810    80.2220     8.7190     7.6700     9.3620    23.0000     2.4320 
  128.7500   -22.4660    74.0060     9.0520     8.0560     9.9830    22.5970     2.3910 
  128.8750   -23.0830    70.2230     9.2100     8.2750     9.1300    22.3310     2.3350 
  129.0000   -23.6110    71.0510     9.2310     8.3430     8.0590    22.2610     2.2830 
  129.1250   -24.0600    74.5590     9.2090     8.3220     7.7980    22.3440     2.2480 
  129.2500   -24.4350    75.9760     9.2490     8.3140     7.8670    22.4150     2.2290 
  129.3750   -24.7920    73.8750     9.3880     8.3710     7.9250    22.5090     2.2210 
  129.5000   -25.0700    71.0530     9.6240     8.5130     8.0170    22.6220     2.2180 
  129.6250   -25.2000    70.9580     9.9170     8.7380     8.3050    22.6190     2.2140 
  129.7500   -25.2450    71.5960    10.1950     8.9830     8.6280    22.5010     2.2060 
  129.8750   -25.2750    71.0880    10.4140     9.2070     8.7020    22.4010     2.1960 
  130.0000   -25.3210    69.7970    10.5660     9.3850     8.6800    22.3800     2.1870 
  130.1250   -25.2560    69.0630    10.6580     9.5120     8.5870    22.3300     2.1850 
  130.2500   -25.1930    69.4850    10.7200     9.6090     8.6420    22.2880     2.1920 
  130.3750   -25.1260    71.7210    10.7760     9.6940     8.7140    22.2920     2.2030 
  130.5000   -25.0290    74.0770    10.8430     9.7770     8.7770    22.3530     2.2130 
  130.6250   -25.0470    71.4320    10.9130     9.8590     8.9160    22.4590     2.2190 
  130.7500   -25.0380    66.1390    10.9560     9.9200     8.9820    22.6190     2.2210 
  130.8750   -24.9830    62.6340    10.9420     9.9360     9.0050    22.7820     2.2200 
  131.0000   -24.8770    62.8760    10.8570     9.8890     9.0550    22.8770     2.2170 
  131.1250   -24.9030    64.8940    10.7090     9.7700     8.9900    22.8880     2.2130 
  131.2500   -24.8980    66.2300    10.5460     9.6170     8.8390    22.8830     2.2090 
  131.3750   -24.8340    66.7810    10.4190     9.4730     8.7420    22.8750     2.2080 
  131.5000   -24.8040    66.7390    10.3620     9.3830     8.6600    22.8420     2.2080 
  131.6250   -24.7160    66.0710    10.4180     9.4010     8.6210    22.8300     2.2120 
  131.7500   -24.6610    65.2350    10.5750     9.5280     8.6460    22.8510     2.2190 
  131.8750   -24.6380    65.6480    10.8110     9.7510     8.8000    22.8530     2.2250 
  132.0000   -24.6280    67.9780    11.0760    10.0310     9.0630    22.7920     2.2280 
  132.1250   -24.6030    69.5130    11.2890    10.3040     9.3440    22.7690     2.2250 
  132.2500   -24.5000    68.1220    11.3910    10.5110     9.4310    22.8320     2.2160 
  132.3750   -24.4370    65.9990    11.3500    10.6190     9.4550    22.9310     2.2040 
  132.5000   -24.3960    64.9530    11.1910    10.6310     9.5350    22.9720     2.1920 
  132.6250   -24.2380    64.1990    11.0120    10.6060     9.6020    22.9790     2.1830 
  132.7500   -24.0490    64.1480    10.9630    10.6760     9.6740    22.9700     2.1750 
  132.8750   -23.8550    64.5620    11.1710    10.9690     9.7630    22.9510     2.1680 
  133.0000   -23.6030    64.2420    11.6800    11.5520     9.8920    22.9290     2.1650 
  133.1250   -23.1980    61.8910    12.3680    12.3740    10.2690    22.9470     2.1840 
  133.2500   -22.8250    60.8070    12.9210    13.1680    11.2900    22.9280     2.2310 
  133.3750   -22.3620    61.9690    13.1010    13.6610    13.1370    22.8330     2.2990 
  133.5000   -21.7550    63.6520    12.6880    13.6000    16.0830    22.7840     2.3680 
  133.6250   -21.2850    65.2780    11.7350    12.7520    20.4230    22.8780     2.4010 
