~V
VERS. 2.00: Ver 2.00
~W
STRT.M 60.0000:
STOP.M 257.0000:
STEP.M 0.1250:
NULL. -999.2500:
UWI. DF5064:
~C
DEPT.M :
SP.MV :
GR.API :
RML.OHMM :
RI. :
RXO.OHMM :
CALI.CM :
DEN.GM/CC :
~A
# ...
  217.5000   -12.7020    67.3430    26.8180    25.8130    94.6720    25.8300     2.5320 
  217.6250   -12.1610    65.4460    16.1900    16.4570    49.1910    26.2700     2.4040 
  217.7500   -11.8360    66.6520    10.2220    11.4760    18.5280    27.3500     2.3180 
  217.8750   -11.7620    71.5550     7.6220     9.2540     7.3730    28.3280     2.2940 
  218.0000   -11.9410    79.7560     6.8080     8.6510     5.2610    27.6480     2.3220 
  218.1250   -12.3370    86.2390     7.0800     9.0490     6.9580    26.6790     2.3700 
  218.2500   -12.8350    87.7820     7.7090     9.8030     9.1500    26.3050     2.4080 
  218.3750   -13.4010    86.3940     8.3400    10.5560    10.3300    26.3560     2.4290 
  218.5000   -14.0520    87.2700     8.7460    11.0490    10.4720    26.3620     2.4360 
  218.6250   -14.7450    92.1830     8.7980    11.1250    10.4630    26.3280     2.4330 
  218.7500   -15.3660    95.6400     8.6310    10.9410    10.5180    26.3360     2.4250 
  218.8750   -15.9030    94.8540     8.3980    10.6700    10.5780    26.3800     2.4180 
  219.0000   -16.3910    94.5980     8.2650    10.5000    10.6510    26.4000     2.4150 
  219.1250   -16.9400    98.5450     8.4650    10.6660    10.6550    26.4150     2.4170 
  219.2500   -17.5890   101.6450     9.1090    11.2650    11.0200    26.4270     2.4210 
  219.3750   -18.3180   101.1740    10.2850    12.3590    12.2490    26.4430     2.4220 
  219.5000   -19.0650    97.9760    11.9930    13.9230    14.6610    26.4790     2.4190 
  219.6250   -19.7710    96.3910    14.1500    15.8440    18.3910    26.5250     2.4110 
  219.7500   -20.4610    95.9000    16.4070    17.7880    21.0120    26.5590     2.4030 
  219.8750   -21.1080    93.4570    18.4590    19.4750    24.8400    26.5790     2.3970 
  220.0000   -21.6700    89.7380    20.0510    20.6930    28.9850    26.5890     2.3950 
  220.1250   -22.0600    87.8970    20.9620    21.2810    30.0870    26.5820     2.3950 
  220.2500   -22.3030    87.6650    21.3660    21.4360    28.7940    26.5520     2.3940 
  220.3750   -22.4600    85.0130    21.4400    21.3260    27.4060    26.5130     2.3910 
  220.5000   -22.5670    81.6960    21.3750    21.1260    26.9700    26.4860     2.3840 
  220.6250   -22.6310    81.8100    21.3760    21.0210    27.7290    26.4790     2.3750 
  220.7500   -22.6550    80.9500    21.5720    21.1140    27.4630    26.4780     2.3650 
  220.8750   -22.6530    76.5940    22.0150    21.4390    26.6140    26.4760     2.3580 
  221.0000   -22.6350    72.3900    22.6820    21.9620    25.5130    26.4720     2.3550 
  221.1250   -22.6240    73.6540    23.4780    22.5930    26.8410    26.4700     2.3600 
  221.2500   -22.6150    77.1770    24.2190    23.1870    29.9180    26.4680     2.3710 
  221.3750   -22.5680    80.3410    24.7770    23.6560    32.4470    26.4610     2.3820 
  221.5000   -22.4820    82.7780    25.1020    23.9800    33.1010    26.4610     2.3880 
  221.6250   -22.3840    82.8130    25.2450    24.2210    31.9900    26.4610     2.3860 
  221.7500   -22.2940    81.3420    25.4140    24.5270    30.7610    26.4650     2.3800 
  221.8750   -22.2090    82.5270    25.7830    25.0140    30.4780    26.4590     2.3740 
  222.0000   -22.1130    86.3470    26.4630    25.7350    30.7690    26.4240     2.3700 
  222.1250   -21.9890    86.4190    27.4800    26.6770    30.7790    26.3300     2.3690 
  222.2500   -21.8490    82.0730    28.6240    27.6710    31.8170    26.2250     2.3670 
  222.3750   -21.6960    76.9620    29.6880    28.5670    35.1650    26.1200     2.3630 
  222.5000   -21.5280    73.3450    30.4860    29.2460    38.6450    26.0210     2.3580 
  222.6250   -21.3050    71.4340    30.8640    29.6230    39.9690    25.9040     2.3530 
  222.7500   -21.0260    72.1000    30.9370    29.7950    39.1180    25.7990     2.3510 
  222.8750   -20.6990    74.5100    30.8420    29.8610    37.0900    25.7060     2.3480 
  223.0000   -20.3420    76.2570    30.7090    29.8960    36.3500    25.6560     2.3450 
  223.1250   -19.9640    76.8950    30.5920    29.8880    36.0340    25.6190     2.3410 
  223.2500   -19.5920    77.4610    30.4100    29.7440    35.4430    25.5850     2.3400 
  223.3750   -19.2550    76.3130    30.0390    29.3600    33.7930    25.4940     2.3430 
  223.5000   -18.9230    73.3060    29.3870    28.6930    33.4160    25.2950     2.3490 
  223.6250   -18.5990    72.6580    28.4350    27.7850    33.0360    25.0840     2.3580 
  223.7500   -18.2840    75.3470    27.3900    26.8550    30.3070    24.9280     2.3630 
  223.8750   -17.9610    79.2750    26.4640    26.0850    27.6620    24.7800     2.3650 
  224.0000   -17.6460    82.7960    25.8310    25.6010    26.5140    24.6520     2.3600 
  224.1250   -17.3390    84.3560    25.6370    25.4960    25.8570    24.5770     2.3520 
  224.2500   -17.0180    82.4820    25.7820    25.6650    25.9230    24.5190     2.3450 
  224.3750   -16.6590    80.0370    26.1660    26.0210    27.0390    24.4830     2.3420 
  224.5000   -16.2660    81.1980    26.6820    26.4840    28.1060    24.4670     2.3420 
  224.6250   -15.8620    83.1170    27.2730    27.0250    28.9400    24.4580     2.3400 
  224.7500   -15.4690    81.6850    27.9270    27.6420    29.1990    24.4470     2.3350 
  224.8750   -15.1050    78.3540    28.6630    28.3400    29.4590    24.4450     2.3310 
  225.0000   -14.7340    77.0970    29.4610    29.0810    29.5670    24.4720     2.3360 
  225.1250   -14.3250    77.6300    30.1960    29.7040    29.6950    24.5140     2.3600 
  225.2500   -13.8910    75.1090    30.6740    30.0180    29.7520    24.5720     2.3970 
  225.3750   -13.4520    70.5340    30.7190    29.8800    30.8090    24.6270     2.4390 
  225.5000   -13.0480    68.5000    30.2650    29.2730    33.7280    24.6600     2.4750 
  225.6250   -12.6870    72.9550    29.3840    28.3350    35.4360    24.6730     2.4950 
  225.7500   -12.3780    77.0860    28.4320    27.4110    33.6650    24.6840     2.4960 
  225.8750   -12.1240    76.4000    27.6830    26.7320    30.7800    24.7230     2.4820 
  226.0000   -11.9410    73.4220    27.3020    26.4040    29.3120    24.8040     2.4590 
  226.1250   -11.8400    70.4450    27.3320    26.4070    30.6350    24.9310     2.4340 
  226.2500   -11.8190    69.0530    27.5270    26.5030    31.0920    25.0750     2.4120 
  226.3750   -11.8740    71.2230    27.6570    26.5090    31.0060    25.2720     2.3950 
  226.5000   -11.9750    76.2830    27.5420    26.3170    29.5890    25.5360     2.3800 
  226.6250   -12.0910    79.4050    27.1070    25.9480    30.0400    25.8940     2.3660 
  226.7500   -12.1710    78.4760    26.5650    25.6100    30.7050    26.2130     2.3510 
  226.8750   -12.2030    75.9740    26.1490    25.4880    30.5910    26.3930     2.3390 
  227.0000   -12.2130    74.6920    26.0590    25.7060    28.3050    26.4800     2.3290 
  227.1250   -12.2190    75.3250    26.4340    26.3050    27.0340    26.4800     2.3230 
  227.2500   -12.2020    74.9490    27.0740    27.0440    29.1990    26.4460     2.3190 
  227.3750   -12.1250    71.7540    27.7120    27.6540    31.4790    26.4180     2.3150 
  227.5000   -11.9860    69.4090    28.0450    27.8610    33.6100    26.4070     2.3110 
  227.6250   -11.7810    71.3550    27.7410    27.3660    34.9940    26.4100     2.3080 
  227.7500   -11.5350    75.6060    26.8530    26.2650    34.1730    26.4140     2.3050 
  227.8750   -11.2470    78.7430    25.5080    24.6970    30.4600    26.4020     2.3060 
  228.0000   -10.9080    78.7560    23.8900    22.8550    25.7240    26.4170     2.3080 
  228.1250   -10.4930    75.0860    22.1600    20.9480    24.2170    26.4220     2.3100 
  228.2500   -10.0250    70.8470    20.4780    19.1870    23.4400    26.3650     2.3100 
  228.3750    -9.5140    69.9860    18.9840    17.7430    22.8100    26.2570     2.3060 
  228.5000    -9.0010    70.0560    17.8520    16.7800    20.5520    26.2220     2.2950 
  228.6250    -8.5280    67.6030    17.4250    16.6200    17.0670    26.2950     2.2790 
