~V
VERS. 2.00: Ver 2.00
~W
STRT.M 59.0000:
STOP.M 253.0000:
STEP.M 0.1250:
NULL. -999.2500:
UWI. DF5043:
~C
DEPT.M :
SP.MV :
GR.API :
CALI.CM :
RXO.OHMM :
RI. :
RML.OHMM :
DEN.GM/CC :
~A
# ...
  216.5000   -29.3580    68.8660    23.9640   133.9010   105.1670   111.5820     2.1730 
  216.6250   -28.9290    67.1780    23.9910   127.8760    99.7570   105.8630     2.1820 
  216.7500   -28.5060    67.0280    24.0190   118.3680    94.0370    99.8170     2.1990 
  216.8750   -28.0990    69.7750    24.0270   111.0570    88.6820    94.1570     2.2170 
  217.0000   -27.7120    72.7240    24.0180   109.9080    84.0380    89.2480     2.2310 
  217.1250   -27.3510    72.9310    23.9910   108.6260    80.1680    85.1580     2.2420 
  217.2500   -27.0170    70.8560    23.9650   100.8650    76.9740    81.7820     2.2450 
  217.3750   -26.7110    69.8380    23.9390    91.1200    74.3520    79.0100     2.2320 
  217.5000   -26.4190    71.0060    23.9600    85.3210    71.9970    76.5210     2.2080 
  217.6250   -26.1330    73.1410    23.9410    83.3110    69.8030    74.2020     2.1870 
  217.7500   -25.8500    76.2630    23.8670    80.1900    67.8530    72.1410     2.1760 
  217.8750   -25.5750    81.6900    23.8380    74.4170    66.4380    70.6450     2.1750 
  218.0000   -25.3180    85.9150    23.9040    70.0520    65.7020    69.8670     2.1760 
  218.1250   -25.0870    85.0400    24.0360    69.3070    65.8250    69.9970     2.1800 
  218.2500   -24.8830    79.5770    24.1660    71.1720    67.0110    71.2510     2.1920 
  218.3750   -24.7080    74.3830    24.2350    73.5540    69.7430    74.1390     2.2080 
  218.5000   -24.5480    71.6050    24.2420    76.4910    73.7570    78.3810     2.2140 
  218.6250   -24.3970    70.3460    24.2340    79.8220    78.0210    82.8880     2.2040 
  218.7500   -24.2500    70.6720    24.2480    82.5500    80.1170    85.1040     2.1950 
  218.8750   -24.1110    72.5380    24.2190    85.3000    76.1020    80.8590     2.2150 
  219.0000   -23.9850    74.6270    24.1280    92.1150    65.9350    70.1130     2.2740 
  219.1250   -23.8790    75.5400    23.9860   107.5100    51.8230    55.1970     2.3710 
  219.2500   -23.7990    73.8360    23.8100   129.4710    37.1740    39.6050     2.4930 
  219.3750   -23.7500    70.7240    23.7300   136.9620    25.2290    26.6890     2.5950 
  219.5000   -23.7220    70.1180    23.7800   112.2380    16.5880    17.2230     2.6270 
  219.6250   -23.7060    72.7400    23.8980    66.5940    10.9910    11.2620     2.5850 
  219.7500   -23.6970    75.7960    24.0050    27.5800     7.7720     7.9460     2.5070 
  219.8750   -23.6890    76.4860    24.0470    10.6500     6.3500     6.5160     2.4460 
  220.0000   -23.6850    75.7710    24.0040     5.9660     5.8080     6.0220     2.4100 
  220.1250   -23.6890    74.9100    23.9430     5.2510     5.8160     6.1040     2.3880 
  220.2500   -23.7080    75.4450    23.9940     5.8580     6.1760     6.5130     2.3760 
  220.3750   -23.7460    78.5020    24.1460     7.4660     6.7370     7.0530     2.3820 
  220.5000   -23.8000    83.0660    24.2610     8.9960     7.2990     7.5420     2.4030 
  220.6250   -23.8610    88.3840    24.3120     9.4550     7.7420     7.8910     2.4170 
  220.7500   -23.9180    94.7960    24.3320     8.8790     8.0100     8.0730     2.4090 
  220.8750   -23.9570   103.9930    24.3300     8.2780     8.0890     8.1040     2.3850 
  221.0000   -23.9770   114.8710    24.2950     8.0800     8.0570     8.0720     2.3760 
  221.1250   -23.9830   122.9390    24.2510     8.2810     7.9740     8.0420     2.3870 
  221.2500   -23.9900   123.9920    24.2400     8.6770     7.8920     8.0620     2.3950 
  221.3750   -24.0110   119.3120    24.2670     9.0440     7.8630     8.1820     2.3770 
  221.5000   -24.0510   116.2150    24.2880     9.1560     7.9220     8.4180     2.3510 
  221.6250   -24.1050   116.3190    24.3030     9.0270     8.1150     8.8180     2.3400 
  221.7500   -24.1620   115.8190    24.3090     8.8980     8.5010     9.4550     2.3530 
  221.8750   -24.2100   111.4270    24.3010     9.2630     9.1920    10.3910     2.3740 
  222.0000   -24.2450   106.3740    24.2780    10.3760    10.2030    11.5980     2.3800 
  222.1250   -24.2710   103.1330    24.2600    12.4120    11.5570    13.1720     2.3630 
  222.2500   -24.2930   100.5610    24.2660    15.5020    13.2370    15.1620     2.3310 
  222.3750   -24.3240    96.2190    24.2460    18.7830    15.1780    17.4350     2.2980 
  222.5000   -24.3680    92.1910    24.2240    22.1180    17.1650    19.6600     2.2800 
  222.6250   -24.4270    90.5400    24.2300    25.6630    19.0050    21.6180     2.2820 
  222.7500   -24.4960    90.4300    24.2420    29.0690    20.5420    23.1440     2.2930 
  222.8750   -24.5660    89.8570    24.2370    30.5280    21.6330    24.1090     2.2940 
  223.0000   -24.6260    88.8620    24.2380    29.8710    22.3820    24.6730     2.2870 
  223.1250   -24.6740    88.1630    24.2030    28.7150    22.8520    24.9370     2.2800 
  223.2500   -24.7100    87.6990    24.1140    28.2020    23.0550    24.9400     2.2800 
  223.3750   -24.7460    87.0880    24.0620    28.0980    22.8470    24.5450     2.2830 
  223.5000   -24.7990    86.2710    24.0130    28.1370    22.1520    23.6710     2.2820 
  223.6250   -24.8800    85.5790    23.9680    28.2810    20.9060    22.2370     2.2780 
  223.7500   -24.9960    86.2830    23.9030    28.1540    19.1460    20.2680     2.2790 
  223.8750   -25.1440    90.8560    23.8170    26.2800    17.0210    17.9050     2.2920 
  224.0000   -25.3060    97.9500    23.8060    22.4170    14.8850    15.5320     2.3090 
  224.1250   -25.4650   103.8640    23.9210    17.5650    13.0090    13.4570     2.3260 
  224.2500   -25.6130   104.7400    24.0890    13.4480    11.6090    11.9360     2.3450 
  224.3750   -25.7490   100.0050    24.2060    11.5880    10.9580    11.2990     2.3720 
  224.5000   -25.8830    95.7780    24.2450    11.0500    11.0790    11.5750     2.3990 
  224.6250   -26.0220    95.7340    24.2590    11.0740    12.1180    12.8960     2.4150 
  224.7500   -26.1660    98.1980    24.2750    12.4770    14.2720    15.3950     2.4140 
  224.8750   -26.3090    99.0960    24.2650    19.0270    18.0150    19.4240     2.3970 
  225.0000   -26.4410    98.1430    24.2160    31.9660    23.2960    24.8310     2.3750 
  225.1250   -26.5530    95.2300    24.1410    47.8660    30.0630    31.5220     2.3520 
  225.2500   -26.6400    88.7860    24.0620    61.1310    37.9010    39.1260     2.3280 
  225.3750   -26.6980    78.7960    24.0400    69.5070    45.7730    46.7580     2.3000 
  225.5000   -26.7370    70.0250    24.0260    75.9180    52.2820    53.1940     2.2700 
  225.6250   -26.7670    65.7190    24.0210    80.9090    56.5680    57.6130     2.2450 
  225.7500   -26.7960    66.2310    24.0330    82.4040    58.6210    59.9410     2.2320 
  225.8750   -26.8360    69.9670    24.0550    80.3870    59.1170    60.8320     2.2370 
  226.0000   -26.8860    72.9930    24.0380    78.4200    59.3970    61.6250     2.2420 
  226.1250   -26.9370    73.9910    24.0000    79.0610    60.2200    63.0420     2.2370 
  226.2500   -26.9790    73.5800    23.9790    82.9020    62.1440    65.5620     2.2320 
  226.3750   -27.0000    72.5670    23.9790    90.7010    65.7950    69.7120     2.2550 
  226.5000   -27.0000    70.9050    23.9840   104.7260    71.0190    75.3000     2.3030 
  226.6250   -26.9790    68.9820    24.0160   120.9460    77.5090    82.0240     2.3480 
  226.7500   -26.9420    67.5860    24.1050   133.8800    84.4920    89.1680     2.3570 
  226.8750   -26.8890    66.1830    24.1830   143.2710    90.5100    95.2110     2.3180 
  227.0000   -26.8250    63.9580    24.2210   149.7450    94.2530    98.6570     2.2730 
  227.1250   -26.7470    62.2170    24.1910   150.2090    94.7790    98.4110     2.2570 
  227.2500   -26.6430    63.2570    24.0910   142.9470    91.8630    94.9660     2.2740 
  227.3750   -26.4890    67.0460    23.9070   127.7800    85.9720    89.7390     2.3010 
  227.5000   -26.2840    70.0460    23.7260   108.6370    79.1580    84.3940     2.3110 
  227.6250   -26.0330    71.3780    23.5770    87.9110    72.7220    78.2370     2.3000 
