~V
VERS. 2.00: Ver 2.00
~W
STRT.M 58.0000:
STOP.M 256.0000:
STEP.M 0.1250:
NULL. -999.2500:
UWI. DF5024:
~C
DEPT.M :
SP.MV :
GR.API :
CALI.CM :
RXO.OHMM :
RI. :
RML.OHMM :
DEN.GM/CC :
~A
# ...
   69.2500   -29.4930    75.1000    23.1310    11.2750     7.9310     8.5290     2.0940 
   69.3750   -29.0650    77.2700    23.2620    11.3220     7.7790     8.3620     2.1100 
   69.5000   -28.6790    83.3920    23.4340    10.9610     7.4190     7.9540     2.1520 
   69.6250   -28.3850    95.5210    23.7020    10.2390     6.8900     7.3710     2.2220 
   69.7500   -28.1980   108.5630    24.0550     9.1240     6.3330     6.7940     2.2930 
   69.8750   -28.1320   116.9650    24.4210     7.8970     5.8570     6.3560     2.3330 
   70.0000   -28.1860   118.8170    24.6530     7.0480     5.5490     6.1450     2.3240 
   70.1250   -28.3620   115.4500    24.5590     6.9060     5.4880     6.2200     2.2830 
   70.2500   -28.6140   109.0790    24.1680     7.4440     5.6270     6.4920     2.2520 
   70.3750   -28.9130    99.7390    23.6350     8.4800     5.9220     6.8890     2.2370 
   70.5000   -29.2290    88.8420    23.2280     9.7570     6.3230     7.3470     2.2250 
   70.6250   -29.5290    80.8240    23.0920    10.7470     6.7820     7.8060     2.2000 
   70.7500   -29.7900    77.8580    23.0780    11.3050     7.2450     8.2240     2.1730 
   70.8750   -29.9990    78.3570    23.0710    11.3050     7.6880     8.5990     2.1580 
   71.0000   -30.1610    79.0960    23.0940    11.0030     8.1090     8.9570     2.1610 
   71.1250   -30.2760    77.9880    23.1940    11.3030     8.4970     9.3130     2.1890 
   71.2500   -30.3570    75.9760    23.2620    13.0850     8.8260     9.6280     2.2420 
   71.3750   -30.4060    74.1850    23.1830    16.1620     9.0540     9.8580     2.3100 
   71.5000   -30.4230    72.9840    22.9480    17.9770     9.1430     9.9640     2.3540 
   71.6250   -30.4000    72.0300    22.6770    17.0350     9.0600     9.9270     2.3240 
   71.7500   -30.3370    70.8500    22.5050    15.0830     8.8700     9.8130     2.2460 
   71.8750   -30.2250    69.5650    22.4450    14.0910     8.6260     9.6560     2.1670 
   72.0000   -30.0600    68.8430    22.4700    13.8580     8.3590     9.4600     2.1190 
   72.1250   -29.8320    69.4580    22.5270    13.7540     8.0960     9.2360     2.1070 
   72.2500   -29.5620    70.4370    22.5930    13.6290     7.8970     9.0700     2.1110 
   72.3750   -29.2650    71.2350    22.6430    13.5000     7.8210     9.0410     2.1220 
   72.5000   -28.9580    72.5460    22.6640    13.3500     7.9040     9.2030     2.1320 
   72.6250   -28.6670    75.6670    22.7410    12.8700     8.2030     9.6330     2.1370 
   72.7500   -28.4120    78.8900    22.9390    12.0060     8.6960    10.2860     2.1500 
   72.8750   -28.2060    79.8300    23.2540    11.8800     9.3280    11.0530     2.1890 
   73.0000   -28.0500    78.0240    23.5810    14.5960     9.9600    11.7440     2.2630 
   73.1250   -27.9480    75.2960    23.7040    21.2790    10.3500    12.0560     2.3490 
   73.2500   -27.8830    73.1910    23.5140    25.9720    10.3680    11.8920     2.3940 
   73.3750   -27.8440    71.7380    23.0870    24.5290     9.9980    11.2880     2.3680 
   73.5000   -27.8190    71.3390    22.7020    18.7610     9.3610    10.4290     2.2840 
   73.6250   -27.7970    72.4870    22.5040    14.2010     8.6570     9.5820     2.1960 
   73.7500   -27.7730    73.3210    22.4280    12.3530     8.0660     8.9410     2.1480 
   73.8750   -27.7460    72.6250    22.4040    11.8880     7.6740     8.5840     2.1400 
   74.0000   -27.7140    71.4470    22.3900    11.8440     7.5120     8.5050     2.1480 
   74.1250   -27.6770    71.6350    22.3810    11.8810     7.5700     8.6370     2.1510 
   74.2500   -27.6410    72.5530    22.3750    11.9680     7.7210     8.8190     2.1440 
   74.3750   -27.6110    73.1020    22.3730    12.1510     7.8870     8.9720     2.1310 
   74.5000   -27.5880    72.8550    22.3770    12.4580     8.0270     9.0680     2.1240 
   74.6250   -27.5660    71.9760    22.3740    12.8020     8.1170     9.1090     2.1300 
   74.7500   -27.5410    71.2830    22.3650    12.9590     8.1670     9.1240     2.1400 
   74.8750   -27.5130    71.4040    22.3620    12.9170     8.1890     9.1340     2.1420 
   75.0000   -27.4850    71.8700    22.3610    12.7290     8.1990     9.1590     2.1380 
   75.1250   -27.4610    71.4750    22.3460    12.4590     8.2160     9.2050     2.1400 
   75.2500   -27.4400    70.5900    22.3300    12.2990     8.2480     9.2670     2.1520 
   75.3750   -27.4240    70.5540    22.3330    12.3800     8.2920     9.3450     2.1610 
   75.5000   -27.4130    72.5020    22.3300    12.6950     8.3370     9.4310     2.1560 
   75.6250   -27.4020    75.6560    22.3220    13.1490     8.3660     9.5070     2.1400 
   75.7500   -27.3830    77.2650    22.3290    13.6790     8.3750     9.5580     2.1320 
   75.8750   -27.3460    75.9870    22.3360    14.2050     8.3590     9.5800     2.1390 
   76.0000   -27.2880    72.8590    22.3190    14.5620     8.3160     9.5690     2.1530 
   76.1250   -27.1960    70.1690    22.3110    14.6420     8.2500     9.5240     2.1620 
   76.2500   -27.0670    68.2560    22.3200    14.5250     8.1750     9.4600     2.1630 
   76.3750   -26.8980    66.7680    22.3250    14.3230     8.1070     9.3840     2.1580 
   76.5000   -26.6870    66.1480    22.3160    14.1800     8.0560     9.3030     2.1480 
   76.6250   -26.4280    66.5560    22.3140    14.2360     8.0250     9.2280     2.1340 
   76.7500   -26.1250    66.5140    22.3150    14.3880     8.0090     9.1620     2.1260 
   76.8750   -25.7800    65.6200    22.3070    14.4990     8.0050     9.1090     2.1270 
   77.0000   -25.4000    65.3380    22.3020    14.5240     8.0120     9.0720     2.1310 
   77.1250   -24.9900    67.1160    22.3080    14.4490     8.0240     9.0420     2.1300 
   77.2500   -24.5640    69.5360    22.3160    14.2590     8.0230     8.9950     2.1230 
   77.3750   -24.1270    70.8650    22.3140    13.9760     7.9890     8.9090     2.1150 
   77.5000   -23.6880    70.6910    22.3220    13.6720     7.9010     8.7710     2.1140 
   77.6250   -23.2670    70.2840    22.3760    13.4300     7.7290     8.5560     2.1220 
   77.7500   -22.8860    71.5500    22.4850    13.1530     7.4750     8.2720     2.1280 
   77.8750   -22.5590    75.2730    22.6870    12.5410     7.1480     7.9300     2.1280 
   78.0000   -22.3020    80.9610    23.0090    11.3040     6.7740     7.5490     2.1300 
   78.1250   -22.1390    87.5420    23.4760     9.6460     6.3950     7.1700     2.1570 
   78.2500   -22.0630    93.8330    23.9400     8.3470     6.0760     6.8660     2.2020 
   78.3750   -22.0720    98.9110    24.2550     7.6620     5.8850     6.7210     2.2370 
   78.5000   -22.1510   101.3490    24.4200     7.3590     5.8800     6.7990     2.2460 
   78.6250   -22.2830    99.1690    24.4410     7.3020     6.1200     7.1470     2.2390 
   78.7500   -22.4290    94.2010    24.3450     7.5520     6.5440     7.6660     2.2380 
   78.8750   -22.5600    88.9190    24.0890     8.4130     7.0820     8.2500     2.2440 
   79.0000   -22.6470    84.6460    23.6780    10.2970     7.6400     8.7980     2.2540 
   79.1250   -22.6500    81.5940    23.2530    12.8570     8.1500     9.2820     2.2820 
   79.2500   -22.5700    79.9610    22.8630    14.7320     8.6570     9.8350     2.3240 
   79.3750   -22.4110    79.8120    22.5670    14.9830     9.2820    10.6520     2.3490 
   79.5000   -22.1910    79.5530    22.5070    14.2720    10.1740    11.8900     2.3280 
   79.6250   -21.9310    76.7290    22.7450    15.1130    11.4690    13.5910     2.2740 
   79.7500   -21.6700    72.9240    23.1030    20.2400    12.9690    15.3880     2.2530 
   79.8750   -21.4340    71.2130    23.4920    32.3640    14.3080    16.7810     2.3030 
   80.0000   -21.2460    73.3910    23.8710    48.9360    14.9820    17.1920     2.4140 
   80.1250   -21.1330    79.6910    24.0500    58.3440    14.3930    16.0270     2.5150 
   80.2500   -21.0940    88.3110    24.0340    52.7890    12.8080    13.7720     2.5410 
   80.3750   -21.1280    96.8970    23.8580    36.5870    10.7270    11.1110     2.4880 
