~V
VERS. 2.00: Ver 2.00
~W
STRT.M 50.0000:
STOP.M 276.0000:
STEP.M 0.1250:
NULL. -999.2500:
UWI. DF5011:
~C
DEPT.M :
DEN.GM/CC :
GR.API :
CALI.CM :
RXO.OHMM :
RI. :
RML.OHMM :
SP.MV :
~A
# ...
  151.2500     2.2710    70.1590    24.2790     7.0830     7.4030     8.3450   -26.1930 
  151.3750     2.3250    70.1420    24.2870     6.9890     6.9790     7.7690   -25.9190 
  151.5000     2.3340    71.2460    24.2850     6.6270     6.4380     7.0720   -25.7180 
  151.6250     2.3050    73.9780    24.2850     6.3110     5.8920     6.4060   -25.5290 
  151.7500     2.2780    77.9270    24.2850     5.8490     5.4860     5.9610   -25.3040 
  151.8750     2.2790    81.7720    24.2850     5.3370     5.2760     5.7820   -25.0860 
  152.0000     2.2950    83.5800    24.2850     5.3680     5.2720     5.8540   -24.9000 
  152.1250     2.3040    81.1270    24.2850     6.2220     5.4210     6.0830   -24.8030 
  152.2500     2.2920    76.3750    24.2850     6.4240     5.6120     6.3130   -24.5850 
  152.3750     2.2830    74.7380    24.2850     5.9730     5.7250     6.4170   -24.5400 
  152.5000     2.2890    75.9000    24.2850     5.6380     5.7140     6.3640   -24.4500 
  152.6250     2.3010    77.5470    24.2850     5.7100     5.5900     6.1900   -24.3570 
  152.7500     2.2970    78.3480    24.2850     5.7330     5.3990     5.9690   -24.3660 
  152.8750     2.2800    79.8080    24.2850     5.6360     5.2110     5.7720   -24.3240 
  153.0000     2.2700    80.9620    24.2850     5.5340     5.0630     5.6270   -24.3220 
  153.1250     2.2780    80.5870    24.2850     5.5730     4.9880     5.5620   -24.2660 
  153.2500     2.2960    79.4660    24.2850     5.6700     5.0650     5.6750   -24.4090 
  153.3750     2.3100    79.0040    24.2850     5.9330     5.3500     6.0520   -24.5160 
  153.5000     2.3270    79.9830    24.2850     6.7780     5.9130     6.7960   -24.6130 
  153.6250     2.3640    79.6070    24.2860     8.5730     6.8240     8.0000   -24.8270 
  153.7500     2.4260    74.5570    24.2850    10.6480     8.2090     9.7930   -24.8560 
  153.8750     2.4860    67.7020    24.2710    12.6620     9.9390    11.9170   -24.9250 
  154.0000     2.5280    61.1370    24.2450    14.1900    11.6930    13.8860   -24.9700 
  154.1250     2.5500    56.4670    24.2220    15.9940    12.8600    14.9550   -25.1010 
  154.2500     2.5570    54.1580    24.2150    15.9220    12.6000    14.2460   -25.2630 
  154.3750     2.5450    54.8150    24.2160    16.6280    11.1920    12.2360   -25.3090 
  154.5000     2.5090    57.6490    24.2170    14.4840     9.3010     9.7810   -25.4460 
  154.6250     2.4530    63.2110    24.2170     9.7690     7.6060     7.7350   -25.4430 
  154.7500     2.3930    71.4750    24.2170     6.3790     6.6310     6.7620   -25.4190 
  154.8750     2.3510    76.9530    24.2150     5.9410     6.4340     6.8510   -25.4220 
  155.0000     2.3430    76.1900    24.2120     6.3920     7.0670     7.9710   -25.4750 
  155.1250     2.3720    71.3810    24.2090     8.8440     8.4900     9.9100   -25.5900 
  155.2500     2.4260    66.3390    24.2090    13.7130    10.3110    11.9100   -25.4870 
  155.3750     2.4770    62.2440    24.2110    17.5630    11.4250    12.7140   -25.5440 
  155.5000     2.5010    59.8380    24.2110    16.2220    11.0430    11.7000   -25.5360 
  155.6250     2.4870    62.0040    24.2050    11.0070     9.4280     9.4530   -25.4800 
  155.7500     2.4390    69.2520    24.1850     6.2920     7.6020     7.2770   -25.6180 
  155.8750     2.3830    76.4300    24.1410     5.0470     6.2830     5.8960   -25.7150 
  156.0000     2.3340    80.9280    24.0340     5.1250     5.6360     5.3940   -25.8560 
  156.1250     2.3040    82.1650    23.8450     5.6160     5.6440     5.6480   -25.9310 
  156.2500     2.3070    78.7160    23.6450     6.0060     6.2810     6.5180   -26.0180 
  156.3750     2.3380    72.0200    23.5280     7.2800     7.1990     7.5640   -26.1200 
  156.5000     2.3810    65.3580    23.4980    10.4430     8.0260     8.3680   -26.1860 
  156.6250     2.4150    62.7680    23.5020    11.4250     8.4270     8.6260   -26.3340 
  156.7500     2.4130    64.9170    23.5080     8.9890     8.3260     8.3780   -26.4480 
  156.8750     2.3860    67.9260    23.5110     6.3100     8.1190     8.1190   -26.6200 
  157.0000     2.3570    69.3620    23.5110     6.1100     8.0500     8.1110   -26.6970 
  157.1250     2.3540    67.9280    23.5120     8.2020     8.1790     8.3670   -26.7000 
  157.2500     2.3870    65.6850    23.5150    12.1320     8.3880     8.6840   -26.8460 
  157.3750     2.4210    66.7010    23.5160    12.8060     8.4880     8.8260   -26.7790 
  157.5000     2.4300    70.9430    23.5180     9.6090     8.4520     8.8020   -26.7260 
  157.6250     2.4160    75.5030    23.5220     6.7260     8.4330     8.8510   -26.5960 
  157.7500     2.4060    76.4490    23.5240     6.6310     8.7370     9.3950   -26.4680 
  157.8750     2.4210    73.1320    23.5240     8.7420     9.5190    10.5660   -26.3060 
  158.0000     2.4580    66.1560    23.5270    11.5800    10.8080    12.2820   -26.1130 
  158.1250     2.5030    60.2750    23.5420    12.6440    12.4310    14.2070   -26.0040 
  158.2500     2.5330    59.6790    23.5900    12.2000    13.9400    15.7600   -25.7250 
  158.3750     2.5430    60.6490    23.6570    13.1840    14.9890    16.7140   -25.5830 
  158.5000     2.5430    59.2390    23.7150    14.8550    15.5770    17.2080   -25.4280 
  158.6250     2.5410    56.6690    23.7530    15.1490    15.9290    17.5630   -25.3640 
  158.7500     2.5350    55.8730    23.7910    14.8320    16.3220    18.0830   -25.3090 
  158.8750     2.5270    55.1910    23.8720    16.1060    16.8510    18.7880   -25.2420 
  159.0000     2.5280    54.0800    24.0070    18.3030    17.4560    19.5650   -25.1980 
  159.1250     2.5400    53.0790    24.1600    19.5390    18.0320    20.2800   -25.0280 
  159.2500     2.5520    52.3650    24.2540    19.7070    18.4460    20.7760   -25.0650 
  159.3750     2.5520    52.0000    24.2790    19.0180    18.6460    21.0050   -25.0340 
  159.5000     2.5400    51.4310    24.2680    18.1440    18.6460    21.0040   -25.0180 
  159.6250     2.5250    52.2640    24.2460    17.2690    18.5490    20.9170   -25.0830 
  159.7500     2.5140    54.8820    24.2210    17.4080    18.4940    20.9180   -25.0220 
  159.8750     2.5050    57.1060    24.1950    18.1260    18.5150    21.0280   -24.9890 
  160.0000     2.4940    56.6270    24.1680    19.3910    18.5660    21.1640   -24.9550 
  160.1250     2.4840    53.6480    24.1450    21.1500    18.5730    21.2070   -25.0220 
  160.2500     2.4840    52.7340    24.1380    20.4650    18.4780    21.0580   -25.0710 
  160.3750     2.4930    54.4680    24.1390    18.7090    18.3350    20.8210   -25.0770 
  160.5000     2.5030    55.8200    24.1400    17.3230    18.2540    20.6680   -25.1610 
  160.6250     2.5070    54.6740    24.1390    17.3690    18.3510    20.7660   -25.1320 
  160.7500     2.5090    52.3480    24.1410    18.2060    18.7210    21.2140   -25.0910 
  160.8750     2.5110    52.5710    24.1370    18.9670    19.2520    21.8220   -25.0770 
  161.0000     2.5140    54.6650    24.1190    19.8120    19.7650    22.3380   -25.1140 
  161.1250     2.5170    56.1730    24.0890    21.1380    20.0210    22.4730   -25.2540 
  161.2500     2.5210    55.8840    24.0710    20.3230    19.7190    21.9170   -25.1950 
  161.3750     2.5220    53.6600    24.0670    18.6100    18.8880    20.7760   -25.1960 
  161.5000     2.5130    51.5280    24.0660    16.5930    17.6470    19.2250   -25.1980 
  161.6250     2.4910    51.7760    24.0640    14.7740    16.2090    17.5240   -25.1080 
  161.7500     2.4650    55.6500    24.0630    13.4120    14.8290    15.9730   -25.1900 
  161.8750     2.4480    59.0820    24.0640    12.4400    13.6720    14.7290   -25.2360 
  162.0000     2.4440    61.7230    24.0660    11.7990    12.8080    13.8480   -25.2270 
  162.1250     2.4510    64.4620    24.0650    11.5170    12.2570    13.3410   -25.1630 
  162.2500     2.4610    66.2150    24.0640    12.0540    12.0850    13.2770   -25.1180 
  162.3750     2.4640    65.4830    24.0640    12.2570    12.2450    13.5870   -25.1690 
