~V
VERS. 2.00: Ver 2.00
~W
STRT.M 59.0000:
STOP.M 264.0000:
STEP.M 0.1250:
NULL. -999.2500:
UWI. DF5022:
~C
DEPT.M :
GR.API :
CALI.CM :
RXO.OHMM :
RI. :
RML.OHMM :
SP.MV :
DEN.GM/CC :
~A
# ...
  126.5000    74.9260    23.7220     5.0600     5.4010     5.6200   -33.0440     2.3370 
  126.6250    75.1210    23.7760     4.8310     5.3190     5.5520   -33.0590     2.3420 
  126.7500    74.6580    23.8440     4.7350     5.2450     5.4950   -33.0560     2.3390 
  126.8750    73.3980    23.9020     4.8070     5.1760     5.4380   -33.1170     2.3350 
  127.0000    75.1470    23.9240     4.7710     5.1150     5.3770   -33.2270     2.3380 
  127.1250    79.0900    23.9170     4.3770     5.0750     5.3270   -33.3560     2.3500 
  127.2500    79.9490    23.8990     4.1340     5.0730     5.3150   -33.4400     2.3630 
  127.3750    77.1860    23.8690     4.2050     5.1270     5.3730   -33.6020     2.3700 
  127.5000    74.7640    23.8350     4.5000     5.2600     5.5370   -33.8060     2.3630 
  127.6250    73.7550    23.8050     4.6470     5.5470     5.9080   -34.0760     2.3330 
  127.7500    71.1820    23.7560     4.7540     6.0350     6.5360   -34.3580     2.2920 
  127.8750    66.5230    23.6690     5.1330     6.7720     7.4580   -34.5990     2.2600 
  128.0000    61.9640    23.5690     5.8410     7.7500     8.6350   -34.7700     2.2450 
  128.1250    59.1220    23.5110     7.5860     8.8360     9.8510   -34.9680     2.2400 
  128.2500    57.7410    23.4970     9.3260     9.7030    10.7170   -35.1450     2.2290 
  128.3750    56.2820    23.5020     9.5220    10.1080    10.9940   -35.2350     2.2050 
  128.5000    54.4270    23.5390     8.3160    10.0790    10.7920   -35.1910     2.1780 
  128.6250    53.5030    23.6600     7.7360     9.9480    10.5700   -35.1540     2.1790 
  128.7500    54.8050    23.8190     7.4790    10.0620    10.7310   -35.1120     2.2290 
  128.8750    57.2280    23.9420     7.8150    10.5280    11.3620   -35.0870     2.3220 
  129.0000    59.0210    23.9920    10.6360    11.2520    12.2730   -35.0750     2.4180 
  129.1250    60.1960    23.9810    13.0800    11.8550    12.9250   -35.0170     2.4530 
  129.2500    61.4700    23.9420    12.2190    11.9390    12.8750   -34.9500     2.4180 
  129.3750    63.4860    23.8910     9.3680    11.4140    12.0880   -34.9330     2.3410 
  129.5000    65.5070    23.8640     8.0100    10.5180    10.9340   -35.0440     2.2620 
  129.6250    64.8030    23.8930     7.7580     9.6340     9.9480   -35.1440     2.2090 
  129.7500    61.3610    23.9440     7.8680     9.0000     9.3650   -35.2460     2.1860 
  129.8750    57.4740    23.9790     8.0620     8.6630     9.1530   -35.3020     2.1860 
  130.0000    55.5110    23.9900     8.1520     8.5670     9.1650   -35.3560     2.1910 
  130.1250    55.8600    23.9900     8.4530     8.6120     9.2330   -35.4260     2.1870 
  130.2500    56.3800    23.9840     8.6040     8.6700     9.2580   -35.5450     2.1800 
  130.3750    56.2570    23.9580     8.3990     8.6960     9.2420   -35.6040     2.1800 
  130.5000    55.4190    23.9180     8.0920     8.6810     9.2170   -35.6420     2.1860 
  130.6250    54.7860    23.8910     8.0160     8.6400     9.2040   -35.5750     2.1870 
  130.7500    55.3200    23.8840     7.9050     8.6060     9.1960   -35.4650     2.1820 
  130.8750    56.5910    23.8860     7.8990     8.5970     9.1840   -35.3740     2.1770 
  131.0000    56.6100    23.8860     7.9900     8.6180     9.1710   -35.3010     2.1770 
  131.1250    55.1200    23.8860     8.1880     8.6620     9.1730   -35.1850     2.1810 
  131.2500    53.7480    23.8860     8.3400     8.7140     9.2100   -35.0780     2.1860 
  131.3750    52.6740    23.8860     8.4950     8.7680     9.2910   -34.9390     2.1890 
  131.5000    50.8980    23.8860     8.6960     8.8230     9.4080   -34.8070     2.1880 
  131.6250    48.9970    23.8860     8.9640     8.8830     9.5400   -34.7760     2.1810 
  131.7500    50.3170    23.8860     9.2430     8.9570     9.6670   -34.8100     2.1780 
  131.8750    54.1710    23.8860     9.3600     9.0470     9.7840   -34.8430     2.1810 
  132.0000    56.7910    23.8840     9.1140     9.1490     9.8940   -34.8740     2.1860 
  132.1250    56.1790    23.8860     8.8900     9.2490    10.0000   -34.9150     2.1890 
  132.2500    55.0400    23.9000     8.9290     9.3300    10.1000   -34.9470     2.1920 
  132.3750    55.2930    23.9300     9.0980     9.3780    10.1730   -35.0020     2.1930 
  132.5000    55.6530    23.9650     9.1980     9.3850    10.1960   -35.1420     2.1870 
  132.6250    54.7490    23.9840     9.2100     9.3410    10.1560   -35.2050     2.1750 
  132.7500    54.5600    23.9850     9.2340     9.2580    10.0750   -35.2280     2.1660 
  132.8750    56.1310    23.9810     9.2080     9.1440     9.9760   -35.2270     2.1610 
  133.0000    58.5840    23.9790     9.0610     9.0140     9.8790   -35.2030     2.1570 
  133.1250    58.5850    23.9810     8.8940     8.8990     9.8010   -35.1450     2.1520 
  133.2500    56.0650    23.9840     8.7110     8.8200     9.7510   -35.0960     2.1520 
  133.3750    53.4880    23.9870     8.5060     8.7910     9.7430   -34.9700     2.1580 
  133.5000    52.8110    23.9880     8.3500     8.8210     9.7790   -34.7400     2.1710 
  133.6250    53.7750    23.9880     8.6770     8.9040     9.8410   -34.5530     2.1870 
  133.7500    55.9520    23.9880     9.0890     8.9950     9.8810   -34.3950     2.2050 
  133.8750    58.4170    23.9880     9.2930     9.0560     9.8630   -34.2320     2.2160 
  134.0000    58.9540    23.9880     9.3800     9.0650     9.7760   -34.0930     2.2180 
  134.1250    55.8270    23.9880     9.3640     9.0280     9.6470   -33.9470     2.2070 
  134.2500    53.4280    23.9880     9.1720     8.9800     9.5300   -33.7940     2.1910 
  134.3750    53.8990    23.9890     9.1700     8.9360     9.4350   -33.7100     2.1760 
  134.5000    56.9490    23.9850     9.4260     8.8780     9.3280   -33.6230     2.1650 
  134.6250    60.0520    23.9780     9.3400     8.7170     9.0920   -33.4510     2.1610 
  134.7500    60.9290    23.9700     8.8730     8.3790     8.6480   -33.2240     2.1670 
  134.8750    60.2300    23.9850     7.9010     7.8430     7.9860   -33.0330     2.1880 
  135.0000    60.6550    24.0790     7.0930     7.1780     7.1970   -32.8120     2.2210 
  135.1250    64.4930    24.2710     6.3350     6.5180     6.4530   -32.6410     2.2570 
  135.2500    70.2100    24.4490     5.7090     5.9760     5.8710   -32.3880     2.2860 
  135.3750    74.6130    24.5330     5.1670     5.6030     5.4910   -32.2220     2.3010 
  135.5000    74.6930    24.5400     5.1170     5.4020     5.2960   -32.0980     2.3010 
  135.6250    70.9960    24.5340     5.5290     5.3560     5.2500   -32.1000     2.2970 
  135.7500    69.3700    24.5350     5.3490     5.3860     5.2730   -32.1740     2.3020 
  135.8750    69.9470    24.5350     5.0980     5.4510     5.3320   -32.2450     2.3140 
  136.0000    70.1290    24.5350     5.3010     5.5220     5.4020   -32.3420     2.3190 
  136.1250    69.0950    24.5350     5.4450     5.5730     5.4510   -32.4870     2.3090 
  136.2500    68.6910    24.5350     5.1400     5.5820     5.4520   -32.7330     2.2970 
  136.3750    68.8810    24.5350     5.0740     5.5230     5.3850   -32.9370     2.2960 
  136.5000    69.1020    24.5350     5.3250     5.3700     5.2370   -33.0740     2.3100 
  136.6250    70.6990    24.5350     5.3470     5.1050     5.0050   -33.1730     2.3350 
  136.7500    73.3660    24.5350     4.8760     4.7930     4.7390   -33.2300     2.3580 
  136.8750    75.2980    24.5350     4.4940     4.5020     4.5010   -33.3040     2.3750 
  137.0000    75.5920    24.5330     4.4180     4.3000     4.3550   -33.4340     2.3810 
  137.1250    75.1320    24.5360     4.3590     4.2860     4.4120   -33.5610     2.3710 
  137.2500    75.7870    24.5190     4.4650     4.4910     4.7200   -33.6450     2.3440 
  137.3750    75.9690    24.3730     4.9260     4.9450     5.3090   -33.7600     2.3040 
  137.5000    73.1150    24.0080     5.5580     5.6430     6.1590   -33.9400     2.2640 
  137.6250    67.8310    23.5370     6.1860     6.5420     7.1830   -34.1710     2.2450 
