~V
VERS. 2.00: Ver 2.00
~W
STRT.M 60.0000:
STOP.M 256.0000:
STEP.M 0.1250:
NULL. -999.2500:
UWI. DF5048:
~C
DEPT.M :
GR.API :
CALI.CM :
RXO.OHMM :
RI. :
RML.OHMM :
DEN.GM/CC :
SP.MV :
~A
# ...
   93.7500    76.3460    24.5710     6.3600     5.7680     6.4360     2.2380   -27.7000 
   93.8750    74.8280    24.5520     5.8850     5.6450     6.2380     2.2520   -27.8890 
   94.0000    79.1400    24.5640     5.3310     5.4410     5.9980     2.2700   -28.0840 
   94.1250    84.6890    24.5700     5.4570     5.2590     5.8480     2.2810   -28.2920 
   94.2500    88.1910    24.6060     5.6970     5.1700     5.8380     2.2790   -28.5330 
   94.3750    89.1160    24.6790     5.6320     5.1960     5.9710     2.2650   -28.8190 
   94.5000    87.4340    24.7510     5.6190     5.3320     6.2230     2.2420   -29.0910 
   94.6250    83.9240    24.7580     5.8870     5.5700     6.5830     2.2180   -29.3790 
   94.7500    79.8280    24.6930     6.1110     5.8860     7.0340     2.2010   -29.6490 
   94.8750    76.4060    24.5860     6.2490     6.2980     7.6040     2.1960   -29.9370 
   95.0000    75.0110    24.4890     6.4180     6.8350     8.3230     2.2100   -30.1520 
   95.1250    75.4570    24.4520     6.6750     7.5340     9.2120     2.2420   -30.3430 
   95.2500    74.8430    24.4420     6.9770     8.3380    10.1690     2.2800   -30.4420 
   95.3750    72.1070    24.4320     7.2670     9.1580    11.0620     2.3110   -30.4770 
   95.5000    70.0910    24.4210     7.4900     9.8720    11.7460     2.3220   -30.5000 
   95.6250    70.5900    24.4230     7.6320    10.3180    12.0680     2.3110   -30.5050 
   95.7500    71.3850    24.4490     7.6860    10.4860    12.0840     2.2920   -30.4600 
   95.8750    71.6350    24.5000     7.7300    10.4090    11.8650     2.2750   -30.4070 
   96.0000    70.4000    24.5560     7.7600    10.1590    11.4960     2.2610   -30.3600 
   96.1250    66.7040    24.5510     7.7290     9.7980    11.0390     2.2450   -30.3000 
   96.2500    64.5170    24.4690     7.6070     9.3970    10.5630     2.2230   -30.2380 
   96.3750    66.4730    24.3560     7.4800     9.0040    10.1270     2.1980   -30.1660 
   96.5000    68.6200    24.2800     7.4480     8.6720     9.7950     2.1780   -30.1280 
   96.6250    65.2460    24.2730     7.5390     8.4600     9.6280     2.1700   -30.0750 
   96.7500    61.9860    24.3020     7.6580     8.3600     9.5840     2.1750   -30.0390 
   96.8750    65.3750    24.3430     7.7640     8.3470     9.6060     2.1870   -30.0270 
   97.0000    73.4010    24.3830     7.8650     8.3680     9.6170     2.2000   -29.9880 
   97.1250    78.3920    24.3960     7.9140     8.3490     9.5390     2.2030   -29.9630 
   97.2500    77.2690    24.3780     7.8330     8.2590     9.3790     2.1940   -29.9330 
   97.3750    72.3430    24.3360     7.6540     8.1140     9.1810     2.1780   -29.9200 
   97.5000    66.4740    24.2930     7.5180     7.9520     8.9970     2.1590   -29.9200 
   97.6250    61.0570    24.2720     7.5130     7.8200     8.8730     2.1400   -29.9300 
   97.7500    58.1650    24.2710     7.5260     7.7320     8.8030     2.1220   -29.9240 
   97.8750    58.3910    24.2970     7.5250     7.6810     8.7650     2.1050   -29.8850 
   98.0000    60.5170    24.3700     7.5370     7.6490     8.7350     2.0910   -29.8660 
   98.1250    62.0310    24.4860     7.5700     7.6150     8.6890     2.0820   -29.8340 
   98.2500    62.1040    24.5810     7.5550     7.5710     8.6220     2.0780   -29.8380 
   98.3750    61.7540    24.6120     7.4980     7.5190     8.5430     2.0780   -29.7830 
   98.5000    61.8140    24.5740     7.4440     7.4640     8.4660     2.0800   -29.6890 
   98.6250    62.3610    24.4720     7.4070     7.4130     8.4040     2.0860   -29.5550 
   98.7500    61.6600    24.3400     7.3810     7.3670     8.3550     2.0960   -29.4840 
   98.8750    59.6490    24.2090     7.3630     7.3200     8.3040     2.1100   -29.3870 
   99.0000    58.9920    24.1170     7.3590     7.2560     8.2320     2.1250   -29.3170 
   99.1250    61.2370    24.1100     7.2880     7.1590     8.1300     2.1360   -29.2050 
   99.2500    64.3390    24.1540     7.1420     7.0390     8.0190     2.1400   -29.1210 
   99.3750    66.5150    24.2050     6.9960     6.9160     7.9270     2.1380   -29.0560 
   99.5000    67.5650    24.2230     6.8470     6.8170     7.8800     2.1330   -29.0060 
   99.6250    66.5590    24.2260     6.8440     6.7770     7.9070     2.1300   -28.9670 
   99.7500    64.9150    24.2810     6.9310     6.7940     7.9920     2.1290   -28.9020 
   99.8750    63.7100    24.4000     7.0740     6.8620     8.1160     2.1320   -28.8550 
  100.0000    62.5210    24.5220     7.2330     6.9630     8.2490     2.1360   -28.7800 
  100.1250    61.9000    24.5700     7.4340     7.0700     8.3480     2.1370   -28.7480 
  100.2500    61.0820    24.5610     7.5630     7.1550     8.3930     2.1350   -28.6760 
  100.3750    61.1950    24.5380     7.5710     7.1990     8.3830     2.1300   -28.6090 
  100.5000    62.0050    24.5220     7.5210     7.1990     8.3360     2.1270   -28.5110 
  100.6250    63.3980    24.5150     7.4710     7.1640     8.2760     2.1270   -28.4140 
  100.7500    65.5870    24.5150     7.4490     7.1240     8.2270     2.1300   -28.3040 
  100.8750    67.9790    24.5110     7.4270     7.0950     8.2000     2.1320   -28.1990 
  101.0000    68.1780    24.4800     7.4090     7.0890     8.1920     2.1330   -28.1030 
  101.1250    63.9430    24.3930     7.3570     7.1000     8.1840     2.1350   -28.0140 
  101.2500    61.2460    24.2780     7.2870     7.0990     8.1340     2.1400   -27.8710 
  101.3750    63.6220    24.1760     7.1570     7.0430     7.9950     2.1490   -27.7500 
  101.5000    67.1650    24.1110     6.9790     6.8990     7.7410     2.1590   -27.6390 
  101.6250    66.8980    24.1020     6.8150     6.6630     7.3880     2.1670   -27.5550 
  101.7500    65.7450    24.1760     6.5900     6.4090     7.0440     2.1720   -27.4740 
  101.8750    65.6420    24.3460     6.2200     6.2160     6.8070     2.1730   -27.3940 
  102.0000    67.2450    24.5560     5.8440     6.1530     6.7460     2.1670   -27.2610 
  102.1250    69.6100    24.6780     6.0780     6.2780     6.9020     2.1580   -27.1760 
  102.2500    69.7240    24.6720     6.5550     6.5290     7.1750     2.1470   -27.0840 
  102.3750    66.2950    24.5680     6.7610     6.8190     7.4530     2.1370   -27.0110 
  102.5000    62.4280    24.3970     6.5830     7.0250     7.6000     2.1320   -26.9070 
  102.6250    64.1420    24.1770     6.3760     6.9760     7.4520     2.1350   -26.8220 
  102.7500    67.2110    23.9850     6.1560     6.6550     7.0240     2.1480   -26.7420 
  102.8750    69.7250    23.8730     5.8910     6.1160     6.3960     2.1710   -26.6810 
  103.0000    74.0440    23.8380     5.5450     5.4660     5.6940     2.2040   -26.6690 
  103.1250    80.0270    23.9260     4.9090     4.8420     5.0870     2.2380   -26.6720 
  103.2500    83.2310    24.2020     4.3980     4.3720     4.7140     2.2660   -26.7730 
  103.3750    82.9640    24.6030     4.2830     4.1630     4.6810     2.2890   -26.9010 
  103.5000    82.0050    24.9350     4.4160     4.2920     5.0700     2.3070   -27.1270 
  103.6250    80.4400    25.0530     5.0070     4.8800     6.0040     2.3180   -27.3580 
  103.7500    79.0690    25.0670     7.3610     5.8590     7.3440     2.3180   -27.6480 
  103.8750    78.7270    25.0070    10.2600     7.1010     8.8270     2.3000   -27.9520 
  104.0000    76.7900    24.8420    11.2010     8.2900    10.0010     2.2660   -28.2430 
  104.1250    74.1750    24.6150     8.6210     8.8920    10.2900     2.2300   -28.5600 
  104.2500    74.5260    24.4220     7.9550     8.8200     9.8260     2.2030   -28.8260 
  104.3750    76.8500    24.2780     7.7540     8.2980     8.9930     2.1880   -29.0590 
  104.5000    77.7620    24.1840     7.5560     7.6730     8.2160     2.1820   -29.2490 
  104.6250    77.3020    24.1800     7.2770     7.2350     7.7940     2.1800   -29.4200 
  104.7500    79.2640    24.2280     6.9780     7.0210     7.6680     2.1750   -29.5240 
  104.8750    81.0630    24.2820     7.0350     6.9810     7.7270     2.1650   -29.6190 
