~V
VERS. 2.00: Ver 2.00
~W
STRT.M 61.0000:
STOP.M 267.0000:
STEP.M 0.1250:
NULL. -999.2500:
UWI. DF5036:
~C
DEPT.M :
SP.MV :
GR.API :
RML.OHMM :
RI. :
RXO.OHMM :
CALI.CM :
DEN.GM/CC :
~A
   61.0000   -11.8380    70.8180     0.2770     0.4210     3.6040    24.3470     2.4350 
   61.1250   -14.5020    79.5020     0.7290     0.8830     6.2640    23.5010     2.3520 
   61.2500   -17.4620    78.4760     1.3220     1.5540     8.4340    22.8800     2.2840 
   61.3750   -20.4540    72.3040     1.9780     2.3750     9.5840    22.5710     2.2390 
   61.5000   -23.2810    68.6750     2.6010     3.2400     9.3840    22.4550     2.2190 
   61.6250   -25.7770    70.7010     3.1120     4.0190     9.1070    22.3410     2.2210 
   61.7500   -27.8310    74.4130     3.5290     4.6610     8.9260    22.1750     2.2300 
   61.8750   -29.2570    79.1210     3.8950     5.1730     8.6030    22.0140     2.2330 
   62.0000   -30.0430    84.0170     4.2500     5.5940     8.3200    21.9140     2.2270 
   62.1250   -30.2470    84.2900     4.6290     5.9690     8.2870    21.8870     2.2140 
   62.2500   -30.1550    82.8080     5.0400     6.3490     8.6900    21.8860     2.2030 
   62.3750   -29.9260    83.1090     5.4690     6.7430     9.6670    21.9150     2.1960 
   62.5000   -29.6200    84.3020     5.8730     7.1210    11.1260    21.9920     2.1950 
   62.6250   -29.2570    83.2660     6.1600     7.3940    12.5900    22.0950     2.2030 
   62.7500   -28.8200    82.4840     6.2730     7.4970    13.0870    22.1470     2.2200 
   62.8750   -28.2690    84.6780     6.1910     7.4000    11.5690    22.1810     2.2450 
   63.0000   -27.5800    89.4940     5.9540     7.1270     8.9210    22.3010     2.2740 
   63.1250   -26.7760    97.5840     5.6420     6.7440     7.0890    22.6820     2.2980 
   63.2500   -25.9530   106.1190     5.3530     6.3590     6.0430    23.2490     2.3120 
   63.3750   -25.1850   111.6740     5.1330     6.0350     5.4950    23.6330     2.3140 
   63.5000   -24.5090   113.0870     5.0050     5.8130     5.3070    23.6620     2.3090 
   63.6250   -23.9900   115.5480     4.9970     5.7380     5.3610    23.6820     2.3050 
   63.7500   -23.6630   118.1740     5.0930     5.7900     5.5590    23.7720     2.3070 
   63.8750   -23.6290   115.8570     5.2770     5.9500     5.8890    23.7620     2.3140 
   64.0000   -23.8610   110.6180     5.5200     6.1830     6.3580    23.5610     2.3210 
   64.1250   -24.3350   107.3930     5.7760     6.4430     6.9330    23.2930     2.3200 
   64.2500   -24.9490   103.1670     6.0030     6.6870     7.4430    23.1360     2.3060 
   64.3750   -25.6280    96.2210     6.1910     6.8950     7.7330    23.0880     2.2830 
   64.5000   -26.3430    91.4240     6.3450     7.0620     7.9660    23.0820     2.2570 
   64.6250   -27.0830    91.8850     6.4800     7.1870     8.0890    23.0590     2.2380 
   64.7500   -27.7650    90.6310     6.6100     7.2850     8.1630    23.0100     2.2310 
   64.8750   -28.3230    86.7210     6.7310     7.3720     8.2930    22.9650     2.2370 
   65.0000   -28.7840    84.4440     6.8280     7.4590     8.4930    22.9470     2.2490 
   65.1250   -29.0730    84.5160     6.8810     7.5480     8.7470    22.9640     2.2590 
   65.2500   -29.2010    84.5610     6.9080     7.6260     9.0770    23.0280     2.2600 
   65.3750   -29.1820    85.4880     6.9470     7.6760     9.5360    23.1770     2.2510 
   65.5000   -29.0570    87.8630     7.0450     7.6910     9.7400    23.4030     2.2350 
   65.6250   -28.8340    88.7510     7.2210     7.6710     9.3730    23.6440     2.2200 
   65.7500   -28.5440    87.7460     7.3930     7.6190     8.3790    23.7540     2.2100 
   65.8750   -28.2210    87.2910     7.4480     7.5090     8.0040    23.7330     2.2060 
   66.0000   -27.8470    87.0610     7.2850     7.3010     8.0610    23.6260     2.2030 
   66.1250   -27.4010    85.5020     6.8860     6.9840     8.0930    23.4990     2.1940 
   66.2500   -26.9830    85.7240     6.5020     6.6890     8.0400    23.5310     2.1840 
   66.3750   -26.6610    89.2790     6.4390     6.6200     7.8240    23.7570     2.1860 
   66.5000   -26.4540    92.1080     6.9550     6.9890     7.7700    24.0040     2.2160 
   66.6250   -26.3930    87.5440     8.2000     7.9750     9.2040    24.0470     2.2860 
   66.7500   -26.4870    79.5800     9.8010     9.3320    12.0300    23.9880     2.3700 
   66.8750   -26.7420    72.8850    11.2940    10.7040    15.4840    23.9730     2.4320 
   67.0000   -27.2100    70.3040    12.1780    11.6550    18.6270    23.9530     2.4410 
   67.1250   -27.9970    72.8300    12.0260    11.7320    18.0460    23.6590     2.3900 
   67.2500   -28.9550    76.7290    11.2340    11.1400    14.0570    23.1220     2.3190 
   67.3750   -29.9770    77.1000    10.2700    10.2310    10.3170    22.6930     2.2540 
   67.5000   -30.9990    71.6740     9.4820     9.3510     8.6460    22.4880     2.2080 
   67.6250   -31.9690    65.0770     9.0390     8.7430     8.3790    22.4200     2.1860 
   67.7500   -32.8690    63.5200     8.8640     8.4090     8.4460    22.3660     2.1780 
   67.8750   -33.6500    65.9930     8.9010     8.3170     8.5150    22.3070     2.1820 
   68.0000   -34.2380    69.0530     9.1000     8.4160     8.5010    22.2620     2.1940 
   68.1250   -34.6040    70.9560     9.4200     8.6620     8.4420    22.1990     2.2130 
   68.2500   -34.8180    71.7460     9.7750     8.9640     8.4220    22.1020     2.2310 
   68.3750   -34.9300    71.7310    10.0970     9.2610     8.4640    21.9630     2.2430 
   68.5000   -34.9760    70.0440    10.3320     9.4990     8.5530    21.8460     2.2420 
   68.6250   -34.9480    66.7880    10.4350     9.6140     8.6900    21.7880     2.2280 
   68.7500   -34.8590    64.6390    10.4360     9.6020     8.8250    21.7580     2.2100 
   68.8750   -34.7200    64.5270    10.3530     9.4710     8.9350    21.7480     2.1950 
   69.0000   -34.5840    64.6930    10.2080     9.2450     8.9590    21.7530     2.1850 
   69.1250   -34.4420    63.8800    10.0240     8.9630     8.7750    21.7750     2.1820 
   69.2500   -34.2960    64.4750     9.8430     8.6870     8.3820    21.7970     2.1800 
   69.3750   -34.1510    65.3670     9.6960     8.4560     7.9440    21.7860     2.1780 
   69.5000   -34.0030    64.2040     9.5990     8.2900     7.5220    21.7230     2.1750 
   69.6250   -33.8660    63.5220     9.5530     8.1970     7.2700    21.6320     2.1720 
   69.7500   -33.7730    65.8980     9.5290     8.1450     7.0860    21.5780     2.1670 
   69.8750   -33.7480    68.0000     9.5050     8.1130     6.9740    21.6010     2.1620 
   70.0000   -33.7570    67.1680     9.4710     8.0820     7.0400    21.7210     2.1560 
   70.1250   -33.7970    64.9260     9.4240     8.0400     7.1920    21.9030     2.1540 
   70.2500   -33.8570    64.5550     9.3750     7.9880     7.3570    22.1070     2.1540 
   70.3750   -33.9270    66.1680     9.3300     7.9310     7.4560    22.2170     2.1580 
   70.5000   -33.9940    66.5640     9.2900     7.8740     7.5330    22.0200     2.1650 
   70.6250   -34.0260    64.2620     9.2320     7.8110     7.5660    21.7160     2.1720 
   70.7500   -33.9870    62.5060     9.1350     7.7350     7.5830    21.5660     2.1790 
   70.8750   -33.8710    64.9380     8.9980     7.6430     7.6810    21.6210     2.1810 
   71.0000   -33.7000    69.8270     8.8480     7.5470     8.0250    21.7090     2.1780 
   71.1250   -33.4950    72.3410     8.7570     7.4830     8.1880    21.7410     2.1720 
   71.2500   -33.2750    71.7640     8.7850     7.4890     8.1590    21.7480     2.1690 
   71.3750   -33.0410    69.2770     8.9510     7.5870     8.0440    21.7670     2.1750 
   71.5000   -32.7950    66.9210     9.2200     7.7670     7.8920    21.8130     2.1920 
   71.6250   -32.5460    66.8040     9.4940     7.9750     7.7790    21.8600     2.2140 
   71.7500   -32.2820    67.9650     9.6600     8.1270     7.8750    21.8830     2.2330 
   71.8750   -31.9850    68.3400     9.6630     8.1680     8.1130    21.9140     2.2420 
   72.0000   -31.6100    67.9360     9.5160     8.0790     8.2610    21.9940     2.2420 
   72.1250   -31.0860    72.3300     9.2790     7.8790     8.1950    22.1210     2.2360 
