~V
VERS. 2.00: Ver 2.00
~W
STRT.M 65.0000:
STOP.M 272.0000:
STEP.M 0.1250:
NULL. -999.2500:
UWI. DF5002:
~C
DEPT.M :
DEN.GM/CC :
GR.API :
CALI.CM :
RXO.OHMM :
RI. :
RML.OHMM :
SP.MV :
~A
# ...
  143.7500     2.4070   103.0540    24.6150     7.5490     5.4870     6.5140   -10.9250 
  143.8750     2.3970   111.0400    24.6140     6.6280     5.1390     6.1750   -10.8030 
  144.0000     2.3880   116.6480    24.5940     5.7730     4.6610     5.6890   -10.7120 
  144.1250     2.3900   116.2880    24.5550     5.1920     4.1730     5.1770   -10.7010 
  144.2500     2.3940   112.7220    24.5120     4.9030     3.7940     4.7620   -10.7420 
  144.3750     2.3960   109.8320    24.4750     4.7800     3.5970     4.5310   -10.7650 
  144.5000     2.3970   108.9160    24.4080     4.7400     3.6170     4.5540   -10.7300 
  144.6250     2.3960   105.4080    24.3600     4.9710     3.9080     4.9450   -10.7560 
  144.7500     2.3870    99.3970    24.3420     5.8100     4.4190     5.6670   -10.8370 
  144.8750     2.3630    94.1970    24.3620     7.2120     5.0940     6.6320   -10.9680 
  145.0000     2.3300    92.3120    24.4060     8.3430     5.8080     7.6290   -11.1390 
  145.1250     2.2970    93.3090    24.4610     8.4980     6.3460     8.2890   -11.2650 
  145.2500     2.2680    95.3480    24.4590     8.1070     6.6000     8.4950   -11.3160 
  145.3750     2.2460    98.2690    24.4280     7.7810     6.5870     8.3400   -11.3750 
  145.5000     2.2330   100.1560    24.4100     7.6610     6.4190     8.0510   -11.4740 
  145.6250     2.2320    98.2390    24.4090     7.6790     6.2490     7.8520   -11.6070 
  145.7500     2.2330    94.6280    24.4110     7.7250     6.1690     7.8100   -11.7090 
  145.8750     2.2300    91.4840    24.4130     7.7680     6.1960     7.8960   -11.7840 
  146.0000     2.2170    90.4410    24.4130     7.8380     6.3110     8.0660   -11.8220 
  146.1250     2.1980    88.9880    24.4110     8.0660     6.4940     8.3040   -11.9010 
  146.2500     2.1850    86.3310    24.4080     8.4240     6.7220     8.6150   -12.0840 
  146.3750     2.1850    82.6790    24.4060     8.8710     7.0090     9.0310   -12.3080 
  146.5000     2.1900    79.6080    24.4090     9.4200     7.3750     9.5520   -12.4740 
  146.6250     2.1840    80.6100    24.4240    10.0580     7.8130    10.1110   -12.5540 
  146.7500     2.1700    83.2650    24.4480    10.7350     8.2390    10.5840   -12.6270 
  146.8750     2.1630    85.2190    24.4650    11.3140     8.5800    10.8980   -12.7180 
  147.0000     2.1660    85.7280    24.4710    11.5610     8.7980    11.0560   -12.8280 
  147.1250     2.1730    86.2740    24.4710    11.1900     8.8920    11.1290   -12.8950 
  147.2500     2.1750    86.3150    24.4710    10.7240     8.9290    11.2020   -12.8530 
  147.3750     2.1740    83.9900    24.4710    10.6260     8.9310    11.2660   -12.7370 
  147.5000     2.1750    81.3760    24.4710    10.8700     8.8770    11.2390   -12.6450 
  147.6250     2.1830    82.0840    24.4710    10.8410     8.6700    10.9330   -12.5390 
  147.7500     2.1980    86.8870    24.4710    10.1900     8.2690    10.3110   -12.3860 
  147.8750     2.2160    93.0060    24.4730     9.0350     7.6980     9.4590   -12.2020 
  148.0000     2.2350    95.5960    24.4770     7.8760     7.0570     8.5760   -11.9870 
  148.1250     2.2530    93.0250    24.4790     7.1150     6.4970     7.9050   -11.7930 
  148.2500     2.2670    89.3110    24.4790     6.7440     6.1180     7.5190   -11.6910 
  148.3750     2.2740    87.1260    24.4790     6.7190     5.9590     7.4200   -11.6660 
  148.5000     2.2750    87.2070    24.4770     7.0100     6.0120     7.5520   -11.6390 
  148.6250     2.2710    89.6220    24.4760     7.4070     6.2420     7.8380   -11.6450 
  148.7500     2.2610    90.8740    24.4760     7.6440     6.5320     8.1540   -11.6850 
  148.8750     2.2460    89.6400    24.4800     7.8130     6.7890     8.4190   -11.7610 
  149.0000     2.2370    87.8960    24.4980     7.9380     6.9380     8.5660   -11.9250 
  149.1250     2.2360    87.7270    24.5450     7.8810     6.9210     8.5390   -12.1410 
  149.2500     2.2320    87.9270    24.5410     7.7390     6.7920     8.4010   -12.2640 
  149.3750     2.2210    88.4690    24.4040     7.7290     6.6140     8.2300   -12.3190 
  149.5000     2.2090    89.9020    24.1620     7.7260     6.4460     8.0860   -12.3710 
  149.6250     2.2110    91.5980    24.1860     7.5690     6.3160     7.9780   -12.3940 
  149.7500     2.2250    91.9330    24.4310     7.4500     6.1910     7.8480   -12.4200 
  149.8750     2.2450    91.0080    24.5780     7.7130     6.0400     7.6500   -12.3860 
  150.0000     2.2610    91.4710    24.5840     8.1220     5.8720     7.4070   -12.2490 
  150.1250     2.2690    93.1820    24.5490     7.9820     5.8110     7.2790   -12.0550 
  150.2500     2.2830    90.7470    24.5510     7.6950     6.0330     7.4870   -11.9160 
  150.3750     2.3170    81.8290    24.5520     8.2040     6.7370     8.2630   -11.8460 
  150.5000     2.3840    71.2720    24.5510    10.1730     8.0920     9.8210   -11.7850 
  150.6250     2.4730    66.7330    24.5490    14.7840    10.2580    12.3820   -11.7120 
  150.7500     2.5490    65.7830    24.5460    20.5570    12.7260    15.3040   -11.6300 
  150.8750     2.5910    67.6670    24.5450    24.7270    14.5440    17.2860   -11.6070 
  151.0000     2.5950    73.9880    24.5460    24.5890    14.7260    17.0100   -11.6810 
  151.1250     2.5660    81.8800    24.5520    19.6700    13.1230    14.5810   -11.8400 
  151.2500     2.5120    85.6460    24.5660    13.7340    11.0760    11.9240   -11.9740 
  151.3750     2.4430    84.6970    24.5960    10.0810     9.2990     9.8680   -12.0760 
  151.5000     2.3730    83.7050    24.6180     9.4500     8.0210     8.5360   -12.1820 
  151.6250     2.3240    85.0450    24.6110     9.3650     7.2540     7.8100   -12.3560 
  151.7500     2.2970    87.9510    24.5700     8.4460     6.7920     7.3720   -12.5840 
  151.8750     2.2860    92.0230    24.5120     7.2570     6.5230     7.0970   -12.7860 
  152.0000     2.2800    95.7400    24.4780     6.6770     6.3620     6.9270   -12.8710 
  152.1250     2.2740    96.6050    24.4710     6.6450     6.2710     6.8600   -12.8740 
  152.2500     2.2710    95.1640    24.4710     6.7370     6.2290     6.8610   -12.9350 
  152.3750     2.2720    94.6620    24.4710     6.8080     6.2260     6.8910   -13.0330 
  152.5000     2.2770    94.9820    24.4710     6.7840     6.2470     6.9120   -13.1580 
  152.6250     2.2840    92.8420    24.4710     6.8070     6.2760     6.9270   -13.2310 
  152.7500     2.2910    89.3200    24.4710     6.9610     6.2880     6.9490   -13.2400 
  152.8750     2.3000    89.0980    24.4710     7.3360     6.2310     6.9220   -13.2130 
  153.0000     2.3120    93.4310    24.4820     7.6930     6.0530     6.7530   -13.2610 
  153.1250     2.3210    97.7310    24.5520     7.5530     5.7800     6.4360   -13.3670 
  153.2500     2.3200   100.0380    24.6870     7.1420     5.5980     6.2080   -13.3960 
  153.3750     2.3170    98.6230    24.8070     6.8880     5.7130     6.3350   -13.3150 
  153.5000     2.3310    91.1660    24.8740     7.3930     6.3300     7.0640   -13.1940 
  153.6250     2.3800    80.4710    24.8640    10.1130     7.7720     8.7690   -13.1070 
  153.7500     2.4490    72.0040    24.7630    16.0370    10.0300    11.4090   -13.0970 
  153.8750     2.5190    68.7090    24.6220    22.7820    12.8730    14.6560   -13.1180 
  154.0000     2.5740    70.7170    24.5470    26.1430    15.5570    17.5200   -13.0970 
  154.1250     2.5880    74.3570    24.5420    24.4630    16.8500    18.4770   -13.0340 
  154.2500     2.5480    74.8260    24.5440    21.5660    16.8160    17.8570   -13.0270 
  154.3750     2.4580    73.1000    24.5440    19.3030    16.1960    16.7680   -13.0970 
  154.5000     2.3450    74.9870    24.5440    17.9230    15.7490    16.1650   -13.1940 
  154.6250     2.2510    80.4010    24.5440    17.7410    15.8600    16.4640   -13.2490 
  154.7500     2.1970    82.8320    24.5440    18.1370    16.1670    17.0950   -13.2100 
  154.8750     2.1820    81.1980    24.5440    19.3220    16.1140    17.2880   -13.1240 
