~V
VERS. 2.00: Ver 2.00
~W
STRT.M 55.0000:
STOP.M 263.0000:
STEP.M 0.1250:
NULL. -999.2500:
UWI. DF5056:
~C
DEPT.M :
GR.API :
CALI.CM :
RXO.OHMM :
RI. :
RML.OHMM :
DEN.GM/CC :
SP.MV :
~A
# ...
  111.2500    87.0650    26.7360     6.9290     5.4220     6.6460     2.2090   -28.2860 
  111.3750    82.3490    26.5550     8.1680     5.5220     6.7400     2.1990   -28.3620 
  111.5000    76.5810    26.4320     8.5860     5.5470     6.7270     2.1980   -28.4810 
  111.6250    76.2530    26.5280     7.2230     5.4900     6.6310     2.2070   -28.5130 
  111.7500    79.9670    26.7220     6.0240     5.4010     6.5330     2.2160   -28.5110 
  111.8750    84.2710    26.8400     5.8060     5.3090     6.4630     2.2200   -28.4960 
  112.0000    87.3280    26.8630     6.0510     5.2230     6.4120     2.2160   -28.4380 
  112.1250    88.5120    26.9010     6.4730     5.1240     6.3360     2.2080   -28.3970 
  112.2500    87.5710    26.9920     6.2170     5.0100     6.2350     2.2030   -28.3990 
  112.3750    86.6350    27.0900     6.0480     4.9170     6.1780     2.2080   -28.4320 
  112.5000    87.4140    27.1520     6.2690     4.9120     6.2760     2.2230   -28.5050 
  112.6250    89.4690    27.1590     6.1950     5.0990     6.6690     2.2460   -28.6780 
  112.7500    90.2070    27.1140     7.0280     5.4820     7.3210     2.2660   -28.8470 
  112.8750    87.4130    26.9450    10.7310     6.0310     8.1320     2.2700   -29.0850 
  113.0000    82.5360    26.6060    12.9630     6.6560     8.9330     2.2500   -29.3100 
  113.1250    78.0120    26.1820    11.9090     7.2250     9.5280     2.2140   -29.5190 
  113.2500    74.6580    25.8580    10.3760     7.6630     9.8930     2.1800   -29.6160 
  113.3750    72.0680    25.6970    10.9090     7.9600    10.0750     2.1580   -29.6570 
  113.5000    70.5590    25.6470    11.3520     8.1350    10.1350     2.1470   -29.5850 
  113.6250    72.4030    25.6280    11.3570     8.1760    10.0580     2.1430   -29.3900 
  113.7500    74.8040    25.6080    11.0010     8.0490     9.7800     2.1440   -28.9960 
  113.8750    75.2430    25.5930    10.6290     7.7050     9.2480     2.1530   -28.4610 
  114.0000    75.7510    25.6560    10.2750     7.1650     8.5100     2.1740   -27.8280 
  114.1250    79.3620    25.9650     9.2920     6.5370     7.7300     2.2050   -27.1450 
  114.2500    84.9490    26.4780     7.7500     5.9760     7.0880     2.2330   -26.4620 
  114.3750    87.3510    26.9890     6.5860     5.5580     6.6650     2.2470   -25.8290 
  114.5000    85.8500    27.3060     6.1170     5.3010     6.4530     2.2460   -25.1810 
  114.6250    84.6310    27.4210     6.1320     5.1870     6.3900     2.2390   -24.6750 
  114.7500    85.3390    27.4880     5.9580     5.1310     6.3490     2.2370   -24.2660 
  114.8750    87.9480    27.5470     5.8970     5.0790     6.2640     2.2410   -23.9580 
  115.0000    91.8860    27.6420     5.8770     5.0000     6.1170     2.2500   -23.7470 
  115.1250    94.8840    27.8080     5.5740     4.8920     5.9390     2.2580   -23.6440 
  115.2500    94.0120    27.9670     5.2730     4.7850     5.7880     2.2630   -23.5950 
  115.3750    91.5980    28.0410     5.1520     4.7050     5.6910     2.2620   -23.5830 
  115.5000    91.7670    28.0320     5.2920     4.6670     5.6530     2.2560   -23.6920 
  115.6250    92.3420    28.0040     5.3120     4.6840     5.6740     2.2490   -23.7090 
  115.7500    91.2020    27.9870     5.3660     4.7450     5.7380     2.2440   -23.8510 
  115.8750    89.7830    27.9800     5.5230     4.8440     5.8430     2.2420   -23.9930 
  116.0000    89.1390    27.9800     5.5610     4.9740     5.9850     2.2410   -24.1440 
  116.1250    85.7910    27.9810     5.6570     5.1240     6.1480     2.2390   -24.2700 
  116.2500    78.6390    27.9800     6.0510     5.2600     6.2770     2.2340   -24.3850 
  116.3750    73.6430    27.9790     6.3070     5.3400     6.3190     2.2290   -24.4950 
  116.5000    74.8630    27.9840     6.2350     5.3250     6.2410     2.2280   -24.5830 
  116.6250    80.9030    28.0130     5.8320     5.1920     6.0390     2.2330   -24.6530 
  116.7500    86.6410    28.0810     5.5200     4.9880     5.7830     2.2450   -24.7260 
  116.8750    92.2850    28.1910     5.0950     4.7520     5.5180     2.2610   -24.8130 
  117.0000    96.6960    28.3080     4.8810     4.5190     5.2770     2.2730   -24.9310 
  117.1250    96.7120    28.3900     4.8940     4.3150     5.0780     2.2750   -25.0470 
  117.2500    95.3410    28.4470     4.7910     4.1440     4.9200     2.2670   -25.2510 
  117.3750    96.4840    28.4930     4.5950     4.0130     4.8040     2.2580   -25.4510 
  117.5000    98.6200    28.5280     4.4050     3.9220     4.7340     2.2530   -25.7300 
  117.6250    98.1030    28.5100     4.4240     3.8950     4.7550     2.2510   -26.0550 
  117.7500    93.6040    28.3900     4.8190     3.9630     4.9240     2.2510   -26.3760 
  117.8750    85.8330    28.1680     5.4500     4.1730     5.3070     2.2540   -26.7300 
  118.0000    78.1530    27.9390     5.9310     4.5650     5.9340     2.2630   -27.0900 
  118.1250    75.3000    27.8150     6.9590     5.1660     6.7870     2.2760   -27.5020 
  118.2500    73.0240    27.7100    10.8950     5.8640     7.6580     2.2830   -27.9010 
  118.3750    68.4590    27.5370    14.4070     6.4940     8.3120     2.2760   -28.3330 
  118.5000    65.4730    27.3550    13.6410     6.8730     8.5500     2.2540   -28.6760 
  118.6250    67.5170    27.3050     9.6650     6.8520     8.2790     2.2290   -28.9860 
  118.7500    68.7150    27.3460     7.6860     6.5850     7.7770     2.2110   -29.2800 
  118.8750    66.6930    27.3850     6.8630     6.2470     7.2920     2.2000   -29.5510 
  119.0000    64.9630    27.3900     6.6900     5.9950     7.0050     2.1930   -29.8050 
  119.1250    67.0320    27.3850     6.7190     5.9440     7.0190     2.1880   -30.0360 
  119.2500    68.7380    27.3720     6.7920     6.0670     7.2460     2.1850   -30.1920 
  119.3750    68.4540    27.3490     7.0340     6.3270     7.6200     2.1830   -30.3430 
  119.5000    68.1450    27.3300     7.3800     6.6780     8.0700     2.1820   -30.4570 
  119.6250    67.6340    27.3240     7.4720     7.0400     8.4890     2.1810   -30.6190 
  119.7500    65.1500    27.3250     7.7390     7.2990     8.7500     2.1790   -30.6950 
  119.8750    61.7230    27.3230     8.3120     7.3490     8.7410     2.1760   -30.7170 
  120.0000    61.2280    27.3300     8.8670     7.1180     8.4030     2.1720   -30.7380 
  120.1250    64.0320    27.3740     8.8460     6.5750     7.7140     2.1680   -30.7380 
  120.2500    67.6020    27.4400     7.6970     5.8740     6.8620     2.1690   -30.7650 
  120.3750    71.2970    27.4880     6.2150     5.1590     6.0280     2.1780   -30.7970 
  120.5000    74.7910    27.4770     5.4640     4.5770     5.4080     2.1960   -30.8420 
  120.6250    76.0750    27.4020     5.4040     4.3090     5.2740     2.2230   -30.9800 
  120.7500    74.4930    27.3090     5.6800     4.4270     5.7510     2.2520   -31.1470 
  120.8750    70.5860    27.2210     7.2100     5.0590     7.0310     2.2830   -31.4000 
  121.0000    66.1530    27.1540    11.3970     6.3800     9.3000     2.3220   -31.6410 
  121.1250    63.6100    27.1220    16.8720     8.7470    12.7390     2.3810   -31.9660 
  121.2500    62.1430    27.1100    22.0710    11.9350    16.6470     2.4520   -32.2720 
  121.3750    60.0270    27.0870    26.3040    15.1870    19.8270     2.5060   -32.6520 
  121.5000    57.0490    27.0410    31.5040    17.0720    20.8030     2.5010   -33.0380 
  121.6250    56.3990    26.9770    35.4530    16.2260    18.6840     2.4270   -33.4280 
  121.7500    58.5620    26.8770    30.8280    13.8690    15.2690     2.3350   -33.8550 
  121.8750    60.4510    26.7220    20.0680    11.2880    12.0480     2.2540   -34.2730 
  122.0000    60.3620    26.5430    12.0960     9.2180     9.7690     2.1950   -34.6480 
  122.1250    60.1400    26.4230    10.2660     7.9510     8.6600     2.1620   -34.9550 
  122.2500    61.4480    26.3760    10.0000     7.2860     8.3040     2.1470   -35.1820 
  122.3750    63.1680    26.3680    10.1390     7.0830     8.4190     2.1480   -35.3820 
