~V
VERS. 2.00: Ver 2.00
~W
STRT.M 59.0000:
STOP.M 264.0000:
STEP.M 0.1250:
NULL. -999.2500:
UWI. DF5022:
~C
DEPT.M :
GR.API :
CALI.CM :
RXO.OHMM :
RI. :
RML.OHMM :
SP.MV :
DEN.GM/CC :
~A
# ...
   81.5000    57.9050    24.1770     8.3410     6.9010     7.5960   -40.0950     2.2120 
   81.6250    64.2890    24.1790     7.1550     6.7680     7.4300   -39.9180     2.2450 
   81.7500    71.2120    24.1840     6.6700     6.7740     7.4630   -39.7380     2.2500 
   81.8750    73.0270    24.1910     7.2150     6.9220     7.6720   -39.6000     2.2310 
   82.0000    69.5860    24.1990     7.9840     7.1740     7.9790   -39.4550     2.2050 
   82.1250    65.9810    24.2040     8.6460     7.4660     8.2700   -39.3250     2.1890 
   82.2500    65.1480    24.2040     8.7530     7.7210     8.4720   -39.2660     2.1800 
   82.3750    65.2020    24.2220     8.6760     7.9060     8.5740   -39.2380     2.1720 
   82.5000    65.3760    24.2930     8.4780     8.0140     8.5940   -39.1380     2.1600 
   82.6250    65.7140    24.4330     8.3650     8.0100     8.5160   -38.9970     2.1430 
   82.7500    66.2020    24.5920     8.2050     7.8600     8.3020   -38.7960     2.1310 
   82.8750    66.9230    24.7290     7.9750     7.5300     7.9180   -38.5490     2.1330 
   83.0000    69.1190    24.8290     7.5800     7.0480     7.3930   -38.2900     2.1560 
   83.1250    74.8170    24.8880     6.4310     6.5220     6.8510   -37.9650     2.2000 
   83.2500    82.3650    24.9180     5.3910     6.0880     6.4350   -37.5270     2.2450 
   83.3750    86.8880    24.9280     5.0540     5.8180     6.2180   -37.0760     2.2680 
   83.5000    85.1920    24.9270     5.5490     5.7320     6.2140   -36.7220     2.2610 
   83.6250    79.1260    24.9250     6.7540     5.8500     6.4190   -36.4380     2.2320 
   83.7500    76.1990    24.9270     7.4550     6.1120     6.7390   -36.2250     2.2100 
   83.8750    75.6630    24.9280     7.4320     6.4700     7.1160   -36.0300     2.2110 
   84.0000    73.7430    24.9280     7.2840     6.8880     7.5380   -35.8010     2.2440 
   84.1250    71.3160    24.9280     8.4850     7.3930     8.0710   -35.6330     2.3090 
   84.2500    70.7270    24.9280    11.7140     7.9920     8.7120   -35.5780     2.3910 
   84.3750    72.5710    24.9280    13.4330     8.6350     9.3460   -35.5370     2.4760 
   84.5000    75.0430    24.9260    13.8050     9.1750     9.7630   -35.4590     2.5410 
   84.6250    77.8960    24.9260    14.8540     9.3210     9.6670   -35.3710     2.5590 
   84.7500    79.2760    24.9270    15.8730     8.9760     9.0900   -35.2640     2.5320 
   84.8750    78.8120    24.9280    12.4070     8.2340     8.2000   -35.2260     2.4760 
   85.0000    81.1100    24.9290     7.8130     7.3430     7.2530   -35.2340     2.4120 
   85.1250    88.2080    24.9290     5.7080     6.5710     6.5050   -35.3330     2.3610 
   85.2500    94.0880    24.9200     5.2320     6.0260     6.0320   -35.3890     2.3330 
   85.3750    94.6510    24.8850     5.0800     5.7220     5.8320   -35.6150     2.3230 
   85.5000    91.6610    24.8240     4.9950     5.6210     5.8400   -35.8560     2.3220 
   85.6250    90.0690    24.7710     5.1420     5.6460     5.9410   -36.1640     2.3210 
   85.7500    90.9150    24.7360     5.3160     5.6800     6.0100   -36.4690     2.3150 
   85.8750    90.1800    24.6940     5.3350     5.6690     5.9970   -36.7740     2.3020 
   86.0000    85.4830    24.6250     5.3020     5.6110     5.9150   -37.1310     2.2860 
   86.1250    81.6130    24.5460     5.2250     5.5790     5.8680   -37.5620     2.2770 
   86.2500    82.6780    24.4940     5.2350     5.6760     5.9860   -38.0400     2.2800 
   86.3750    84.9730    24.4740     5.3540     5.9800     6.3620   -38.4760     2.2900 
   86.5000    84.1040    24.4820     5.7780     6.5190     7.0190   -38.9060     2.3070 
   86.6250    80.2540    24.4620     8.0310     7.2640     7.8900   -39.3660     2.3320 
   86.7500    75.7260    24.3480    12.3650     8.0030     8.7110   -39.8700     2.3510 
   86.8750    71.3240    24.1610    13.8350     8.5180     9.2420   -40.4230     2.3440 
   87.0000    66.9140    24.0040    11.0260     8.6760     9.3610   -40.8700     2.3040 
   87.1250    62.6990    23.9620     9.5190     8.4760     9.1070   -41.3000     2.2480 
   87.2500    60.2880    23.9690     9.3890     8.1430     8.7390   -41.6750     2.2030 
   87.3750    60.3930    23.9720     9.5850     7.8160     8.4060   -42.0410     2.1770 
   87.5000    61.6190    23.9710     9.5960     7.5640     8.1800   -42.3100     2.1700 
   87.6250    61.6530    23.9710     9.2230     7.4030     8.0650   -42.4580     2.1750 
   87.7500    62.3070    23.9720     8.6600     7.2970     8.0180   -42.5570     2.1850 
   87.8750    63.9140    23.9710     8.3030     7.2460     8.0360   -42.5920     2.1880 
   88.0000    65.0760    23.9640     8.3280     7.2580     8.1180   -42.6150     2.1840 
   88.1250    66.6410    23.9510     8.5440     7.3380     8.2380   -42.5170     2.1810 
   88.2500    69.2110    23.9410     8.8230     7.4450     8.3460   -42.3710     2.1850 
   88.3750    71.7160    23.9390     9.0480     7.5380     8.4100   -42.1510     2.1930 
   88.5000    71.9610    23.9430     9.1030     7.5860     8.4120   -42.0530     2.1960 
   88.6250    68.9040    23.9470     8.8960     7.5670     8.3500   -41.9300     2.1910 
   88.7500    65.1570    23.9480     8.6130     7.5110     8.2660   -41.8520     2.1840 
   88.8750    63.3280    23.9470     8.2880     7.4490     8.2020   -41.7290     2.1790 
   89.0000    63.2930    23.9440     8.0700     7.4110     8.2010   -41.6940     2.1770 
   89.1250    63.6010    23.9470     8.0760     7.4220     8.2940   -41.6540     2.1730 
   89.2500    64.2500    23.9620     8.4080     7.4700     8.4370   -41.6840     2.1670 
   89.3750    64.9560    23.9880     8.8570     7.5440     8.5780   -41.6690     2.1640 
   89.5000    63.7330    24.0090     9.2250     7.6200     8.6640   -41.5960     2.1670 
   89.6250    59.6420    24.0150     9.3570     7.6670     8.6670   -41.5520     2.1750 
   89.7500    56.0360    24.0140     9.3930     7.6770     8.6300   -41.4860     2.1810 
   89.8750    55.0180    24.0150     9.4240     7.6580     8.5950   -41.4160     2.1840 
   90.0000    55.4010    24.0160     9.4560     7.6310     8.5910   -41.2360     2.1810 
   90.1250    56.4130    23.9970     9.1780     7.6200     8.6240   -41.0350     2.1720 
   90.2500    57.6790    23.9530     8.7860     7.6290     8.6700   -40.7450     2.1670 
   90.3750    59.7900    23.9130     8.6750     7.6420     8.7020   -40.4920     2.1700 
   90.5000    62.2650    23.9080     8.9640     7.6200     8.6710   -40.2480     2.1780 
   90.6250    62.8200    23.9410     8.9480     7.4880     8.5010   -40.0050     2.1810 
   90.7500    61.5460    23.9770     8.5210     7.2350     8.1940   -39.7570     2.1830 
   90.8750    59.1920    24.0080     8.1380     6.8950     7.7960   -39.5080     2.1930 
   91.0000    57.4660    24.0410     8.0010     6.5480     7.4040   -39.3210     2.2140 
   91.1250    58.7150    24.0710     7.7500     6.3110     7.1570   -39.1820     2.2320 
   91.2500    62.0600    24.0960     7.4230     6.2360     7.1130   -39.1320     2.2300 
   91.3750    64.2610    24.1200     7.7480     6.3310     7.2690   -39.0170     2.2090 
   91.5000    62.1160    24.1490     8.6830     6.5590     7.5620   -38.9060     2.1870 
   91.6250    57.9650    24.1760     8.9850     6.8480     7.8920   -38.8080     2.1770 
   91.7500    55.4710    24.1910     9.1290     7.0970     8.1390   -38.7140     2.1720 
   91.8750    54.4790    24.1950     9.2680     7.2420     8.2310   -38.5640     2.1730 
   92.0000    53.7430    24.1950     9.2160     7.2600     8.1510   -38.3870     2.1840 
   92.1250    53.4330    24.1930     9.1370     7.1730     7.9650   -38.1070     2.1950 
   92.2500    52.9090    24.2020     9.0080     7.0920     7.8420   -37.8380     2.1870 
   92.3750    51.3080    24.2590     9.0910     7.1100     7.9020   -37.5790     2.1610 
   92.5000    49.6460    24.3980     9.3260     7.2710     8.1720   -37.2710     2.1410 
   92.6250    50.3690    24.5810    10.2020     7.5360     8.5460   -36.8620     2.1570 
