~V
VERS. 2.00: Ver 2.00
~W
STRT.M 55.0000:
STOP.M 271.0000:
STEP.M 0.1250:
NULL. -999.2500:
UWI. DF5028:
~C
DEPT.M :
SP.MV :
GR.API :
RML.OHMM :
RI. :
RXO.OHMM :
CALI.CM :
DEN.GM/CC :
~A
# ...
  111.2500   -33.8730    71.7130     8.7410     7.9490     9.6010    23.3790     2.2180 
  111.3750   -33.5770    71.1990     8.6640     7.7880     9.5790    23.3880     2.2100 
  111.5000   -33.2110    69.4080     8.5680     7.6000     9.4350    23.4380     2.2000 
  111.6250   -32.8060    67.3620     8.4500     7.4060     9.1380    23.5110     2.1920 
  111.7500   -32.5000    68.0990     8.3460     7.2250     8.8070    23.5620     2.1900 
  111.8750   -32.1470    71.4450     8.2260     7.0700     8.5280    23.5640     2.1920 
  112.0000   -31.9350    74.1470     8.1330     6.9530     8.3400    23.5280     2.1950 
  112.1250   -31.7200    74.4520     8.0940     6.8840     8.2770    23.4860     2.1930 
  112.2500   -31.5690    74.1960     8.1090     6.8610     8.3800    23.4610     2.1870 
  112.3750   -31.5000    74.1430     8.1840     6.8880     8.6230    23.4530     2.1800 
  112.5000   -31.4470    74.1840     8.3170     6.9700     8.7970    23.4480     2.1730 
  112.6250   -31.5320    73.2380     8.5060     7.1120     8.7420    23.4480     2.1670 
  112.7500   -31.5380    70.9360     8.7200     7.2940     8.7370    23.4570     2.1600 
  112.8750   -31.5860    69.0350     8.9360     7.4900     8.9480    23.4710     2.1510 
  113.0000   -31.4770    69.1130     9.1360     7.6660     9.2350    23.4880     2.1430 
  113.1250   -31.2850    69.4780     9.2890     7.7650     9.3470    23.5000     2.1360 
  113.2500   -31.0290    67.9880     9.3720     7.7590     9.3490    23.5070     2.1340 
  113.3750   -30.6120    66.0790     9.3590     7.6250     9.3350    23.5030     2.1380 
  113.5000   -30.1410    67.4250     9.2310     7.3690     9.2510    23.4820     2.1500 
  113.6250   -29.4110    73.2340     8.9800     7.0210     8.9900    23.4670     2.1710 
  113.7500   -28.6730    78.6700     8.6540     6.6610     8.5470    23.4940     2.1970 
  113.8750   -27.8790    83.6250     8.2930     6.3460     7.9830    23.5790     2.2210 
  114.0000   -27.1010    89.9850     7.9460     6.1130     7.3540    23.6850     2.2380 
  114.1250   -26.4850    97.7760     7.6640     5.9830     6.7960    23.7450     2.2420 
  114.2500   -25.9230   102.0320     7.4630     5.9130     6.4660    23.7480     2.2390 
  114.3750   -25.5080   100.7960     7.3310     5.8680     6.4220    23.7180     2.2310 
  114.5000   -25.1420    95.8350     7.2800     5.8210     6.5970    23.6770     2.2220 
  114.6250   -24.9380    90.4740     7.2640     5.7890     6.8790    23.6410     2.2140 
  114.7500   -24.7210    88.3130     7.3250     5.8280     7.1410    23.6540     2.2100 
  114.8750   -24.4950    88.5010     7.5220     5.9910     7.2500    23.7840     2.2110 
  115.0000   -24.3300    89.1940     7.9280     6.3070     7.0960    24.0180     2.2220 
  115.1250   -24.1090    87.8120     8.4740     6.7700     6.9090    24.2050     2.2510 
  115.2500   -23.9400    83.4220     9.1010     7.2630     7.1980    24.2800     2.2950 
  115.3750   -23.7470    77.5660     9.6580     7.6510     8.1870    24.2520     2.3480 
  115.5000   -23.6470    75.5440     9.8120     7.8170    10.0170    24.1170     2.3940 
  115.6250   -23.6240    80.0510     9.5330     7.6790    12.3460    23.9650     2.4080 
  115.7500   -23.7320    83.4950     9.0560     7.3560    12.5080    23.9740     2.3880 
  115.8750   -23.8910    84.3880     8.5820     6.9770     9.7110    24.1120     2.3460 
  116.0000   -24.1590    85.6530     8.2790     6.6650     7.3580    24.1700     2.3000 
  116.1250   -24.4160    87.8850     8.2350     6.5180     6.8770    24.0520     2.2670 
  116.2500   -24.6510    88.0850     8.3390     6.4950     7.0940    23.9440     2.2460 
  116.3750   -24.9040    86.4210     8.4670     6.5320     7.3300    23.9190     2.2310 
  116.5000   -25.0320    85.0520     8.4920     6.5420     7.4600    23.9680     2.2170 
  116.6250   -25.1080    83.7690     8.3030     6.4340     7.5540    24.0670     2.2070 
  116.7500   -25.0290    82.1920     7.9710     6.2290     7.5470    24.1730     2.2040 
  116.8750   -24.9730    82.9180     7.6060     5.9920     7.3410    24.2740     2.2080 
  117.0000   -24.8060    87.9020     7.3130     5.8010     6.9710    24.3710     2.2160 
  117.1250   -24.6660    96.7460     7.1780     5.7320     6.6100    24.4310     2.2210 
  117.2500   -24.5960   101.6950     7.1770     5.7790     6.3670    24.3870     2.2180 
  117.3750   -24.4840    98.8140     7.2550     5.9100     6.3120    24.1990     2.2060 
  117.5000   -24.4650    89.3150     7.3470     6.0720     6.5070    23.9100     2.1890 
  117.6250   -24.3940    80.6170     7.3800     6.1870     6.9130    23.6570     2.1770 
  117.7500   -24.3850    80.0560     7.3400     6.2170     7.3180    23.5240     2.1780 
  117.8750   -24.3030    88.2090     7.2470     6.1640     7.5830    23.4870     2.1950 
  118.0000   -24.2330    97.9250     7.1390     6.0610     7.6220    23.5010     2.2250 
  118.1250   -24.2070   100.6220     7.0670     5.9610     7.3240    23.5500     2.2560 
  118.2500   -24.1200    98.4610     7.0620     5.9050     6.9000    23.5740     2.2770 
  118.3750   -24.1150    96.6550     7.1300     5.9100     6.6250    23.5000     2.2800 
  118.5000   -24.0490    94.9970     7.2560     5.9750     6.6370    23.3210     2.2680 
  118.6250   -24.0910    90.5710     7.4210     6.0900     6.8540    23.1250     2.2430 
  118.7500   -24.1110    85.6340     7.6130     6.2380     7.0920    23.0010     2.2140 
  118.8750   -24.1720    84.0440     7.8290     6.4070     7.2970    22.9510     2.1880 
  119.0000   -24.1590    84.7460     8.0360     6.5730     7.4050    22.9130     2.1700 
  119.1250   -24.0660    84.4920     8.1830     6.6990     7.4090    22.8190     2.1770 
  119.2500   -23.8720    83.7600     8.2320     6.7630     7.4730    22.6930     2.2130 
  119.3750   -23.6240    84.4380     8.1610     6.7430     7.7170    22.5820     2.2770 
  119.5000   -23.4150    87.3110     7.9820     6.6300     8.2610    22.5080     2.3500 
  119.6250   -23.1920    91.4590     7.7500     6.4510     9.0300    22.5600     2.3980 
  119.7500   -23.1190    95.0840     7.5510     6.2680     9.3120    22.8370     2.4040 
  119.8750   -23.0640    94.9610     7.4520     6.1330     8.6770    23.3070     2.3760 
  120.0000   -23.1890    90.2010     7.4990     6.0910     7.6810    23.7650     2.3310 
  120.1250   -23.3430    85.2770     7.6950     6.1700     7.2020    23.9800     2.2900 
  120.2500   -23.5580    83.0700     7.9360     6.3110     7.2100    24.0180     2.2590 
  120.3750   -23.8010    82.1600     8.1240     6.4600     7.4190    23.9910     2.2340 
  120.5000   -23.9340    81.2710     8.1750     6.5560     7.6300    23.9570     2.2120 
  120.6250   -24.0100    79.3650     8.0140     6.5290     7.6920    23.9220     2.1970 
  120.7500   -23.8970    80.3280     7.7120     6.3950     7.6910    23.9000     2.1940 
  120.8750   -23.7340    85.5920     7.3670     6.1990     7.6550    23.9340     2.2040 
  121.0000   -23.4210    92.5380     7.0710     6.0000     7.4830    24.0370     2.2240 
  121.1250   -23.0790    94.5480     6.8970     5.8550     7.1020    24.1550     2.2440 
  121.2500   -22.7520    92.1030     6.8290     5.7760     6.7290    24.2190     2.2590 
  121.3750   -22.3890    89.6010     6.8500     5.7590     6.5670    24.2540     2.2650 
  121.5000   -22.1450    88.0360     6.9210     5.7840     6.5780    24.2940     2.2640 
  121.6250   -21.9090    86.2940     6.9890     5.8130     6.6150    24.2780     2.2600 
  121.7500   -21.7700    86.7040     7.0200     5.8140     6.7080    24.2070     2.2570 
  121.8750   -21.6170    90.9330     6.9940     5.7710     6.8400    24.1650     2.2590 
  122.0000   -21.5590    94.4680     6.9060     5.6790     6.8260    24.1850     2.2680 
  122.1250   -21.4840    91.4680     6.7660     5.5440     6.5420    24.1850     2.2860 
  122.2500   -21.4620    88.1530     6.5960     5.3840     6.2420    24.1460     2.3050 
  122.3750   -21.4390    88.2960     6.4040     5.2110     6.0910    24.1540     2.3190 
