~V
VERS. 2.00: Ver 2.00
~W
STRT.M 65.0000:
STOP.M 258.0000:
STEP.M 0.1250:
NULL. -999.2500:
UWI. DF5030:
~C
DEPT.M :
SP.MV :
GR.API :
RML.OHMM :
RI. :
RXO.OHMM :
CALI.CM :
DEN.GM/CC :
~A
# ...
   76.2500   -31.8790    85.2440     8.1840     7.2690     8.2600    23.3990     2.1830 
   76.3750   -31.5810    87.0100     8.1430     7.2480     8.0140    23.3220     2.1900 
   76.5000   -31.2990    91.0020     8.1610     7.2630     7.9570    23.3040     2.1940 
   76.6250   -31.0710    92.6290     8.2370     7.3030     8.0570    23.3300     2.1940 
   76.7500   -30.8780    92.9810     8.3510     7.3520     8.2990    23.3650     2.1910 
   76.8750   -30.7300    94.9830     8.4560     7.3890     8.6110    23.3960     2.1900 
   77.0000   -30.6430    95.2610     8.5030     7.4020     8.8330    23.4030     2.1920 
   77.1250   -30.5880    92.4720     8.4720     7.3860     8.8660    23.4000     2.1950 
   77.2500   -30.5660    89.2130     8.3780     7.3430     8.7480    23.4170     2.1950 
   77.3750   -30.5590    87.4330     8.2730     7.2840     8.6550    23.4040     2.1920 
   77.5000   -30.4990    89.5560     8.2140     7.2310     8.6340    23.4330     2.1880 
   77.6250   -30.4210    93.3240     8.2240     7.2020     8.6840    23.5580     2.1850 
   77.7500   -30.3710    94.5040     8.3020     7.2130     8.6800    23.6820     2.1850 
   77.8750   -30.2600    93.4980     8.4250     7.2770     8.6100    23.6180     2.1890 
   78.0000   -30.0840    91.5210     8.5540     7.3760     8.5180    23.4030     2.1950 
   78.1250   -29.8810    91.0200     8.6580     7.4890     8.3660    23.1320     2.1990 
   78.2500   -29.6630    90.7790     8.7100     7.5870     8.1060    22.9240     2.2000 
   78.3750   -29.3870    92.0090     8.6610     7.6200     7.9350    22.8020     2.1950 
   78.5000   -29.1260    94.8350     8.4970     7.5630     7.9430    22.7460     2.1850 
   78.6250   -28.9110    96.5770     8.2160     7.4020     8.1230    22.7920     2.1710 
   78.7500   -28.6740    97.7120     7.8510     7.1520     8.3340    23.0090     2.1590 
   78.8750   -28.3970   100.5330     7.4740     6.8560     8.2970    23.4350     2.1570 
   79.0000   -28.1680   103.9960     7.1730     6.5840     7.8230    23.8800     2.1710 
   79.1250   -28.0120   105.7960     6.9980     6.3810     7.0640    24.1310     2.1970 
   79.2500   -27.8810   105.8920     6.9580     6.2660     6.6430    24.1860     2.2280 
   79.3750   -27.8120   111.0050     7.0150     6.2320     6.7890    24.1640     2.2490 
   79.5000   -27.7770   116.4150     7.0820     6.2300     7.0550    24.1320     2.2580 
   79.6250   -27.7650   114.9940     7.1230     6.2410     7.1770    24.1140     2.2580 
   79.7500   -27.8500   105.9080     7.1600     6.2750     7.1940    24.1270     2.2580 
   79.8750   -28.0780    98.4650     7.3050     6.3950     7.2050    24.1490     2.2600 
   80.0000   -28.3510    94.4950     7.6580     6.6540     7.3280    24.1160     2.2610 
   80.1250   -28.6880    92.0000     8.2660     7.0880     7.9440    24.0170     2.2530 
   80.2500   -29.0160    90.5860     9.0880     7.6760     8.9400    23.9120     2.2360 
   80.3750   -29.2510    86.3560     9.9650     8.3300    10.0330    23.8540     2.2130 
   80.5000   -29.4740    76.8030    10.6560     8.8810    10.7980    23.8460     2.1930 
   80.6250   -29.6100    66.5790    10.9730     9.1850    11.1410    23.8310     2.1810 
   80.7500   -29.5530    67.4170    10.8240     9.1560    10.9950    23.8270     2.1790 
   80.8750   -29.3230    82.0180    10.2120     8.7660    10.4010    23.8600     2.1890 
   81.0000   -29.0280    96.2140     9.4000     8.1960     9.3580    23.8860     2.2080 
   81.1250   -28.6190   104.0270     8.5810     7.5900     8.0660    23.8380     2.2340 
   81.2500   -28.1370   106.7440     7.9050     7.0620     6.8810    23.6650     2.2620 
   81.3750   -27.7470   108.0280     7.4980     6.7140     6.3130    23.4140     2.2830 
   81.5000   -27.4230   109.9940     7.3300     6.5440     6.2550    23.2460     2.2870 
   81.6250   -27.1410   111.8240     7.3550     6.5310     6.2400    23.1460     2.2750 
   81.7500   -26.9350   107.5700     7.4950     6.6290     6.1550    23.0570     2.2550 
   81.8750   -26.8450    97.0940     7.6280     6.7620     6.0850    22.9490     2.2360 
   82.0000   -26.7300    91.9520     7.6390     6.8300     6.1550    22.9050     2.2240 
   82.1250   -26.5610    95.5420     7.4660     6.7620     6.1410    22.9600     2.2200 
   82.2500   -26.4160   101.3430     7.1010     6.5300     5.9610    23.1030     2.2220 
   82.3750   -26.2420   105.1950     6.5940     6.1430     5.7030    23.2650     2.2320 
   82.5000   -25.9980   111.7160     6.0840     5.7090     5.4300    23.4820     2.2470 
   82.6250   -25.7490   120.9870     5.6700     5.3150     5.1030    23.7660     2.2640 
   82.7500   -25.5490   128.2930     5.4190     5.0330     4.8710    23.9010     2.2760 
   82.8750   -25.4030   127.1810     5.3950     4.9420     4.9430    23.7590     2.2800 
   83.0000   -25.3420   119.7810     5.5860     5.0490     5.1830    23.5330     2.2760 
   83.1250   -25.3590   111.9760     6.0090     5.3740     5.4540    23.4670     2.2690 
   83.2500   -25.4390   108.1810     6.6600     5.9120     5.8260    23.5320     2.2640 
   83.3750   -25.6000   105.6390     7.4810     6.6080     6.4380    23.6320     2.2640 
   83.5000   -25.7900   103.7010     8.2640     7.2800     7.1910    23.6600     2.2680 
   83.6250   -25.9900   106.5520     8.7890     7.7500     8.0350    23.7080     2.2710 
   83.7500   -26.2020   112.1790     8.8720     7.8660     8.5900    23.8150     2.2720 
   83.8750   -26.3400   112.8370     8.4030     7.5270     8.4950    23.9080     2.2720 
   84.0000   -26.4100   109.3200     7.6600     6.9350     7.8770    23.9610     2.2740 
   84.1250   -26.4850   108.5510     6.9180     6.2930     7.0260    24.0050     2.2810 
   84.2500   -26.5620   111.6050     6.4040     5.7880     6.2490    24.0890     2.2910 
   84.3750   -26.6140   113.8490     6.2780     5.5760     5.9760    24.1860     2.2950 
   84.5000   -26.6780   115.3370     6.4410     5.6250     6.1540    24.2010     2.2880 
   84.6250   -26.8070   114.6420     6.7750     5.8680     6.5480    24.1320     2.2690 
   84.7500   -26.9650   106.0280     7.1400     6.1950     7.1110    24.0230     2.2440 
   84.8750   -27.1090    92.0100     7.3690     6.4540     7.5290    23.9620     2.2190 
   85.0000   -27.2400    86.3660     7.3840     6.5440     7.6340    23.9540     2.2040 
   85.1250   -27.3480    91.6810     7.1750     6.4300     7.4960    23.9480     2.2020 
   85.2500   -27.4230    98.3760     6.7970     6.1480     6.9940    23.9370     2.2150 
   85.3750   -27.4230   103.6660     6.3530     5.7740     6.5070    23.9600     2.2370 
   85.5000   -27.3830   110.7330     5.9710     5.4190     6.1310    24.0260     2.2610 
   85.6250   -27.3160   115.8650     5.7330     5.1520     6.3540    24.0540     2.2780 
   85.7500   -27.2700   115.9100     5.6910     5.0240     7.1210    24.0460     2.2850 
   85.8750   -27.3120   114.8460     5.9070     5.1000     8.1530    24.0010     2.2810 
   86.0000   -27.4170   113.5460     6.3340     5.3620     9.0830    23.8560     2.2700 
   86.1250   -27.5910   106.2440     6.9180     5.7770     9.5560    23.5810     2.2560 
   86.2500   -27.8140    91.4970     7.5700     6.2760     9.5600    23.2640     2.2370 
   86.3750   -28.0290    78.6790     8.1480     6.7440     9.5920    23.1960     2.2080 
   86.5000   -28.2780    70.4720     8.5580     7.0870     9.6910    23.0970     2.1730 
   86.6250   -28.5670    68.6530     8.7670     7.2640     9.5500    22.9310     2.1380 
   86.7500   -28.8020    73.5060     8.8120     7.2910     8.9240    22.7640     2.1110 
   86.8750   -29.0110    78.2790     8.7640     7.2230     8.6210    22.7040     2.1000 
   87.0000   -29.2940    76.1480     8.7060     7.1410     8.5580    22.6930     2.1020 
   87.1250   -29.6170    71.6330     8.6600     7.0770     8.6040    22.6950     2.1090 
   87.2500   -29.9250    73.1580     8.6280     7.0380     8.6010    22.7070     2.1170 
   87.3750   -30.3310    76.7670     8.6140     7.0260     8.5480    22.8150     2.1220 
