~V
VERS. 2.00: Ver 2.00
~W
STRT.M 72.0000:
STOP.M 259.0000:
STEP.M 0.1250:
NULL. -999.2500:
UWI. DF5020:
~C
DEPT.M :
DEN.GM/CC :
GR.API :
RML.OHMM :
RI. :
RXO.OHMM :
CALI.CM :
SP.MV :
~A
   72.0000     2.3990    43.8750    -0.5810     0.0610     1.7630    25.3030     5.6400 
   72.1250     2.5460    49.3560    -0.5960     0.0630     3.0510    25.2490     0.4670 
   72.2500     2.6410    62.5800    -0.2060     0.1620     3.8290    25.1550    -5.0570 
   72.3750     2.6500    78.4770     0.5690     0.4100     4.1880    25.0240   -10.6030 
   72.5000     2.5850    88.2640     1.6450     0.8530     5.2820    24.8640   -15.9970 
   72.6250     2.4840    90.0400     2.7830     1.5360     6.2100    24.6830   -21.0240 
   72.7500     2.3900    91.4690     3.6290     2.3750     6.8050    24.5010   -25.5550 
   72.8750     2.3180    94.8390     4.0390     3.3290     6.9430    24.3330   -29.4600 
   73.0000     2.2710    95.9930     4.3180     4.4730     7.1440    24.1860   -32.6350 
   73.1250     2.2500    90.8090     5.2980     6.1610     8.0270    24.0850   -34.8830 
   73.2500     2.2490    81.0290     7.4240     8.5750    10.3340    24.0520   -36.5600 
   73.3750     2.2740    72.0660    10.7220    11.6360    14.3810    24.0640   -37.9490 
   73.5000     2.3260    68.4030    14.6250    14.8370    20.6020    24.0910   -39.1230 
   73.6250     2.3940    70.8960    17.6590    17.0140    30.8350    24.5560   -40.2430 
   73.7500     2.4480    73.4780    18.3850    17.3860    37.7070    24.5560   -41.2080 
   73.8750     2.4600    74.4870    16.5640    15.9220    30.7620    24.3640   -42.1030 
   74.0000     2.4210    75.2840    13.6790    13.4890    17.5060    24.1560   -42.8040 
   74.1250     2.3460    76.8670    11.5440    11.2860    10.8830    24.0520   -43.4540 
   74.2500     2.2720    76.3880    10.4160     9.7980     8.9810    23.9800   -43.9910 
   74.3750     2.2180    72.5410    10.0680     8.9910     8.4960    23.9210   -44.4590 
   74.5000     2.1880    68.8750    10.2120     8.6750     8.2970    23.9000   -44.8000 
   74.6250     2.1790    69.4300    10.5900     8.6620     7.9040    23.9260   -44.9840 
   74.7500     2.1800    72.1850    10.9540     8.7420     7.6420    23.9550   -45.1320 
   74.8750     2.1850    74.5580    11.2300     8.8480     7.5970    23.9660   -45.2070 
   75.0000     2.1900    75.2790    11.4300     8.9680     7.6020    23.9700   -45.3000 
   75.1250     2.1930    74.7130    11.6100     9.1220     7.8420    23.9750   -45.3670 
   75.2500     2.1930    73.4760    11.8230     9.3190     7.9410    23.9820   -45.4010 
   75.3750     2.1920    71.4760    12.0870     9.5530     8.2190    23.9830   -45.4530 
   75.5000     2.1910    70.8270    12.3810     9.7980     8.5700    23.9750   -45.5140 
   75.6250     2.1900    71.2240    12.6320     9.9970     8.8990    23.9730   -45.6040 
   75.7500     2.1880    70.3610    12.7710    10.1080     9.2640    23.9690   -45.7270 
   75.8750     2.1850    68.2200    12.7540    10.1050     9.6560    23.9610   -45.8740 
   76.0000     2.1830    66.8570    12.5760     9.9850    10.2750    23.9440   -46.0260 
   76.1250     2.1800    68.2050    12.2650     9.7630    10.7230    23.9260   -46.1820 
   76.2500     2.1770    69.9400    11.9120     9.4980    11.4440    23.9630   -46.3560 
   76.3750     2.1750    70.3730    11.5760     9.2310    12.0450    24.0190   -46.4610 
   76.5000     2.1720    68.8500    11.2970     8.9970    10.6450    24.0380   -46.6310 
   76.6250     2.1700    66.9650    11.1060     8.8330     9.4890    24.0010   -46.7150 
   76.7500     2.1690    68.3760    10.9750     8.7370     8.8500    23.9510   -46.7960 
   76.8750     2.1700    71.4760    10.8640     8.7000     8.6410    23.8910   -46.8490 
   77.0000     2.1690    72.0510    10.7390     8.7050     8.5070    23.8640   -46.9120 
   77.1250     2.1630    68.2310    10.5950     8.7310     8.2790    23.8850   -46.9680 
   77.2500     2.1520    64.4120    10.4700     8.7560     8.1870    23.9140   -46.9970 
   77.3750     2.1380    62.6830    10.3950     8.7740     8.1410    23.9080   -47.0810 
   77.5000     2.1270    62.7670    10.3740     8.7860     8.2630    23.8660   -47.0950 
   77.6250     2.1220    63.0990    10.3730     8.7950     8.7880    23.8180   -47.1680 
   77.7500     2.1250    62.8370    10.3450     8.8000     9.1210    23.7860   -47.1830 
   77.8750     2.1320    62.5420    10.2760     8.7950     9.0950    23.7990   -47.1800 
   78.0000     2.1400    64.0850    10.1800     8.7750     9.1030    23.7950   -47.1620 
   78.1250     2.1450    66.5400    10.0900     8.7380     9.3410    23.7290   -47.1510 
   78.2500     2.1460    67.3070    10.0220     8.6960     9.2500    23.6810   -47.1160 
   78.3750     2.1450    65.6660     9.9720     8.6610     9.0390    23.7120   -47.0490 
   78.5000     2.1420    63.1050     9.9360     8.6420     9.1030    23.7890   -46.9660 
   78.6250     2.1400    62.5670     9.9140     8.6480     9.0660    23.8090   -46.8500 
   78.7500     2.1410    64.2490     9.9090     8.6740     9.0030    23.7870   -46.7440 
   78.8750     2.1460    65.8570     9.9220     8.7180     8.7880    23.6880   -46.6510 
   79.0000     2.1530    65.6180     9.9510     8.7760     8.4330    23.5990   -46.5270 
   79.1250     2.1610    65.1260     9.9960     8.8440     8.4530    23.6250   -46.4170 
   79.2500     2.1680    65.8440    10.0530     8.9110     8.3920    23.7040   -46.3100 
   79.3750     2.1730    67.3030    10.1200     8.9670     8.2190    23.7910   -46.1900 
   79.5000     2.1740    69.8620    10.1830     9.0030     8.0700    23.8190   -46.1120 
   79.6250     2.1740    73.1580    10.2130     9.0050     7.9390    23.7730   -46.1230 
   79.7500     2.1720    74.5250    10.2020     8.9800     7.8330    23.7280   -46.0810 
   79.8750     2.1700    73.1650    10.1600     8.9350     7.7040    23.7130   -46.0770 
   80.0000     2.1670    71.0490    10.1090     8.8820     7.5850    23.7220   -46.1180 
   80.1250     2.1630    70.6340    10.0730     8.8310     7.4660    23.7600   -46.1170 
   80.2500     2.1600    71.1850    10.0490     8.7770     7.4370    23.8110   -46.1760 
   80.3750     2.1590    71.2760    10.0180     8.7050     7.5840    23.8680   -46.1900 
   80.5000     2.1620    69.1740     9.9530     8.5930     7.9100    23.9210   -46.2220 
   80.6250     2.1660    66.9630     9.8210     8.4160     8.3250    23.9160   -46.1350 
   80.7500     2.1690    67.6880     9.6160     8.1790     8.1420    23.9000   -46.1030 
   80.8750     2.1680    68.5200     9.3250     7.8920     7.4720    23.9160   -46.0070 
   81.0000     2.1650    66.1880     8.9420     7.5710     7.3710    23.9140   -45.8680 
   81.1250     2.1600    63.5960     8.4880     7.2550     7.7620    23.8660   -45.6530 
   81.2500     2.1520    63.5100     8.0960     7.0260     8.3420    23.8380   -45.3920 
   81.3750     2.1400    63.1710     7.9920     7.0290     8.8290    23.8630   -45.0900 
   81.5000     2.1270    60.0710     8.5250     7.5020     9.1460    23.9640   -44.7140 
   81.6250     2.1300    59.0480    10.3380     8.9320     9.5810    24.1720   -44.2310 
   81.7500     2.1630    60.9000    13.4760    11.4120    10.5440    24.3700   -43.6770 
   81.8750     2.2360    60.3440    17.6240    14.7870    12.4880    24.5160   -43.0540 
   82.0000     2.3400    55.8860    21.8300    18.3990    15.3740    24.5760   -42.4190 
   82.1250     2.4440    53.4460    24.1640    20.8090    19.6120    24.5350   -41.7450 
   82.2500     2.5200    55.1590    23.4810    20.9920    19.1210    24.3990   -41.0310 
   82.3750     2.5600    57.9000    19.8910    18.7670    17.1720    24.2080   -40.2750 
   82.5000     2.5670    60.7930    14.9880    15.0430    15.4820    24.0340   -39.4650 
   82.6250     2.5450    66.9640    10.8130    11.3150    12.7950    24.0320   -38.7070 
   82.7500     2.5040    77.5200     7.9650     8.4360     9.6170    24.2150   -38.0160 
   82.8750     2.4520    89.1870     6.3090     6.5040     7.5260    24.5000   -37.3980 
   83.0000     2.4030    96.5990     5.5590     5.3740     6.0760    24.7490   -36.7920 
   83.1250     2.3680    96.6940     5.5060     4.9330     5.9330    24.8600   -36.3420 
