~V
VERS. 2.00: Ver 2.00
~W
STRT.M 61.0000:
STOP.M 267.0000:
STEP.M 0.1250:
NULL. -999.2500:
UWI. DF5036:
~C
DEPT.M :
SP.MV :
GR.API :
RML.OHMM :
RI. :
RXO.OHMM :
CALI.CM :
DEN.GM/CC :
~A
# ...
  196.0000   -15.2740    95.4020    10.1830     9.2360    10.9050    24.3750     2.3830 
  196.1250   -14.8840    94.2460     9.3570     8.4640    10.1320    24.3220     2.3770 
  196.2500   -14.5230    95.3860     8.6710     7.8230     9.3150    24.2570     2.3700 
  196.3750   -14.2220    97.9180     8.2010     7.3840     8.6180    24.2030     2.3650 
  196.5000   -13.9550    97.7350     8.0110     7.2070     8.3140    24.1780     2.3650 
  196.6250   -13.7490    91.2370     8.2320     7.4130     8.6310    24.2620     2.3730 
  196.7500   -13.6000    84.7570     8.8820     8.0210     9.6640    24.3710     2.3920 
  196.8750   -13.4700    83.4280     9.9870     9.0530    11.1720    24.3990     2.4230 
  197.0000   -13.3000    86.2180    11.4560    10.4260    12.6120    24.3650     2.4640 
  197.1250   -13.0880    92.4990    12.9500    11.8230    13.8430    24.3070     2.5060 
  197.2500   -12.8020    97.9410    13.9290    12.7370    14.6480    24.2540     2.5290 
  197.3750   -12.4300    98.1800    13.9590    12.7650    14.3840    24.2170     2.5200 
  197.5000   -11.9380    93.5100    12.9220    11.7960    13.2580    24.2160     2.4800 
  197.6250   -11.2630    87.1340    11.1280    10.1190    10.7830    24.2340     2.4280 
  197.7500   -10.4850    78.2260     9.3470     8.4550     7.8870    24.1820     2.3880 
  197.8750    -9.7150    65.3460     7.9640     7.1620     5.7160    24.0580     2.3700 
  198.0000    -9.0070    54.7350     7.0870     6.3430     4.8530    24.0290     2.3730 
  198.1250    -8.3310    51.9600     6.7160     5.9990     4.8790    24.1100     2.3880 
  198.2500    -7.7220    52.2440     6.6530     5.9370     5.0800    24.2290     2.4000 
  198.3750    -7.2590    51.4580     6.7840     6.0560     5.2340    24.2500     2.4060 
  198.5000    -6.9490    49.7080     7.0040     6.2500     5.3090    23.8900     2.4080 
  198.6250    -6.7430    47.8640     7.2060     6.4480     5.3440    23.6540     2.4110 
  198.7500    -6.6000    48.1440     7.3350     6.5880     5.3580    23.6150     2.4150 
  198.8750    -6.5310    52.4210     7.3890     6.6790     5.3490    23.6110     2.4180 
  199.0000    -6.5570    60.5300     7.4050     6.7710     5.3770    23.5780     2.4190 
  199.1250    -6.6940    70.1260     7.4480     6.8210     5.5020    23.5870     2.4210 
  199.2500    -6.8650    77.5850     7.5480     6.8660     5.7540    23.7110     2.4230 
  199.3750    -7.0210    80.6990     7.6910     6.9410     6.1040    23.8760     2.4280 
  199.5000    -7.2090    80.7700     7.8340     7.0410     6.4870    24.0560     2.4330 
  199.6250    -7.4630    81.1940     7.9010     7.1040     6.7730    24.1690     2.4360 
  199.7500    -7.7270    82.3090     7.8680     7.0740     6.8050    24.2630     2.4350 
  199.8750    -7.9400    82.4020     7.7430     6.9600     6.5920    24.3610     2.4290 
  200.0000    -8.1110    82.2920     7.5690     6.7990     6.3780    24.4220     2.4180 
  200.1250    -8.2510    85.2430     7.4130     6.6430     6.4010    24.4580     2.4040 
  200.2500    -8.3790    90.2640     7.3170     6.5300     6.4930    24.4600     2.3920 
  200.3750    -8.4790    95.5130     7.2800     6.4630     6.6150    24.3650     2.3830 
  200.5000    -8.5610    98.6660     7.2710     6.4160     6.7780    24.1580     2.3770 
  200.6250    -8.6430    96.7550     7.2520     6.3890     7.0180    23.9910     2.3770 
  200.7500    -8.7470    92.0110     7.1990     6.3820     7.1340    23.8750     2.3820 
  200.8750    -8.8680    87.7450     7.1910     6.4680     7.3300    23.7800     2.3900 
  201.0000    -8.9690    86.7850     7.4720     6.7960     7.8480    23.7160     2.3970 
  201.1250    -9.0750    87.8140     8.4910     7.7110     9.0990    23.6590     2.3960 
  201.2500    -9.2060    85.5420    10.6730     9.4260    11.9290    23.6000     2.3810 
  201.3750    -9.3420    79.9690    14.2050    12.0860    16.8980    23.5260     2.3540 
  201.5000    -9.4370    74.4220    18.9040    15.6110    23.1820    23.4190     2.3190 
  201.6250    -9.5450    70.1560    24.0330    19.5570    29.4920    23.2400     2.2840 
  201.7500    -9.6810    65.7560    27.6230    23.0080    32.6610    23.0530     2.2590 
  201.8750    -9.8480    62.8550    29.5570    25.2110    32.9960    22.9830     2.2470 
  202.0000   -10.0400    64.0140    29.6520    25.8130    31.7320    23.0760     2.2480 
  202.1250   -10.2170    67.7190    28.5080    25.0500    27.7240    23.1920     2.2550 
  202.2500   -10.3940    70.8690    27.6760    24.1740    26.4390    23.3060     2.2560 
  202.3750   -10.6210    73.0280    28.2970    24.2170    25.9450    23.4760     2.2500 
  202.5000   -10.8690    74.2730    31.2220    26.0690    27.4450    23.7740     2.2450 
  202.6250   -11.0990    72.7170    37.5350    30.9290    36.2470    24.1160     2.2620 
  202.7500   -11.3630    67.9320    46.8380    38.7210    53.1010    24.3600     2.3060 
  202.8750   -11.6720    61.4260    58.5550    49.1240    76.8840    24.3810     2.3600 
  203.0000   -12.0030    57.0380    71.5090    61.1550   101.0560    24.2260     2.3940 
  203.1250   -12.3550    57.1280    84.1080    73.2380   115.6420    24.0890     2.3760 
  203.2500   -12.7260    58.0180    95.2790    84.1120   117.2170    24.0580     2.3210 
  203.3750   -13.1100    58.6850   104.9400    93.4340   110.3930    24.2100     2.2620 
  203.5000   -13.5220    59.4880   113.3810   101.2450   106.2780    24.4410     2.2240 
  203.6250   -13.9150    58.1680   119.1860   106.6660   113.1410    24.5360     2.2200 
  203.7500   -14.2690    55.5550   120.9040   108.4560   126.6280    24.4910     2.2340 
  203.8750   -14.6090    55.7510   116.6470   105.1150   135.9170    24.3420     2.2520 
  204.0000   -14.9670    59.0530   106.5910    96.5170   129.8990    24.2200     2.2620 
  204.1250   -15.2790    60.9290    94.4870    84.9620   106.8490    24.2910     2.2620 
  204.2500   -15.5220    60.7020    83.3180    75.2030    80.8690    24.3810     2.2550 
  204.3750   -15.6950    61.2440    78.8240    70.1780    64.3330    24.4070     2.2430 
  204.5000   -15.8570    62.9790    81.0420    70.9460    60.8390    24.4120     2.2270 
  204.6250   -16.0490    63.4390    89.0760    77.4860    72.3730    24.5200     2.2080 
  204.7500   -16.2040    62.2180    99.5260    86.8950    92.1590    24.6400     2.1940 
  204.8750   -16.2860    60.0290   109.9970    96.9910   108.5160    24.6950     2.1860 
  205.0000   -16.3250    58.2940   118.6580   105.9310   110.0000    24.7120     2.1860 
  205.1250   -16.4070    57.1780   124.5140   112.3860   103.4190    24.7060     2.1910 
  205.2500   -16.5170    56.6250   128.8210   117.0520   105.5980    24.6510     2.1930 
  205.3750   -16.5940    57.0410   132.8840   120.9910   113.8670    24.5800     2.1920 
  205.5000   -16.6290    58.8000   137.8160   125.3280   129.0990    24.5220     2.1870 
  205.6250   -16.6350    59.5000   144.4790   131.0240   142.9760    24.4790     2.1830 
  205.7500   -16.6440    59.8610   152.5150   137.8900   150.1090    24.4450     2.1830 
  205.8750   -16.6340    61.3970   161.1870   145.2740   154.7910    24.4330     2.1860 
  206.0000   -16.5970    62.8450   169.2870   152.1470   148.5830    24.4320     2.1930 
  206.1250   -16.5220    62.4630   174.9510   157.0410   134.9210    24.4330     2.2000 
  206.2500   -16.4440    60.5880   177.2440   159.4830   119.5350    24.4440     2.2040 
  206.3750   -16.3930    58.7030   175.9580   159.4220   101.7350    24.4770     2.2040 
  206.5000   -16.3340    57.1160   172.2920   157.5260    86.2000    24.5320     2.1980 
  206.6250   -16.2420    56.9460   169.1840   155.7380    91.3070    24.5560     2.1890 
  206.7500   -16.1900    58.5460   171.1190   156.9450   113.2430    24.5600     2.1830 
  206.8750   -16.2010    59.2740   180.3460   163.4190   132.0350    24.5410     2.1840 
  207.0000   -16.2160    58.3870   195.6520   175.3860   135.7640    24.4870     2.1910 
  207.1250   -16.2190    58.0000   209.9660   188.6370   125.7730    24.3840     2.2010 
