~V
VERS. 2.00: Ver 2.00
~W
STRT.M 64.0000:
STOP.M 271.0000:
STEP.M 0.1250:
NULL. -999.2500:
UWI. DF5037:
~C
DEPT.M :
SP.MV :
GR.API :
RML.OHMM :
RI. :
RXO.OHMM :
CALI.CM :
DEN.GM/CC :
~A
# ...
  232.7500   -17.8860    72.4930    90.5790    80.6430    71.1300    22.6740     2.2590 
  232.8750   -17.9350    71.8960    89.6200    78.7450    67.3270    22.6710     2.2660 
  233.0000   -17.9970    72.3880    89.9640    78.9670    68.9770    22.6700     2.2780 
  233.1250   -18.0860    75.2970    91.1230    80.1610    73.8250    22.6850     2.2950 
  233.2500   -18.2230    80.8530    91.4590    80.9100    74.6190    22.7640     2.3150 
  233.3750   -18.3630    83.8620    90.3770    80.5270    70.0410    22.9320     2.3320 
  233.5000   -18.4800    83.6960    88.2320    79.1690    64.1410    23.1400     2.3410 
  233.6250   -18.5790    84.6560    86.0280    77.5960    60.7550    23.3360     2.3440 
  233.7500   -18.6000    89.8760    85.1720    76.9800    61.1790    23.4270     2.3430 
  233.8750   -18.5530    92.7010    86.0690    77.7910    65.8870    23.4480     2.3440 
  234.0000   -18.4750    91.3870    88.5530    79.9840    71.5100    23.4840     2.3510 
  234.1250   -18.3570    92.4220    92.0650    83.1310    76.0950    23.5560     2.3610 
  234.2500   -18.2390    96.3380    95.8940    86.6310    76.8630    23.5960     2.3610 
  234.3750   -18.1700    94.8520    99.3210    89.8160    76.1730    23.5680     2.3480 
  234.5000   -18.1330    89.7650   101.8420    92.2140    76.1690    23.4370     2.3240 
  234.6250   -18.1050    86.7390   102.9970    93.4060    75.5630    23.3060     2.2960 
  234.7500   -18.1120    87.7430   102.0830    92.7650    76.8590    23.3510     2.2770 
  234.8750   -18.1380    87.9770    99.3760    90.4790    76.8270    23.4500     2.2750 
  235.0000   -18.1810    84.2300    95.5040    86.9990    75.2140    23.5860     2.2860 
  235.1250   -18.2310    77.0950    91.7410    83.3520    71.5350    23.6950     2.3040 
  235.2500   -18.2420    74.1120    90.2710    81.4140    68.0740    23.7110     2.3180 
  235.3750   -18.2000    75.5520    92.2750    82.4320    66.8490    23.6800     2.3190 
  235.5000   -18.1220    73.5630    98.1250    86.9970    70.4580    23.6700     2.3050 
  235.6250   -18.0220    66.1310   106.9340    94.6280    82.7390    23.6700     2.2800 
  235.7500   -17.9220    63.1650   116.1450   103.4150   102.0650    23.6570     2.2560 
  235.8750   -17.8350    67.2250   122.3520   110.2070   120.0020    23.6370     2.2430 
  236.0000   -17.7470    69.6560   123.4150   112.8060   125.5760    23.6400     2.2420 
  236.1250   -17.6660    64.7720   119.1840   110.5660   117.9160    23.6660     2.2490 
  236.2500   -17.6210    56.4590   111.6310   104.6040   101.9520    23.6790     2.2570 
  236.3750   -17.5920    50.9110   104.4670    98.2320    88.6430    23.6790     2.2610 
  236.5000   -17.5530    50.4580    99.3610    93.2460    83.0650    23.6670     2.2630 
  236.6250   -17.4870    55.0060    96.4500    90.1430    83.3890    23.6540     2.2660 
  236.7500   -17.3520    59.7250    94.9110    88.4390    85.4090    23.6500     2.2720 
  236.8750   -17.1660    58.6410    93.3450    86.8590    86.2560    23.6560     2.2760 
  237.0000   -16.9380    53.2630    91.2210    84.8050    85.0050    23.6750     2.2770 
  237.1250   -16.6730    50.7410    88.8040    82.3740    82.5560    23.6980     2.2720 
  237.2500   -16.3510    54.5150    87.4110    80.6300    79.1750    23.7270     2.2640 
  237.3750   -16.0010    59.8360    88.2200    80.7090    75.9530    23.7410     2.2570 
  237.5000   -15.6330    62.6780    91.7200    83.2000    75.9380    23.7300     2.2540 
  237.6250   -15.2370    61.4410    97.3070    87.7470    83.6460    23.7090     2.2600 
  237.7500   -14.8750    58.6570   102.8760    92.7090    99.2220    23.7140     2.2760 
  237.8750   -14.5470    55.0960   105.6660    95.6200   113.8930    23.7110     2.3010 
  238.0000   -14.2180    50.6390   103.8520    94.7570   116.8200    23.6510     2.3310 
  238.1250   -13.8930    46.7980    97.1700    89.6560   105.0810    23.5420     2.3560 
  238.2500   -13.5690    46.9730    87.0120    81.2120    85.7880    23.4420     2.3640 
  238.3750   -13.1990    50.3540    76.6250    72.2040    70.6620    23.3680     2.3520 
  238.5000   -12.8150    53.3030    67.6350    64.1670    61.5930    23.3750     2.3220 
  238.6250   -12.4750    56.5060    60.4390    57.6200    56.1000    23.4000     2.2860 
  238.7500   -12.1810    57.3620    54.7210    52.3920    51.6150    23.4250     2.2630 
  238.8750   -11.9430    54.2200    49.5810    47.6990    49.7620    23.4670     2.2620 
  239.0000   -11.7730    51.4120    44.7130    43.2450    48.5440    23.5310     2.2810 
  239.1250   -11.6550    54.5370    40.1460    39.0370    47.0140    23.5670     2.3080 
  239.2500   -11.5950    66.3220    36.2550    35.4020    42.8290    23.6460     2.3260 
  239.3750   -11.6110    76.8160    33.2080    32.5010    35.9070    23.6900     2.3260 
  239.5000   -11.6920    79.7380    31.0860    30.4210    30.9660    23.7000     2.3130 
  239.6250   -11.7930    75.6080    29.8200    29.1120    29.3010    23.7020     2.2990 
  239.7500   -11.8450    70.9380    29.3120    28.5000    28.2380    23.6740     2.2930 
  239.8750   -11.8260    71.6770    29.2030    28.2690    27.1060    23.5590     2.2950 
  240.0000   -11.7750    73.5670    29.2970    28.2440    26.5410    23.4190     2.3010 
  240.1250   -11.7120    71.3640    29.4520    28.2990    26.4770    23.4060     2.3060 
  240.2500   -11.6510    69.9720    29.5520    28.3330    26.7350    23.4000     2.3060 
  240.3750   -11.6040    73.3230    29.5250    28.2760    27.1290    23.4280     2.3000 
  240.5000   -11.5760    76.2120    29.3360    28.0790    27.3720    23.4090     2.2940 
  240.6250   -11.5580    76.0340    29.0070    27.7380    27.4940    23.3110     2.2880 
  240.7500   -11.5830    77.1240    28.6690    27.3270    26.8310    23.2350     2.2870 
  240.8750   -11.6630    79.8370    28.5280    27.0140    25.8360    23.2350     2.2870 
  241.0000   -11.7440    79.0300    28.7550    26.9450    24.8870    23.3040     2.2910 
  241.1250   -11.8180    74.5400    29.4290    27.2060    25.1260    23.3610     2.2990 
  241.2500   -11.8440    71.7340    30.5000    27.7940    26.7580    23.3800     2.3110 
  241.3750   -11.8230    70.9320    31.6120    28.4550    28.8550    23.4300     2.3230 
  241.5000   -11.7760    69.1430    32.4220    28.9280    30.6690    23.5470     2.3320 
  241.6250   -11.7190    67.0660    32.6540    28.9850    31.5950    23.6100     2.3320 
  241.7500   -11.6660    65.9780    32.1460    28.4630    30.7430    23.6110     2.3220 
  241.8750   -11.6050    66.8670    31.3140    27.6410    29.3240    23.5760     2.3050 
  242.0000   -11.5480    69.2990    30.7490    26.9450    27.9520    23.5280     2.2860 
  242.1250   -11.5030    70.2220    31.2070    26.9620    27.5830    23.4930     2.2660 
  242.2500   -11.5130    68.7790    33.7080    28.5590    28.8660    23.4600     2.2550 
  242.3750   -11.5420    67.4380    38.0580    31.7440    33.0480    23.3980     2.2630 
  242.5000   -11.5430    70.0370    43.4300    36.0330    43.3400    23.2970     2.3010 
  242.6250   -11.5320    76.8740    48.1700    40.2220    58.5900    23.1650     2.3650 
  242.7500   -11.4880    80.7280    49.5760    42.1270    73.8440    23.0660     2.4350 
  242.8750   -11.4030    77.1170    46.8220    40.7350    81.4300    23.0540     2.4780 
  243.0000   -11.3070    70.0600    40.5150    36.2150    67.1050    23.0580     2.4760 
  243.1250   -11.2000    67.2350    32.6040    29.9540    36.9820    22.9920     2.4440 
  243.2500   -11.0930    70.0090    25.4010    23.8390    20.3970    22.8690     2.4100 
  243.3750   -11.0070    72.3840    19.8020    18.8690    14.1130    22.8130     2.3930 
  243.5000   -10.9620    73.3700    15.7560    15.1500    11.1780    22.8560     2.3890 
  243.6250   -10.9600    75.1670    12.9340    12.4850     9.4100    23.0520     2.3860 
  243.7500   -10.9920    76.1000    11.1460    10.7580     8.5430    23.3030     2.3710 
  243.8750   -11.0480    75.8380    10.0180     9.6490     8.9380    23.4430     2.3490 
