~V
VERS. 2.00: Ver 2.00
~W
STRT.M 59.0000:
STOP.M 264.0000:
STEP.M 0.1250:
NULL. -999.2500:
UWI. DF5022:
~C
DEPT.M :
GR.API :
CALI.CM :
RXO.OHMM :
RI. :
RML.OHMM :
SP.MV :
DEN.GM/CC :
~A
# ...
  216.5000    54.2470    24.5440   103.2530    85.5300    90.7470   -24.2480     2.2270 
  216.6250    53.0410    24.5400   102.9700    91.3960    97.1400   -24.1740     2.2210 
  216.7500    53.0430    24.5230   101.0850    96.9360   103.5180   -24.2350     2.2110 
  216.8750    51.3710    24.5010   102.1300   103.3840   111.3610   -24.4840     2.1930 
  217.0000    48.9520    24.4790   112.2600   111.7390   121.7290   -24.7350     2.1710 
  217.1250    49.6060    24.3250   138.2500   122.4740   134.9530   -24.6710     2.1530 
  217.2500    52.0220    23.9460   155.5560   134.4040   149.3270   -24.5860     2.1430 
  217.3750    53.2760    23.4590   142.0290   146.4380   163.3700   -24.6700     2.1380 
  217.5000    52.4880    23.1390   107.4710   157.6190   176.0270   -24.9060     2.1390 
  217.6250    51.0110    23.1970   107.6420   166.7370   186.3780   -25.1870     2.1550 
  217.7500    49.3560    23.4780   138.4490   173.2070   194.0170   -25.3760     2.1800 
  217.8750    47.8990    23.8500   172.4490   176.4630   197.8450   -25.3500     2.1950 
  218.0000    48.7810    24.2030   185.9020   176.3940   196.9070   -25.1870     2.1930 
  218.1250    51.4750    24.4100   178.4770   172.8910   190.4740   -25.1410     2.1820 
  218.2500    51.4980    24.4790   165.7630   167.0790   180.7760   -25.0860     2.1790 
  218.3750    49.6590    24.4800   159.5770   159.3490   169.3390   -24.9760     2.1790 
  218.5000    49.8290    24.4790   168.0650   149.7520   156.8480   -24.6680     2.1780 
  218.6250    52.2670    24.4800   158.9810   138.0930   143.1400   -24.1610     2.1750 
  218.7500    54.4670    24.4740   140.8940   125.4520   128.8830   -23.6100     2.1730 
  218.8750    55.1070    24.4660   113.7940   113.1930   115.3920   -23.2150     2.1710 
  219.0000    54.6020    24.4500    86.4170   102.8220   104.2320   -23.1190     2.1680 
  219.1250    54.4930    24.3060    77.7670    96.0100    97.0520   -23.0290     2.1680 
  219.2500    56.6320    23.9790    76.0240    92.5050    93.2850   -22.7500     2.1730 
  219.3750    58.7040    23.5930    75.4490    91.7270    92.1830   -22.3200     2.1780 
  219.5000    56.5560    23.3790    81.9110    92.6270    92.6250   -21.9660     2.1800 
  219.6250    53.8310    23.5030    89.0300    93.8390    93.3140   -21.8010     2.1840 
  219.7500    54.7800    23.8240    91.2340    94.2530    93.3110   -21.6890     2.1930 
  219.8750    56.4150    24.1810    90.2800    93.6580    92.5190   -21.5850     2.2000 
  220.0000    56.1160    24.4320    92.5760    92.4160    91.3270   -21.4290     2.1970 
  220.1250    56.1660    24.5050    89.5370    91.0630    90.1670   -21.1140     2.1830 
  220.2500    58.8910    24.5050    88.9550    89.8310    89.0850   -20.7980     2.1700 
  220.3750    61.2550    24.5010    91.6380    88.6150    87.9310   -20.5970     2.1670 
  220.5000    61.1130    24.5010    91.9900    87.1940    86.5020   -20.5260     2.1730 
  220.6250    58.3110    24.5010    86.6710    84.9840    84.2610   -20.5420     2.1890 
  220.7500    54.6500    24.5010    79.2200    81.4550    80.6620   -20.5510     2.2140 
  220.8750    51.8840    24.5010    75.7840    76.2710    75.3140   -20.4550     2.2520 
  221.0000    52.1430    24.5000    77.7910    69.7490    68.5270   -20.1730     2.2930 
  221.1250    55.1140    24.4970    70.8260    63.0840    61.6030   -19.9590     2.3150 
  221.2500    56.8470    24.4940    55.2220    57.7200    56.1440   -19.8430     2.3120 
  221.3750    57.1130    24.4920    44.2860    54.5170    53.0660   -19.7780     2.2950 
  221.5000    58.9790    24.4920    45.5160    53.7970    52.6340   -19.7330     2.2810 
  221.6250    61.3670    24.4920    54.2930    55.6950    54.8440   -19.6620     2.2730 
  221.7500    59.6240    24.4960    63.2420    59.0700    58.3760   -19.6080     2.2650 
  221.8750    55.1300    24.5140    65.3570    62.8240    62.0430   -19.5690     2.2510 
  222.0000    54.3210    24.5390    60.7780    65.6970    64.6270   -19.5750     2.2330 
  222.1250    57.4790    24.5580    58.0450    66.4030    65.0350   -19.5520     2.2170 
  222.2500    57.7920    24.5680    57.9620    65.1930    63.6970   -19.5410     2.2100 
  222.3750    54.8420    24.5740    57.3040    62.6790    61.2620   -19.6130     2.2070 
  222.5000    53.3550    24.5780    54.2920    59.6900    58.5020   -19.6720     2.2050 
  222.6250    54.9830    24.5770    50.7910    57.1920    56.3510   -19.7320     2.2040 
  222.7500    55.8120    24.5750    48.4190    55.9080    55.5880   -19.7820     2.2100 
  222.8750    54.9790    24.5770    48.5720    56.4860    56.9760   -19.8050     2.2270 
  223.0000    55.0120    24.5900    51.8530    59.4050    61.0140   -19.7950     2.2490 
  223.1250    56.8010    24.6070    66.9750    64.9860    67.8620   -19.8750     2.2540 
  223.2500    57.3210    24.6110    84.6090    71.7910    75.7440   -20.0260     2.2440 
  223.3750    55.5570    24.6030   105.2580    78.0490    82.5830   -20.1590     2.2310 
  223.5000    53.6070    24.5940   119.7860    81.8670    86.3070   -20.2950     2.2250 
  223.6250    54.4830    24.5940   110.2760    81.7990    85.5240   -20.4010     2.2200 
  223.7500    56.2130    24.5950    86.9270    79.3720    82.2920   -20.5140     2.2110 
  223.8750    56.8550    24.5950    72.3940    76.2030    78.5580   -20.6640     2.2000 
  224.0000    56.8510    24.5950    70.7770    73.4720    75.5910   -20.8680     2.1930 
  224.1250    57.0010    24.5950    79.1120    71.6740    73.8150   -21.0240     2.1950 
  224.2500    56.1480    24.5950    83.1130    70.3170    72.5150   -21.1000     2.2020 
  224.3750    53.8450    24.5990    76.7560    68.8390    70.9730   -21.0570     2.1980 
  224.5000    52.4460    24.6020    64.8770    66.7690    68.6460   -20.9470     2.1780 
  224.6250    53.1120    24.5770    60.0500    63.8730    65.3530   -20.8850     2.1620 
  224.7500    53.9860    24.5280    58.5340    60.5720    61.6960   -20.8740     2.1710 
  224.8750    54.3120    24.4830    56.1790    57.2560    58.1660   -20.9780     2.2060 
  225.0000    55.1120    24.4630    50.7890    54.2180    55.0860   -21.1610     2.2470 
  225.1250    55.6740    24.4520    46.0080    51.5490    52.5130   -21.3800     2.2710 
  225.2500    55.3710    24.4320    45.1660    48.8960    49.9620   -21.5270     2.2750 
  225.3750    55.1770    24.4130    46.7590    45.9480    47.0430   -21.6090     2.2620 
  225.5000    55.9270    24.4060    45.1390    42.7060    43.7360   -21.6310     2.2470 
  225.6250    56.2730    24.4070    40.2220    39.7110    40.6660   -21.5940     2.2440 
  225.7500    56.6610    24.4070    33.2260    37.5870    38.6150   -21.4930     2.2500 
  225.8750    59.3010    24.4070    28.2090    36.7560    38.1190   -21.2970     2.2590 
  226.0000    63.1970    24.4070    31.7430    37.4130    39.3900   -21.0940     2.2650 
  226.1250    62.5870    24.4070    43.5390    39.6780    42.4280   -20.8350     2.2710 
  226.2500    57.9920    24.4070    50.4510    42.8330    46.2940   -20.5720     2.2790 
  226.3750    55.0620    24.4070    49.6510    46.2260    50.2350   -20.2500     2.2860 
  226.5000    55.5470    24.4070    44.7290    49.2910    53.7120   -19.9100     2.2900 
  226.6250    56.4960    24.4050    45.5980    51.7700    56.6100   -19.6240     2.2980 
  226.7500    57.8670    24.4050    52.2670    53.9690    59.3420   -19.3580     2.3130 
  226.8750    60.3250    24.4160    62.0300    56.1150    62.1320   -19.0700     2.3260 
  227.0000    60.6970    24.4390    70.3370    58.2870    65.0140   -18.6420     2.3290 
  227.1250    57.1680    24.4510    73.4050    60.4310    67.8980   -18.1780     2.3160 
  227.2500    54.8780    24.4300    73.0430    62.4270    70.6270   -17.7910     2.2980 
  227.3750    56.5760    24.3840    71.5240    64.0260    72.8810   -17.5730     2.2850 
  227.5000    58.2060    24.3390    78.6410    64.7760    74.0600   -17.4520     2.2820 
  227.6250    55.8680    24.3180    89.8570    63.9300    73.2220   -17.2610     2.2930 
