~V
VERS. 2.00: Ver 2.00
~W
STRT.M 62.0000:
STOP.M 250.0000:
STEP.M 0.1250:
NULL. -999.2500:
UWI. DF5059:
~C
DEPT.M :
SP.MV :
GR.API :
RML.OHMM :
RI. :
RXO.OHMM :
CALI.CM :
DEN.GM/CC :
~A
# ...
   73.2500   -23.1640   120.5480     4.3380     3.7730     3.8780    23.6700     2.2530 
   73.3750   -23.3920   121.6360     4.2350     3.6140     3.8720    23.6770     2.2330 
   73.5000   -23.6760   122.2120     4.4410     3.6630     4.0500    23.6770     2.2270 
   73.6250   -24.0810   123.8710     5.3870     4.2520     5.0190    23.6860     2.2540 
   73.7500   -24.5470   125.4930     7.2060     5.5280     7.8620    23.6950     2.3150 
   73.8750   -25.0640   118.9760     9.8240     7.5020    13.2040    23.6900     2.4010 
   74.0000   -25.6330    97.3720    12.7730     9.9000    19.9380    23.6760     2.4870 
   74.1250   -26.2200    71.8050    14.9930    11.9980    25.8970    23.6730     2.5270 
   74.2500   -26.7460    60.5720    15.6580    13.0530    26.9400    23.7420     2.5030 
   74.3750   -27.1800    63.9310    14.5870    12.7570    20.3240    23.9390     2.4250 
   74.5000   -27.5840    71.2110    12.4730    11.4660    12.5930    24.2630     2.3220 
   74.6250   -27.8370    72.6980    10.5170    10.0080     9.6960    24.4360     2.2280 
   74.7500   -27.9710    69.7030     9.3190     8.9660     8.7480    24.4070     2.1590 
   74.8750   -28.0770    66.4390     8.8500     8.4180     8.4950    24.0460     2.1210 
   75.0000   -28.1500    66.4660     8.8780     8.2490     8.4660    23.2900     2.1120 
   75.1250   -28.1950    74.0200     9.1310     8.3030     8.6030    22.5650     2.1270 
   75.2500   -28.3320    82.5800     9.3330     8.3980     8.7420    22.0840     2.1520 
   75.3750   -28.5690    83.8500     9.3460     8.4630     8.8190    21.9130     2.1760 
   75.5000   -28.8310    76.9460     9.2760     8.4790     8.8480    21.9010     2.1940 
   75.6250   -29.2110    67.2700     9.1730     8.4480     8.8390    21.9550     2.1990 
   75.7500   -29.6450    62.9390     9.0960     8.3970     8.8750    22.0660     2.1930 
   75.8750   -30.0290    64.9330     9.0330     8.3450     8.9690    22.2330     2.1800 
   76.0000   -30.3730    74.5190     8.9690     8.3070     9.1210    22.3480     2.1650 
   76.1250   -30.7060    85.8500     8.9670     8.2950     9.2860    22.4050     2.1520 
   76.2500   -30.9740    83.1050     9.0060     8.3020     9.4580    22.5210     2.1450 
   76.3750   -31.1460    70.2910     9.0730     8.3140     9.5420    22.7690     2.1420 
   76.5000   -31.2320    64.6540     9.1130     8.3170     9.3750    23.0750     2.1400 
   76.6250   -31.2270    69.8570     9.1020     8.2890     9.0330    23.0850     2.1390 
   76.7500   -31.1730    71.7960     9.0450     8.2280     8.6650    22.8280     2.1410 
   76.8750   -31.0920    66.6920     8.9610     8.1400     8.3910    22.5580     2.1450 
   77.0000   -31.0160    64.2120     8.8790     8.0430     8.3380    22.5330     2.1540 
   77.1250   -30.9530    65.0900     8.8450     7.9740     8.4920    22.7690     2.1660 
   77.2500   -30.8380    61.4190     8.8800     7.9570     8.6070    22.8480     2.1780 
   77.3750   -30.6820    58.2040     8.9850     8.0010     8.7340    22.6830     2.1870 
   77.5000   -30.5630    59.7800     9.1400     8.0980     8.9420    22.4420     2.1920 
   77.6250   -30.4140    65.6570     9.2950     8.2160     9.3340    22.3320     2.1920 
   77.7500   -30.1960    68.8530     9.3910     8.3050     9.6420    22.3160     2.1900 
   77.8750   -29.9820    65.7650     9.3910     8.3310     9.7830    22.2920     2.1860 
   78.0000   -29.7800    58.5980     9.2830     8.2730     9.7410    22.1840     2.1800 
   78.1250   -29.4850    57.2290     9.0860     8.1300     9.6400    21.9970     2.1710 
   78.2500   -29.1740    66.5920     8.8810     7.9570     9.6090    21.8810     2.1610 
   78.3750   -28.9140    76.6700     8.7330     7.8050     9.4580    21.9020     2.1530 
   78.5000   -28.6300    77.7190     8.6810     7.7160     9.1530    22.1320     2.1580 
   78.6250   -28.3060    74.7260     8.7320     7.7130     8.7720    22.7360     2.1880 
   78.7500   -28.0400    76.3600     8.8290     7.7640     8.4980    23.2650     2.2350 
   78.8750   -27.8340    77.5830     8.9150     7.8290     8.4140    23.2590     2.2840 
   79.0000   -27.6330    73.1580     8.9460     7.8750     8.4600    22.6160     2.3140 
   79.1250   -27.4880    67.2690     8.8860     7.8780     8.5890    21.9460     2.3080 
   79.2500   -27.4000    67.2510     8.7880     7.8540     8.7790    21.5710     2.2820 
   79.3750   -27.3540    70.2870     8.6830     7.8180     8.9970    21.4370     2.2530 
   79.5000   -27.3320    73.8090     8.5500     7.7800     9.1470    21.4060     2.2310 
   79.6250   -27.3420    77.2230     8.4990     7.7390     9.1100    21.4610     2.2170 
   79.7500   -27.3800    80.7850     8.4730     7.6880     8.8660    21.6230     2.2030 
   79.8750   -27.3990    81.2660     8.4850     7.6270     8.5560    21.8460     2.1870 
   80.0000   -27.3850    81.0320     8.5230     7.5680     8.3720    22.0050     2.1710 
   80.1250   -27.3600    84.5620     8.5740     7.5340     8.3480    22.0470     2.1600 
   80.2500   -27.3260    88.1940     8.6300     7.5340     8.4360    22.0550     2.1560 
   80.3750   -27.2140    87.8930     8.6780     7.5710     8.5940    22.0550     2.1580 
   80.5000   -27.0350    84.7720     8.7280     7.6390     8.7390    22.0630     2.1650 
   80.6250   -26.8580    83.3670     8.7950     7.7320     8.8420    22.1160     2.1730 
   80.7500   -26.6130    85.0750     8.8620     7.8260     8.9050    22.2230     2.1770 
   80.8750   -26.2630    87.6130     8.8960     7.8940     8.9010    22.3310     2.1750 
   81.0000   -25.8680    87.5960     8.8500     7.8980     8.8030    22.4150     2.1660 
   81.1250   -25.4260    81.2100     8.6580     7.7800     8.5560    22.4870     2.1560 
   81.2500   -24.9240    76.7800     8.3280     7.5370     8.1180    22.5190     2.1540 
   81.3750   -24.4210    81.3870     7.8950     7.1890     7.5070    22.5010     2.1640 
   81.5000   -24.0350    94.5460     7.4310     6.7870     6.7930    22.4790     2.1870 
   81.6250   -23.7580   104.8900     7.0380     6.4080     6.2310    22.4820     2.2150 
   81.7500   -23.5700   107.2510     6.7670     6.1120     6.0060    22.5540     2.2350 
   81.8750   -23.5600   106.3860     6.6370     5.9290     5.9700    22.7970     2.2420 
   82.0000   -23.7520   106.5690     6.6410     5.8690     6.0710    23.2400     2.2380 
   82.1250   -24.1190   106.2130     6.7760     5.9430     6.1830    23.4290     2.2270 
   82.2500   -24.5440   101.2650     6.9920     6.1110     6.2010    23.1930     2.2160 
   82.3750   -24.9790    93.9990     7.2510     6.3400     6.2600    22.6080     2.2060 
   82.5000   -25.3730    84.4520     7.4980     6.5810     6.4950    22.0380     2.1970 
   82.6250   -25.6960    79.0040     7.6380     6.7530     6.9010    21.8360     2.1880 
   82.7500   -25.9770    82.3290     7.6290     6.8030     7.2140    21.8480     2.1830 
   82.8750   -26.2660    92.1300     7.4730     6.7130     7.3870    21.9750     2.1820 
   83.0000   -26.5740   102.7520     7.2390     6.5210     7.3950    22.2570     2.1870 
   83.1250   -26.8480   106.1370     7.0480     6.3190     7.2110    22.4890     2.1940 
   83.2500   -27.1190   104.1720     6.9860     6.2050     7.0250    22.6180     2.1970 
   83.3750   -27.4310    99.0080     7.0720     6.2220     7.1530    22.4940     2.1960 
   83.5000   -27.7010    92.6800     7.2700     6.3660     7.7380    22.2260     2.1890 
   83.6250   -27.8700    82.8950     7.5080     6.5990     8.5500    21.9500     2.1800 
   83.7500   -27.9990    69.2340     7.7100     6.8400     8.9110    21.8280     2.1710 
   83.8750   -27.9630    60.2860     7.8430     7.0430     9.0380    21.7430     2.1620 
   84.0000   -27.6320    58.1500     7.9010     7.1780     9.1380    21.6500     2.1540 
   84.1250   -26.9940    58.8360     7.8650     7.2140     9.2560    21.5320     2.1470 
   84.2500   -26.1750    58.8750     7.7270     7.1420     9.3140    21.5390     2.1460 
   84.3750   -25.2380    58.5030     7.4560     6.9360     9.1620    21.6320     2.1550 
