~V
VERS. 2.00: Ver 2.00
~W
STRT.M 55.0000:
STOP.M 261.0000:
STEP.M 0.1250:
NULL. -999.2500:
UWI. DF5033:
~C
DEPT.M :
SP.MV :
GR.API :
CALI.CM :
RXO.OHMM :
RI. :
RML.OHMM :
DEN.GM/CC :
~A
# ...
  235.0000   -11.4910    75.0680    26.2980    10.4170    10.7010     9.3300     2.4720 
  235.1250   -11.1740    72.7450    26.2310     9.1170     9.1630     7.9310     2.4200 
  235.2500   -10.8800    68.0080    26.1920     9.0520     8.4720     7.4930     2.3890 
  235.3750   -10.6250    63.3420    26.1950    10.9180     8.3780     7.7130     2.3730 
  235.5000   -10.4190    60.8490    26.2400    16.2420     8.6620     8.2690     2.3710 
  235.6250   -10.2700    60.8800    26.3130    23.0150     9.0880     8.7970     2.3850 
  235.7500   -10.1580    61.7900    26.3860    24.3260     9.4190     9.0560     2.4040 
  235.8750   -10.0720    63.5710    26.4440    19.5390     9.5700     9.0280     2.4220 
  236.0000    -9.9920    66.4130    26.4820    13.9940     9.5570     8.8420     2.4350 
  236.1250    -9.9050    67.6280    26.4990    11.3310     9.4340     8.6920     2.4420 
  236.2500    -9.8060    66.3270    26.5030     9.8800     9.2860     8.6730     2.4400 
  236.3750    -9.6880    63.6700    26.4960     8.7560     9.1480     8.7720     2.4310 
  236.5000    -9.5730    61.4310    26.4800     7.9470     9.0270     8.9460     2.4190 
  236.6250    -9.4750    61.7600    26.4530     7.6010     8.9260     9.1310     2.4080 
  236.7500    -9.3940    64.0630    26.4160     7.5120     8.8510     9.2500     2.3950 
  236.8750    -9.3290    67.1230    26.3720     7.5220     8.8160     9.2530     2.3870 
  237.0000    -9.3040    69.2650    26.3260     7.6220     8.8270     9.1390     2.3900 
  237.1250    -9.3250    69.7070    26.2890     7.9680     8.8890     8.9870     2.4040 
  237.2500    -9.3790    69.7010    26.2660     8.5020     8.9870     8.9180     2.4180 
  237.3750    -9.4720    69.0090    26.2560     9.0360     9.1070     9.0120     2.4280 
  237.5000    -9.5730    68.1690    26.2550     9.4470     9.2370     9.2610     2.4390 
  237.6250    -9.7000    68.8770    26.2530     9.8060     9.3550     9.5670     2.4500 
  237.7500    -9.8440    70.5250    26.2470    10.1850     9.4430     9.8300     2.4580 
  237.8750    -9.9790    72.1530    26.2360    10.4810     9.4840    10.0210     2.4600 
  238.0000   -10.0770    73.2920    26.2240    10.6000     9.4760    10.1270     2.4550 
  238.1250   -10.1250    73.8750    26.2140    10.5490     9.4300    10.1150     2.4420 
  238.2500   -10.1370    72.3540    26.2070    10.4350     9.3750    10.0130     2.4300 
  238.3750   -10.1100    70.0680    26.2030    10.3320     9.3260     9.8900     2.4290 
  238.5000   -10.0640    69.1640    26.1980    10.3470     9.2940     9.8190     2.4370 
  238.6250    -9.9980    68.7560    26.1920    10.5250     9.2910     9.8420     2.4460 
  238.7500    -9.9280    68.0500    26.1830    10.6640     9.3220     9.9220     2.4440 
  238.8750    -9.8730    69.7800    26.1730    10.6540     9.3970    10.0340     2.4310 
  239.0000    -9.8380    75.5160    26.1630    10.5770     9.5150    10.1730     2.4160 
  239.1250    -9.8050    81.7010    26.1540    10.5580     9.6670    10.3400     2.4130 
  239.2500    -9.7740    84.3610    26.1470    10.5620     9.8280    10.5090     2.4240 
  239.3750    -9.7650    81.6170    26.1430    10.6310     9.9900    10.6430     2.4410 
  239.5000    -9.7870    75.2070    26.1450    10.9870    10.1540    10.7060     2.4480 
  239.6250    -9.8280    69.8870    26.1560    11.9860    10.3270    10.7210     2.4370 
  239.7500    -9.8620    68.2970    26.1720    13.8600    10.5170    10.8030     2.4220 
  239.8750    -9.8790    69.6750    26.1920    17.2240    10.7390    11.0200     2.4120 
  240.0000    -9.8770    70.5880    26.2230    21.8320    11.0090    11.3730     2.4010 
  240.1250    -9.8790    70.6500    26.2740    23.9530    11.3070    11.8100     2.3920 
  240.2500    -9.8850    69.0840    26.3370    21.7260    11.5570    12.1810     2.3970 
  240.3750    -9.8750    66.6860    26.3850    17.8500    11.6700    12.3350     2.4150 
  240.5000    -9.8380    65.6510    26.4000    15.7530    11.5880    12.2050     2.4350 
  240.6250    -9.7530    66.2490    26.3860    15.1530    11.3050    11.8550     2.4460 
  240.7500    -9.6400    67.8290    26.3760    13.9400    10.9640    11.5160     2.4470 
  240.8750    -9.5140    68.6350    26.3830    12.3470    10.6980    11.3640     2.4380 
  241.0000    -9.3850    67.3130    26.3910    11.5380    10.6190    11.5050     2.4270 
  241.1250    -9.2510    63.5450    26.3600    11.9700    10.8330    11.9710     2.4320 
  241.2500    -9.1160    60.7600    26.2850    12.9880    11.2770    12.5980     2.4550 
  241.3750    -8.9880    61.9480    26.1980    14.2320    11.8430    13.2270     2.4820 
  241.5000    -8.8520    64.3610    26.1440    15.5110    12.3560    13.6830     2.5000 
  241.6250    -8.7260    65.0400    26.1540    16.3060    12.5970    13.7770     2.5020 
  241.7500    -8.6040    65.5490    26.1970    16.0420    12.5640    13.5920     2.4980 
  241.8750    -8.4660    65.7000    26.2340    15.0290    12.3550    13.2780     2.4930 
  242.0000    -8.3180    63.6580    26.2430    14.9280    12.1200    13.0090     2.4890 
  242.1250    -8.1620    59.5100    26.2230    17.6380    12.0040    12.9510     2.4940 
  242.2500    -8.0060    57.9700    26.1990    21.4680    12.0330    13.1050     2.5100 
  242.3750    -7.8730    60.7620    26.1850    24.0160    12.1800    13.4070     2.5290 
  242.5000    -7.7760    65.3400    26.1840    24.1090    12.3930    13.7500     2.5380 
  242.6250    -7.7230    66.9300    26.1860    21.8380    12.6300    14.0240     2.5370 
  242.7500    -7.7090    65.0700    26.1870    18.6840    12.8710    14.2010     2.5320 
  242.8750    -7.7340    64.0470    26.1840    15.9830    13.1100    14.3090     2.5250 
  243.0000    -7.7880    65.7380    26.1810    14.5320    13.3430    14.4190     2.5120 
  243.1250    -7.8640    68.2600    26.1760    14.0620    13.5480    14.6090     2.4970 
  243.2500    -7.9360    69.3200    26.1670    13.9320    13.7060    14.8540     2.4900 
  243.3750    -7.9750    69.1590    26.1530    14.2420    13.8130    15.1090     2.4950 
  243.5000    -7.9850    69.0550    26.1390    15.0820    13.8870    15.3500     2.5100 
  243.6250    -7.9850    68.8270    26.1300    16.2230    13.9520    15.5490     2.5280 
  243.7500    -7.9890    67.7250    26.1450    17.3400    14.0100    15.6650     2.5350 
  243.8750    -8.0130    66.3100    26.2230    18.1750    14.0450    15.6700     2.5260 
  244.0000    -8.0750    65.1000    26.4000    18.2880    14.0320    15.5440     2.5070 
  244.1250    -8.2030    64.2310    26.6680    17.4140    13.9330    15.2400     2.4930 
  244.2500    -8.3950    64.6970    26.9000    16.2500    13.7470    14.8460     2.4900 
  244.3750    -8.6480    68.2530    26.9750    15.1410    13.4830    14.4880     2.4970 
  244.5000    -8.9500    73.9040    26.8480    13.9340    13.1600    14.2480     2.5080 
  244.6250    -9.2650    76.8380    26.5820    12.6610    12.8040    14.1170     2.5160 
  244.7500    -9.5800    76.3690    26.3430    11.7920    12.4530    13.9900     2.5190 
  244.8750    -9.8820    74.1770    26.2250    11.3350    12.1250    13.7910     2.5110 
  245.0000   -10.1370    71.1230    26.2530    10.8260    11.8260    13.4930     2.4910 
  245.1250   -10.3050    67.8950    26.4280    10.1480    11.5670    13.1440     2.4660 
  245.2500   -10.3910    67.1850    26.6850     9.8050    11.3640    12.8440     2.4520 
  245.3750   -10.4130    69.4850    26.9460    10.0560    11.2510    12.6410     2.4530 
  245.5000   -10.4020    72.3190    27.0900    10.8700    11.2550    12.5470     2.4600 
  245.6250   -10.3780    73.5710    26.9690    12.2080    11.3970    12.5430     2.4600 
  245.7500   -10.3440    73.7720    26.6320    13.8350    11.6180    12.6130     2.4560 
  245.8750   -10.3100    73.1390    26.2020    15.4790    11.8610    12.7660     2.4580 
  246.0000   -10.2860    70.9550    25.8210    16.6940    12.0490    12.9700     2.4700 
  246.1250   -10.2830    70.3650    25.5990    16.5060    12.0990    13.1640     2.4790 
