~V
VERS. 2.00: Ver 2.00
~W
STRT.M 61.0000:
STOP.M 236.0000:
STEP.M 0.1250:
NULL. -999.2500:
UWI. DF5057:
~C
DEPT.M :
GR.API :
RML.OHMM :
RI. :
RXO.OHMM :
CALI.CM :
DEN.GM/CC :
SP.MV :
~A
# ...
  184.7500    51.2540     7.0780     6.1280     5.7130    25.1710     2.4060    -0.5260 
  184.8750    51.9020     6.9860     6.0740     5.7420    24.8870     2.4000    -0.3750 
  185.0000    53.3480     6.8740     6.0020     5.5210    24.6170     2.3920    -0.2510 
  185.1250    57.4690     6.8280     5.9640     5.3610    24.8830     2.3890    -0.2280 
  185.2500    64.9470     6.9020     5.9980     5.3190    25.2000     2.3930    -0.2970 
  185.3750    73.0420     7.0960     6.1130     5.4990    25.3940     2.4000    -0.3740 
  185.5000    78.5250     7.3470     6.2770     5.9610    25.5100     2.4070    -0.4690 
  185.6250    82.0520     7.5150     6.4060     6.5300    25.5570     2.4130    -0.5830 
  185.7500    85.2370     7.5100     6.4270     6.7400    25.5720     2.4180    -0.6370 
  185.8750    86.1060     7.3200     6.3180     6.5800    25.5700     2.4250    -0.6060 
  186.0000    82.9790     7.0120     6.1160     6.1460    25.5650     2.4320    -0.5140 
  186.1250    80.1790     6.7050     5.8940     5.7620    25.5580     2.4380    -0.2950 
  186.2500    81.7600     6.4910     5.7230     5.5510    25.5650     2.4420    -0.0020 
  186.3750    85.0590     6.3920     5.6300     5.5630    25.5700     2.4420     0.2750 
  186.5000    85.0570     6.3950     5.6120     5.6990    25.5730     2.4400     0.5510 
  186.6250    82.4730     6.4740     5.6620     5.7970    25.5820     2.4340     0.8200 
  186.7500    82.4700     6.5880     5.7500     5.8690    25.6010     2.4260     1.0150 
  186.8750    85.6380     6.7160     5.8600     6.0290    25.6250     2.4160     1.0760 
  187.0000    87.8320     6.8380     5.9800     6.2310    25.6320     2.4070     0.9920 
  187.1250    85.7650     6.9330     6.0960     6.4610    25.6160     2.4000     0.8090 
  187.2500    84.2350     6.9970     6.1980     6.6350    25.5850     2.3980     0.5650 
  187.3750    85.4350     7.0410     6.2840     6.8440    25.5630     2.4010     0.3000 
  187.5000    87.6970     7.0860     6.3590     7.0500    25.5530     2.4080     0.0350 
  187.6250    87.9230     7.1830     6.4530     7.2110    25.5590     2.4140    -0.2090 
  187.7500    87.0650     7.4020     6.6190     7.5220    25.5790     2.4180    -0.4400 
  187.8750    86.1010     7.8210     6.9240     7.9520    25.6120     2.4200    -0.6750 
  188.0000    83.9680     8.4990     7.4250     8.5630    25.6340     2.4230    -0.8520 
  188.1250    81.5540     9.4770     8.1800     9.4810    25.6370     2.4290    -1.0480 
  188.2500    79.3290    10.5830     9.0890    11.1220    25.6170     2.4350    -1.2850 
  188.3750    77.8090    11.5830     9.9920    13.1500    25.5870     2.4370    -1.5170 
  188.5000    78.4370    12.2110    10.6710    13.5300    25.5930     2.4330    -1.7630 
  188.6250    80.4260    12.2150    10.8900    13.2290    25.6320     2.4230    -2.0640 
  188.7500    80.4910    11.7650    10.7360    12.2760    25.6430     2.4130    -2.3330 
  188.8750    79.8150    11.0840    10.3660    11.2150    25.6420     2.4080    -2.5330 
  189.0000    82.0960    10.3950     9.9530    10.1790    25.6330     2.4070    -2.7190 
  189.1250    86.2390     9.8540     9.6300     9.8200    25.6040     2.4100    -2.8680 
  189.2500    88.5700     9.4500     9.4110     9.8360    25.5570     2.4150    -3.0140 
  189.3750    89.5300     9.1710     9.2940     9.4930    25.5280     2.4190    -3.1600 
  189.5000    90.2720     9.0420     9.2940     9.0550    25.5250     2.4220    -3.3040 
  189.6250    89.0330     9.1530     9.4800     8.8540    25.5450     2.4200    -3.4170 
  189.7500    85.3910     9.4950     9.8520     9.2440    25.5950     2.4130    -3.5330 
  189.8750    81.7220    10.0180    10.3860     9.9010    25.6400     2.4030    -3.6570 
  190.0000    80.2870    10.5880    10.9870    11.1460    25.6190     2.3950    -3.7790 
  190.1250    80.2970    10.9390    11.4250    11.8250    25.5750     2.3920    -3.8690 
  190.2500    80.5630    10.8970    11.5050    11.8310    25.5780     2.3920    -3.9160 
  190.3750    82.0930    10.4220    11.1480    11.0430    25.6230     2.3920    -3.9640 
  190.5000    87.0940     9.6420    10.4590    10.1320    25.6140     2.3900    -3.9910 
  190.6250    91.8610     8.8760     9.7260     9.3040    25.5370     2.3880    -4.0170 
  190.7500    91.2740     8.4970     9.2880     8.6900    25.4640     2.3880    -4.0680 
  190.8750    87.2910     8.7910     9.3890     8.5980    25.4520     2.3900    -4.1580 
  191.0000    83.9840     9.9970    10.2310     9.3940    25.4770     2.3890    -4.3290 
  191.1250    83.1450    12.5520    12.2440    12.9130    25.5060     2.3780    -4.6320 
  191.2500    80.9670    16.4180    15.5510    20.3590    25.5000     2.3600    -4.9730 
  191.3750    76.5840    23.0520    20.3100    29.0150    25.4950     2.3400    -5.3440 
  191.5000    72.1500    29.9740    26.4620    32.2770    25.5280     2.3230    -5.8070 
  191.6250    69.3690    37.3780    33.8210    30.9630    25.5830     2.3110    -6.2730 
  191.7500    67.1280    45.2910    41.6860    39.6220    25.6140     2.2990    -6.7260 
  191.8750    65.6430    53.4210    49.5230    56.0950    25.5890     2.2820    -7.1830 
  192.0000    66.8290    61.3880    56.8100    73.3150    25.5110     2.2580    -7.5530 
  192.1250    69.6030    68.6510    63.0030    83.6400    25.4480     2.2310    -7.8410 
  192.2500    69.9870    75.2020    68.3120    80.1000    25.4150     2.2100    -8.1260 
  192.3750    68.0340    81.5910    73.3540    64.2340    25.3320     2.2080    -8.3600 
  192.5000    67.2850    88.7550    79.0400    54.0250    25.2310     2.2330    -8.5560 
  192.6250    67.9620    97.3450    86.0750    57.6260    25.1740     2.2810    -8.7780 
  192.7500    67.4970   106.1840    93.6100    75.6700    25.0870     2.3260    -9.0430 
  192.8750    66.4210   113.5490   100.3490    80.5390    24.9800     2.3440    -9.3250 
  193.0000    66.9830   118.0990   105.1620    65.3920    24.9530     2.3250    -9.6330 
  193.1250    69.5390   119.4220   107.4180    58.6430    24.9360     2.2780    -9.9730 
  193.2500    70.7460   119.3160   108.2730    57.3500    24.8940     2.2330   -10.2650 
  193.3750    70.5450   119.1320   108.8130    56.6480    24.8530     2.2020   -10.5700 
  193.5000    71.0690   119.7340   109.8630    54.5920    24.8310     2.1850   -10.8930 
  193.6250    72.5610   121.5160   111.8520    53.6370    24.8080     2.1770   -11.1650 
  193.7500    72.2010   124.1040   114.4880    53.7160    24.7800     2.1700   -11.3420 
  193.8750    69.3260   127.2270   117.5330    55.0160    24.7620     2.1630   -11.4770 
  194.0000    67.3590   130.5900   120.7530    56.3960    24.7470     2.1590   -11.6430 
  194.1250    69.5470   133.9250   123.9520    56.7410    24.7260     2.1620   -11.7220 
  194.2500    73.0540   137.3000   127.2040    58.9900    24.7220     2.1680   -11.7890 
  194.3750    72.9920   141.1160   130.8480    61.9950    24.7200     2.1770   -11.8690 
  194.5000    68.7870   145.8510   135.2860    62.6870    24.6890     2.1840   -11.8660 
  194.6250    66.4980   151.8510   140.8250    62.9080    24.6520     2.1870   -11.8690 
  194.7500    67.1610   158.3790   146.8790    62.4610    24.6640     2.1850   -11.9520 
  194.8750    68.6150   164.3430   152.5780    61.0000    24.7510     2.1810   -12.0270 
  195.0000    69.9530   168.4950   156.9020    59.6720    24.8730     2.1750   -12.0610 
  195.1250    71.4300   169.4300   158.6110    59.4870    24.9520     2.1690   -12.0930 
  195.2500    70.4860   167.5240   157.8450    61.1060    24.9970     2.1660   -12.1350 
  195.3750    66.5470   163.2650   154.9130    64.3190    25.0260     2.1650   -12.1400 
  195.5000    63.1700   157.2090   150.2760    66.5040    25.0490     2.1680   -12.1640 
  195.6250    64.7670   149.5600   144.1250    66.6830    25.0850     2.1740   -12.2720 
  195.7500    68.6320   140.9060   136.9860    66.2300    25.1270     2.1830   -12.3360 
  195.8750    70.5670   131.7510   129.2690    67.8740    25.1640     2.1920   -12.3960 
