~V
VERS. 2.00: Ver 2.00
~W
STRT.M 50.0000:
STOP.M 276.0000:
STEP.M 0.1250:
NULL. -999.2500:
UWI. DF5011:
~C
DEPT.M :
DEN.GM/CC :
GR.API :
CALI.CM :
RXO.OHMM :
RI. :
RML.OHMM :
SP.MV :
~A
# ...
  230.0000     2.3350    53.2950    24.5520   151.1350   155.5230   175.5800   -22.6520 
  230.1250     2.4020    52.4250    24.5020   147.0350   144.6140   159.6100   -22.2220 
  230.2500     2.4680    50.8870    24.4530   117.8470   112.2830   119.4490   -21.7370 
  230.3750     2.5210    50.7590    24.3330    96.8240    73.0620    75.2870   -21.3680 
  230.5000     2.5620    51.5020    24.1240    66.0600    41.3960    41.6490   -20.9120 
  230.6250     2.5850    50.7390    23.8950    27.9940    21.8860    21.3930   -20.4290 
  230.7500     2.5690    48.6060    23.7840     9.3450    12.6790    11.9910   -20.0660 
  230.8750     2.5160    47.8660    23.8080     5.2420     8.1160     7.5340   -19.7090 
  231.0000     2.4480    50.8580    23.8890     4.5440     5.9650     5.6580   -19.4530 
  231.1250     2.3930    57.7270    23.9430     4.3810     5.1230     5.1210   -19.1240 
  231.2500     2.3760    65.8310    23.9560     5.1010     5.1930     5.4090   -19.0530 
  231.3750     2.3860    70.8570    23.9720     6.2110     5.7440     6.0620   -19.0720 
  231.5000     2.4030    73.8310    23.9970     6.9980     6.5220     6.8040   -19.0170 
  231.6250     2.4100    79.6080    24.0140     7.1050     7.2660     7.3810   -19.1420 
  231.7500     2.4070    88.8050    24.0150     6.8850     7.7340     7.6120   -19.2470 
  231.8750     2.4030    96.3330    24.0120     6.8060     7.9400     7.6020   -19.3580 
  232.0000     2.4030   100.6360    24.0110     6.8970     7.9690     7.4760   -19.5430 
  232.1250     2.4050   104.3850    24.0120     6.9980     7.9180     7.3400   -19.7270 
  232.2500     2.4030   107.0990    24.0120     7.1060     7.8550     7.2670   -19.8780 
  232.3750     2.3970   104.6360    24.0120     7.3620     7.8110     7.2630   -19.9930 
  232.5000     2.3940    97.5900    24.0120     7.5050     7.7870     7.3190   -20.1620 
  232.6250     2.3950    92.5000    24.0120     7.3960     7.7920     7.4350   -20.3740 
  232.7500     2.4000    95.2820    24.0120     7.4920     7.8780     7.6630   -20.4940 
  232.8750     2.4070    98.1500    24.0120     8.4330     8.0880     8.0310   -20.6790 
  233.0000     2.4170    95.2090    24.0120     8.9150     8.4420     8.5390   -20.8040 
  233.1250     2.4290    90.4450    24.0120     8.3810     8.9050     9.1290   -20.9170 
  233.2500     2.4400    90.3480    24.0120     8.5560     9.3380     9.6290   -21.0720 
  233.3750     2.4470    91.7030    24.0120     9.4270     9.5470     9.8500   -21.1790 
  233.5000     2.4420    92.1720    24.0120     9.4930     9.3960     9.6820   -21.3230 
  233.6250     2.4200    93.1950    24.0120     8.1910     8.8890     9.1670   -21.4720 
  233.7500     2.3880    94.7970    24.0120     6.6890     8.1470     8.4620   -21.6080 
  233.8750     2.3620    94.9340    24.0120     6.5690     7.3840     7.7810   -21.7620 
  234.0000     2.3510    94.9630    24.0120     6.6100     6.7170     7.2320   -21.9110 
  234.1250     2.3510    96.6800    24.0120     6.6080     6.2290     6.8840   -22.0880 
  234.2500     2.3520    96.6920    24.0120     6.4040     6.0330     6.8620   -22.2730 
  234.3750     2.3470    94.7480    24.0120     6.2960     6.1760     7.2680   -22.3870 
  234.5000     2.3390    94.2040    24.0120     6.7180     6.7790     8.3210   -22.5150 
  234.6250     2.3370    95.0450    24.0120     8.5790     8.0230    10.3100   -22.7100 
  234.7500     2.3450    91.8410    24.0120    12.6540    10.3850    13.8570   -22.9220 
  234.8750     2.3520    84.2930    24.0120    18.7960    14.1510    19.1830   -23.1430 
  235.0000     2.3470    77.1360    24.0120    26.2450    19.7830    26.6700   -23.3870 
  235.1250     2.3320    74.4450    24.0120    33.0210    27.7300    36.7100   -23.5700 
  235.2500     2.3100    72.6910    24.0120    37.0120    38.9490    50.3770   -23.7930 
  235.3750     2.2850    68.4770    24.0090    53.1210    53.3250    67.6600   -24.1440 
  235.5000     2.2560    62.4170    24.0120   101.4290    70.3270    88.1520   -24.3800 
  235.6250     2.2290    58.2770    24.0530   173.3650    87.7040   109.3590   -24.5280 
  235.7500     2.2120    59.1490    24.1470   203.3900   100.2320   124.5640   -24.7420 
  235.8750     2.2030    60.9720    24.2390   187.7010   105.2460   130.0010   -24.8420 
  236.0000     2.1990    59.5930    24.2840   148.7170   103.9050   127.5550   -24.9840 
  236.1250     2.2000    55.4980    24.2850   104.9640   100.2170   122.8480   -25.1500 
  236.2500     2.2020    53.3110    24.2780    94.4340    98.1810   120.6530   -25.1780 
  236.3750     2.2030    54.2180    24.2770   119.6040    98.0200   120.3960   -25.2140 
  236.5000     2.1990    55.1000    24.2760   170.9040    97.6990   119.0500   -25.3330 
  236.6250     2.1950    54.2930    24.2770   184.2120    94.6820   113.3790   -25.4740 
  236.7500     2.1950    53.5040    24.2760   147.1830    87.0630   101.7120   -25.5210 
  236.8750     2.1990    54.1650    24.2760    94.1730    76.9640    87.7580   -25.6440 
  237.0000     2.2040    56.4030    24.2760    63.8860    66.8720    74.8320   -25.6900 
  237.1250     2.2070    59.9570    24.2760    46.3120    58.5960    64.7570   -25.7360 
  237.2500     2.2080    62.8940    24.2760    45.0680    53.1020    58.1870   -25.8520 
  237.3750     2.2100    63.9770    24.2760    45.5950    49.7340    54.0380   -25.8610 
  237.5000     2.2120    64.2690    24.2760    49.9920    48.2250    51.9580   -25.9480 
  237.6250     2.2150    64.8860    24.2760    51.4190    48.5860    52.0040   -25.9800 
  237.7500     2.2200    65.4220    24.2760    44.9040    51.5440    54.9900   -26.0900 
  237.8750     2.2230    64.4040    24.2760    47.3030    56.8980    60.5380   -26.2360 
  238.0000     2.2190    62.8910    24.2760    67.4980    63.8360    67.5830   -26.2770 
  238.1250     2.2100    62.0690    24.2760    91.6320    70.1510    73.6130   -26.4370 
  238.2500     2.1980    61.2860    24.2760   107.1370    71.6250    74.0820   -26.6250 
  238.3750     2.1920    60.7810    24.2760    93.4830    66.9680    68.0840   -26.7820 
  238.5000     2.1930    61.0580    24.2760    60.9600    57.7050    57.7490   -26.9620 
  238.6250     2.2060    62.1930    24.2760    37.1590    47.3780    46.9410   -27.1510 
  238.7500     2.2310    63.3020    24.2760    34.6110    39.6000    39.2460   -27.3980 
  238.8750     2.2570    65.3670    24.2760    30.8360    35.1790    35.2700   -27.6240 
  239.0000     2.2680    69.0730    24.2760    27.0230    34.1890    35.1010   -27.9550 
  239.1250     2.2600    71.0660    24.2760    28.0760    36.7200    38.7600   -28.4080 
  239.2500     2.2410    67.2750    24.2760    47.4470    43.4460    46.5990   -28.7160 
  239.3750     2.2240    61.0460    24.2760    71.7290    52.9550    56.7700   -29.0970 
  239.5000     2.2140    56.7390    24.2760    89.5070    62.9930    66.6920   -29.5610 
  239.6250     2.2090    56.0390    24.2760    96.0620    70.2730    72.9600   -29.9570 
  239.7500     2.2060    58.5530    24.2760    83.7180    71.5800    72.6970   -30.3870 
  239.8750     2.2040    61.0230    24.2760    63.9600    68.9100    68.7720   -30.8510 
  240.0000     2.2040    61.7280    24.2760    53.7420    65.2010    64.5320   -31.2550 
  240.1250     2.2070    61.5650    24.2760    61.5020    63.0050    62.4550   -31.5800 
  240.2500     2.2100    61.1650    24.2770    66.9810    64.1600    64.1080   -31.8830 
  240.3750     2.2190    60.2570    24.2760    60.7980    68.1010    68.5590   -32.1410 
  240.5000     2.2510    59.2380    24.2750    53.6540    73.5880    74.3220   -32.2430 
  240.6250     2.3230    59.2640    24.2730    68.4720    78.3790    78.9260   -32.2690 
  240.7500     2.4220    59.0710    24.2720   125.4670    79.1570    78.8730   -32.2890 
  240.8750     2.4940    57.9230    24.2740   154.8730    75.5220    74.1650   -32.1560 
  241.0000     2.4980    57.9380    24.2750   119.7790    68.9960    66.8250   -32.0560 
  241.1250     2.4360    59.7260    24.2740    66.3540    62.1270    59.6970   -31.9820 
