~V
VERS. 2.00: Ver 2.00
~W
STRT.M 60.0000:
STOP.M 261.0000:
STEP.M 0.1250:
NULL. -999.2500:
UWI. DF5055:
~C
DEPT.M :
SP.MV :
GR.API :
RML.OHMM :
RI. :
RXO.OHMM :
CALI.CM :
DEN.GM/CC :
~A
# ...
  251.2500    -5.3080    65.1760    18.8270    18.6400    21.6970    25.1860     2.4570 
  251.3750    -5.2720    65.1760    18.8720    18.7500    19.6430    25.2190     2.4480 
  251.5000    -5.2590    65.1760    18.8350    18.8190    18.2840    25.2140     2.4600 
  251.6250    -5.2490    65.1760    18.7140    18.8280    20.9040    25.1100     2.4850 
  251.7500    -5.2240    65.1760    18.5430    18.7900    22.0760    24.9780     2.5090 
  251.8750    -5.1790    65.1760    18.3570    18.7280    20.9650    24.9130     2.5260 
  252.0000    -5.1190    65.1760    18.1960    18.6770    19.2150    24.9280     2.5350 
  252.1250    -5.0840    65.1760    18.1140    18.6700    18.2310    24.9360     2.5370 
  252.2500    -5.0350    65.1760    18.1210    18.7100    17.6010    24.9130     2.5320 
  252.3750    -4.9800    65.1760    18.1810    18.7630    18.3360    24.8840     2.5190 
  252.5000    -4.8940    65.1760    18.1750    18.7300    19.5500    24.9130     2.5000 
  252.6250    -4.7730    65.1760    17.8440    18.3780    21.4790    25.0250     2.4770 
  252.7500    -4.7050    65.1760    17.0910    17.6150    19.9930    25.1140     2.4550 
  252.8750    -4.6730    65.1760    15.9680    16.4960    17.9810    25.1390     2.4320 
  253.0000    -4.6770    65.1760    14.7010    15.2370    16.4630    25.1270     2.4140 
  253.1250    -4.6790    65.1760    13.6850    14.1990    12.9390    25.1070     2.4110 
  253.2500    -4.6910    65.1760    13.2000    13.6210    11.2090    25.1230     2.4210 
  253.3750    -4.6770    65.1760    13.4080    13.6450    12.4070    25.1700     2.4400 
  253.5000    -4.6560    65.1760    14.3450    14.3380    13.7270    25.2220     2.4540 
  253.6250    -4.6080    65.1760    16.0380    15.8040    16.4410    25.3680     2.4550 
  253.7500    -4.4660    65.1760    18.1670    17.8200    17.8940    25.4450     2.4510 
  253.8750    -4.2660    65.1760    20.4280    20.1280    19.8290    25.4710     2.4540 
  254.0000    -3.9820    65.1760    22.4500    22.3220    22.3870    25.4470     2.4680 
  254.1250    -3.7380    65.1760    23.7930    23.8600    24.3240    25.3660     2.4880 
  254.2500    -3.5470    65.1760    24.4490    24.6400    24.1730    25.2770     2.5020 
  254.3750    -3.3610    65.1760    24.5520    24.7720    23.6110    25.1800     2.5030 
  254.5000    -3.1470    65.1760    24.3450    24.5230    26.5550    25.0950     2.4880 
  254.6250    -3.0240    65.1760    24.0760    24.1840    26.6700    25.0300     2.4650 
  254.7500    -2.9710    65.1760    23.8810    23.9390    21.7580    24.9880     2.4470 
  254.8750    -2.9450    65.1760    23.7530    23.7980    17.2750    24.9370     2.4440 
  255.0000    -2.9920    65.1760    23.6400    23.7110    14.5440    24.8600     2.4590 
  255.1250    -3.0120    65.1760    23.4840    23.6270    13.5280    24.7510     2.4870 
  255.2500    -3.0130    65.1760    23.1870    23.5250    13.9370    24.6350     2.5130 
  255.3750    -3.0680    65.1760    22.4810    23.4190    15.4490    24.5080     2.5310 
  255.5000    -3.1750    65.1760    21.1480    23.3250    17.7570    24.4380     2.5410 
  255.6250    -3.1990    65.1760    19.2070    23.2390    18.4690    24.3800     2.5470 
  255.7500    -3.2480    65.1760    18.0540    23.1730    18.1370    24.3510     2.5500 
  255.8750    -3.3450    65.1760    18.0540    23.1730    18.5820    24.3270     2.5500 
  256.0000    -3.3710    65.1760    18.0540    23.1730    20.9700    24.3100     2.5450 
  256.1250    -3.3540    65.1760    18.0540    23.1730    27.2450    24.3090     2.5370 
  256.2500    -3.3430    65.1760    18.0540    23.1730    27.8420    24.3120     2.5330 
  256.3750    -3.3380    65.1760    18.0540    23.1730    31.6900    24.3190     2.5350 
  256.5000    -3.3080    65.1760    18.0540    23.1730    27.0340    24.3120     2.5380 
  256.6250    -3.3220    65.1760    18.0540    23.1730    22.0770    24.3230     2.5370 
  256.7500    -3.3050    65.1760    18.0540    23.1730    19.2180    24.4080     2.5310 
  256.8750    -3.2660    65.1760    18.0540    23.1730    19.1090    24.5320     2.5230 
  257.0000    -3.2590    65.1760    18.0540    23.1730    19.6310    24.6390     2.5190 
  257.1250    -3.2550    65.1760    18.0540    23.1730    20.1600    24.6730     2.5190 
  257.2500    -3.2380    65.1760    18.0540    23.1730    21.0500    24.6840     2.5190 
  257.3750    -3.2360    65.1760    18.0540    23.1730    21.8840    24.6970     2.5170 
  257.5000    -3.2800    65.1760    18.0540    23.1730    22.5920    24.7130     2.5120 
  257.6250    -3.3310    65.1760    18.0540    23.1730    23.3930    24.7810     2.5050 
  257.7500    -3.3190    65.1760    18.0540    23.1730    24.6980    24.8690     2.5000 
  257.8750    -3.2640    65.1760    18.0540    23.1730    25.8640    24.9620     2.5010 
  258.0000    -3.2310    65.1760    18.0540    23.1730    26.1240    25.0090     2.5060 
  258.1250    -3.2730    65.1760    18.0540    23.1730    25.9760    25.0200     2.5120 
  258.2500    -3.2620    65.1760    18.0540    23.1730    27.2050    25.0260     2.5160 
  258.3750    -3.1570    65.1760    18.0540    23.1730    27.2790    25.0370     2.5170 
  258.5000    -3.0200    65.1760    18.0540    23.1730    24.4950    25.0660     2.5140 
  258.6250    -2.8940    65.1760    18.0540    23.1730    22.3600    25.0980     2.5110 
  258.7500    -2.8270    65.1760    18.0540    23.1730    22.7450    25.1280     2.5100 
  258.8750    -2.7550    65.1760    18.0540    23.1730    24.3570    25.1500     2.5110 
  259.0000    -2.6550    65.1760    18.0540    23.1730    22.8480    25.1660     2.5140 
  259.1250    -2.5500    65.1760    18.0540    23.1730    22.5760    25.1700     2.5150 
  259.2500    -2.5500    65.1760    18.0540    23.1730    23.1480    25.0780     2.5140 
  259.3750    -2.5500    65.1760    18.0540    23.1730    28.5440    24.9480     2.5140 
  259.5000  -999.2500    65.1760    18.0540    23.1730    35.5140    24.7280     2.5090 
  259.6250  -999.2500    65.1760    18.0540    23.1730    35.2960    24.3120     2.4790 
  259.7500  -999.2500    65.1760    18.0540    23.1730    29.8880    23.8290     2.4030 
  259.8750  -999.2500    65.1760    18.0540    23.1730    27.2440    23.6270     2.2780 
  260.0000  -999.2500    65.1760    18.0540    23.1730    26.7520    23.5790     2.1210 
  260.1250  -999.2500    65.1760    18.0540    23.1730    26.7400    23.5710     1.9710 
  260.2500  -999.2500    65.1760    18.0540    23.1730    26.7260    23.5600     1.8600 
  260.3750  -999.2500    65.1760    18.0540    23.1730    26.7210    23.5410     1.7980 
  260.5000  -999.2500    65.1760    18.0540    23.1730    26.6420    23.5180     1.7740 
  260.6250  -999.2500    65.1760    18.0540    23.1730    24.6360    23.4940     1.7720 
  260.7500  -999.2500  -999.2500  -999.2500  -999.2500  -999.2500  -999.2500     1.7760 
  260.8750  -999.2500  -999.2500  -999.2500  -999.2500  -999.2500  -999.2500     1.7780 
  261.0000  -999.2500  -999.2500  -999.2500  -999.2500  -999.2500  -999.2500     1.7850 
