~V
VERS. 2.00: Ver 2.00
~W
STRT.M 72.0000:
STOP.M 259.0000:
STEP.M 0.1250:
NULL. -999.2500:
UWI. DF5020:
~C
DEPT.M :
DEN.GM/CC :
GR.API :
RML.OHMM :
RI. :
RXO.OHMM :
CALI.CM :
SP.MV :
~A
# ...
  207.0000     2.4090    87.1420     7.2480     6.4220     6.5190    24.6200   -19.4210 
  207.1250     2.3910    85.7830     7.1270     6.2840     6.6670    24.6320   -19.2760 
  207.2500     2.3700    80.6270     7.1540     6.2660     6.6540    24.6320   -19.2230 
  207.3750     2.3510    77.4630     7.3680     6.4150     7.0680    24.6320   -19.2020 
  207.5000     2.3390    79.5750     7.7670     6.7480     8.0900    24.6320   -19.2320 
  207.6250     2.3400    84.3830     8.3120     7.2570     9.6410    24.6320   -19.2930 
  207.7500     2.3500    86.5660     8.8860     7.8430    10.5270    24.6320   -19.3850 
  207.8750     2.3670    86.4300     9.3980     8.4190    10.6640    24.6320   -19.4530 
  208.0000     2.3840    86.1250     9.7780     8.9060    10.9730    24.6320   -19.5500 
  208.1250     2.3950    86.7100     9.9740     9.2340    11.9440    24.6320   -19.6300 
  208.2500     2.3980    87.7770    10.0640     9.4430    12.8520    24.6320   -19.6260 
  208.3750     2.3950    88.5700    10.1540     9.6110    13.4060    24.6320   -19.6260 
  208.5000     2.3900    87.6060    10.3760     9.8480    13.6030    24.6320   -19.5680 
  208.6250     2.3900    85.2860    10.8880    10.3010    14.0470    24.6320   -19.5270 
  208.7500     2.3970    83.8050    11.6660    10.9940    14.7420    24.6320   -19.4550 
  208.8750     2.4120    83.7280    12.6170    11.8900    16.0380    24.6170   -19.4200 
  209.0000     2.4300    82.9930    13.5970    12.8760    18.8370    24.5810   -19.4030 
  209.1250     2.4420    81.8350    14.4780    13.8050    21.2060    24.5220   -19.4590 
  209.2500     2.4430    81.3770    15.0300    14.6680    22.2540    24.5470   -19.5920 
  209.3750     2.4360    80.1140    15.4780    15.7180    24.1360    24.6200   -19.7710 
  209.5000     2.4270    76.2610    16.5790    17.5970    24.0730    24.6560   -20.0500 
  209.6250     2.4210    71.4370    20.7480    22.0800    24.8570    24.6860   -20.3630 
  209.7500     2.4130    67.8600    30.7730    30.7290    32.1460    24.6950   -20.7400 
  209.8750     2.3950    64.1520    49.3350    45.0430    51.2150    24.6810   -21.1580 
  210.0000     2.3620    60.4970    77.4050    65.3370    80.9140    24.6930   -21.6060 
  210.1250     2.3170    60.7820   111.4120    89.8730   142.0220    24.7300   -22.0370 
  210.2500     2.2710    63.3750   141.1330   113.0840   224.0150    24.8200   -22.4490 
  210.3750     2.2320    65.1240   163.1090   130.1300   245.9330    24.8740   -22.8010 
  210.5000     2.2050    64.4360   173.0250   138.3640   223.5680    24.8660   -23.1320 
  210.6250     2.1910    63.1330   171.7010   138.0550   229.0200    24.7840   -23.4080 
  210.7500     2.1910    63.1830   167.1600   134.5520   216.3220    24.6830   -23.6510 
  210.8750     2.2020    63.7580   163.4240   131.0160   187.2000    24.6020   -23.8480 
  211.0000     2.2200    62.3550   162.1620   129.1730   161.3630    24.5800   -23.9990 
  211.1250     2.2360    59.0790   164.2370   130.0880   144.3070    24.6410   -24.0650 
  211.2500     2.2430    59.0930   169.0130   133.4250   149.6690    24.7330   -24.1180 
  211.3750     2.2390    62.2910   176.2730   139.0530   168.9640    24.8240   -24.1850 
  211.5000     2.2270    63.7190   186.0070   146.9100   179.1480    24.8560   -24.2000 
  211.6250     2.2130    62.6810   199.1190   157.5710   185.3970    24.8640   -24.2390 
  211.7500     2.2030    62.9890   215.5810   170.8470   211.9330    24.7750   -24.2400 
  211.8750     2.1970    64.2580   234.9090   186.3740   235.4640    24.6150   -24.2780 
  212.0000     2.1950    63.4450   254.9080   202.6770   256.1320    24.5650   -24.3100 
  212.1250     2.1940    61.1640   270.0140   215.9930   297.3940    24.6950   -24.4290 
  212.2500     2.1920    60.2060   275.3610   222.7250   339.4460    24.8230   -24.5420 
  212.3750     2.1890    59.9410   268.2960   220.5440   378.7530    24.8860   -24.6730 
  212.5000     2.1860    59.5830   250.3790   209.7220   393.9880    24.9070   -24.8230 
  212.6250     2.1860    59.9780   227.2980   193.2160   384.4630    24.8940   -24.9800 
  212.7500     2.1910    61.6100   206.7770   177.0340   351.7070    24.8760   -25.1620 
  212.8750     2.1970    63.6180   192.2310   164.6510   275.4780    24.8810   -25.3070 
  213.0000     2.2010    64.5410   184.1050   157.4150   201.9220    24.8950   -25.4700 
  213.1250     2.2010    63.3550   181.0420   155.0370   181.4120    24.8930   -25.5550 
  213.2500     2.1980    62.3750   179.1450   154.3970   181.7790    24.8750   -25.6440 
  213.3750     2.1970    62.4220   175.9260   153.2360   181.4460    24.8700   -25.6960 
  213.5000     2.2000    62.2560   170.1250   150.0700   188.3120    24.8580   -25.7320 
  213.6250     2.2070    59.6960   162.0640   144.4850   187.3260    24.8280   -25.6870 
  213.7500     2.2150    57.7160   154.0810   138.1730   165.9800    24.8110   -25.6560 
  213.8750     2.2210    58.0490   147.8490   132.6800   135.2970    24.8070   -25.5890 
  214.0000     2.2230    59.5670   144.2090   129.0920   115.4230    24.8070   -25.5130 
  214.1250     2.2220    60.8740   143.5900   128.1530   118.6680    24.8200   -25.4130 
  214.2500     2.2180    61.4370   145.1390   129.2680   129.1620    24.8350   -25.2960 
  214.3750     2.2150    61.9860   148.6150   132.1850   142.0420    24.8320   -25.1560 
  214.5000     2.2120    63.6620   154.2210   136.9770   147.9310    24.8190   -25.0000 
  214.6250     2.2100    64.8690   163.1670   144.6010   145.7800    24.8380   -24.8660 
  214.7500     2.2060    64.6620   175.4420   155.1060   144.1320    24.8570   -24.6800 
  214.8750     2.1980    63.7960   190.2210   167.9790   150.3780    24.8790   -24.5210 
  215.0000     2.1840    63.6740   205.0090   181.3870   165.7750    24.8890   -24.3410 
  215.1250     2.1670    62.9230   214.6470   191.4020   194.0330    24.8870   -24.2220 
  215.2500     2.1570    60.8350   215.8700   195.1340   236.5130    24.8640   -24.0870 
  215.3750     2.1590    59.7290   207.7160   191.2780   291.9950    24.7980   -23.9990 
  215.5000     2.1750    61.0840   192.2350   180.7280   293.1370    24.7380   -23.9320 
  215.6250     2.1990    62.9990   173.1880   165.8110   230.0590    24.6740   -23.8890 
  215.7500     2.2200    62.0420   154.6470   150.2530   176.1060    24.7100   -23.9010 
  215.8750     2.2320    60.5010   138.1050   135.7930   150.4660    24.8040   -23.9320 
  216.0000     2.2350    61.9740   123.9350   123.1590   141.1890    24.8510   -23.9870 
  216.1250     2.2380    65.0710   112.4370   112.7730   130.6840    24.8270   -24.0040 
  216.2500     2.2480    66.4850   103.1090   104.2270   113.9210    24.8030   -24.0660 
  216.3750     2.2650    67.8230    95.8270    97.4240   102.7310    24.7640   -24.0970 
  216.5000     2.2820    70.4380    90.3140    92.1840    99.3570    24.7020   -24.1270 
  216.6250     2.2890    70.6740    86.2060    88.2520   101.9020    24.7130   -24.1610 
  216.7500     2.2840    68.6140    82.6500    84.8380    95.5350    24.7580   -24.2000 
  216.8750     2.2730    66.8860    79.2930    81.5260    85.2880    24.7680   -24.2310 
  217.0000     2.2630    67.0850    76.1700    78.2570    70.7830    24.7860   -24.2610 
  217.1250     2.2610    68.6300    73.9860    75.6210    62.1830    24.7960   -24.2750 
  217.2500     2.2670    69.6780    73.5750    74.4770    55.4510    24.8030   -24.3100 
  217.3750     2.2730    70.3120    75.9580    75.8640    56.3580    24.8030   -24.3870 
  217.5000     2.2710    70.8020    82.1100    80.7780    61.2510    24.8030   -24.5120 
  217.6250     2.2570    72.0010    93.4760    90.6270    62.8530    24.8010   -24.6410 
  217.7500     2.2410    71.1550   109.1430   104.5470    65.9330    24.7620   -24.7560 
  217.8750     2.2280    66.5240   127.8320   121.3120    77.4670    24.6520   -24.8980 
  218.0000     2.2240    61.6520   147.2360   138.7490   123.2950    24.5170   -24.9880 
  218.1250     2.2260    60.9510   163.7620   153.5270   189.0030    24.5080   -25.1950 
