~V
VERS. 2.00: Ver 2.00
~W
STRT.M 60.0000:
STOP.M 248.0000:
STEP.M 0.1250:
NULL. -999.2500:
UWI. DF5054:
~C
DEPT.M :
SP.MV :
GR.API :
CALI.CM :
RXO.OHMM :
RI. :
RML.OHMM :
DEN.GM/CC :
~A
# ...
  240.0000   -11.3730    68.2670    23.1390    10.3910     9.8960    10.8490     2.4480 
  240.1250   -11.3660    68.2670    23.2210    10.9690    10.0630    11.0570     2.4430 
  240.2500   -11.3630    68.2670    23.3640    11.2200    10.1950    11.2540     2.4310 
  240.3750   -11.3610    68.2670    23.5370    11.3170    10.3110    11.4590     2.4210 
  240.5000   -11.3600    68.2670    23.7160    11.4990    10.4210    11.6800     2.4170 
  240.6250   -11.3570    68.2670    23.8140    11.8730    10.5300    11.9070     2.4240 
  240.7500   -11.3210    68.2670    23.8710    12.2600    10.6320    12.1210     2.4350 
  240.8750   -11.2340    68.2670    23.9250    12.6520    10.7170    12.3030     2.4420 
  241.0000   -11.1050    68.2670    23.9630    12.7860    10.7780    12.4430     2.4420 
  241.1250   -10.9620    68.2670    23.9450    12.4160    10.8100    12.5300     2.4350 
  241.2500   -10.8220    68.2670    23.9340    11.8890    10.8230    12.5700     2.4260 
  241.3750   -10.6930    68.2670    23.9390    11.5720    10.8220    12.5690     2.4190 
  241.5000   -10.5720    68.2670    23.9720    11.5020    10.8160    12.5350     2.4210 
  241.6250   -10.4500    68.2670    24.0220    11.8920    10.8140    12.4890     2.4330 
  241.7500   -10.3410    68.2670    23.9980    12.6530    10.8200    12.4540     2.4470 
  241.8750   -10.2870    68.2670    23.9270    13.5330    10.8350    12.4350     2.4560 
  242.0000   -10.3120    68.2670    23.8790    14.4230    10.8530    12.4280     2.4600 
  242.1250   -10.3960    68.2670    23.8510    15.7290    10.8620    12.4240     2.4610 
  242.2500   -10.4920    68.2670    23.8340    17.0980    10.8620    12.4210     2.4590 
  242.3750   -10.5760    68.2670    23.8170    17.4210    10.8600    12.4170     2.4470 
  242.5000   -10.6570    68.2670    23.8060    16.0330    10.8530    12.4150     2.4240 
  242.6250   -10.7380    68.2670    23.8170    14.1320    10.8420    12.4170     2.4060 
  242.7500   -10.8020    68.2670    23.8860    13.2890    10.8320    12.4200     2.4100 
  242.8750   -10.8340    68.2670    23.9770    15.1340    10.8240    12.4260     2.4350 
  243.0000   -10.8190    68.2670    24.0340    20.1660    10.8160    12.4320     2.4690 
  243.1250   -10.7660    68.2670    23.9860    26.5880    10.8070    12.4400     2.5050 
  243.2500  -999.2500    68.2670    23.8820    30.3210    10.7930    12.4500     2.5410 
  243.3750  -999.2500    68.2670    23.7890    29.6870    10.7750    12.4600     2.5590 
  243.5000  -999.2500    68.2670    23.7010    26.0650    10.7600    12.4660     2.5420 
  243.6250  -999.2500    68.2670    23.6440    22.4600    10.7520    12.4690     2.5030 
  243.7500  -999.2500    68.2670    23.6200    22.3640    10.7500    12.4700     2.4870 
  243.8750  -999.2500    68.2670    23.6350    26.3940    10.7500    12.4700     2.4880 
  244.0000  -999.2500    68.2670    23.6520    30.2580    10.7500    12.4700     2.5500 
  244.1250  -999.2500    68.2670    23.6260    29.4680    10.7500    12.4700     2.5960 
  244.2500  -999.2500    68.2670    23.5490    25.6130    10.7500    12.4700     2.6330 
  244.3750  -999.2500    68.2670    23.4180    22.7710    10.7500    12.4700     2.6530 
  244.5000  -999.2500    68.2670    23.2400    21.1680    10.7500    12.4700     2.6460 
  244.6250  -999.2500    68.2670    23.0060    18.9450    10.7500    12.4700     2.6120 
  244.7500  -999.2500    68.2670    22.5770    16.2500    10.7500    12.4700     2.5790 
  244.8750  -999.2500    68.2670    21.7700    13.8820    10.7500    12.4700     2.5540 
  245.0000  -999.2500    68.2670    20.8750    12.2940    10.7500    12.4700     2.5290 
  245.1250  -999.2500    68.2670    20.2840    11.7010    10.7500    12.4700     2.4990 
  245.2500  -999.2500    68.2670    19.9690    12.1980    10.7500    12.4700     2.4790 
  245.3750  -999.2500    68.2670    19.7870    13.0840    10.7500    12.4700     2.4800 
  245.5000  -999.2500    68.2670    19.5480    13.3790    10.7500    12.4700     2.4900 
  245.6250  -999.2500    68.2670    19.0020    12.8190    10.7500    12.4700     2.4680 
  245.7500  -999.2500    68.2670    18.0740    12.2340    10.7500    12.4700     2.4050 
  245.8750  -999.2500    68.2670    16.9970    11.5680    10.7500    12.4700     2.3320 
  246.0000  -999.2500    68.2670    16.1900    10.8290    10.7500    12.4700     2.2910 
  246.1250  -999.2500    68.2670    15.8810    10.4580    10.7500    12.4700     2.2870 
  246.2500  -999.2500    68.2670    15.7900    10.3290    10.7500    12.4700     2.2880 
  246.3750  -999.2500    68.2670    15.7490    10.3240    10.7500    12.4700     2.2900 
  246.5000  -999.2500    68.2670    15.7030    10.3380    10.7500    12.4700     2.3080 
  246.6250  -999.2500    68.2670    15.6860    10.3470    10.7500    12.4700     2.3360 
  246.7500  -999.2500    68.2670    15.6860    10.3470    10.7500    12.4700     2.3410 
  246.8750  -999.2500    68.2670    15.6960    10.3400    10.7500    12.4700     2.3230 
  247.0000  -999.2500    68.2670    15.7240    10.3310    10.7500    12.4700     2.3060 
  247.1250  -999.2500    68.2670    15.7360    10.3260    10.7500    12.4700     2.3000 
  247.2500  -999.2500    68.2670    15.7320    10.3240    10.7500    12.4700     2.2930 
  247.3750  -999.2500    68.2670    15.7220    10.3260    10.7500    12.4700     2.2830 
  247.5000  -999.2500    68.2670    15.6990    10.3300    10.7500    12.4700     2.2790 
  247.6250  -999.2500    68.2670    15.7050    10.3280    10.7500    12.4700     2.2330 
  247.7500  -999.2500    68.2670    15.7300    10.3240    10.7500    12.4700     2.1250 
  247.8750  -999.2500    68.2670    15.7230    10.3270    10.7500    12.4700     2.0080 
  248.0000  -999.2500    68.2670    15.6680    10.3350    10.7500    12.4700     1.9500 
