~V
VERS. 2.00: Ver 2.00
~W
STRT.M 60.0000:
STOP.M 273.0000:
STEP.M 0.1250:
NULL. -999.2500:
UWI. DF5003:
~C
DEPT.M :
GR.API :
CALI.CM :
RXO.OHMM :
RI. :
RML.OHMM :
DEN.GM/CC :
SP.MV :
~A
# ...
   82.5000    68.9940    24.3220    20.6060    11.1190    13.4720     2.3070   -35.1050 
   82.6250    67.9620    24.2960    13.8020    10.5990    12.2770     2.2360   -35.4730 
   82.7500    71.5930    24.2590     9.6370     9.4840    10.5550     2.1860   -35.9560 
   82.8750    72.4710    24.1890     8.1210     8.3700     9.0780     2.1570   -36.4170 
   83.0000    68.7830    24.0810     7.7200     7.5410     8.1330     2.1460   -36.8870 
   83.1250    67.3540    23.9940     7.5750     7.0700     7.7010     2.1450   -37.1920 
   83.2500    71.0340    23.9660     7.7190     6.8160     7.5170     2.1500   -37.4080 
   83.3750    77.1980    23.9670     7.9980     6.7090     7.4800     2.1660   -37.4880 
   83.5000    82.8630    23.9720     8.3210     6.7240     7.5660     2.1940   -37.3690 
   83.6250    88.3800    24.0470     9.1930     6.8870     7.8120     2.2350   -37.2730 
   83.7500    90.8290    24.1910    12.6100     7.1690     8.1710     2.2800   -37.1920 
   83.8750    88.5680    24.3120    22.6110     7.5060     8.5570     2.3190   -37.0650 
   84.0000    83.9890    24.3070    28.8290     7.7850     8.8420     2.3360   -36.8320 
   84.1250    79.9160    24.1850    24.2210     7.8530     8.8740     2.3190   -36.7360 
   84.2500    77.1130    24.0530    14.3130     7.7090     8.6860     2.2850   -36.7370 
   84.3750    77.5200    23.9220    10.1040     7.4280     8.3810     2.2450   -36.8030 
   84.5000    82.2720    23.7950     8.1770     7.1290     8.1000     2.2110   -36.8010 
   84.6250    85.4710    23.7640     7.3520     6.9440     7.9840     2.1910   -36.8260 
   84.7500    83.5590    23.8830     7.2240     6.9030     8.0440     2.1810   -36.9750 
   84.8750    80.6330    24.0960     7.4390     6.9970     8.2410     2.1750   -37.2440 
   85.0000    79.8380    24.2900     7.5140     7.1750     8.4990     2.1650   -37.5210 
   85.1250    80.2360    24.3840     7.6170     7.3550     8.7030     2.1540   -37.7500 
   85.2500    78.6340    24.4120     7.7120     7.4580     8.7830     2.1470   -38.0180 
   85.3750    77.6640    24.4170     7.7210     7.4560     8.7260     2.1480   -38.2820 
   85.5000    80.5200    24.4150     7.6820     7.3630     8.5700     2.1530   -38.5460 
   85.6250    85.2200    24.4170     7.6030     7.2120     8.3780     2.1550   -38.6300 
   85.7500    87.1420    24.4170     7.5050     7.0550     8.2120     2.1520   -38.6310 
   85.8750    84.9030    24.4080     7.4290     6.9210     8.1020     2.1460   -38.6330 
   86.0000    82.0170    24.3890     7.4200     6.8310     8.0550     2.1400   -38.7470 
   86.1250    82.5110    24.3730     7.4440     6.8080     8.0770     2.1380   -38.8650 
   86.2500    83.1880    24.3680     7.4690     6.8480     8.1560     2.1400   -38.9910 
   86.3750    80.9620    24.3640     7.5440     6.9470     8.2860     2.1440   -39.1450 
   86.5000    75.8650    24.3500     7.5450     7.0910     8.4630     2.1480   -39.4790 
   86.6250    73.4980    24.3280     7.6900     7.2810     8.6970     2.1480   -39.8740 
   86.7500    73.9870    24.3040     7.8850     7.5170     8.9880     2.1500   -40.1750 
   86.8750    74.9830    24.2610     8.0280     7.7980     9.3220     2.1590   -40.3930 
   87.0000    74.9960    24.1900     8.1640     8.0960     9.6580     2.1740   -40.6020 
   87.1250    74.3380    24.1550     9.5660     8.3390     9.9000     2.1860   -40.7910 
   87.2500    73.8100    24.2310    12.5700     8.4540     9.9770     2.1880   -40.9280 
   87.3750    74.0570    24.3830    13.7980     8.3920     9.8480     2.1760   -40.9370 
   87.5000    75.3180    24.5140    11.6690     8.1590     9.5360     2.1580   -40.8460 
   87.6250    78.2040    24.5640     8.8810     7.8110     9.1270     2.1450   -40.8520 
   87.7500    79.3970    24.5780     8.1830     7.4570     8.7460     2.1410   -40.9650 
   87.8750    76.3620    24.5860     7.9970     7.1660     8.4620     2.1430   -41.0550 
   88.0000    72.8900    24.5870     7.8880     6.9730     8.3030     2.1450   -41.1080 
   88.1250    74.4100    24.5830     7.8190     6.8970     8.2710     2.1440   -41.1160 
   88.2500    77.4650    24.5800     7.8130     6.8970     8.3100     2.1400   -41.1630 
   88.3750    77.3540    24.5780     7.8280     6.9510     8.3930     2.1340   -41.3290 
   88.5000    75.2380    24.5780     7.8970     7.0490     8.5140     2.1310   -41.3760 
   88.6250    74.2060    24.5780     8.0340     7.1960     8.6820     2.1330   -41.4720 
   88.7500    73.9700    24.5780     8.1780     7.3810     8.8870     2.1390   -41.6140 
   88.8750    74.1370    24.5780     8.2610     7.5870     9.1100     2.1450   -41.8110 
   89.0000    74.2980    24.5780     8.3120     7.7890     9.3150     2.1500   -41.9440 
   89.1250    74.5130    24.5780     8.2900     7.9410     9.4440     2.1500   -42.1070 
   89.2500    75.0330    24.5780     8.3300     8.0210     9.4740     2.1460   -42.3000 
   89.3750    72.8420    24.5790     8.3320     8.0220     9.4060     2.1390   -42.3890 
   89.5000    67.5050    24.5760     8.2450     7.9510     9.2700     2.1320   -42.5410 
   89.6250    63.8830    24.5610     8.2240     7.8270     9.1060     2.1270   -42.5230 
   89.7500    64.3530    24.5430     8.2250     7.6850     8.9520     2.1230   -42.4830 
   89.8750    65.2550    24.5300     8.1430     7.5450     8.8180     2.1210   -42.4480 
   90.0000    65.5610    24.5260     7.8980     7.4220     8.7090     2.1200   -42.4380 
   90.1250    65.2340    24.5270     7.6400     7.3320     8.6250     2.1210   -42.3070 
   90.2500    63.3930    24.5270     7.5850     7.2700     8.5630     2.1230   -42.1210 
   90.3750    61.9250    24.5270     7.6460     7.2340     8.5190     2.1240   -41.9890 
   90.5000    62.3610    24.5280     7.7000     7.2160     8.4860     2.1240   -41.7670 
   90.6250    62.8940    24.5290     7.8760     7.2030     8.4450     2.1190   -41.4370 
   90.7500    61.7620    24.5310     7.9340     7.1820     8.3830     2.1110   -41.0100 
   90.8750    61.8610    24.5310     7.8280     7.1510     8.3020     2.1030   -40.5790 
   91.0000    64.5840    24.5290     7.6810     7.1180     8.2180     2.0970   -40.1140 
   91.1250    66.2550    24.5270     7.6300     7.1110     8.1690     2.0950   -39.6730 
   91.2500    66.4130    24.5270     7.5460     7.1440     8.1790     2.0960   -39.1040 
   91.3750    66.2910    24.5270     7.4340     7.2120     8.2370     2.1000   -38.5630 
   91.5000    65.6840    24.5270     7.3550     7.2720     8.2850     2.1090   -38.0460 
   91.6250    65.9100    24.5270     7.3880     7.2230     8.1970     2.1280   -37.5740 
   91.7500    67.6490    24.5270     7.4980     7.0100     7.9050     2.1580   -36.9720 
   91.8750    70.9130    24.5260     7.4550     6.6320     7.4140     2.1970   -36.2320 
   92.0000    75.5920    24.5270     6.8010     6.1560     6.8190     2.2370   -35.4290 
   92.1250    82.6270    24.5340     5.9090     5.7050     6.2900     2.2640   -34.7140 
   92.2500    91.4670    24.5420     5.4300     5.3790     5.9520     2.2700   -34.0530 
   92.3750    97.0560    24.5470     5.3860     5.2280     5.8550     2.2600   -33.3750 
   92.5000    97.1180    24.5130     5.4300     5.2560     5.9840     2.2440   -32.9030 
   92.6250    95.3770    24.3710     5.5700     5.4280     6.2550     2.2360   -32.6610 
   92.7500    94.5120    24.1620     5.8290     5.6160     6.4940     2.2410   -32.6260 
   92.8750    94.1840    23.9890     6.4370     5.7190     6.5880     2.2570   -32.7100 
   93.0000    93.9040    23.9040     7.2030     5.6760     6.4880     2.2810   -32.9030 
   93.1250    94.7650    23.8300     6.6320     5.4650     6.2010     2.3010   -33.1470 
   93.2500    94.9680    23.7120     5.6070     5.1880     5.8680     2.3100   -33.5160 
   93.3750    95.1370    23.6020     5.2310     4.9700     5.6480     2.3110   -33.9130 
   93.5000    97.3540    23.5610     5.5720     4.9490     5.7210     2.3120   -34.2270 
   93.6250    99.3450    23.6260     5.9340     5.3240     6.3450     2.3240   -34.4280 
