~V
VERS. 2.00: Ver 2.00
~W
STRT.M 55.0000:
STOP.M 274.0000:
STEP.M 0.1250:
NULL. -999.2500:
UWI. DF5015:
~C
DEPT.M :
DEN.GM/CC :
GR.API :
CALI.CM :
RXO.OHMM :
RI. :
RML.OHMM :
SP.MV :
~A
   55.0000  -999.2500    50.7960    25.3770    60.9000     0.1440     0.4690    53.4670 
   55.1250  -999.2500    51.5300    25.3610    83.8700     0.1480     0.5100    53.5750 
   55.2500  -999.2500    51.5920    25.3650    92.7270     0.1520     0.5550    53.6350 
   55.3750  -999.2500    51.1020    25.3660    80.5170     0.1600     0.5850    53.6950 
   55.5000     2.0230    50.1020    25.3420    56.7880     0.1710     0.5890    53.7940 
   55.6250     2.0230    48.8740    25.3370    32.5850     0.1850     0.5590    53.8970 
   55.7500     2.0200    49.0020    25.3260    13.0220     0.1970     0.5130    53.9460 
   55.8750     2.0130    51.3800    25.2790     4.3980     0.2070     0.4660    53.9590 
   56.0000     2.0080    54.8760    25.2640     4.1350     0.2120     0.4290    54.0050 
   56.1250     2.0060    56.9400    25.3030    12.8300     0.2120     0.4010    54.1190 
   56.2500     2.0000    56.9490    25.3040    28.9120     0.2080     0.3860    54.2310 
   56.3750     1.9860    55.5540    25.3000    42.5180     0.2000     0.3950    54.2730 
   56.5000     1.9780    53.0220    25.3270    45.8290     0.1920     0.4230    54.2320 
   56.6250     1.9940    49.6970    25.3160    41.6560     0.1890     0.4530    54.1130 
   56.7500     2.0110    47.0960    25.2770    47.7150     0.1930     0.4790    53.8900 
   56.8750     2.0040    46.1310    25.2570    67.3890     0.2070     0.5010    53.4710 
   57.0000     1.9760    46.3480    25.2100   103.2540     0.2330     0.5130    52.7790 
   57.1250     1.9580    46.3950    25.2050   127.5360     0.2660     0.5100    51.7600 
   57.2500     1.9680    46.1620    25.2130   107.9370     0.2940     0.4960    50.4710 
   57.3750     1.9960    46.7180    25.1770    61.2360     0.3080     0.4690    48.8570 
   57.5000     2.0160    48.4910    25.1100    25.3030     0.3060     0.4340    46.8320 
   57.6250     1.9960    50.1030    25.0480    10.2810     0.2830     0.4110    44.2710 
   57.7500     1.9540    49.7600    24.9350     4.4170     0.2450     0.3910    41.2750 
   57.8750     1.9230    47.9340    24.6450     1.6830     0.1960     0.3640    37.8490 
   58.0000     1.9250    46.5890    24.2190     0.6640     0.1430     0.3350    33.9440 
   58.1250     1.9450    47.6060    23.8580     0.4500     0.1020     0.3130    29.4060 
   58.2500     1.9560    50.1360    23.5940     0.4270     0.0740     0.2930    24.3410 
   58.3750     1.9510    52.6480    23.4040     0.4230     0.0580     0.2810    18.8310 
   58.5000     1.9280    54.0500    23.2730     0.4050     0.0570     0.2780    12.9550 
   58.6250     1.9110    53.8760    23.2380     0.4510     0.0880     0.2940     6.7460 
   58.7500     1.9600    54.0440    23.3120     0.8190     0.1780     0.3430     0.4120 
   58.8750     2.0870    56.9930    23.3610     1.9040     0.3750     0.4580    -5.7970 
   59.0000     2.2230    63.8040    23.3570     4.0090     0.7490     0.6940   -11.6180 
   59.1250     2.2640    72.2170    23.3530     6.7090     1.4210     1.1450   -16.7910 
   59.2500     2.2270    78.3330    23.2930     9.4070     2.3660     1.7960   -21.3610 
   59.3750     2.1740    81.1210    23.1040    12.8080     3.5000     2.5660   -25.2940 
   59.5000     2.1440    81.0480    22.8720    18.4200     4.6530     3.3210   -28.5270 
   59.6250     2.1340    78.2950    22.7070    25.9090     5.5800     3.8870   -30.9170 
   59.7500     2.1260    74.6470    22.5360    28.9300     6.1980     4.2280   -32.7130 
   59.8750     2.1180    71.3530    22.4610    24.7060     6.5280     4.3810   -34.1100 
   60.0000     2.1120    68.6970    22.6040    17.2250     6.6500     4.4180   -35.2560 
   60.1250     2.1140    66.5900    22.7240    13.3390     6.6370     4.4070   -36.1510 
   60.2500     2.1230    65.7180    22.5150    12.3780     6.5890     4.4050   -36.8260 
   60.3750     2.1380    66.3900    22.2520    12.7630     6.5660     4.4480   -37.3350 
   60.5000     2.1520    68.3380    22.2630    13.4310     6.6050     4.5520   -37.7590 
   60.6250     2.1510    71.3670    22.6030    14.0200     6.7090     4.7140   -38.1220 
   60.7500     2.1360    74.5290    23.0000    14.4230     6.8330     4.8940   -38.3910 
   60.8750     2.1160    76.6440    23.2520    14.7360     6.9410     5.0620   -38.5510 
   61.0000     2.1130    77.1600    23.3620    15.4420     7.0050     5.1910   -38.6550 
   61.1250     2.1370    76.2680    23.4730    17.3460     6.9940     5.2490   -38.7840 
   61.2500     2.1650    74.2500    23.6190    19.3260     6.9170     5.2430   -38.9410 
   61.3750     2.1710    71.1360    23.6990    18.9790     6.7840     5.1790   -39.0770 
   61.5000     2.1490    67.3340    23.7100    15.9330     6.6190     5.0820   -39.1700 
   61.6250     2.1170    64.0490    23.7540    12.8200     6.4600     5.0020   -39.2560 
   61.7500     2.0930    62.2740    23.7730    11.2750     6.3400     4.9770   -39.3670 
   61.8750     2.0780    61.7440    23.6550    10.7760     6.2770     5.0080   -39.4680 
   62.0000     2.0670    61.7840    23.4810    10.7700     6.2840     5.0870   -39.5020 
   62.1250     2.0650    62.5610    23.4280    11.2150     6.3720     5.2150   -39.4500 
   62.2500     2.0750    64.5860    23.4360    11.9670     6.5110     5.3680   -39.3770 
   62.3750     2.0920    67.4190    23.4220    12.7210     6.6730     5.5190   -39.3090 
   62.5000     2.1040    69.7530    23.3260    13.1780     6.8260     5.6370   -39.2090 
   62.6250     2.0970    70.6560    23.2010    13.3060     6.9410     5.6900   -39.0140 
   62.7500     2.0850    70.3020    23.1640    13.5380     7.0070     5.6960   -38.7620 
   62.8750     2.0880    68.8360    23.2710    14.0270     7.0230     5.6800   -38.5050 
   63.0000     2.1050    67.1520    23.4300    14.5690     6.9970     5.6570   -38.2440 
   63.1250     2.1140    67.4650    23.4400    14.7560     6.9440     5.6330   -37.8960 
   63.2500     2.1090    69.5220    23.2410    14.6420     6.8850     5.6170   -37.4180 
   63.3750     2.1030    70.9110    23.0530    14.4430     6.8290     5.6120   -36.8320 
   63.5000     2.1050    69.9970    22.9980    14.2340     6.7740     5.6180   -36.1840 
   63.6250     2.1050    68.0700    22.9960    13.9270     6.7120     5.6250   -35.4530 
   63.7500     2.0970    67.0010    22.9480    13.6210     6.6500     5.6440   -34.5840 
   63.8750     2.0900    66.7570    22.8280    13.4660     6.6180     5.7150   -33.5550 
   64.0000     2.0920    67.0960    22.7230    13.5170     6.6590     5.8750   -32.4100 
   64.1250     2.1080    68.5980    22.7070    13.6210     6.8200     6.1590   -31.2000 
   64.2500     2.1340    71.0670    22.7780    13.7100     7.0890     6.5220   -29.9370 
   64.3750     2.1740    74.4340    22.8910    14.1060     7.4260     6.8920   -28.6170 
   64.5000     2.2360    78.9000    23.0270    15.4500     7.7520     7.1670   -27.2830 
   64.6250     2.3170    83.9160    23.1820    17.6830     7.9370     7.2090   -26.0540 
   64.7500     2.3790    88.2530    23.3220    18.6390     7.9330     7.0320   -24.9860 
   64.8750     2.3940    92.5880    23.4060    16.6540     7.7420     6.6900   -24.0770 
   65.0000     2.3650    98.0660    23.4530    12.5890     7.4220     6.2790   -23.3160 
   65.1250     2.3240   103.3360    23.5070     9.4350     7.0690     5.9130   -22.7720 
   65.2500     2.2940   106.0710    23.5530     7.7900     6.7590     5.6330   -22.4480 
   65.3750     2.2700   106.4620    23.5430     7.5090     6.5190     5.4470   -22.3070 
   65.5000     2.2490   105.9820    23.4940     8.0850     6.3480     5.3390   -22.2570 
   65.6250     2.2310   104.8820    23.5020     8.7480     6.2240     5.2710   -22.2270 
   65.7500     2.2190   103.5460    23.6040     8.8740     6.1030     5.2020   -22.2260 
   65.8750     2.2230   103.3340    23.7570     8.1630     5.9730     5.1320   -22.2760 
   66.0000     2.2420   104.6630    23.9690     6.9440     5.8460     5.0850   -22.3390 
   66.1250     2.2560   105.4700    24.2170     6.1370     5.7490     5.0920   -22.3440 
