~V
VERS. 2.00: Ver 2.00
~W
STRT.M 50.0000:
STOP.M 260.0000:
STEP.M 0.1250:
NULL. -999.2500:
UWI. DF5023:
~C
DEPT.M :
GR.API :
RML.OHMM :
RI. :
RXO.OHMM :
CALI.CM :
DEN.GM/CC :
SP.MV :
~A
# ...
   83.7500    91.7170     8.5990     6.8490     7.2580    23.5340     2.2520   -30.4600 
   83.8750    90.3930     8.9630     6.9200     7.0940    23.3810     2.2500   -30.5260 
   84.0000    88.2320     9.5640     7.2700     7.5090    23.1910     2.2350   -30.7470 
   84.1250    86.1520    10.2140     7.9530     8.3050    23.0270     2.2100   -31.2050 
   84.2500    82.8200    10.5310     8.8260     9.2360    22.9570     2.1870   -31.7820 
   84.3750    79.8370    10.8960     9.6820    10.0270    22.9380     2.1690   -32.4270 
   84.5000    78.7760    11.2600    10.3110    10.5660    22.9330     2.1590   -33.0850 
   84.6250    78.5720    11.5370    10.5630    10.8160    22.9320     2.1560   -33.6490 
   84.7500    78.4410    11.7110    10.4830    11.0210    22.9350     2.1550   -34.1410 
   84.8750    77.3880    11.7690    10.1390    11.1930    22.9380     2.1510   -34.5680 
   85.0000    75.3680    11.6990     9.6290    11.3010    22.9410     2.1450   -34.8610 
   85.1250    72.5340    11.4900     9.1110    11.3940    22.9420     2.1380   -35.0960 
   85.2500    71.5750    11.1990     8.7120    11.5180    22.9430     2.1340   -35.2090 
   85.3750    73.8560    10.8780     8.5290    11.6240    22.9430     2.1350   -35.2160 
   85.5000    76.3870    10.5820     8.5850    11.6720    22.9460     2.1380   -35.1540 
   85.6250    75.2520    10.3760     8.7310    11.7320    22.9490     2.1430   -35.0940 
   85.7500    71.3680    10.2700     8.8840    11.8850    22.9500     2.1500   -34.9640 
   85.8750    66.9650    10.2610     8.9990    12.2220    22.9520     2.1590   -34.7840 
   86.0000    64.9540    10.3140     9.0400    12.6270    22.9590     2.1690   -34.5370 
   86.1250    66.3390    10.3710     8.9580    12.9110    22.9680     2.1760   -34.1590 
   86.2500    69.0710    10.3570     8.7690    12.6640    22.9960     2.1820   -33.8170 
   86.3750    72.5180    10.2250     8.5000    11.7380    23.0730     2.1930   -33.3700 
   86.5000    77.8460     9.9520     8.2000    10.6710    23.1980     2.2100   -32.9500 
   86.6250    84.1450     9.6100     7.9350     9.9570    23.2520     2.2280   -32.4650 
   86.7500    87.3390     9.3430     7.7470     9.4450    23.2690     2.2400   -32.0560 
   86.8750    85.8720     9.2850     7.6500     8.9040    23.2810     2.2420   -31.6200 
   87.0000    82.8640     9.3260     7.6260     8.7690    23.3200     2.2410   -31.1740 
   87.1250    82.3320     9.3570     7.6190     9.0710    23.3660     2.2470   -30.7580 
   87.2500    83.1990     9.2820     7.5610     9.9480    23.4210     2.2660   -30.2650 
   87.3750    84.3270     9.0650     7.4150    10.7400    23.4880     2.2950   -29.8220 
   87.5000    85.8090     8.7170     7.1760    10.3220    23.5640     2.3260   -29.2820 
   87.6250    89.3100     8.2800     6.8580    10.0150    23.6210     2.3490   -28.7390 
   87.7500    93.9820     7.8490     6.5250     8.9940    23.6460     2.3600   -28.1770 
   87.8750    99.0740     7.4870     6.2250     7.2330    23.6540     2.3570   -27.7490 
   88.0000   102.4140     7.2540     6.0050     6.2870    23.6410     2.3400   -27.4820 
   88.1250   102.1730     7.2360     5.9360     6.5370    23.5960     2.3100   -27.4370 
   88.2500   100.9390     7.4340     6.0290     7.1410    23.5290     2.2790   -27.5640 
   88.3750    99.4520     7.8460     6.2920     7.3130    23.4780     2.2530   -27.8830 
   88.5000    97.0270     8.4530     6.7200     7.2180    23.4390     2.2360   -28.4030 
   88.6250    93.3120     9.2310     7.3020     7.3020    23.3480     2.2340   -29.1590 
   88.7500    87.7340    10.0650     7.9550     8.0330    23.1800     2.2390   -30.0020 
   88.8750    80.4230    10.8430     8.5940     9.5030    23.0660     2.2420   -30.8460 
   89.0000    74.1090    11.4650     9.1350    11.5440    22.9740     2.2350   -31.7540 
   89.1250    72.0820    11.8170     9.4800    11.9610    22.8850     2.2130   -32.5080 
   89.2500    71.2930    11.9280     9.6310    10.1330    22.8210     2.1860   -33.2680 
   89.3750    70.6960    11.8520     9.6140     9.2180    22.7770     2.1620   -33.9130 
   89.5000    72.0300    11.6750     9.4850     9.4160    22.7400     2.1490   -34.5190 
   89.6250    76.0410    11.4790     9.3040    10.1630    22.7140     2.1490   -34.9610 
   89.7500    79.2270    11.3180     9.1340    10.9050    22.7040     2.1520   -35.3030 
   89.8750    79.8680    11.2040     9.0010    11.3990    22.7110     2.1550   -35.5860 
   90.0000    79.4550    11.1240     8.9070    11.6110    22.7310     2.1550   -35.6910 
   90.1250    81.9240    11.0660     8.8510    11.5150    22.7600     2.1540   -35.8510 
   90.2500    85.0540    11.0410     8.8270    11.3210    22.7930     2.1520   -35.9470 
   90.3750    85.2830    11.0720     8.8440    11.2030    22.8280     2.1490   -36.0620 
   90.5000    83.9610    11.1620     8.9010    11.2750    22.8640     2.1450   -36.0810 
   90.6250    83.7670    11.2950     8.9920    11.3820    22.9010     2.1400   -36.1410 
   90.7500    82.1350    11.4200     9.0830    11.4060    22.9390     2.1370   -36.2370 
   90.8750    77.5760    11.5060     9.1510    11.4220    22.9820     2.1370   -36.3470 
   91.0000    72.7330    11.5330     9.1800    11.5080    23.0290     2.1410   -36.4660 
   91.1250    71.6970    11.4850     9.1510    11.6580    23.0760     2.1480   -36.5090 
   91.2500    73.6570    11.3860     9.0760    11.7710    23.1110     2.1530   -36.5390 
   91.3750    75.8020    11.2600     8.9710    11.6450    23.1300     2.1570   -36.5510 
   91.5000    76.1890    11.1330     8.8550    11.4450    23.1280     2.1570   -36.5940 
   91.6250    75.5610    11.0430     8.7550    11.2650    23.1070     2.1540   -36.5180 
   91.7500    74.9770    11.0080     8.6900    11.1960    23.0680     2.1490   -36.4540 
   91.8750    73.4190    11.0360     8.6700    11.1690    23.0150     2.1440   -36.3530 
   92.0000    70.8860    11.1230     8.6940    11.1320    22.9540     2.1400   -36.3560 
   92.1250    69.3860    11.2440     8.7540    11.2950    22.8860     2.1380   -36.3440 
   92.2500    67.3630    11.3560     8.8200    11.6100    22.8170     2.1390   -36.3770 
   92.3750    64.3900    11.4230     8.8660    11.9090    22.7490     2.1400   -36.3880 
   92.5000    62.4520    11.4240     8.8760    12.0030    22.6860     2.1400   -36.3870 
   92.6250    63.4990    11.3550     8.8380    11.8490    22.6320     2.1370   -36.4420 
   92.7500    65.8740    11.2500     8.7670    11.6570    22.5860     2.1320   -36.3870 
   92.8750    68.2570    11.1430     8.6810    11.4860    22.5510     2.1250   -36.3410 
   93.0000    69.0690    11.0630     8.5990    11.3410    22.5280     2.1190   -36.1670 
   93.1250    67.2120    11.0310     8.5360    11.2580    22.5220     2.1190   -35.9230 
   93.2500    65.8280    11.0400     8.4940    11.2060    22.5260     2.1270   -35.6480 
   93.3750    66.8390    11.0820     8.4730    11.1200    22.5360     2.1420   -35.3780 
   93.5000    68.0540    11.1490     8.4700    11.0110    22.5530     2.1600   -35.1540 
   93.6250    68.7660    11.2430     8.4880    10.9340    22.5830     2.1750   -34.9100 
   93.7500    70.4180    11.3600     8.5270    10.7830    22.6240     2.1820   -34.7810 
   93.8750    70.8920    11.4940     8.5860    10.6750    22.6750     2.1830   -34.6300 
   94.0000    67.3330    11.6310     8.6560    10.6850    22.7390     2.1810   -34.6040 
   94.1250    64.5870    11.7390     8.7230    10.7410    22.8220     2.1830   -34.6720 
   94.2500    65.4560    11.8060     8.7750    10.9550    22.9140     2.1880   -34.7840 
   94.3750    67.4910    11.8320     8.8080    11.3220    23.0070     2.1950   -34.8970 
   94.5000    68.4690    11.8300     8.8270    11.6550    23.0940     2.2020   -35.0260 
   94.6250    69.5800    11.8270     8.8410    11.9210    23.1590     2.2050   -35.1740 
   94.7500    69.9000    11.8480     8.8670    12.1500    23.2010     2.2040   -35.3430 
   94.8750    68.3390    11.8940     8.9100    12.6410    23.2180     2.2030   -35.4990 
