~V
VERS. 2.00: Ver 2.00
~W
STRT.M 60.0000:
STOP.M 259.0000:
STEP.M 0.1250:
NULL. -999.2500:
UWI. DF5006:
~C
DEPT.M :
SP.MV :
GR.API :
RML.OHMM :
RI. :
RXO.OHMM :
CALI.CM :
DEN.GM/CC :
~A
# ...
   82.5000   -15.9790   108.3510     7.9540     6.6340     7.1190    23.8980     2.2910 
   82.6250   -15.3260   105.0930     8.1640     6.7810     7.8800    24.1170     2.3390 
   82.7500   -14.7080   102.0130     8.3280     6.9480     8.9920    24.1800     2.3820 
   82.8750   -14.0750   104.1010     8.2820     6.9950     9.6750    24.2070     2.4040 
   83.0000   -13.5650   109.4930     7.9770     6.8500     9.0830    24.2430     2.3990 
   83.1250   -13.2320   111.3290     7.4880     6.5260     7.2430    24.2650     2.3730 
   83.2500   -13.0280   109.2130     6.9690     6.1250     6.4330    24.2680     2.3400 
   83.3750   -12.9610   109.5190     6.5460     5.7790     6.0270    24.2630     2.3140 
   83.5000   -12.9530   111.6300     6.2550     5.5460     5.6790    24.2550     2.3000 
   83.6250   -12.9520   110.9110     6.0950     5.4380     5.4180    24.2500     2.2970 
   83.7500   -13.0450   110.6280     6.0760     5.4460     5.3070    24.2140     2.3040 
   83.8750   -13.1620   115.8190     6.1710     5.5180     5.3810    24.1450     2.3180 
   84.0000   -13.2710   122.6540     6.3560     5.6250     5.5420    24.0880     2.3320 
   84.1250   -13.4340   125.6710     6.5690     5.7360     5.6710    24.0660     2.3410 
   84.2500   -13.6140   123.2410     6.7320     5.8080     5.7410    24.0650     2.3400 
   84.3750   -13.7790   116.7440     6.8150     5.8160     5.7910    24.0560     2.3350 
   84.5000   -13.9430   109.7160     6.8200     5.7500     5.8330    24.0300     2.3290 
   84.6250   -14.1360   107.2760     6.7590     5.6190     5.8620    23.9930     2.3260 
   84.7500   -14.3450   110.3420     6.6390     5.4490     5.9510    23.9480     2.3260 
   84.8750   -14.5970   112.5860     6.5170     5.2980     6.2230    23.8930     2.3250 
   85.0000   -14.9350   113.1110     6.5150     5.2410     6.8100    23.8240     2.3200 
   85.1250   -15.3500   114.0420     6.8350     5.4020     7.7840    23.7620     2.3130 
   85.2500   -15.8740   112.5440     7.7830     6.0050     9.4790    23.6890     2.3120 
   85.3750   -16.4890   105.0600     9.2950     7.0720    12.0960    23.5730     2.3260 
   85.5000   -17.2360    92.2540    11.1280     8.5150    15.4990    23.4970     2.3530 
   85.6250   -18.0600    79.8870    12.8230    10.0470    19.6700    23.6070     2.3820 
   85.7500   -19.0020    73.4870    13.6570    11.1080    23.0920    23.7540     2.3870 
   85.8750   -20.0470    72.2150    13.4210    11.3500    22.2620    23.7550     2.3580 
   86.0000   -21.0420    75.3760    12.3160    10.7570    17.1790    23.6120     2.3020 
   86.1250   -21.9850    80.0130    10.9130     9.6810    12.1230    23.4650     2.2400 
   86.2500   -22.8650    81.1260     9.8700     8.6340     9.9450    23.3760     2.1920 
   86.3750   -23.6360    78.3860     9.3480     7.9000     9.2960    23.3170     2.1630 
   86.5000   -24.3380    75.8270     9.2390     7.5140     9.2150    23.3180     2.1490 
   86.6250   -24.9630    76.8810     9.3480     7.4030     9.2100    23.3950     2.1450 
   86.7500   -25.4550    80.9290     9.5080     7.4810     9.2350    23.4830     2.1440 
   86.8750   -25.8880    82.4790     9.6490     7.6310     9.2360    23.5340     2.1420 
   87.0000   -26.3030    79.4280     9.7760     7.8100     9.3690    23.5410     2.1380 
   87.1250   -26.7090    74.9300     9.8910     7.9920     9.5940    23.5000     2.1340 
   87.2500   -27.0870    72.8490     9.9610     8.1550     9.7470    23.3570     2.1360 
   87.3750   -27.4470    72.4320     9.9940     8.2860    10.0480    23.1710     2.1470 
   87.5000   -27.7570    70.9570    10.0330     8.3820    10.1080    23.0510     2.1630 
   87.6250   -28.0090    67.7100    10.1360     8.4510     9.8840    23.0720     2.1780 
   87.7500   -28.2410    65.1760    10.3390     8.5100     9.5760    23.1770     2.1830 
   87.8750   -28.3930    63.4410    10.5930     8.5790     9.4390    23.2610     2.1740 
   88.0000   -28.4820    62.0540    10.8370     8.6630     9.5870    23.3050     2.1560 
   88.1250   -28.5160    60.5890    11.0200     8.7490     9.9870    23.3540     2.1350 
   88.2500   -28.4900    60.7700    11.1150     8.8170    10.4300    23.4160     2.1190 
   88.3750   -28.4390    63.7140    11.1540     8.8540    10.7100    23.4300     2.1110 
   88.5000   -28.3890    68.1760    11.1550     8.8580    10.7160    23.3730     2.1140 
   88.6250   -28.3510    71.3380    11.1280     8.8350    10.4880    23.3290     2.1260 
   88.7500   -28.2160    69.4610    11.0800     8.7950    10.1930    23.4010     2.1430 
   88.8750   -28.0210    64.9900    11.0230     8.7540     9.8560    23.4610     2.1580 
   89.0000   -27.7430    60.6460    10.9710     8.7230     9.5600    23.4150     2.1670 
   89.1250   -27.3620    58.2750    10.9550     8.7140     9.2910    23.3010     2.1700 
   89.2500   -26.9610    59.5810    11.0270     8.7530     9.0230    23.2880     2.1700 
   89.3750   -26.4650    63.6260    11.1830     8.8380     8.8970    23.3410     2.1700 
   89.5000   -25.8540    67.7720    11.3680     8.9500     8.9110    23.4010     2.1720 
   89.6250   -25.1710    68.1200    11.4810     9.0380     9.0160    23.4400     2.1760 
   89.7500   -24.3410    65.7120    11.3670     9.0060     9.0410    23.4770     2.1800 
   89.8750   -23.4040    68.0560    11.0010     8.8160     8.8470    23.4840     2.1850 
   90.0000   -22.4030    75.4430    10.4330     8.4700     8.4070    23.4640     2.1920 
   90.1250   -21.3500    81.9070     9.7970     8.0220     7.7920    23.5050     2.2010 
   90.2500   -20.3370    84.9560     9.2730     7.5630     7.3400    23.5980     2.2140 
   90.3750   -19.4340    88.4930     8.9250     7.1730     7.0970    23.6670     2.2280 
   90.5000   -18.6580    91.9820     8.7460     6.8930     7.0370    23.6700     2.2420 
   90.6250   -17.9930    92.4690     8.7070     6.7400     7.0770    23.6080     2.2520 
   90.7500   -17.5380    91.2050     8.8080     6.7460     7.1440    23.6320     2.2530 
   90.8750   -17.2480    89.9130     9.0310     6.8890     7.2200    23.6950     2.2470 
   91.0000   -17.0870    86.1030     9.3630     7.1480     7.3550    23.7400     2.2350 
   91.1250   -17.0710    80.8010     9.7340     7.4630     7.5740    23.7620     2.2290 
   91.2500   -16.9980    78.7080     9.9670     7.7030     7.6740    23.7900     2.2400 
   91.3750   -16.8210    81.8630     9.9180     7.7460     7.6290    23.8100     2.2710 
   91.5000   -16.5620    88.0500     9.5140     7.5250     7.3610    23.8510     2.3130 
   91.6250   -16.2350    96.0560     8.8040     7.0610     6.9100    23.9590     2.3520 
   91.7500   -15.8870   105.4330     7.9750     6.4690     6.3180    24.1800     2.3720 
   91.8750   -15.5820   110.7060     7.3000     5.9370     5.8620    24.4070     2.3740 
   92.0000   -15.3410   110.4840     6.9140     5.5650     5.7670    24.5990     2.3660 
   92.1250   -15.1490   107.8210     6.8210     5.3810     5.9760    24.6640     2.3580 
   92.2500   -15.1570   107.7210     6.9310     5.3700     6.4250    24.5070     2.3530 
   92.3750   -15.3290   107.2860     7.0580     5.4330     6.9390    24.2760     2.3480 
   92.5000   -15.6430   102.8860     7.1200     5.5190     7.2590    24.1090     2.3410 
   92.6250   -16.0950    97.7850     7.1360     5.6160     7.1210    23.9970     2.3280 
   92.7500   -16.6520    97.5640     7.2330     5.7730     6.6260    24.0010     2.3030 
   92.8750   -17.2910   100.9140     7.5000     6.0270     6.4410    24.0350     2.2690 
   93.0000   -17.9950   101.1870     7.9170     6.3740     6.6980    24.0210     2.2270 
   93.1250   -18.7260    91.5780     8.3490     6.7450     7.4660    23.8410     2.1860 
   93.2500   -19.2930    79.1840     8.5440     6.9950     8.3360    23.5440     2.1600 
   93.3750   -19.6500    76.3790     8.4010     7.0370     8.8230    23.3810     2.1580 
   93.5000   -19.7650    83.7900     7.9900     6.8780     8.6030    23.4280     2.1790 
   93.6250   -19.6590    91.5310     7.5440     6.6240     7.9500    23.6460     2.2110 
