~V
VERS. 2.00: Ver 2.00
~W
STRT.M 50.0000:
STOP.M 276.0000:
STEP.M 0.1250:
NULL. -999.2500:
UWI. DF5011:
~C
DEPT.M :
DEN.GM/CC :
GR.API :
CALI.CM :
RXO.OHMM :
RI. :
RML.OHMM :
SP.MV :
~A
# ...
  173.7500     2.2680    65.4440    24.1230    36.8550    50.6000    48.8160   -36.4800 
  173.8750     2.2760    65.4810    24.1210    40.0810    45.5770    43.8150   -36.4290 
  174.0000     2.2890    65.7510    24.1200    36.1570    40.4770    38.7350   -36.4020 
  174.1250     2.3060    65.2270    24.1200    30.5430    35.6930    33.9570   -36.4960 
  174.2500     2.3270    67.7870    24.1180    27.3030    32.1310    30.4550   -36.5830 
  174.3750     2.3430    73.2090    24.1160    23.7070    30.2650    28.8230   -36.6270 
  174.5000     2.3470    76.2520    24.1140    21.7310    30.5760    29.6130   -36.7630 
  174.6250     2.3320    74.3760    24.1060    27.0420    33.5400    36.3240   -36.7830 
  174.7500     2.3050    72.0150    24.1410    41.2240    40.2030    43.5390   -36.8270 
  174.8750     2.2840    70.1510    24.3030    55.9900    50.1440    54.3060   -36.9140 
  175.0000     2.2760    67.5250    24.5830    67.4560    62.3330    67.5070   -37.0290 
  175.1250     2.2700    65.4020    24.8490    81.0840    74.1350    80.2880   -37.2590 
  175.2500     2.2590    64.9290    24.9560    87.9760    80.7880    87.4930   -37.2690 
  175.3750     2.2500    64.6290    24.9660    87.6680    80.7810    87.4850   -37.3930 
  175.5000     2.2530    63.6180    24.9580    76.8950    75.1340    81.3700   -37.5390 
  175.6250     2.2650    63.1280    24.9540    61.0230    66.5280    72.0500   -37.5760 
  175.7500     2.2750    63.4440    24.9520    50.6120    57.9490    62.7590   -37.7360 
  175.8750     2.2800    64.5600    24.9510    42.9300    51.1370    55.3820   -37.8720 
  176.0000     2.2840    65.3740    24.9520    39.2140    46.5340    50.3970   -37.9660 
  176.1250     2.2870    66.0920    24.9520    37.7060    44.0750    47.7330   -37.9910 
  176.2500     2.2850    68.5320    24.9520    39.1790    43.8690    47.5100   -38.0490 
  176.3750     2.2810    71.6620    24.9520    41.1480    45.5010    49.2780   -38.2160 
  176.5000     2.2810    72.0220    24.9520    43.2560    49.0940    53.1690   -38.3290 
  176.6250     2.2840    69.5010    24.9520    47.5680    54.9450    59.5050   -38.4850 
  176.7500     2.2830    67.8300    24.9520    57.6220    63.9370    69.2430   -38.6950 
  176.8750     2.2760    68.0130    24.9520    72.2870    75.8170    82.1100   -38.8330 
  177.0000     2.2630    68.0260    24.9520    88.0480    90.0810    97.5580   -38.9790 
  177.1250     2.2480    66.5640    24.9520   104.9550   105.1810   113.9110   -39.0100 
  177.2500     2.2390    64.3350    24.9520   121.0900   117.6430   127.4070   -39.2320 
  177.3750     2.2400    62.3570    24.9520   133.6950   124.6210   134.9650   -39.3270 
  177.5000     2.2460    60.2120    24.9520   136.4480   124.8260   135.1870   -39.3530 
  177.6250     2.2500    58.0170    24.9520   129.7630   119.1840   129.0760   -39.5160 
  177.7500     2.2530    56.7770    24.9520   115.5810   110.4270   119.5920   -39.4840 
  177.8750     2.2600    57.5760    24.9520   100.5810   102.6050   111.1210   -39.5490 
  178.0000     2.2660    60.4340    24.9520    88.4280    98.1130   106.2570   -39.5650 
  178.1250     2.2650    62.4390    24.9520    80.4990    98.4710   106.6440   -39.6930 
  178.2500     2.2510    62.7950    24.9520    82.7650   105.5900   114.3540   -39.7370 
  178.3750     2.2310    63.6170    24.9290   104.0690   118.3010   128.1200   -39.7350 
  178.5000     2.2130    64.9840    24.8380   138.7320   134.0250   145.1490   -39.8390 
  178.6250     2.1970    64.2520    24.6770   170.8460   147.1000   159.3090   -39.7900 
  178.7500     2.1870    60.1030    24.5280   181.4560   148.6070   160.9420   -39.8640 
  178.8750     2.1870    57.0020    24.4720   162.4660   138.7290   150.2430   -39.8180 
  179.0000     2.1960    56.5170    24.5220   127.9460   123.1310   133.3510   -39.8220 
  179.1250     2.2040    57.8320    24.6240    90.3940   109.2310   118.2970   -39.7900 
  179.2500     2.2040    59.5730    24.7000    70.1020   103.5560   112.1510   -39.6970 
  179.3750     2.2010    59.4880    24.7290    75.3550   106.1390   114.9490   -39.7380 
  179.5000     2.2010    57.2470    24.7240   115.5260   114.9660   124.5090   -39.6240 
  179.6250     2.2030    54.4330    24.6690   172.6590   125.5160   135.9340   -39.6010 
  179.7500     2.2030    53.0800    24.5200   188.5080   129.6080   140.3660   -39.5300 
  179.8750     2.2050    53.2400    24.3330   156.8290   123.2970   133.5310   -39.4730 
  180.0000     2.2150    54.7560    24.1770    99.5340   108.7280   117.7530   -39.5490 
  180.1250     2.2360    57.4590    24.0830    61.3480    92.1310    99.7780   -39.5340 
  180.2500     2.2660    59.3720    24.0490    58.4760    79.8810    86.5110   -39.5360 
  180.3750     2.2930    59.8780    24.0500    61.0160    73.3630    79.4520   -39.4850 
  180.5000     2.3060    60.7130    24.1170    58.0730    72.3880    78.3960   -39.4580 
  180.6250     2.3020    61.5800    24.3060    51.3980    76.2450    82.5730   -39.4730 
  180.7500     2.2900    60.8330    24.5840    54.1190    84.2560    91.2490   -39.4460 
  180.8750     2.2780    60.2170    24.7890    63.8930    93.8840   101.6760   -39.5520 
  181.0000     2.2650    60.1000    24.8590    73.9640   103.0590   111.6130   -39.5170 
  181.1250     2.2490    59.1730    24.8420    79.4790   110.1270   119.2680   -39.4240 
  181.2500     2.2330    58.2110    24.7990    78.5710   114.4520   123.9520   -39.4430 
  181.3750     2.2240    59.4000    24.7440    76.2890   117.9640   127.7550   -39.3510 
  181.5000     2.2260    61.6210    24.6800    76.4410   122.6190   132.7960   -39.3560 
  181.6250     2.2330    62.0540    24.6100    76.6950   129.7520   140.5220   -39.3450 
  181.7500     2.2330    60.8270    24.5520    78.0590   139.7350   151.3330   -39.2870 
  181.8750     2.2250    59.6790    24.5210    82.1480   150.5730   163.0710   -39.2170 
  182.0000     2.2120    58.2370    24.5100    86.6960   160.1130   173.4020   -39.0550 
  182.1250     2.1980    57.5390    24.4870    84.9450   166.4070   180.2190   -39.0340 
  182.2500     2.1880    57.9390    24.4260    81.8360   167.6600   181.5760   -39.0380 
  182.3750     2.1870    57.2410    24.3430    80.6270   164.7180   178.3900   -38.9790 
  182.5000     2.1960    55.8020    24.2590    83.1350   158.3550   171.4980   -38.9290 
  182.6250     2.2140    56.1460    24.1980    90.4960   149.5600   161.9730   -38.8080 
  182.7500     2.2320    58.9570    24.1750    97.9040   139.2650   150.8240   -38.7040 
  182.8750     2.2440    60.0400    24.1730    97.3220   128.6900   139.3720   -38.5580 
  183.0000     2.2460    58.2030    24.1740    90.3310   118.5620   128.4030   -38.5170 
  183.1250     2.2420    56.3400    24.1740    83.9580   109.4470   118.5310   -38.6010 
  183.2500     2.2400    56.2140    24.1740    79.0190   101.9130   110.3720   -38.4150 
  183.3750     2.2410    56.1400    24.1720    70.5110    95.8100   103.7620   -38.3660 
  183.5000     2.2390    55.9250    24.1710    59.5730    91.0360    98.5920   -38.3580 
  183.6250     2.2340    57.2330    24.1730    52.2600    87.3800    94.6330   -38.2470 
  183.7500     2.2310    60.7960    24.1770    47.2920    84.6810    91.7090   -38.2930 
  183.8750     2.2340    63.0170    24.1790    43.7030    82.4910    89.3380   -38.2780 
  184.0000     2.2410    62.5590    24.1780    41.9960    80.5520    87.2380   -38.2850 
  184.1250     2.2490    61.4770    24.1740    42.3900    78.6760    85.2070   -38.1430 
  184.2500     2.2550    61.8600    24.1700    45.9010    76.8900    83.2720   -38.0760 
  184.3750     2.2570    63.7030    24.1690    49.6450    75.4340    81.6950   -38.1040 
  184.5000     2.2560    66.2610    24.1680    50.9810    74.6190    80.8120   -38.0440 
  184.6250     2.2540    68.5350    24.1670    48.6020    74.7080    80.9090   -38.1370 
  184.7500     2.2520    67.9760    24.1660    47.9810    76.0250    82.3350   -38.0810 
  184.8750     2.2500    65.2330    24.1650    50.3300    78.3380    84.8410   -38.1770 
