~V
VERS. 2.00: Ver 2.00
~W
STRT.M 72.0000:
STOP.M 259.0000:
STEP.M 0.1250:
NULL. -999.2500:
UWI. DF5020:
~C
DEPT.M :
DEN.GM/CC :
GR.API :
RML.OHMM :
RI. :
RXO.OHMM :
CALI.CM :
SP.MV :
~A
# ...
  184.5000     2.2850    69.3940    88.9830    89.4210   126.3730    25.1260   -25.1590 
  184.6250     2.3020    70.7760    63.9490    65.7760   106.2180    25.0750   -25.0500 
  184.7500     2.3230    72.5020    45.0200    46.6980    72.9470    25.0680   -24.9910 
  184.8750     2.3450    75.1830    33.1600    33.9530    38.4250    25.0640   -25.0140 
  185.0000     2.3620    77.9360    27.6270    27.2980    20.3890    25.0560   -25.1280 
  185.1250     2.3660    78.0600    28.3380    26.7860    16.4730    25.0040   -25.3540 
  185.2500     2.3570    76.3580    34.0490    31.2770    20.7640    24.9680   -25.6530 
  185.3750     2.3410    75.6690    44.6770    40.8410    30.4040    24.9360   -26.0480 
  185.5000     2.3230    76.7380    59.7060    55.0840    49.2530    24.9230   -26.4890 
  185.6250     2.3070    74.6320    77.8160    72.6750    64.5420    24.8750   -27.0080 
  185.7500     2.2930    68.8060    95.7780    90.1070    71.7430    24.8600   -27.5210 
  185.8750     2.2800    64.4050   111.1940   104.7640    78.3280    24.8130   -28.0380 
  186.0000     2.2680    64.2740   122.9110   115.3540    89.6360    24.7440   -28.5340 
  186.1250     2.2570    64.5390   131.3070   121.9490    97.0640    24.7140   -28.9140 
  186.2500     2.2510    63.7900   138.9810   126.9030   104.4360    24.6720   -29.2780 
  186.3750     2.2480    63.9800   147.8780   131.8510   117.5170    24.6590   -29.5100 
  186.5000     2.2470    65.8550   159.5520   138.1570   132.4790    24.6110   -29.7360 
  186.6250     2.2470    66.3390   175.5620   147.2380   149.4240    24.6030   -29.8800 
  186.7500     2.2450    65.0150   194.9130   158.8290   173.0960    24.6000   -30.0410 
  186.8750     2.2410    63.0750   216.0030   172.1480   201.7500    24.6000   -30.1670 
  187.0000     2.2360    62.0080   236.5590   185.8950   258.0400    24.6000   -30.2860 
  187.1250     2.2320    62.8090   253.7950   198.4570   289.7480    24.6000   -30.4320 
  187.2500     2.2300    63.7420   267.1540   209.2200   331.8080    24.6000   -30.5390 
  187.3750     2.2270    64.0770   276.9470   218.2060   333.2280    24.6000   -30.6960 
  187.5000     2.2240    63.1500   283.7970   225.6660   322.3540    24.6000   -30.8470 
  187.6250     2.2190    60.7170   287.3100   231.2010   319.1600    24.6000   -30.9940 
  187.7500     2.2150    57.9080   287.3570   234.4100   328.2560    24.6000   -31.0880 
  187.8750     2.2120    56.1150   283.4330   234.6090   341.6060    24.6000   -31.1640 
  188.0000     2.2090    56.0010   275.6130   231.5030   347.4460    24.6000   -31.1580 
  188.1250     2.2060    56.5640   264.2100   224.9400   307.3450    24.6000   -31.1540 
  188.2500     2.2040    57.3010   250.5960   216.0260   243.7120    24.6000   -31.1280 
  188.3750     2.2020    56.7920   234.9080   204.9880   216.8310    24.6000   -31.0150 
  188.5000     2.2050    56.3740   216.7730   191.6320   228.5900    24.6130   -30.8530 
  188.6250     2.2150    59.4050   195.6970   175.4050   243.0640    24.6870   -30.6290 
  188.7500     2.2310    63.8070   173.4680   157.5420   231.3420    24.8300   -30.3890 
  188.8750     2.2510    66.4270   152.7290   140.0000   202.2060    24.8070   -30.1220 
  189.0000     2.2700    67.6600   136.6340   125.4990   159.8060    24.7300   -29.9320 
  189.1250     2.2820    70.0320   129.4320   118.1290   122.0430    24.6290   -29.6460 
  189.2500     2.2830    71.6690   131.6280   119.0440   103.5490    24.5160   -29.4160 
  189.3750     2.2750    69.7520   143.4340   128.8080   105.3470    24.4690   -29.1670 
  189.5000     2.2600    65.4240   163.3150   146.2480   141.1910    24.3530   -28.9670 
  189.6250     2.2450    62.8720   187.2190   167.9340   217.0980    24.2480   -28.8040 
  189.7500     2.2350    62.6760   207.7310   187.2280   331.9410    24.3260   -28.7050 
  189.8750     2.2330    63.2090   219.2310   199.1570   406.7400    24.4730   -28.6190 
  190.0000     2.2360    63.8800   219.4280   201.4730   387.4500    24.6120   -28.5520 
  190.1250     2.2400    64.0000   210.2320   195.1750   334.4550    24.7100   -28.5520 
  190.2500     2.2390    64.3530   198.7860   186.2520   271.6170    24.7860   -28.5490 
  190.3750     2.2340    64.8980   188.1350   177.7000   230.0930    24.8230   -28.5740 
  190.5000     2.2270    66.0200   178.5520   170.1640   208.6430    24.8030   -28.6070 
  190.6250     2.2230    66.3390   168.8260   162.6450   200.6580    24.7710   -28.6450 
  190.7500     2.2240    64.3200   158.2000   154.1880   197.8420    24.8040   -28.6590 
  190.8750     2.2320    62.5800   146.9070   144.7510   181.0690    24.8010   -28.6820 
  191.0000     2.2420    62.6740   135.6960   134.8720   152.5670    24.6560   -28.6620 
  191.1250     2.2520    64.9880   125.5490   125.4030   116.4540    24.4960   -28.6610 
  191.2500     2.2600    66.4270   116.7300   116.8090    93.2840    24.4730   -28.6650 
  191.3750     2.2650    65.2450   109.2900   109.2440    87.5290    24.6030   -28.6930 
  191.5000     2.2690    64.7660   103.2560   102.7950    88.0130    24.6550   -28.6990 
  191.6250     2.2720    67.3770    99.2500    98.0820    79.6320    24.4710   -28.7170 
  191.7500     2.2740    71.8770    97.7620    95.7630    68.8640    24.3660   -28.7750 
  191.8750     2.2720    74.7840    99.9170    97.2360    63.4000    24.4190   -28.8330 
  192.0000     2.2680    74.1260   107.4350   104.5840    62.1170    24.4440   -28.9430 
  192.1250     2.2590    70.1140   125.1050   122.6130    68.7600    24.3460   -28.9610 
  192.2500     2.2460    65.0430   156.0430   153.1460    80.6490    24.2750   -29.0100 
  192.3750     2.2300    61.5650   203.6500   197.4160   106.4360    24.2780   -29.0220 
  192.5000     2.2140    59.8590   268.1820   253.2630   148.1630    24.4580   -29.0650 
  192.6250     2.2000    58.3170   344.5650   313.4620   219.3410    24.7170   -29.0330 
  192.7500     2.1910    56.9050   417.1720   366.0280   321.2460    24.8890   -28.9490 
  192.8750     2.1860    53.9150   471.6670   402.1630   411.3330    24.8490   -28.8330 
  193.0000     2.1860    51.0280   498.9720   418.1620   438.4890    24.6200   -28.6740 
  193.1250     2.1880    52.6750   495.3980   413.3940   404.1150    24.4050   -28.5520 
  193.2500     2.1910    58.0200   470.5280   394.5960   339.9730    24.2830   -28.4300 
  193.3750     2.1940    63.8460   427.4730   363.3740   264.0690    24.3270   -28.3630 
  193.5000     2.1990    66.2060   370.4580   321.5150   210.4670    24.4480   -28.2840 
  193.6250     2.2070    65.8330   308.5630   273.4910   210.9570    24.5420   -28.2740 
  193.7500     2.2190    64.6330   253.7340   227.9690   227.2540    24.5550   -28.3080 
  193.8750     2.2310    62.6690   211.7750   190.6160   225.2570    24.4990   -28.3780 
  194.0000     2.2410    62.6700   183.6530   164.0280   176.7900    24.4020   -28.4550 
  194.1250     2.2460    64.9320   168.8060   149.2990   131.4640    24.3600   -28.5670 
  194.2500     2.2460    66.6490   161.7610   142.1560   116.4540    24.3700   -28.6100 
  194.3750     2.2450    65.0470   159.3980   139.8180   108.9050    24.4360   -28.5890 
  194.5000     2.2440    60.8210   158.9620   139.6980   105.1760    24.4480   -28.4670 
  194.6250     2.2450    59.5490   158.1690   139.6130   102.6390    24.3530   -28.2530 
  194.7500     2.2460    61.6280   156.1640   138.5150    98.8670    24.1830   -27.9450 
  194.8750     2.2470    64.7980   153.2850   136.4870    95.9630    24.1570   -27.5500 
  195.0000     2.2460    67.3060   150.2880   134.0670    99.4720    24.2340   -27.0750 
  195.1250     2.2430    67.4450   147.6790   131.6950   109.7920    24.2550   -26.5180 
  195.2500     2.2390    67.1210   144.9830   129.1760   120.8900    24.1860   -25.9460 
  195.3750     2.2360    68.5370   141.2350   125.8540   129.4130    24.2740   -25.3230 
  195.5000     2.2340    71.7160   135.4140   120.9610   129.7640    24.4470   -24.7620 
  195.6250     2.2340    72.3980   126.6130   113.7150   138.3080    24.5130   -24.1820 
