~V
VERS. 2.00: Ver 2.00
~W
STRT.M 57.0000:
STOP.M 276.0000:
STEP.M 0.1250:
NULL. -999.2500:
UWI. DF5005:
~C
DEPT.M :
GR.API :
RML.OHMM :
RI. :
RXO.OHMM :
CALI.CM :
DEN.GM/CC :
SP.MV :
~A
# ...
  102.0000    68.0190     9.8170     8.3540     9.9460    23.3320     2.1450   -29.6040 
  102.1250    68.1800     9.9040     8.5200     9.7980    23.4220     2.1430   -29.5930 
  102.2500    68.8450     9.9830     8.6390     9.8140    23.5480     2.1410   -29.5150 
  102.3750    66.7310     9.9500     8.7100     9.9860    23.6280     2.1380   -29.3370 
  102.5000    63.0220     9.8760     8.7340    10.1640    23.6770     2.1330   -29.1660 
  102.6250    60.1610     9.7760     8.6940    10.2530    23.7430     2.1290   -28.9490 
  102.7500    59.3630     9.6350     8.5760    10.1730    23.8350     2.1280   -28.6280 
  102.8750    61.8830     9.4270     8.3750     9.9130    23.8970     2.1350   -28.2880 
  103.0000    67.7410     9.2050     8.1440     9.5860    23.9180     2.1520   -27.9470 
  103.1250    76.2610     8.9680     7.9400     9.1930    23.9210     2.1770   -27.5380 
  103.2500    83.3290     8.8090     7.8120     8.8300    23.9210     2.2050   -27.1500 
  103.3750    83.0170     8.7730     7.7950     8.6980    23.9210     2.2210   -26.9010 
  103.5000    76.8930     8.8870     7.8530     8.8770    23.9210     2.2220   -26.7100 
  103.6250    69.0830     9.0140     7.9450     9.4470    23.9210     2.2090   -26.5880 
  103.7500    66.8390     9.1060     8.0320     9.9890    23.9210     2.1920   -26.6060 
  103.8750    70.9180     9.1460     8.0930    10.0620    23.9210     2.1790   -26.7170 
  104.0000    73.8250     9.1750     8.1430     9.8870    23.9140     2.1730   -26.8920 
  104.1250    74.0210     9.2230     8.1990    10.0470    23.8870     2.1720   -27.1960 
  104.2500    72.4560     9.3000     8.2690    10.2530    23.8250     2.1720   -27.5630 
  104.3750    69.8820     9.3810     8.3390    10.2650    23.7940     2.1700   -27.8660 
  104.5000    65.1950     9.4280     8.3840     9.9880    23.7830     2.1670   -28.0780 
  104.6250    59.6480     9.4200     8.3840     9.6180    23.7830     2.1650   -28.2030 
  104.7500    56.7430     9.3580     8.3300     9.4010    23.7830     2.1660   -28.2390 
  104.8750    59.6380     9.2580     8.2260     9.3420    23.7830     2.1690   -28.1780 
  105.0000    65.1420     9.1430     8.0980     9.2410    23.7830     2.1740   -28.0310 
  105.1250    69.8310     9.0240     7.9630     9.0770    23.7830     2.1810   -27.8160 
  105.2500    71.7090     8.9120     7.8400     8.9040    23.7830     2.1880   -27.5550 
  105.3750    71.3240     8.8490     7.7640     8.8320    23.7700     2.1960   -27.2810 
  105.5000    69.8290     8.8710     7.7580     8.9320    23.7320     2.2040   -27.1140 
  105.6250    67.1900     9.0030     7.8350     9.1830    23.6700     2.2110   -27.1220 
  105.7500    64.8770     9.2380     7.9950     9.5480    23.6120     2.2150   -27.2300 
  105.8750    64.0710     9.5320     8.2180     9.9920    23.5910     2.2110   -27.5120 
  106.0000    63.9740     9.7980     8.4450    10.4200    23.5880     2.2020   -27.9560 
  106.1250    64.2800     9.9810     8.6330    10.6110    23.5900     2.1910   -28.4360 
  106.2500    65.0950    10.0540     8.7510    10.3280    23.5890     2.1800   -28.9070 
  106.3750    66.0710    10.0210     8.7780    10.1660    23.5680     2.1730   -29.3980 
  106.5000    65.1690     9.9370     8.7450    10.0410    23.5250     2.1700   -29.8340 
  106.6250    62.7820     9.8440     8.6780     9.9060    23.4790     2.1700   -30.1650 
  106.7500    61.8620     9.7590     8.6070     9.7140    23.4670     2.1690   -30.4810 
  106.8750    64.3660     9.6960     8.5550     9.5410    23.5040     2.1670   -30.7280 
  107.0000    66.7460     9.6380     8.5280     9.4690    23.5650     2.1650   -30.8800 
  107.1250    65.1360     9.5870     8.5250     9.5100    23.6160     2.1610   -31.0090 
  107.2500    60.8940     9.5740     8.5390     9.6640    23.6400     2.1590   -31.1510 
  107.3750    60.0750     9.5920     8.5560     9.8030    23.6470     2.1610   -31.2330 
  107.5000    63.5510     9.6220     8.5640     9.9120    23.6500     2.1660   -31.3000 
  107.6250    66.3250     9.6560     8.5570     9.9550    23.6430     2.1720   -31.4080 
  107.7500    64.4420     9.6860     8.5380     9.9230    23.6140     2.1760   -31.4980 
  107.8750    60.1990     9.6660     8.5180     9.8320    23.5470     2.1770   -31.5000 
  108.0000    59.7600     9.6490     8.5110     9.7130    23.4970     2.1750   -31.4790 
  108.1250    63.3860     9.6720     8.5250     9.6460    23.4930     2.1730   -31.4940 
  108.2500    66.8590     9.7350     8.5640     9.6920    23.5510     2.1710   -31.4420 
  108.3750    65.6490     9.7890     8.6260     9.8190    23.6070     2.1720   -31.3790 
  108.5000    63.9770     9.8610     8.6970     9.9550    23.6530     2.1740   -31.3250 
  108.6250    63.9510     9.9380     8.7610    10.0950    23.6730     2.1780   -31.1980 
  108.7500    63.7480    10.0220     8.8020    10.1980    23.6810     2.1810   -31.0250 
  108.8750    61.6550    10.1090     8.8100    10.2440    23.6960     2.1820   -30.8920 
  109.0000    61.6270    10.1460     8.7950    10.2470    23.7130     2.1800   -30.7440 
  109.1250    64.5900    10.1000     8.7740    10.2190    23.7170     2.1760   -30.4900 
  109.2500    66.9340    10.0070     8.7610    10.1600    23.7090     2.1730   -30.2430 
  109.3750    67.0780     9.8870     8.7600    10.0620    23.6870     2.1720   -29.9590 
  109.5000    67.4600     9.7840     8.7390     9.9550    23.6610     2.1730   -29.6110 
  109.6250    69.3940     9.6380     8.6540     9.8850    23.6510     2.1720   -29.2620 
  109.7500    71.0940     9.4690     8.4650     9.8100    23.6480     2.1710   -28.8930 
  109.8750    71.1660     9.1370     8.1540     9.6340    23.6470     2.1740   -28.4200 
  110.0000    71.7490     8.7890     7.8020     9.3040    23.6460     2.1820   -27.8940 
  110.1250    73.4660     8.4710     7.5000     8.8540    23.6460     2.1960   -27.4100 
  110.2500    75.9260     8.1980     7.3310     8.4920    23.6460     2.2100   -27.0120 
  110.3750    77.9540     8.2230     7.3720     8.6050    23.6460     2.2140   -26.7370 
  110.5000    77.3700     8.4350     7.5700     9.1570    23.6430     2.2060   -26.5600 
  110.6250    75.8590     8.6840     7.8540     9.6500    23.6210     2.1910   -26.4510 
  110.7500    75.3780     8.8980     8.1300     9.7890    23.5720     2.1750   -26.3450 
  110.8750    77.7410     9.0670     8.2840     9.6370    23.5410     2.1670   -26.2310 
  111.0000    79.5390     9.0770     8.2830     9.4410    23.5820     2.1660   -26.1280 
  111.1250    78.2500     8.8840     8.1300     9.1930    23.6330     2.1700   -26.0070 
  111.2500    75.3890     8.5760     7.8700     8.9510    23.6670     2.1760   -25.7580 
  111.3750    73.7890     8.2490     7.5630     8.7240    23.6980     2.1850   -25.3380 
  111.5000    75.7970     7.9820     7.2870     8.5920    23.7110     2.1960   -24.8240 
  111.6250    81.1120     7.8190     7.0880     8.3720    23.7150     2.2070   -24.1770 
  111.7500    86.8010     7.7810     6.9920     8.1050    23.7120     2.2170   -23.4680 
  111.8750    90.6820     7.8620     6.9960     7.9760    23.6990     2.2210   -22.8290 
  112.0000    92.6120     7.9690     7.0310     8.0490    23.6800     2.2230   -22.1650 
  112.1250    92.6880     8.0120     7.0350     7.9550    23.6720     2.2270   -21.3910 
  112.2500    90.7590     7.9230     6.9620     7.6730    23.6750     2.2380   -20.5860 
  112.3750    88.9650     7.6670     6.7810     7.2050    23.6990     2.2600   -19.7820 
  112.5000    91.0440     7.3350     6.5400     6.6920    23.8100     2.2830   -18.9440 
  112.6250    95.1860     7.0170     6.2910     6.3480    24.0520     2.3000   -18.1700 
  112.7500    98.4260     6.7850     6.0850     6.1700    24.3390     2.3040   -17.4970 
  112.8750    99.7570     6.6800     5.9620     5.9860    24.5090     2.2940   -16.8370 
  113.0000   101.5950     6.6580     5.9110     5.9790    24.5950     2.2780   -16.2540 
  113.1250   102.8910     6.6800     5.9120     6.0090    24.6310     2.2650   -15.8400 
