~V
VERS. 2.00: Ver 2.00
~W
STRT.M 53.0000:
STOP.M 257.0000:
STEP.M 0.1250:
NULL. -999.2500:
UWI. DF5014:
~C
DEPT.M :
GR.API :
RML.OHMM :
RI. :
RXO.OHMM :
CALI.CM :
DEN.GM/CC :
SP.MV :
~A
# ...
  176.7500    57.8200   132.8910   131.5180    50.3210    23.8410     2.2360    -8.4490 
  176.8750    54.0920   170.9930   168.7480    58.7040    23.9390     2.2060    -8.1010 
  177.0000    52.8180   213.8670   209.5840    65.6810    24.0260     2.1850    -7.8540 
  177.1250    53.8660   258.5770   250.5460    72.8300    24.0010     2.1710    -7.6890 
  177.2500    53.2940   302.8160   289.0790    80.2260    23.8400     2.1610    -7.6190 
  177.3750    50.2230   344.5000   323.0440    87.4230    23.5660     2.1560    -7.6440 
  177.5000    48.8010   381.1990   351.3440    93.9210    23.2870     2.1540    -7.7690 
  177.6250    50.5370   407.9090   370.7910    99.7840    23.1450     2.1560    -8.0040 
  177.7500    52.1380   418.0520   377.0080   104.3730    23.1710     2.1610    -8.3280 
  177.8750    49.1330   402.0420   362.9140   106.4280    23.4440     2.1670    -8.7400 
  178.0000    46.2720   364.0730   331.3290   105.6990    23.9100     2.1720    -9.1890 
  178.1250    47.6280   312.4990   287.8450   102.8580    24.3000     2.1770    -9.6790 
  178.2500    52.0470   259.9040   241.7890    98.8810    24.4260     2.1820   -10.1720 
  178.3750    54.8090   219.4100   204.2720    95.2300    24.3140     2.1900   -10.6740 
  178.5000    54.3130   193.7790   179.3500    93.2290    24.0240     2.2010   -11.1520 
  178.6250    54.4390   182.5430   167.6830    95.9520    23.5630     2.2130   -11.5840 
  178.7500    58.4440   183.5070   167.8000   103.8560    23.2380     2.2230   -11.9790 
  178.8750    61.8790   194.1600   177.6650   115.8670    23.1210     2.2280   -12.2780 
  179.0000    60.3020   207.6700   190.8870   122.8340    23.1240     2.2280   -12.5040 
  179.1250    54.9910   218.1770   202.0470   123.4060    23.2030     2.2240   -12.6340 
  179.2500    50.5800   220.1680   205.9450   118.3930    23.4010     2.2190   -12.7000 
  179.3750    51.6570   208.7390   197.6840   109.8280    23.6750     2.2160   -12.6540 
  179.5000    56.3680   188.0230   180.3650    99.2890    23.9300     2.2160   -12.5410 
  179.6250    60.7650   163.5880   158.5740    89.1470    24.1310     2.2190   -12.3640 
  179.7500    64.0580   141.4800   137.7510    80.3750    24.2490     2.2250   -12.1630 
  179.8750    68.6430   127.0830   123.1890    71.2540    24.2830     2.2300   -12.0080 
  180.0000    73.5260   119.8480   115.1900    65.2850    24.2790     2.2300   -11.9440 
  180.1250    73.2220   117.5340   112.1740    62.6010    24.2250     2.2230   -11.9580 
  180.2500    67.2400   116.5640   111.0880    65.0500    24.0940     2.2120   -11.9870 
  180.3750    61.3130   112.5250   107.9110    71.0860    23.9350     2.2030   -12.0420 
  180.5000    59.6130   104.0260   100.8730    74.2170    23.8480     2.2020   -12.1060 
  180.6250    60.1660    92.4410    90.7620    68.1770    23.8000     2.2120   -12.1610 
  180.7500    61.3920    81.0420    80.2780    55.8900    23.7650     2.2320   -12.1640 
  180.8750    65.4650    73.7710    73.0880    48.7540    23.7630     2.2540   -12.1320 
  181.0000    70.4580    71.1980    70.1770    50.4970    23.7960     2.2690   -12.0520 
  181.1250    71.5690    72.5000    71.0690    59.4540    23.8150     2.2730   -11.9620 
  181.2500    68.0500    75.9330    74.2400    70.1150    23.8180     2.2650   -11.8900 
  181.3750    63.8270    79.2740    77.5240    74.8700    23.7960     2.2510   -11.8580 
  181.5000    60.3380    81.0600    79.2740    71.0820    23.7380     2.2420   -11.8390 
  181.6250    57.3310    81.3090    79.3000    61.2690    23.6720     2.2400   -11.8780 
  181.7500    57.5800    81.4570    78.6750    54.1190    23.6560     2.2450   -11.9700 
  181.8750    62.0500    83.8500    79.7290    54.8550    23.7140     2.2510   -12.0890 
  182.0000    66.8920    90.0520    84.1940    59.8390    23.8140     2.2510   -12.1690 
  182.1250    68.9350   100.6210    93.1920    64.5410    23.9300     2.2440   -12.2210 
  182.2500    66.8920   116.0560   107.0470    69.6900    23.9930     2.2310   -12.1970 
  182.3750    62.4900   134.5260   125.2330    76.7540    23.9960     2.2190   -12.1400 
  182.5000    57.8250   152.8530   144.0120    86.4360    23.9760     2.2140   -12.0350 
  182.6250    53.4630   167.9500   159.1120    98.8430    23.9720     2.2200   -11.8800 
  182.7500    51.0980   174.8280   166.1040   110.0020    23.9860     2.2380   -11.6720 
  182.8750    52.9910   167.6480   160.6640   112.9470    24.0150     2.2630   -11.4650 
  183.0000    56.9690   151.2880   146.4890   105.4420    24.0770     2.2840   -11.2730 
  183.1250    59.9440   131.8230   128.4920    89.8850    24.1620     2.2950   -11.1220 
  183.2500    61.4830   114.9940   111.9050    74.0530    24.2090     2.2940   -11.0200 
  183.3750    62.2850   105.1090   101.2730    63.9780    24.2140     2.2820   -10.9620 
  183.5000    62.5560   101.5610    96.7470    60.1510    24.2120     2.2680   -10.9410 
  183.6250    62.1220   103.3850    97.7050    60.7720    24.2100     2.2540   -10.9380 
  183.7500    61.3700   109.1510   102.8960    65.2910    24.2150     2.2400   -10.9410 
  183.8750    62.0460   117.1780   110.8000    73.6060    24.2330     2.2290   -10.9320 
  184.0000    62.7690   125.0080   118.8830    82.0420    24.2550     2.2210   -10.9170 
  184.1250    61.7780   131.0530   125.4460    87.7270    24.2650     2.2180   -10.8650 
  184.2500    60.6940   134.3360   129.3420    89.7230    24.2760     2.2190   -10.8320 
  184.3750    61.7310   134.1800   129.7040    88.8390    24.2790     2.2210   -10.7510 
  184.5000    61.2620   131.5430   127.4110    87.3260    24.2690     2.2240   -10.6520 
  184.6250    58.3370   127.0100   123.0600    85.7510    24.2220     2.2250   -10.5300 
  184.7500    57.3070   121.1450   117.2540    84.1220    24.1610     2.2270   -10.4170 
  184.8750    59.7160   114.6080   110.6390    81.5180    24.1330     2.2310   -10.2660 
  185.0000    61.8570   108.4960   104.2930    77.9560    24.1910     2.2360   -10.0880 
  185.1250    63.5010   103.8060    99.1860    72.5650    24.2330     2.2410    -9.8540 
  185.2500    65.9970   101.4260    96.2180    68.5580    24.2320     2.2460    -9.5570 
  185.3750    67.3080   102.5050    96.5610    71.3590    24.2370     2.2470    -9.2490 
  185.5000    65.1720   106.7130    99.9490    77.5610    24.2190     2.2470    -8.9380 
  185.6250    62.6060   113.6900   106.0760    83.3460    24.1080     2.2460    -8.6270 
  185.7500    61.1350   122.5850   114.1640    87.4420    23.9110     2.2460    -8.3130 
  185.8750    60.5500   131.9080   122.8520    91.4760    23.7190     2.2450    -8.0350 
  186.0000    59.3870   139.7710   130.3160    95.8760    23.6190     2.2440    -7.8030 
  186.1250    57.4290   144.8150   135.2240   100.5690    23.5380     2.2410    -7.6580 
  186.2500    55.7760   146.3820   136.8580   103.4210    23.5000     2.2390    -7.5870 
  186.3750    56.4000   144.4640   135.0140   101.7360    23.5460     2.2390    -7.5320 
  186.5000    57.0840   141.1610   131.5180    95.9370    23.6730     2.2400    -7.5110 
  186.6250    57.6170   138.3100   128.0240    89.6390    23.8390     2.2430    -7.5260 
  186.7500    59.1960   137.4820   126.0610    88.2690    24.0250     2.2460    -7.5810 
  186.8750    61.4320   140.0120   127.0590    92.1880    24.1560     2.2440    -7.6330 
  187.0000    61.2390   145.2680   130.6770    98.2620    24.2290     2.2390    -7.7100 
  187.1250    59.4970   152.5320   136.3550   104.3620    24.2640     2.2320    -7.7950 
  187.2500    60.4560   160.9910   143.3330   107.8970    24.2870     2.2280    -7.8930 
  187.3750    62.0280   170.2260   151.1300   108.8900    24.2980     2.2280    -8.0470 
  187.5000    60.2970   180.2910   159.6260   111.5130    24.2970     2.2300    -8.2380 
  187.6250    55.9660   191.7870   169.2390   116.7400    24.2880     2.2310    -8.4470 
  187.7500    53.5600   205.1300   180.2850   124.1960    24.2940     2.2300    -8.6870 
  187.8750    56.1780   219.7360   192.3380   132.0380    24.3200     2.2240    -8.9600 
