~V
VERS. 2.00: Ver 2.00
~W
STRT.M 60.0000:
STOP.M 251.0000:
STEP.M 0.1250:
NULL. -999.2500:
UWI. DF5053:
~C
DEPT.M :
GR.API :
RML.OHMM :
RI. :
RXO.OHMM :
CALI.CM :
DEN.GM/CC :
SP.MV :
~A
   60.0000    49.3390    14.9230     0.1900     0.6570    24.0520     2.2630    10.7110 
   60.1250    51.8310     7.9740     0.1340     0.1340    24.0380     2.3730     8.8460 
   60.2500    49.5610     3.2880     0.0890    -0.0350    24.0540     2.4860     6.8440 
   60.3750    50.2030     0.7410     0.0650    -0.0060    23.9860     2.5640     4.4020 
   60.5000    62.0860     0.8950     0.0930     0.5250    23.6910     2.5700     1.2670 
   60.6250    78.7540     1.5520     0.2070     1.6530    23.1700     2.5200    -2.3880 
   60.7500    95.7980     2.6110     0.4550     3.3800    22.5890     2.4460    -6.3360 
   60.8750   109.8490     3.4860     0.8710     5.0200    22.3240     2.3740   -10.3080 
   61.0000   119.5750     4.1990     1.4800     5.7930    22.5570     2.3230   -14.0800 
   61.1250   123.9800     4.6850     2.2010     5.7110    22.9780     2.2960   -17.6140 
   61.2500   122.2010     4.9580     2.9660     5.6400    23.3330     2.2890   -20.8460 
   61.3750   116.7030     5.1950     3.7330     6.0040    23.6070     2.2930   -23.6500 
   61.5000   108.9940     5.6300     4.4900     6.9030    23.5090     2.2960   -25.7840 
   61.6250   103.1050     6.2460     5.2200     7.6930    23.0750     2.2900   -27.3100 
   61.7500    97.8090     6.8890     5.8610     7.7240    22.4530     2.2700   -28.3410 
   61.8750    94.1700     7.3600     6.3290     7.4770    21.9000     2.2420   -29.0950 
   62.0000    94.1350     7.4360     6.4990     7.5510    21.5950     2.2170   -29.7010 
   62.1250    92.8870     7.1360     6.3900     7.7770    21.5190     2.2090   -30.1510 
   62.2500    93.4340     6.5570     6.0490     7.6390    21.6210     2.2200   -30.3820 
   62.3750    99.7920     5.8790     5.5780     7.0640    21.8940     2.2430   -30.4080 
   62.5000   107.2600     5.3600     5.1410     6.1210    22.3440     2.2620   -30.4060 
   62.6250   110.9210     5.1770     4.8910     5.4530    22.8650     2.2660   -30.6120 
   62.7500   113.8670     5.4160     4.9230     5.3390    23.2610     2.2530   -31.1480 
   62.8750   116.4170     6.0440     5.2500     5.7340    23.2030     2.2290   -31.9590 
   63.0000   110.3170     6.8840     5.7930     6.5280    22.7440     2.2070   -32.9050 
   63.1250   100.3270     7.5810     6.3120     7.2650    22.4120     2.1960   -33.8720 
   63.2500    95.3300     7.8610     6.6040     7.6940    22.3620     2.1990   -34.8310 
   63.3750    97.5400     7.6070     6.5450     7.7420    22.4710     2.2090   -35.7070 
   63.5000   102.6900     6.9290     6.1390     7.4190    22.7480     2.2200   -36.3670 
   63.6250   108.7080     6.2640     5.6470     6.8110    23.1620     2.2250   -36.8390 
   63.7500   115.0550     5.9040     5.2780     6.2290    23.4660     2.2210   -37.2370 
   63.8750   118.1990     5.9830     5.1650     5.9620    23.4040     2.2100   -37.6420 
   64.0000   111.5830     6.5330     5.3920     6.4360    23.1170     2.1950   -38.1030 
   64.1250    96.5770     7.3260     5.8450     7.1220    22.8140     2.1810   -38.6030 
   64.2500    79.0610     8.1620     6.4110     7.9420    22.6130     2.1710   -39.1540 
   64.3750    71.2140     8.8450     6.9610     8.4620    22.5450     2.1640   -39.8090 
   64.5000    78.4910     9.2030     7.3520     8.6190    22.4990     2.1610   -40.5930 
   64.6250    84.6470     9.2980     7.5610     8.6960    22.4900     2.1590   -41.3290 
   64.7500    78.0190     9.2280     7.6150     8.7380    22.6710     2.1570   -41.8170 
   64.8750    65.0620     9.0960     7.5700     8.7580    22.8340     2.1560   -42.0130 
   65.0000    63.5220     8.9650     7.4770     8.6830    22.8990     2.1550   -41.9870 
   65.1250    72.4990     8.8540     7.3800     8.5420    22.9600     2.1560   -41.9000 
   65.2500    81.7700     8.7620     7.2940     8.3870    23.0480     2.1570   -41.7950 
   65.3750    83.8410     8.6960     7.2280     8.1600    23.0120     2.1590   -41.6650 
   65.5000    79.9430     8.6840     7.2040     8.0450    22.8430     2.1570   -41.5310 
   65.6250    76.9600     8.7380     7.2290     8.2010    22.7930     2.1520   -41.4730 
   65.7500    75.4260     8.8610     7.3080     8.7140    22.9250     2.1440   -41.5710 
   65.8750    71.6090     9.0320     7.4340     9.6000    23.2590     2.1380   -41.8180 
   66.0000    67.8850     9.1850     7.5720    10.7660    23.5670     2.1390   -42.0870 
   66.1250    69.9910     9.2410     7.6630    12.0420    23.7480     2.1470   -42.2490 
   66.2500    75.1560     9.1440     7.6590    12.9690    23.8860     2.1590   -42.3010 
   66.3750    78.8870     8.8900     7.5380    13.0720    24.0420     2.1720   -42.2890 
   66.5000    84.9190     8.5260     7.3130    12.3390    24.0770     2.1820   -42.2390 
   66.6250    95.9970     8.1780     7.0670    11.4050    24.0200     2.1870   -42.1210 
   66.7500   105.5640     7.9510     6.8730    10.4730    23.8300     2.1870   -41.8990 
   66.8750   104.7920     7.9190     6.7960     9.9550    23.5450     2.1820   -41.5940 
   67.0000    95.5830     8.1380     6.8930    10.0040    23.1310     2.1690   -41.2670 
   67.1250    89.0430     8.5060     7.1150    10.1070    22.8580     2.1510   -40.9650 
   67.2500    86.2810     8.8880     7.3830    10.2770    22.8070     2.1290   -40.6400 
   67.3750    81.1200     9.1100     7.5810    10.8190    23.0700     2.1090   -40.1960 
   67.5000    72.1370     8.9490     7.5460    11.5560    23.6010     2.1010   -39.4910 
   67.6250    70.0960     8.4280     7.2530    11.7750    24.1140     2.1100   -38.5970 
   67.7500    81.0120     7.6830     6.7580    10.9380    24.4160     2.1380   -37.5980 
   67.8750    97.2590     6.9550     6.1990     9.2310    24.4650     2.1760   -36.5530 
   68.0000   105.4740     6.6050     5.8070     7.9510    24.3340     2.2080   -35.5570 
   68.1250   103.9290     6.8020     5.7400     7.5540    24.1900     2.2270   -34.6760 
   68.2500    94.8860     7.5940     6.0860     8.1420    24.1630     2.2390   -33.9880 
   68.3750    81.2340     8.8510     6.8210     9.4940    24.2410     2.2560   -33.5510 
   68.5000    68.8470    10.2330     7.7900    10.9490    24.2790     2.2840   -33.4850 
   68.6250    63.0790    11.2490     8.6500    12.4060    24.0260     2.3090   -33.7030 
   68.7500    64.2200    11.5610     9.1190    13.3990    23.5290     2.3130   -34.0820 
   68.8750    68.1840    11.0770     9.0480    13.2540    23.0070     2.2890   -34.5210 
   69.0000    69.8090    10.0050     8.4740    10.9380    23.0460     2.2470   -34.9960 
   69.1250    66.7230     8.9090     7.7690     9.4100    23.4440     2.2090   -35.4860 
   69.2500    59.6990     8.1100     7.1840     8.8070    23.9270     2.1870   -35.9350 
   69.3750    55.5940     7.7320     6.8530     8.5120    24.2160     2.1780   -36.3220 
   69.5000    58.7040     7.7820     6.8330     8.3470    24.2870     2.1780   -36.6250 
   69.6250    63.7770     8.0400     6.9950     8.7010    24.2440     2.1820   -36.9120 
   69.7500    68.7590     8.3580     7.2350     9.4910    24.1050     2.1870   -37.2260 
   69.8750    72.3440     8.6180     7.4600    10.5380    23.8910     2.1870   -37.5190 
   70.0000    73.4020     8.7290     7.5870    11.5120    23.6710     2.1770   -37.6250 
   70.1250    72.1860     8.6960     7.6060    11.8740    23.3570     2.1620   -37.5410 
   70.2500    70.0880     8.5510     7.5260    11.6250    22.8940     2.1470   -37.3150 
   70.3750    69.5520     8.3460     7.3770    11.2440    22.4400     2.1380   -36.9460 
   70.5000    73.2270     8.1400     7.1970    10.8230    22.0530     2.1400   -36.3710 
   70.6250    75.8430     7.9760     7.0270    10.2390    21.9890     2.1460   -35.5730 
   70.7500    76.7010     7.8660     6.8880     9.6840    22.4450     2.1540   -34.5640 
   70.8750    79.0950     7.7980     6.7860     9.7570    23.0800     2.1600   -33.4190 
   71.0000    85.2980     7.7190     6.7000    10.3860    22.9260     2.1650   -32.2040 
   71.1250    88.3550     7.5610     6.5860    10.3400    22.2960     2.1720   -30.8950 
