~V
VERS. 2.00: Ver 2.00
~W
STRT.M 57.0000:
STOP.M 276.0000:
STEP.M 0.1250:
NULL. -999.2500:
UWI. DF5005:
~C
DEPT.M :
GR.API :
RML.OHMM :
RI. :
RXO.OHMM :
CALI.CM :
DEN.GM/CC :
SP.MV :
~A
# ...
  203.2500    54.8160   200.1430   182.8690   159.5630    24.7950     2.2030   -17.5290 
  203.3750    57.6380   177.4520   163.0770   144.4980    24.7950     2.2060   -17.0390 
  203.5000    59.8480   160.8670   147.6140   127.5020    24.7930     2.2110   -16.4640 
  203.6250    59.3160   153.6550   140.3340   113.7180    24.7910     2.2160   -15.8700 
  203.7500    57.7460   156.5990   142.9680   110.0360    24.7970     2.2150   -15.3190 
  203.8750    58.6870   167.0770   154.3190   122.2430    24.8190     2.2010   -14.6670 
  204.0000    60.8780   175.2670   165.3750   139.8620    24.8450     2.1840   -13.9230 
  204.1250    61.2200   171.3440   166.2150   165.7980    24.8530     2.1800   -13.2120 
  204.2500    58.4250   148.0150   148.3910   187.5410    24.8240     2.2080   -12.5220 
  204.3750    52.4000   106.8930   110.2430   189.4080    24.7220     2.2920   -11.7390 
  204.5000    48.1140    67.0580    69.5960   163.4680    24.5830     2.4050   -10.9440 
  204.6250    50.0970    38.9840    39.3170    96.4620    24.4970     2.5090   -10.2130 
  204.7500    56.2360    22.6700    21.8140    33.1130    24.4710     2.5620    -9.4810 
  204.8750    57.9710    15.1770    14.1250    14.6620    24.4560     2.5460    -8.7900 
  205.0000    55.4750    11.9090    10.6340     9.5400    24.4060     2.5020    -8.2270 
  205.1250    56.1450    11.1630     9.2590     8.5360    24.3150     2.4610    -7.7680 
  205.2500    61.0510    11.3780     8.9310     8.4360    24.2060     2.4430    -7.3320 
  205.3750    62.7300    11.7480     9.0750     8.4320    24.1160     2.4480    -6.9960 
  205.5000    61.2400    11.8000     9.2220     8.2330    24.0540     2.4610    -6.7700 
  205.6250    61.5050    11.4800     9.2100     7.8240    24.0280     2.4680    -6.5480 
  205.7500    66.7330    10.9490     9.0460     7.4560    24.0320     2.4600    -6.3300 
  205.8750    70.8560    10.4260     8.8330     7.2410    24.0300     2.4360    -6.2010 
  206.0000    68.3090    10.0100     8.6580     7.0700    24.0090     2.4110    -6.0970 
  206.1250    59.7270     9.6990     8.5310     7.0130    23.9710     2.3940    -5.9520 
  206.2500    50.0810     9.4620     8.4260     7.0340    23.8770     2.3900    -5.8520 
  206.3750    45.5680     9.3030     8.3240     6.9830    23.6770     2.3980    -5.8630 
  206.5000    45.5510     9.2940     8.2770     6.8380    23.5090     2.4090    -5.8910 
  206.6250    48.1860     9.6080     8.4250     6.6720    23.4040     2.4170    -5.9610 
  206.7500    49.4100    10.4480     8.9310     6.5750    23.3570     2.4190    -6.1200 
  206.8750    47.0410    11.9850     9.9140     6.6970    23.3490     2.4160    -6.3470 
  207.0000    45.4410    13.7230    11.0640     7.1040    23.3580     2.4100    -6.5740 
  207.1250    48.1230    15.0050    11.8980     7.7320    23.3860     2.4060    -6.8100 
  207.2500    52.9180    14.9610    11.8530     8.4030    23.4170     2.4070    -7.0220 
  207.3750    55.7120    13.0710    10.4160     8.6800    23.4380     2.4130    -7.1730 
  207.5000    59.0010     9.9760     8.1900     8.1110    23.4470     2.4190    -7.2810 
  207.6250    61.9770     6.8200     5.9460     6.8400    23.4320     2.4210    -7.3520 
  207.7500    60.3110     4.8480     4.2340     5.3700    23.4100     2.4140    -7.3810 
  207.8750    53.3870     4.0210     3.2880     4.5910    23.3830     2.3980    -7.3500 
  208.0000    47.1100     3.9020     2.9270     4.7780    23.3590     2.3820    -7.3070 
  208.1250    45.3320     4.3390     3.1290     5.5900    23.3590     2.3750    -7.3420 
  208.2500    46.5230     5.1740     3.9380     6.6280    23.3940     2.3870    -7.5020 
  208.3750    49.3390     6.5500     5.4810     8.4360    23.4460     2.4240    -7.7140 
  208.5000    52.6860     8.3930     7.4940    11.5480    23.5300     2.4720    -7.9960 
  208.6250    56.3390    10.6790     9.6100    15.5010    23.6320     2.5120    -8.3870 
  208.7500    64.3890    12.5360    11.3280    19.4180    23.7040     2.5260    -8.8430 
  208.8750    78.5330    13.3170    12.0520    20.7740    23.6930     2.5070    -9.2900 
  209.0000    89.7860    13.1490    11.9090    17.5610    23.6440     2.4700    -9.7800 
  209.1250    93.9820    12.4830    11.2980    14.0280    23.6120     2.4310   -10.2460 
  209.2500    93.7280    11.8530    10.7100    11.9400    23.6020     2.4020   -10.5940 
  209.3750    94.1910    11.7470    10.5380    11.7820    23.5920     2.3890   -10.9170 
  209.5000    95.7440    12.0790    10.7470    12.4730    23.5700     2.3880   -11.2400 
  209.6250    97.3000    12.6540    11.1670    13.3140    23.5510     2.3940   -11.4720 
  209.7500    96.1370    13.1990    11.5590    13.7890    23.5470     2.4010   -11.6060 
  209.8750    90.9250    13.1400    11.6770    13.7480    23.5600     2.4020   -11.7480 
  210.0000    89.3950    12.8190    11.5320    13.1870    23.5760     2.3940   -11.8490 
  210.1250    93.6200    12.4570    11.2570    12.3950    23.5760     2.3810   -11.8780 
  210.2500    97.6290    12.2170    11.0350    11.7270    23.5600     2.3690   -11.9040 
  210.3750    93.8920    12.2090    11.0270    11.6200    23.5410     2.3640   -11.9510 
  210.5000    87.2130    12.3930    11.1980    12.0710    23.5220     2.3680   -11.9640 
  210.6250    83.7430    12.6650    11.4490    12.8830    23.4930     2.3770   -11.9590 
  210.7500    86.1540    12.9040    11.6700    13.4220    23.4720     2.3890   -11.9390 
  210.8750    91.1020    13.0740    11.8280    13.2680    23.4560     2.4010   -11.8490 
  211.0000    92.2540    13.3710    12.1030    12.7430    23.4340     2.4080   -11.6880 
  211.1250    88.4760    14.0980    12.7760    12.2810    23.4090     2.4070   -11.4910 
  211.2500    83.7600    15.4890    14.0640    12.4660    23.3980     2.4050   -11.2790 
  211.3750    81.1620    17.5130    15.9390    14.2370    23.3970     2.4160   -10.9310 
  211.5000    76.9360    19.4500    17.7290    17.0100    23.3970     2.4470   -10.4480 
  211.6250    70.8050    20.4490    18.6460    19.6490    23.3870     2.4950    -9.8930 
  211.7500    68.0170    19.7840    18.0360    20.8250    23.3580     2.5440    -9.2940 
  211.8750    70.6760    17.2130    15.6850    17.8410    23.3000     2.5630    -8.6100 
  212.0000    70.3590    13.9910    12.7460    12.0670    23.2740     2.5450    -7.9510 
  212.1250    63.3150    11.1390    10.1260     7.9030    23.2680     2.5010    -7.3510 
  212.2500    55.0490     9.2200     8.2780     6.3930    23.2680     2.4530    -6.7230 
  212.3750    51.8530     8.4110     7.3500     6.2510    23.2680     2.4180    -6.1650 
  212.5000    54.0680     8.4210     7.0170     6.3160    23.2680     2.3990    -5.7890 
  212.6250    60.0840     8.6680     7.0710     6.3230    23.2680     2.3930    -5.5550 
  212.7500    67.2480     8.8090     7.3120     6.3000    23.2680     2.3970    -5.4280 
  212.8750    74.2100     8.9710     7.5680     6.3780    23.2580     2.4050    -5.4810 
  213.0000    81.0580     9.1080     7.7550     6.4340    23.2340     2.4120    -5.6410 
  213.1250    85.8650     9.2190     7.8710     6.4070    23.2090     2.4150    -5.8200 
  213.2500    87.4040     9.3030     7.9470     6.2900    23.1990     2.4150    -6.0370 
  213.3750    88.3010     9.3410     8.0080     6.2780    23.1990     2.4120    -6.3190 
  213.5000    87.9260     9.3560     8.0680     6.3870    23.1990     2.4100    -6.5860 
  213.6250    83.6650     9.3160     8.1160     6.6080    23.1990     2.4100    -6.8030 
  213.7500    76.8980     9.2320     8.1340     6.8650    23.1990     2.4100    -7.0190 
  213.8750    73.7520     9.1740     8.1050     7.0490    23.2050     2.4080    -7.2640 
  214.0000    77.0600     9.1260     8.0410     7.2230    23.2440     2.4030    -7.4790 
  214.1250    84.8350     9.0940     7.9600     7.3950    23.3520     2.3970    -7.6990 
  214.2500    92.5900     9.0460     7.8820     7.5530    23.5240     2.3910    -7.9580 
  214.3750    93.0750     8.9880     7.8210     7.6730    23.7630     2.3840    -8.2050 
