~V
VERS. 2.00: Ver 2.00
~W
STRT.M 55.0000:
STOP.M 247.0000:
STEP.M 0.1250:
NULL. -999.2500:
UWI. DF5063:
~C
DEPT.M :
SP.MV :
GR.API :
RML.OHMM :
RI. :
RXO.OHMM :
CALI.CM :
DEN.GM/CC :
~A
# ...
  201.2500    -5.8750    72.9860    27.1390    23.7350    43.7870    24.5240     2.2720 
  201.3750    -6.5110    74.8740    33.8930    28.7010    48.9190    24.5020     2.2640 
  201.5000    -7.1260    73.3620    41.2750    33.8670    51.8880    24.4920     2.2520 
  201.6250    -7.6800    72.2690    48.3450    38.6280    54.2580    24.5080     2.2390 
  201.7500    -8.2230    74.2520    52.8010    42.6800    55.2550    24.5090     2.2280 
  201.8750    -8.7410    76.9740    56.4900    46.0420    55.9160    24.4780     2.2230 
  202.0000    -9.2250    78.5630    59.8470    49.0340    56.3820    24.4140     2.2250 
  202.1250    -9.6860    77.7900    63.5810    52.2560    57.0030    24.2950     2.2260 
  202.2500   -10.0820    74.8850    68.2240    56.2190    60.7990    24.1190     2.2220 
  202.3750   -10.3710    70.3850    74.0910    61.2290    66.8940    23.8770     2.2090 
  202.5000   -10.5710    66.4560    81.1860    67.3210    71.2250    23.6840     2.1910 
  202.6250   -10.7270    65.9540    89.1660    74.2700    79.7200    23.9000     2.1770 
  202.7500   -10.7930    67.6230    97.1160    81.3570    82.7910    24.1760     2.1710 
  202.8750   -10.8190    68.2020   104.3530    88.0590    87.1250    24.3800     2.1720 
  203.0000   -10.8580    66.5630   110.4720    94.0520    93.3040    24.4560     2.1760 
  203.1250   -10.9010    64.2470   115.3120    99.1740   101.4190    24.4720     2.1780 
  203.2500   -10.9610    63.8260   119.4190   103.7600   105.5550    24.4640     2.1790 
  203.3750   -11.0920    64.6260   123.1370   108.0490   105.6720    24.4590     2.1790 
  203.5000   -11.3230    64.5790   126.6530   112.1900   102.1910    24.4680     2.1790 
  203.6250   -11.6140    64.8860   129.9350   116.1730   101.9300    24.4640     2.1750 
  203.7500   -11.9620    67.5110   132.8510   119.8920   107.3230    24.4490     2.1700 
  203.8750   -12.3520    69.9440   135.1180   123.1140   110.9220    24.4500     2.1670 
  204.0000   -12.7040    70.7970   136.3650   125.5070   111.1530    24.4660     2.1670 
  204.1250   -12.9540    71.2430   135.9890   126.4560   108.9250    24.4550     2.1690 
  204.2500   -13.1040    71.6060   134.1740   125.9810   105.8520    24.3890     2.1720 
  204.3750   -13.1720    70.7720   131.3580   124.3380   100.9230    24.2640     2.1760 
  204.5000   -13.2240    68.8690   128.4030   122.2360    94.0830    24.1640     2.1830 
  204.6250   -13.2870    66.8360   126.6610   120.9140    92.4520    24.1190     2.1920 
  204.7500   -13.3160    65.8870   126.8290   121.2310    97.5970    24.1480     2.2010 
  204.8750   -13.3300    66.4050   129.0840   123.5170   109.0080    24.1890     2.2090 
  205.0000   -13.3810    66.5540   133.0220   127.5240   122.4830    24.2230     2.2120 
  205.1250   -13.4850    64.5010   137.7600   132.5400   125.0990    24.1950     2.2080 
  205.2500   -13.6680    62.8230   142.0910   137.3890   121.9860    24.1520     2.2010 
  205.3750   -13.9170    62.2220   145.4780   141.4690   119.3950    24.1410     2.1930 
  205.5000   -14.1330    62.2470   148.0280   144.7270   120.3580    24.1510     2.1840 
  205.6250   -14.2640    62.2790   150.3690   147.5960   119.0740    24.1190     2.1740 
  205.7500   -14.3820    63.2630   153.0090   150.5740   118.7660    24.0640     2.1680 
  205.8750   -14.5000    64.7450   155.6690   153.5010   122.7130    24.0570     2.1680 
  206.0000   -14.5910    65.6720   157.4290   155.6280   126.2380    24.0680     2.1720 
  206.1250   -14.6900    65.2000   156.7500   155.5520   120.1920    24.0170     2.1750 
  206.2500   -14.7820    65.3700   153.6600   153.1540   108.0030    23.9250     2.1750 
  206.3750   -14.9360    68.8150   149.1640   149.1860    94.2190    23.7990     2.1760 
  206.5000   -15.1380    72.9100   145.0440   145.2120    85.3890    23.6200     2.1780 
  206.6250   -15.3210    72.2250   143.4790   143.3290    75.9960    23.3680     2.1750 
  206.7500   -15.4790    68.8470   144.7220   144.0600    77.2130    23.2310     2.1720 
  206.8750   -15.6540    66.5420   147.9640   146.8660    90.4210    23.4170     2.1720 
  207.0000   -15.8690    66.4860   151.4560   150.2460   111.8960    23.7960     2.1730 
  207.1250   -16.0830    67.2100   152.6480   151.8670   123.7270    24.1450     2.1680 
  207.2500   -16.2180    67.7760   150.5920   150.6170   127.4640    24.3880     2.1620 
  207.3750   -16.1940    66.8880   145.5630   146.4950   119.6060    24.4950     2.1600 
  207.5000   -16.0610    64.4790   138.8290   140.4410   106.6590    24.5050     2.1630 
  207.6250   -15.9550    61.8790   132.0650   133.8600   100.5850    24.4790     2.1700 
  207.7500   -15.9170    60.1920   126.3010   127.9050    98.1170    24.4740     2.1760 
  207.8750   -15.8900    60.7720   121.7680   122.9480    97.3900    24.4860     2.1810 
  208.0000   -15.8550    62.4940   118.5240   119.1440    93.4100    24.4510     2.1870 
  208.1250   -15.8620    63.5170   117.1660   117.1060    87.8190    24.3360     2.1960 
  208.2500   -15.9510    64.3880   118.0940   117.2240    89.2280    24.2360     2.2040 
  208.3750   -16.1320    65.6550   121.9670   120.1160    98.7120    24.1810     2.2050 
  208.5000   -16.5320    65.9920   129.0840   126.0720   105.2890    24.2330     2.1990 
  208.6250   -17.0820    63.7520   139.0600   134.7880   111.7520    24.3590     2.1890 
  208.7500   -17.5200    62.0610   149.2750   143.8700   126.2770    24.5420     2.1810 
  208.8750   -17.7780    62.2810   156.9910   150.8530   139.2620    24.6850     2.1730 
  209.0000   -17.8450    61.7210   159.7680   153.5580   136.2730    24.7370     2.1660 
  209.1250   -17.7180    59.3740   155.7280   150.2840   117.6680    24.7360     2.1650 
  209.2500   -17.4690    57.6590   147.4300   143.1580   106.0460    24.7340     2.1700 
  209.3750   -17.1420    58.7460   137.5580   134.4460    99.9270    24.6870     2.1790 
  209.5000   -16.6620    62.8000   128.4420   126.2270    94.9190    24.6130     2.1850 
  209.6250   -16.0810    66.7310   121.5280   119.9120    93.1310    24.6010     2.1860 
  209.7500   -15.6030    68.8010   116.2990   115.1460    95.6770    24.6340     2.1830 
  209.8750   -15.2370    68.5350   112.0540   111.3040   100.5270    24.6690     2.1770 
  210.0000   -15.0560    66.7200   108.1150   107.7280    99.8510    24.6940     2.1740 
  210.1250   -15.0830    63.2210   104.0060   103.9090    87.3970    24.6820     2.1760 
  210.2500   -15.1890    60.8260    99.5830    99.6820    80.3640    24.6700     2.1790 
  210.3750   -15.2490    62.4620    94.7820    94.9700    80.4490    24.6500     2.1850 
  210.5000   -15.2200    66.6780    89.5320    89.7050    81.5080    24.6350     2.1930 
  210.6250   -15.2180    67.7820    83.7890    83.8550    75.7650    24.6360     2.2080 
  210.7500   -15.2330    65.4260    77.9920    77.9010    68.9900    24.6340     2.2240 
  210.8750   -15.2180    63.5620    72.8990    72.6150    61.2750    24.5690     2.2330 
  211.0000   -15.1240    64.2760    69.6100    69.0860    57.3910    24.4440     2.2340 
  211.1250   -14.9390    66.3280    70.0990    69.2480    58.1410    24.3230     2.2250 
  211.2500   -14.7920    66.4470    75.0100    73.7960    70.3650    24.2450     2.2130 
  211.3750   -14.7530    64.7720    84.6000    83.1480    93.6550    24.1540     2.2030 
  211.5000   -14.8440    63.0970    97.8440    96.5340   117.6640    24.0760     2.1950 
  211.6250   -14.9410    61.6600   111.6760   111.2340   121.1540    24.1680     2.1900 
  211.7500   -15.0420    59.7700   121.5260   122.5810   123.4140    24.4320     2.1860 
  211.8750   -15.1890    59.3910   123.8540   126.7620   119.8060    24.6530     2.1830 
  212.0000   -15.3360    63.0300   117.2700   121.8560   101.3340    24.7240     2.1840 
  212.1250   -15.4710    68.2330   102.8040   108.0250    80.7280    24.7240     2.1930 
  212.2500   -15.5580    70.9250    85.8860    90.5800    65.0120    24.7230     2.2110 
  212.3750   -15.6450    72.4940    69.7950    73.2160    52.6030    24.6900     2.2380 
