~V
VERS. 2.00: Ver 2.00
~W
STRT.M 61.0000:
STOP.M 236.0000:
STEP.M 0.1250:
NULL. -999.2500:
UWI. DF5057:
~C
DEPT.M :
GR.API :
RML.OHMM :
RI. :
RXO.OHMM :
CALI.CM :
DEN.GM/CC :
SP.MV :
~A
# ...
   83.5000    68.7800     8.9390     8.0790     7.4670    22.2720     2.1830   -18.0230 
   83.6250    68.3950     8.9040     8.0600     7.4960    22.1830     2.1880   -18.2610 
   83.7500    67.5460     8.8400     8.0070     7.6490    22.1570     2.1900   -18.4560 
   83.8750    65.6800     8.7640     7.9330     7.9240    22.1710     2.1870   -18.6030 
   84.0000    64.4160     8.6900     7.8460     8.2090    22.2050     2.1800   -18.7340 
   84.1250    67.1420     8.6420     7.7640     8.2770    22.2590     2.1750   -18.7950 
   84.2500    71.9950     8.6430     7.7070     8.0590    22.3030     2.1770   -18.7480 
   84.3750    74.6080     8.7110     7.6890     7.7830    22.3130     2.1860   -18.6060 
   84.5000    74.8990     8.8440     7.7130     7.6540    22.2850     2.1990   -18.4360 
   84.6250    76.9430     9.0180     7.7630     7.9320    22.2650     2.2130   -18.2750 
   84.7500    79.5530     9.1770     7.8020     8.0680    22.2840     2.2230   -18.1440 
   84.8750    78.3350     9.2810     7.8000     8.1160    22.3570     2.2280   -18.0510 
   85.0000    74.5410     9.3060     7.7380     8.0180    22.4720     2.2270   -17.9890 
   85.1250    72.9880     9.2280     7.6040     8.0340    22.5730     2.2220   -17.9190 
   85.2500    74.0220     9.0510     7.4170     8.1700    22.6380     2.2160   -17.8720 
   85.3750    74.7710     8.7640     7.1820     8.3830    22.7350     2.2110   -17.8630 
   85.5000    74.9630     8.3800     6.9220     8.4540    22.9190     2.2080   -17.8860 
   85.6250    75.3980     8.0560     6.7320     8.5150    23.2820     2.2020   -17.9450 
   85.7500    75.5720     8.0910     6.7690     8.6820    23.6540     2.1920   -17.9370 
   85.8750    74.8170     8.8320     7.2240     8.8330    24.0050     2.1870   -17.7710 
   86.0000    72.3280    10.5670     8.2970     8.9010    24.3060     2.1970   -17.4510 
   86.1250    67.8940    13.4800    10.2480    10.1120    24.4550     2.2390   -17.0440 
   86.2500    65.2070    16.7820    12.7410    15.3830    24.6050     2.3040   -16.6230 
   86.3750    66.2410    19.2180    14.9500    27.9260    24.9070     2.3730   -16.2360 
   86.5000    69.6990    19.4340    15.6570    35.3460    25.2800     2.4190   -15.9100 
   86.6250    72.4100    16.9240    14.1500    25.2940    25.2930     2.4140   -15.7050 
   86.7500    75.1210    13.5650    11.8010    15.9730    24.9940     2.3660   -15.6810 
   86.8750    76.1390    10.7030     9.6340    10.3270    24.6230     2.2920   -15.9060 
   87.0000    72.6670     8.9110     8.0990     8.3920    24.3390     2.2160   -16.3050 
   87.1250    66.3860     8.2670     7.3190     8.3100    24.1980     2.1600   -16.8310 
   87.2500    63.6080     8.2450     7.0340     8.4280    24.1320     2.1280   -17.3820 
   87.3750    66.9750     8.5120     7.0710     8.3540    24.0680     2.1180   -17.8950 
   87.5000    73.1340     8.8060     7.2600     8.1780    23.9550     2.1250   -18.3270 
   87.6250    76.8100     8.9640     7.4610     8.2840    23.8160     2.1440   -18.6050 
   87.7500    76.1300     9.0140     7.6160     8.3880    23.6710     2.1660   -18.7770 
   87.8750    73.8290     9.0280     7.7360     8.4680    23.6060     2.1830   -18.8280 
   88.0000    73.6290     9.0640     7.8440     8.4320    23.6660     2.1870   -18.8080 
   88.1250    75.0360     9.1360     7.9460     8.4500    23.8110     2.1740   -18.6980 
   88.2500    73.8140     9.1860     8.0130     8.5200    23.9630     2.1520   -18.4960 
   88.3750    71.6620     9.1270     7.9850     8.5030    24.0570     2.1350   -18.2080 
   88.5000    72.0940     8.8870     7.8090     8.2910    24.0330     2.1360   -17.8060 
   88.6250    76.0920     8.4440     7.4600     7.8610    24.0350     2.1630   -17.2090 
   88.7500    80.1940     7.9230     7.0320     7.1870    24.1140     2.2040   -16.4680 
   88.8750    84.0030     7.4470     6.6160     6.3580    24.2170     2.2430   -15.7580 
   89.0000    89.2210     7.1240     6.2950     5.5000    24.1940     2.2680   -15.2000 
   89.1250    94.1330     7.0580     6.1540     5.5260    23.9790     2.2730   -14.7990 
   89.2500    94.8740     7.2080     6.1790     5.9490    23.6700     2.2660   -14.5300 
   89.3750    90.4500     7.5210     6.3520     6.2860    23.4890     2.2580   -14.4060 
   89.5000    85.5210     7.9240     6.6250     6.2050    23.3880     2.2530   -14.4720 
   89.6250    83.2820     8.3170     6.9310     6.6900    23.2140     2.2490   -14.7840 
   89.7500    79.1630     8.6210     7.1940     7.2480    23.0230     2.2440   -15.2310 
   89.8750    73.4360     8.8150     7.3840     7.4590    22.9040     2.2380   -15.7040 
   90.0000    71.1220     8.9200     7.5060     7.3840    22.8720     2.2340   -16.0990 
   90.1250    73.3720     8.9830     7.5820     7.3870    22.8840     2.2360   -16.4900 
   90.2500    73.9190     9.0670     7.6590     7.5940    22.8980     2.2390   -16.9180 
   90.3750    73.7540     9.1990     7.7630     7.9080    22.9280     2.2400   -17.3980 
   90.5000    75.2210     9.3640     7.8920     8.2640    23.0480     2.2350   -17.8690 
   90.6250    76.4260     9.4890     7.9980     8.5060    23.2780     2.2200   -18.3070 
   90.7500    75.6780     9.5320     8.0430     8.8430    23.4200     2.2010   -18.6940 
   90.8750    72.4420     9.5080     8.0250     9.2950    23.4650     2.1850   -19.0030 
   91.0000    69.4610     9.4760     7.9810     9.0460    23.4780     2.1800   -19.2550 
   91.1250    69.8390     9.5200     7.9740     8.4810    23.4860     2.1890   -19.4080 
   91.2500    73.0290     9.6700     8.0350     8.1610    23.4720     2.2090   -19.4380 
   91.3750    74.4640     9.9030     8.1570     8.2640    23.4490     2.2270   -19.3180 
   91.5000    70.0290    10.1510     8.3020     8.2990    23.4010     2.2340   -19.0720 
   91.6250    64.7940    10.3130     8.4070     8.1390    23.3510     2.2170   -18.7720 
   91.7500    64.1420    10.3560     8.4410     7.9950    23.2990     2.1840   -18.4930 
   91.8750    67.1710    10.2920     8.4060     8.0020    23.1870     2.1490   -18.2650 
   92.0000    69.1470    10.1680     8.3270     8.1610    22.9160     2.1240   -18.0860 
   92.1250    67.4170    10.0500     8.2480     8.2650    22.7840     2.1180   -18.0090 
   92.2500    66.2610     9.9750     8.1980     8.4450    22.9540     2.1230   -18.0580 
   92.3750    67.3640     9.9480     8.1800     8.7590    23.5500     2.1330   -18.2220 
   92.5000    69.6770     9.9670     8.1890     9.1090    24.1100     2.1400   -18.5040 
   92.6250    70.7950    10.0270     8.2210     9.2660    24.3500     2.1440   -18.7680 
   92.7500    69.6310    10.0820     8.2480     9.3580    24.3930     2.1480   -18.9800 
   92.8750    68.1040    10.0660     8.2350     9.1790    24.3790     2.1550   -19.1190 
   93.0000    67.5740     9.9340     8.1490     8.9810    24.3630     2.1650   -19.1570 
   93.1250    69.3710     9.6750     7.9760     8.9840    24.3480     2.1770   -19.0140 
   93.2500    72.1050     9.3760     7.7700     8.8280    24.3210     2.1850   -18.7250 
   93.3750    76.7610     9.1250     7.5910     8.1260    24.2990     2.1870   -18.3580 
   93.5000    83.3910     8.9990     7.4920     7.5640    24.2910     2.1840   -17.9660 
   93.6250    85.2530     9.0570     7.5160     7.5220    24.3000     2.1790   -17.6900 
   93.7500    79.1120     9.2370     7.6200     8.0920    24.2900     2.1750   -17.5420 
   93.8750    70.6750     9.4600     7.7510     8.5510    24.2820     2.1690   -17.4810 
   94.0000    68.1170     9.6320     7.8480     8.6560    24.2850     2.1630   -17.4960 
   94.1250    71.3720     9.6550     7.8430     8.6150    24.2670     2.1550   -17.5910 
   94.2500    73.8620     9.5500     7.7510     8.4670    24.2180     2.1510   -17.7170 
   94.3750    73.7720     9.3810     7.6120     8.2660    24.1430     2.1550   -17.8170 
   94.5000    72.5660     9.2230     7.4770     8.0460    24.0530     2.1690   -17.8860 
   94.6250    73.3660     9.1430     7.3960     7.8270    23.9910     2.1880   -17.9260 
