~V
VERS. 2.00: Ver 2.00
~W
STRT.M 60.0000:
STOP.M 249.0000:
STEP.M 0.1250:
NULL. -999.2500:
UWI. DF5060:
~C
DEPT.M :
GR.API :
CALI.CM :
RXO.OHMM :
RI. :
RML.OHMM :
DEN.GM/CC :
SP.MV :
~A
# ...
  127.5000    59.5910    24.9930    18.7470    14.0470    16.8350     2.3420   -24.8580 
  127.6250    58.0560    24.7590    14.6050    14.4810    17.0700     2.3870   -24.6420 
  127.7500    59.0870    24.5200    13.3770    14.5530    16.8960     2.4190   -24.5010 
  127.8750    58.3050    24.5200    13.1070    14.4280    16.5540     2.4290   -24.4180 
  128.0000    54.6110    24.7580    13.2920    14.2740    16.2450     2.4180   -24.3570 
  128.1250    53.7870    24.9030    13.6720    14.1730    16.0370     2.3940   -24.3130 
  128.2500    57.1280    24.8160    14.1210    14.0690    15.8010     2.3710   -24.2260 
  128.3750    60.5600    24.6380    14.8290    13.8530    15.3800     2.3510   -24.1710 
  128.5000    61.8370    24.4980    14.8440    13.4040    14.6320     2.3360   -24.0890 
  128.6250    62.2550    24.4260    13.1310    12.5770    13.4420     2.3230   -24.0480 
  128.7500    62.7000    24.3860    11.4870    11.4570    11.9730     2.3130   -23.9180 
  128.8750    61.3470    24.3770    10.8350    10.1590    10.3870     2.3050   -23.7290 
  129.0000    60.5260    24.4050    10.2930     8.8130     8.8310     2.3010   -23.4910 
  129.1250    66.6420    24.4490     8.7890     7.5670     7.4710     2.3010   -23.2330 
  129.2500    76.8880    24.4730     7.4620     6.5220     6.3770     2.3010   -22.9850 
  129.3750    84.6960    24.4810     7.2070     5.7460     5.6040     2.3020   -22.8000 
  129.5000    87.4500    24.5150     6.7760     5.2780     5.1850     2.3040   -22.6430 
  129.6250    87.7020    24.6260     6.0230     5.1950     5.2000     2.3020   -22.4970 
  129.7500    86.5360    24.7170     5.7300     5.4360     5.5680     2.2910   -22.3870 
  129.8750    82.3100    24.6620     6.8420     5.9480     6.1950     2.2690   -22.3050 
  130.0000    75.3890    24.4690     8.6890     6.6140     6.8990     2.2410   -22.2830 
  130.1250    69.5370    24.3150     9.5470     7.1800     7.3530     2.2190   -22.1840 
  130.2500    68.4790    24.2840     9.2380     7.3950     7.3650     2.2110   -22.1190 
  130.3750    71.2590    24.3130     8.4550     7.1710     6.9380     2.2160   -21.9570 
  130.5000    76.8640    24.3510     7.3710     6.6200     6.2590     2.2310   -21.7590 
  130.6250    84.9170    24.4270     6.3530     5.9600     5.5890     2.2520   -21.5470 
  130.7500    92.5630    24.5470     5.8100     5.3710     5.0620     2.2700   -21.3470 
  130.8750    95.2590    24.6870     5.7210     4.8980     4.6730     2.2830   -21.1840 
  131.0000    94.3140    24.8100     5.6110     4.5380     4.3850     2.2870   -21.0210 
  131.1250    94.7650    24.8900     5.4300     4.3200     4.2480     2.2820   -20.9720 
  131.2500    96.7880    24.9450     5.2380     4.2760     4.3580     2.2740   -20.9050 
  131.3750    97.8620    24.9850     5.2320     4.4840     4.8410     2.2720   -20.9430 
  131.5000    96.6470    25.0150     5.4660     5.0120     5.7650     2.2830   -21.0510 
  131.6250    92.0310    25.0150     6.9340     5.9090     7.0770     2.3150   -21.2050 
  131.7500    84.9960    24.9190    11.2640     6.9190     8.3130     2.3580   -21.3320 
  131.8750    78.0740    24.6770    14.7920     7.6420     8.9310     2.4010   -21.4220 
  132.0000    75.0600    24.3720    14.2800     7.7120     8.6060     2.4250   -21.5630 
  132.1250    77.4230    24.2160     9.9800     7.1060     7.5490     2.4110   -21.6550 
  132.2500    82.7410    24.2300     7.3660     6.3720     6.5460     2.3690   -21.8140 
  132.3750    87.0960    24.2970     6.4880     5.8630     6.0310     2.3090   -21.9400 
  132.5000    88.3250    24.3380     7.1860     5.7710     6.1590     2.2420   -22.0150 
  132.6250    86.1310    24.3630     8.4770     6.2090     6.9200     2.1840   -22.0210 
  132.7500    80.9710    24.4360     9.2970     6.9640     7.9070     2.1520   -22.0030 
  132.8750    73.3390    24.6050     9.7980     7.7520     8.7050     2.1510   -21.9480 
  133.0000    67.1900    24.8450    12.5360     8.2020     8.9180     2.1790   -21.7770 
  133.1250    69.1010    24.9330    14.2060     7.9590     8.3060     2.2220   -21.6700 
  133.2500    76.1370    24.7460    11.7920     7.2620     7.3030     2.2610   -21.5670 
  133.3750    84.0480    24.3810     7.7410     6.4420     6.3310     2.2850   -21.4260 
  133.5000    89.9640    24.0540     6.3130     5.7620     5.6610     2.2940   -21.2950 
  133.6250    92.9880    23.9220     6.1710     5.3880     5.4140     2.2940   -21.2080 
  133.7500    94.6790    23.8880     6.5290     5.2690     5.4390     2.2940   -21.1550 
  133.8750    94.2740    23.8470     7.2160     5.3180     5.5920     2.2960   -21.1750 
  134.0000    91.4830    23.7640     7.7400     5.4070     5.7260     2.2980   -21.2340 
  134.1250    86.9680    23.7040     7.7210     5.4160     5.7470     2.2970   -21.3210 
  134.2500    84.9960    23.7180     7.3120     5.3580     5.7140     2.2910   -21.3230 
  134.3750    87.9440    23.7810     6.9320     5.2950     5.6980     2.2810   -21.3610 
  134.5000    92.9410    23.8470     6.6080     5.2760     5.7280     2.2670   -21.3990 
  134.6250    94.1280    23.9290     6.6160     5.3090     5.7920     2.2510   -21.4200 
  134.7500    89.9540    24.0630     7.1460     5.3670     5.8770     2.2380   -21.4660 
  134.8750    84.3160    24.2320     7.6930     5.4730     6.0490     2.2280   -21.5210 
  135.0000    82.2440    24.3800     7.9530     5.7100     6.4330     2.2240   -21.6370 
  135.1250    83.8620    24.4440     7.7840     6.2390     7.2240     2.2350   -21.7130 
  135.2500    83.1490    24.4120     8.1740     7.1000     8.4040     2.2660   -21.8040 
  135.3750    77.9540    24.3040    10.4480     8.2720     9.8600     2.3150   -21.9690 
  135.5000    71.1170    24.1930    14.9340     9.6070    11.3190     2.3640   -22.1800 
  135.6250    67.5750    24.1660    18.5400    10.7400    12.2930     2.3710   -22.4240 
  135.7500    66.9770    24.1570    18.2030    11.3460    12.5450     2.3210   -22.6220 
  135.8750    67.1090    24.0860    15.4550    11.2950    12.0590     2.2370   -22.7880 
  136.0000    67.8720    24.0140    13.3000    10.6600    11.0180     2.1600   -22.9240 
  136.1250    71.1190    24.1770    13.0350     9.6070     9.6690     2.1240   -23.0200 
  136.2500    75.2270    24.5290    13.1280     8.4230     8.2940     2.1250   -23.1530 
  136.3750    77.9480    24.7910    12.1750     7.2670     7.0440     2.1530   -23.2030 
  136.5000    81.0310    24.8020     9.5740     6.2680     6.0410     2.1950   -23.2410 
  136.6250    86.7070    24.6970     7.0230     5.5770     5.4390     2.2410   -23.2520 
  136.7500    93.5080    24.6560     6.0580     5.1920     5.1960     2.2770   -23.3260 
  136.8750    97.0680    24.6420     5.9030     5.0940     5.2560     2.2920   -23.4100 
  137.0000    96.5170    24.6100     6.0990     5.2280     5.5310     2.2860   -23.4730 
  137.1250    94.7620    24.5910     6.8360     5.5510     5.9490     2.2670   -23.5460 
  137.2500    93.2870    24.5940     7.9400     6.0030     6.4750     2.2450   -23.5610 
  137.3750    90.9780    24.5910     8.9280     6.6160     7.2050     2.2210   -23.6270 
  137.5000    87.7090    24.5740     9.2870     7.4840     8.3310     2.1980   -23.6560 
  137.6250    82.8490    24.5500     9.9190     8.8650    10.2260     2.1800   -23.6890 
  137.7500    75.5880    24.5540    12.2040    10.8690    12.8610     2.1690   -23.6340 
  137.8750    67.9510    24.6240    15.4180    13.4290    15.8730     2.1680   -23.5430 
  138.0000    63.3840    24.7590    19.8000    15.9560    18.3360     2.1730   -23.4480 
  138.1250    63.1060    24.9250    22.3330    16.8760    18.5620     2.1800   -23.3000 
  138.2500    65.0330    25.0420    21.5710    15.6100    16.4240     2.1890   -23.2070 
  138.3750    70.0420    24.9890    17.0540    12.9270    12.9880     2.2010   -23.0410 
  138.5000    78.6360    24.7210    11.6850    10.1360     9.7390     2.2180   -22.8750 
  138.6250    86.7970    24.2890     8.0680     8.1750     7.7400     2.2440   -22.6540 
