~V
VERS. 2.00: Ver 2.00
~W
STRT.M 60.0000:
STOP.M 251.0000:
STEP.M 0.1250:
NULL. -999.2500:
UWI. DF5053:
~C
DEPT.M :
GR.API :
RML.OHMM :
RI. :
RXO.OHMM :
CALI.CM :
DEN.GM/CC :
SP.MV :
~A
# ...
  206.2500    50.9520   121.8080   111.8510    92.4740    24.2250     2.2010   -19.8010 
  206.3750    58.8830   128.4690   117.8990    95.5820    24.2250     2.2040   -19.8300 
  206.5000    65.5430   137.3110   125.7460   101.7920    24.2250     2.2070   -19.8310 
  206.6250    66.1460   147.4920   134.6840   110.0150    24.2250     2.2050   -19.8390 
  206.7500    64.8170   158.4970   144.3400   119.0520    24.2250     2.1970   -19.8740 
  206.8750    63.0130   169.9960   154.5150   128.0750    24.2190     2.1870   -19.9030 
  207.0000    59.1420   182.1130   165.3760   134.1920    24.1920     2.1770   -19.8720 
  207.1250    54.4090   194.9140   176.9400   143.3210    24.1560     2.1710   -19.7630 
  207.2500    50.4300   207.9890   188.8630   156.6570    24.1480     2.1690   -19.5640 
  207.3750    49.3700   219.9210   200.0010   168.9270    24.1550     2.1700   -19.2810 
  207.5000    50.6140   227.3140   207.5650   176.9970    24.1480     2.1750   -18.9560 
  207.6250    50.9260   228.1380   209.6920   179.5220    24.1270     2.1820   -18.6350 
  207.7500    52.3770   221.5640   205.3890   174.7640    24.1170     2.1910   -18.3130 
  207.8750    57.2460   208.9140   195.4110   169.0020    24.1080     2.2000   -17.9820 
  208.0000    61.4050   193.4940   182.1760   159.6680    24.0750     2.2090   -17.6600 
  208.1250    60.2720   179.7560   169.7220   147.2800    24.0400     2.2130   -17.3560 
  208.2500    56.4020   170.0040   160.4010   133.9010    24.0170     2.2130   -17.0670 
  208.3750    55.6630   164.8640   155.1810   124.0000    23.9730     2.2100   -16.7860 
  208.5000    59.1610   163.6520   153.8850   125.4360    23.8970     2.2060   -16.4980 
  208.6250    59.1730   163.1440   153.7650   130.6900    23.8450     2.2050   -16.1970 
  208.7500    56.0060   160.4800   152.2370   133.8700    23.8760     2.2060   -15.8780 
  208.8750    54.8840   153.3370   146.9830   130.1150    23.8990     2.2090   -15.5540 
  209.0000    58.2930   140.3950   136.2900   118.0070    23.8840     2.2110   -15.2410 
  209.1250    60.7590   124.6450   122.3950   106.3250    23.8870     2.2140   -14.9590 
  209.2500    61.5470   109.2330   108.0240    96.1470    23.8570     2.2190   -14.7220 
  209.3750    64.3650    96.8060    95.8260    85.3770    23.7560     2.2270   -14.5230 
  209.5000    67.9450    89.3350    88.0500    74.0410    23.6150     2.2390   -14.3530 
  209.6250    65.9320    85.7400    84.0700    67.0570    23.5260     2.2510   -14.1990 
  209.7500    59.7340    84.8230    82.9030    64.8360    23.5030     2.2600   -14.0410 
  209.8750    55.8740    85.1100    83.1900    66.2670    23.6030     2.2630   -13.8580 
  210.0000    57.2420    85.0360    83.4260    68.8120    23.7400     2.2570   -13.6780 
  210.1250    61.9520    83.7600    82.6140    70.4210    23.8600     2.2430   -13.4980 
  210.2500    67.1360    81.2710    80.5660    69.2460    23.9230     2.2290   -13.3220 
  210.3750    68.8570    78.1270    77.6810    66.4460    23.9080     2.2180   -13.1560 
  210.5000    67.0970    75.1720    74.7010    62.9990    23.8370     2.2160   -13.0040 
  210.6250    68.3770    72.8920    72.2060    59.2430    23.7940     2.2190   -12.8820 
  210.7500    74.3290    71.3710    70.3690    56.7490    23.7360     2.2260   -12.8150 
  210.8750    76.4680    70.4740    69.1310    55.7960    23.6700     2.2340   -12.8150 
  211.0000    69.2320    69.9990    68.3450    55.3930    23.6940     2.2380   -12.8410 
  211.1250    62.1840    69.6430    67.7150    54.9510    23.7140     2.2400   -12.8670 
  211.2500    60.7150    69.2680    67.1010    54.1740    23.7130     2.2400   -12.8890 
  211.3750    62.0790    68.8140    66.4420    53.4260    23.6850     2.2380   -12.9010 
  211.5000    61.2150    68.2780    65.7360    52.7250    23.6720     2.2340   -12.9070 
  211.6250    60.5330    67.7370    65.0440    52.2670    23.6860     2.2270   -12.8860 
  211.7500    61.2900    67.2940    64.4460    52.2030    23.7390     2.2190   -12.8460 
  211.8750    60.3940    67.0670    64.0380    53.3760    23.7610     2.2100   -12.8100 
  212.0000    61.0710    67.2250    63.9720    55.3770    23.7620     2.2030   -12.7850 
  212.1250    68.0050    67.7590    64.2600    57.4580    23.7720     2.1990   -12.7790 
  212.2500    75.5950    68.6480    64.9070    59.0590    23.7510     2.1960   -12.7920 
  212.3750    74.2190    69.8250    65.8710    59.5200    23.7200     2.1950   -12.8220 
  212.5000    63.1420    71.1440    67.0440    58.3170    23.7070     2.1970   -12.8670 
  212.6250    55.0650    72.3160    68.1550    56.6890    23.6930     2.2040   -12.9230 
  212.7500    51.6960    73.0810    68.9500    55.4280    23.6110     2.2150   -12.9850 
  212.8750    50.2500    73.2480    69.2400    54.8920    23.4290     2.2260   -13.0430 
  213.0000    51.1340    72.6730    68.8770    54.8790    23.1930     2.2300   -13.0630 
  213.1250    53.8000    71.6090    68.0630    53.6120    23.1460     2.2280   -13.0460 
  213.2500    58.4940    70.2560    66.9590    51.0490    23.1690     2.2220   -13.0020 
  213.3750    63.7120    68.7540    65.6890    50.6690    23.3020     2.2150   -12.9520 
  213.5000    64.4150    67.0910    64.2430    54.6610    23.6180     2.2130   -12.9360 
  213.6250    59.4250    65.2300    62.5960    59.4110    24.0160     2.2150   -12.9580 
  213.7500    53.7830    63.2010    60.7610    61.2910    24.2790     2.2220   -13.0340 
  213.8750    54.9040    61.1730    58.8650    60.0020    24.3880     2.2280   -13.1530 
  214.0000    61.4780    59.5710    57.2320    56.4820    24.3440     2.2310   -13.3320 
  214.1250    67.0140    58.7620    56.1990    53.6310    24.2670     2.2290   -13.5530 
  214.2500    70.7000    59.0670    56.0790    52.7770    24.2140     2.2250   -13.8020 
  214.3750    71.8130    60.6870    57.1010    53.8040    24.1860     2.2230   -14.0630 
  214.5000    67.0480    63.9290    59.5960    55.7590    24.1610     2.2280   -14.3440 
  214.6250    60.1800    68.4780    63.3090    59.2260    24.1510     2.2380   -14.6190 
  214.7500    59.4540    74.0670    68.0120    64.8860    24.1500     2.2490   -14.8390 
  214.8750    67.9700    80.2180    73.2750    72.3260    24.1320     2.2570   -15.0340 
  215.0000    72.7380    86.1550    78.3860    79.4860    24.0770     2.2590   -15.2080 
  215.1250    65.9380    91.1600    82.6850    84.2940    23.9980     2.2570   -15.3700 
  215.2500    55.6570    94.7660    85.7680    85.7790    23.9640     2.2540   -15.5550 
  215.3750    53.9230    96.7310    87.4680    87.0310    23.9830     2.2510   -15.7550 
  215.5000    59.8400    96.6430    87.4990    87.3360    24.0700     2.2460   -15.9500 
  215.6250    62.4410    94.6500    86.0020    86.2440    24.0600     2.2370   -16.1640 
  215.7500    62.1490    90.6320    82.8540    84.3560    23.9750     2.2250   -16.3870 
  215.8750    61.6230    84.7240    78.1060    82.1260    23.9210     2.2120   -16.5370 
  216.0000    63.6780    77.4860    72.1140    77.5720    23.9720     2.2050   -16.6040 
  216.1250    65.3650    70.3010    65.9850    70.5520    24.0690     2.2050   -16.6250 
  216.2500    62.6490    64.1110    60.5200    60.1370    24.1590     2.2090   -16.5830 
  216.3750    56.4460    59.3590    56.1600    50.6330    24.2020     2.2150   -16.5250 
  216.5000    53.5670    56.0200    52.9800    46.9770    24.2080     2.2170   -16.4550 
  216.6250    56.8490    53.2530    50.3320    45.2180    24.1960     2.2160   -16.3690 
  216.7500    63.1720    50.5570    47.7890    43.9360    24.1510     2.2160   -16.3020 
  216.8750    68.8660    47.7960    45.1950    41.9140    24.0680     2.2230   -16.2930 
  217.0000    73.1230    45.4260    42.8650    38.4920    24.0350     2.2380   -16.3270 
  217.1250    75.4230    44.0780    41.3190    34.9240    24.0360     2.2540   -16.3700 
  217.2500    74.8860    44.2310    40.9930    33.4360    24.0440     2.2640   -16.4080 
  217.3750    70.4340    46.0310    42.0760    35.2850    24.0680     2.2620   -16.3850 
