~V
VERS. 2.00: Ver 2.00
~W
STRT.M 55.0000:
STOP.M 261.0000:
STEP.M 0.1250:
NULL. -999.2500:
UWI. DF5033:
~C
DEPT.M :
SP.MV :
GR.API :
CALI.CM :
RXO.OHMM :
RI. :
RML.OHMM :
DEN.GM/CC :
~A
# ...
  167.5000   -25.2060    67.9010    25.8820    58.7990    65.7490    72.8310     2.2710 
  167.6250   -25.2260    68.2620    25.8700    58.4930    67.0740    74.3310     2.2750 
  167.7500   -25.2360    71.9900    25.8420    59.1970    69.1540    76.8900     2.2740 
  167.8750   -25.2360    74.0210    25.8170    60.9230    72.0860    80.4260     2.2680 
  168.0000   -25.2310    71.8400    25.8070    63.3820    74.9750    83.5910     2.2590 
  168.1250   -25.2140    70.5520    25.8130    67.9240    74.9280    82.6260     2.2530 
  168.2500   -25.1890    72.7860    25.8240    72.8370    70.2950    75.9330     2.2530 
  168.3750   -25.1540    75.0830    25.8410    70.8120    61.8540    65.1230     2.2570 
  168.5000   -25.1200    75.7080    25.8740    57.2800    52.4120    53.9550     2.2630 
  168.6250   -25.0800    76.0160    25.9410    39.9000    45.1390    46.0680     2.2700 
  168.7500   -25.0560    75.0640    26.0540    31.1560    40.7920    41.7870     2.2780 
  168.8750   -25.0520    73.4970    26.2120    33.0740    39.0200    40.4050     2.2820 
  169.0000   -25.0560    74.4430    26.3890    41.0020    38.9310    40.7120     2.2810 
  169.1250   -25.0790    78.6710    26.5210    42.9520    39.5120    41.4320     2.2810 
  169.2500   -25.1370    81.9980    26.5710    36.1830    39.9520    41.7820     2.2930 
  169.3750   -25.2150    80.5810    26.5430    27.8410    40.1980    41.8810     2.3110 
  169.5000   -25.3000    76.2020    26.4800    24.6670    40.6330    42.3140     2.3230 
  169.6250   -25.4140    74.1710    26.4510    29.1240    41.9640    43.9150     2.3200 
  169.7500   -25.5370    75.1890    26.4780    38.5660    44.3400    46.7010     2.3090 
  169.8750   -25.6760    76.9970    26.5490    47.9060    47.6010    50.3890     2.2980 
  170.0000   -25.8510    76.0460    26.6340    52.2040    51.4200    54.6210     2.2880 
  170.1250   -26.0470    73.7900    26.7090    52.8890    55.5950    59.3110     2.2820 
  170.2500   -26.2690    74.1720    26.7720    57.0520    60.0720    64.5260     2.2780 
  170.3750   -26.5170    75.6970    26.8210    66.0110    64.9370    70.3890     2.2790 
  170.5000   -26.7990    76.8570    26.8580    75.3730    70.1190    76.7530     2.2840 
  170.6250   -27.1140    76.6640    26.8890    79.6660    75.1120    82.9500     2.2890 
  170.7500   -27.4770    77.1380    26.9230    81.2460    79.2850    88.2360     2.2850 
  170.8750   -27.8880    78.7110    26.9620    84.0220    82.4210    92.4290     2.2720 
  171.0000   -28.3230    78.1320    26.9980    87.8970    84.8690    96.0060     2.2570 
  171.1250   -28.8140    73.9490    27.0050    89.3000    87.5330   100.0780     2.2510 
  171.2500   -29.3390    70.4720    26.9690    90.1290    91.4840   105.7960     2.2520 
  171.3750   -29.9160    70.6390    26.8950    95.4540    97.7570   114.2790     2.2570 
  171.5000   -30.5430    73.1500    26.8050   106.5280   107.2430   126.5320     2.2610 
  171.6250   -31.2030    73.0760    26.7460   122.9650   121.0660   143.9500     2.2610 
  171.7500   -31.8800    70.7360    26.7430   150.9160   138.2710   165.4570     2.2580 
  171.8750   -32.5820    69.6260    26.8000   196.3770   157.4940   189.2940     2.2540 
  172.0000   -33.3270    70.3080    26.9010   236.8620   176.4040   212.3390     2.2450 
  172.1250   -34.0810    71.4490    27.0210   238.1340   191.9090   230.5010     2.2270 
  172.2500   -34.8370    70.3170    27.1270   222.2420   203.5390   243.5830     2.2090 
  172.3750   -35.5670    67.7300    27.1860   221.7890   212.0930   253.0110     2.2020 
  172.5000   -36.2480    67.0370    27.1740   240.5100   219.2340   261.1010     2.2090 
  172.6250   -36.8650    66.5100    27.0800   262.9580   227.1770   270.5600     2.2210 
  172.7500   -37.4050    65.6920    26.9560   275.4070   236.9690   282.2830     2.2260 
  172.8750   -37.8520    65.1890    26.8570   276.3850   248.3870   295.7740     2.2240 
  173.0000   -38.1740    65.1160    26.8220   274.3910   260.6330   310.0180     2.2160 
  173.1250   -38.3890    62.4170    26.8620   284.9160   272.5600   323.5110     2.2050 
  173.2500   -38.5260    60.3080    26.9310   306.7730   282.6460   334.3170     2.1990 
  173.3750   -38.5990    61.7720    26.9930   320.8530   289.2240   340.4000     2.2000 
  173.5000   -38.6090    63.3140    27.0320   313.2020   291.1090   340.5320     2.2060 
  173.6250   -38.5670    61.0890    27.0460   294.3480   287.2950   333.9290     2.2130 
  173.7500   -38.4790    61.2330    27.0520   283.5180   279.4400   322.9160     2.2200 
  173.8750   -38.3310    65.7850    27.0570   279.7310   269.0060   309.3490     2.2310 
  174.0000   -38.1520    69.8580    27.0610   272.6230   257.7940   295.2930     2.2470 
  174.1250   -37.9090    67.9250    27.0630   250.2800   247.8280   283.0300     2.2560 
  174.2500   -37.6140    64.6510    27.0650   222.4250   240.2280   273.7140     2.2530 
  174.3750   -37.2690    62.4410    27.0650   206.5890   235.4680   267.7900     2.2400 
  174.5000   -36.8970    62.2870    27.0620   210.7100   233.1970   264.7430     2.2270 
  174.6250   -36.5460    62.8920    27.0510   224.2820   232.1750   263.0160     2.2200 
  174.7500   -36.2350    62.4330    27.0290   229.9170   230.2850   260.0400     2.2150 
  174.8750   -35.9730    61.9080    27.0000   223.0010   225.7880   253.6880     2.2100 
  175.0000   -35.7660    62.2960    26.9710   205.5410   217.5440   242.7810     2.2040 
  175.1250   -35.6360    63.2260    26.9560   183.2840   205.8290   228.2440     2.1990 
  175.2500   -35.5540    63.5590    26.9590   167.0910   194.1500   214.5010     2.2010 
  175.3750   -35.5100    64.2070    26.9770   162.1510   185.9740   205.3570     2.2110 
  175.5000   -35.5140    63.9590    27.0020   165.9340   184.3190   203.6620     2.2180 
  175.6250   -35.4890    61.5490    27.0260   175.7640   192.4080   212.1830     2.2160 
  175.7500   -35.4180    58.1280    27.0430   198.4580   207.8870   227.8580     2.2120 
  175.8750   -35.2920    55.7830    27.0550   242.1560   226.2980   245.3430     2.2180 
  176.0000   -35.0950    55.0290    27.0620   285.5190   239.7790   255.3240     2.2340 
  176.1250   -34.8340    55.5490    27.0700   277.1480   236.2480   244.4890     2.2490 
  176.2500   -34.5190    56.7530    27.0760   229.2880   215.7080   216.1740     2.2570 
  176.3750   -34.1690    58.5010    27.0700   180.1340   185.3990   180.9870     2.2540 
  176.5000   -33.7630    61.2640    27.0320   143.1290   155.0490   149.2180     2.2450 
  176.6250   -33.3510    63.9250    26.9380   111.3400   131.9640   126.6590     2.2400 
  176.7500   -32.9560    65.2440    26.8000    88.3790   116.0400   111.5070     2.2440 
  176.8750   -32.5800    65.8300    26.6430    79.7740   105.8580   101.9510     2.2540 
  177.0000   -32.2600    66.4100    26.4990    79.7860    99.4500    96.0430     2.2620 
  177.1250   -32.0190    68.5330    26.4070    77.9210    95.0530    92.2060     2.2600 
  177.2500   -31.8690    71.1450    26.3810    74.0650    91.2650    89.1280     2.2520 
  177.3750   -31.8320    72.3150    26.4270    72.4450    88.1700    86.8910     2.2450 
  177.5000   -31.9520    71.5020    26.5470    71.2620    86.6740    86.3700     2.2460 
  177.6250   -32.2530    70.3200    26.7330    66.6720    89.2050    89.9110     2.2550 
  177.7500   -32.7040    71.1760    26.9400    65.3400    97.7410    99.2340     2.2610 
  177.8750   -33.3050    71.8460    27.1240    80.1260   115.1400   116.8840     2.2510 
  178.0000   -33.9980    69.6970    27.2520   131.3290   144.5380   146.1530     2.2280 
  178.1250   -34.7110    64.1970    27.2990   246.8380   190.5110   193.8740     2.2080 
  178.2500   -35.3680    59.3680    27.2840   362.2840   247.5240   257.8000     2.2020 
  178.3750   -35.9140    57.3880    27.2220   402.4090   303.8780   326.3690     2.2020 
  178.5000   -36.2570    58.4110    27.1230   367.4120   342.1550   375.3240     2.1990 
  178.6250   -36.3260    61.3410    27.0010   326.3450   346.0570   380.1110     2.1920 
