~V
VERS. 2.00: Ver 2.00
~W
STRT.M 55.0000:
STOP.M 271.0000:
STEP.M 0.1250:
NULL. -999.2500:
UWI. DF5028:
~C
DEPT.M :
SP.MV :
GR.API :
RML.OHMM :
RI. :
RXO.OHMM :
CALI.CM :
DEN.GM/CC :
~A
# ...
  190.0000   -33.0280    58.7910   277.8290   252.9980   126.7990    23.4560     2.2290 
  190.1250   -32.8400    57.6910   309.8550   274.2490   169.3330    23.4380     2.2160 
  190.2500   -32.7260    55.5800   331.2000   285.8870   195.7570    23.4650     2.2060 
  190.3750   -32.5010    55.2240   339.2190   287.4920   182.1850    23.4870     2.1990 
  190.5000   -32.2950    56.2800   336.3340   281.7980   160.9920    23.4860     2.1960 
  190.6250   -32.0210    55.7820   329.1710   273.9020   152.3150    23.4690     2.1970 
  190.7500   -31.6730    55.6340   325.9230   269.8870   142.2450    23.4380     2.1980 
  190.8750   -31.3570    57.7810   330.9790   273.3460   127.3490    23.3900     2.1960 
  191.0000   -30.8790    59.7750   346.1850   285.5090   121.6780    23.3320     2.1900 
  191.1250   -30.4800    57.6590   371.8740   306.3150   137.9940    23.2820     2.1790 
  191.2500   -29.9490    54.1910   400.2060   330.0160   172.0550    23.2490     2.1670 
  191.3750   -29.4080    53.4910   420.2140   349.2440   210.4180    23.2370     2.1600 
  191.5000   -28.7860    55.2930   418.7320   354.8150   205.4770    23.2260     2.1600 
  191.6250   -28.0700    55.8380   381.8210   335.7390   153.7900    23.1870     2.1670 
  191.7500   -27.3790    54.2210   320.7280   296.6230   112.3100    23.1430     2.1740 
  191.8750   -26.5410    52.0010   252.1680   245.5830    83.6210    23.1400     2.1790 
  192.0000   -25.7220    50.9410   192.1900   193.1990    63.2280    23.1830     2.1790 
  192.1250   -24.8230    52.3630   150.5480   149.9190    51.1270    23.2330     2.1760 
  192.2500   -24.0430    56.1230   123.0100   118.0110    42.0800    23.2780     2.1730 
  192.3750   -23.2450    59.5220   106.5500    97.3310    31.1710    23.3760     2.1720 
  192.5000   -22.5540    59.3980    98.5030    86.4360    23.0160    23.6120     2.1770 
  192.6250   -21.9010    57.1910    97.0430    83.7310    22.9300    23.9750     2.1940 
  192.7500   -21.3210    55.9550    98.6600    84.7940    28.9910    24.2630     2.2210 
  192.8750   -20.7870    54.9180   101.5850    87.3880    41.4370    24.3840     2.2500 
  193.0000   -20.3080    54.6290   104.5250    90.0240    59.0350    24.3970     2.2690 
  193.1250   -19.8900    57.5600   106.4860    91.5890    71.0870    24.3890     2.2630 
  193.2500   -19.3680    61.0290   107.2570    91.8300    77.6520    24.3630     2.2360 
  193.3750   -18.9380    60.6770   106.2410    90.4540    82.8680    24.3070     2.2000 
  193.5000   -18.3670    57.4020   101.9000    86.7400    79.2860    24.2630     2.1690 
  193.6250   -17.8100    55.8900    91.4570    78.8990    62.9770    24.2540     2.1680 
  193.7500   -17.1650    56.9530    75.8840    67.3630    54.5420    24.2370     2.2080 
  193.8750   -16.4830    58.3860    57.7580    53.4300    55.4520    24.1380     2.2940 
  194.0000   -15.8220    59.5170    40.1620    39.2670    62.3910    23.9330     2.4140 
  194.1250   -15.0990    60.8270    26.8290    27.4230    71.8220    23.7250     2.5280 
  194.2500   -14.4610    61.6320    17.9160    18.5210    65.1520    23.6220     2.5920 
  194.3750   -13.8370    61.6750    13.0970    12.4660    33.9880    23.6280     2.5930 
  194.5000   -13.3010    61.1250    10.2410     8.7410    13.5570    23.6820     2.5490 
  194.6250   -12.8570    59.5330     8.4330     6.9330     7.7270    23.7170     2.4950 
  194.7500   -12.4830    56.8560     7.6170     6.1170     5.8120    23.7260     2.4610 
  194.8750   -12.2560    53.4340     7.3440     5.8440     5.4000    23.7340     2.4510 
  195.0000   -12.0440    50.1710     7.3530     5.8530     5.4650    23.7410     2.4630 
  195.1250   -12.0440    46.6990     7.4840     5.9840     5.4620    23.6780     2.4800 
  195.2500   -12.0650    44.0940     7.6220     6.1220     5.3730    23.5500     2.4870 
  195.3750   -12.1550    44.9730     7.7460     6.2460     5.2940    23.4270     2.4750 
  195.5000   -12.3310    50.3070     7.8810     6.3810     5.2710    23.3820     2.4500 
  195.6250   -12.5960    59.0300     8.0650     6.5650     5.2900    23.4480     2.4190 
  195.7500   -12.9260    67.5090     8.2850     6.7850     5.3430    23.5630     2.3950 
  195.8750   -13.2780    74.1930     8.5040     7.0040     5.4970    23.6810     2.3800 
  196.0000   -13.7100    77.9520     8.6790     7.1790     5.8260    23.7990     2.3740 
  196.1250   -14.0700    78.4400     8.7520     7.2520     6.3520    23.9340     2.3810 
  196.2500   -14.5400    77.2520     8.7200     7.2200     6.8860    24.0600     2.3970 
  196.3750   -14.9640    76.6050     8.6040     7.1040     7.2470    24.1370     2.4210 
  196.5000   -15.4130    77.1760     8.4550     6.9550     7.3930    24.1640     2.4490 
  196.6250   -15.8310    79.3520     8.3320     6.8320     7.3840    24.1130     2.4720 
  196.7500   -16.2190    84.2790     8.2760     6.7760     7.2930    23.9740     2.4870 
  196.8750   -16.6200    90.5260     8.3130     6.8130     7.2040    23.7890     2.4920 
  197.0000   -16.9390    94.0840     8.4530     6.9530     7.2720    23.6430     2.4870 
  197.1250   -17.3830    93.5420     8.7110     7.2110     7.5760    23.6650     2.4780 
  197.2500   -17.8030    92.6770     9.0530     7.5530     8.0220    23.8400     2.4720 
  197.3750   -18.2310    92.7420     9.4540     7.9540     8.5550    24.0280     2.4710 
  197.5000   -18.7030    92.8760     9.8860     8.3860     9.0880    24.0660     2.4740 
  197.6250   -19.0840    92.7500    10.3190     8.8190     9.4570    23.9820     2.4750 
  197.7500   -19.4990    92.6010    10.7170     9.2170     9.6730    24.0020     2.4630 
  197.8750   -19.8040    90.2710    11.0510     9.5510     9.8930    24.1770     2.4370 
  198.0000   -20.1250    84.5280    11.2970     9.7970    10.1700    24.3910     2.4030 
  198.1250   -20.2870    78.8420    11.4210     9.9210    10.4340    24.5130     2.3730 
  198.2500   -20.3170    77.5460    11.4480     9.9480    10.6590    24.5300     2.3540 
  198.3750   -20.3020    80.0580    11.4010     9.9010    10.7950    24.4760     2.3490 
  198.5000   -20.1740    82.8820    11.3130     9.8130    10.7160    24.4090     2.3550 
  198.6250   -20.0780    84.1500    11.2360     9.7360    10.3550    24.3710     2.3660 
  198.7500   -19.9200    85.3430    11.2120     9.7120     9.9800    24.3500     2.3780 
  198.8750   -19.8180    86.9240    11.2640     9.7640     9.7300    24.3330     2.3880 
  199.0000   -19.6670    87.5810    11.3900     9.8900     9.6060    24.3190     2.3980 
  199.1250   -19.5850    87.2700    11.5740    10.0740     9.6680    24.2980     2.4060 
  199.2500   -19.4900    86.6090    11.7540    10.2540     9.9170    24.2540     2.4150 
  199.3750   -19.4280    86.9460    11.8720    10.3720    10.2420    24.2040     2.4250 
  199.5000   -19.3310    89.7480    11.8740    10.3740    10.4540    24.1870     2.4330 
  199.6250   -19.1640    93.0800    11.7080    10.2080    10.4160    24.2080     2.4370 
  199.7500   -18.9930    93.0850    11.4220     9.9220    10.2410    24.2220     2.4360 
  199.8750   -18.7030    89.9170    11.0720     9.5720    10.0160    24.2300     2.4290 
  200.0000   -18.4340    87.1190    10.7270     9.2270     9.7810    24.2610     2.4190 
  200.1250   -18.0440    87.5700    10.4900     8.9900     9.5420    24.3110     2.4080 
  200.2500   -17.7200    87.6530    10.4140     8.9140     9.2800    24.3290     2.4000 
  200.3750   -17.4330    85.2740    10.5290     9.0290     9.0120    24.3150     2.3970 
  200.5000   -17.1770    82.4580    10.8420     9.3420     8.8630    24.2970     2.4010 
  200.6250   -17.0400    84.1960    11.3600     9.8600     9.0510    24.2730     2.4090 
  200.7500   -16.8570    89.5130    12.0110    10.5110     9.5070    24.2050     2.4190 
  200.8750   -16.7370    92.4030    12.7340    11.2340    10.0700    24.0620     2.4300 
  201.0000   -16.5360    89.6920    13.4470    11.9470    10.6360    23.8790     2.4420 
  201.1250   -16.3620    84.9530    13.9770    12.4770    11.1560    23.7610     2.4590 
