~V
VERS. 2.00: Ver 2.00
~W
STRT.M 61.0000:
STOP.M 253.0000:
STEP.M 0.1250:
NULL. -999.2500:
UWI. DF5045:
~C
DEPT.M :
GR.API :
CALI.CM :
RXO.OHMM :
RI. :
RML.OHMM :
DEN.GM/CC :
SP.MV :
~A
# ...
  173.5000    88.3130    24.7140    37.0220    36.7810    39.0570     2.3270   -24.0790 
  173.6250    86.7670    24.7170    45.4410    42.2910    44.8480     2.2980   -24.0550 
  173.7500    82.9260    24.7140    49.6410    47.0480    49.8470     2.2800   -24.1350 
  173.8750    78.8690    24.7090    51.1880    50.5590    53.5370     2.2690   -24.1790 
  174.0000    78.8960    24.7090    52.5690    52.5610    55.6420     2.2640   -24.1370 
  174.1250    81.9610    24.7120    55.1120    53.6990    56.8380     2.2600   -24.1100 
  174.2500    83.6640    24.7110    59.2950    54.5500    57.7320     2.2570   -24.0880 
  174.3750    81.4820    24.7090    64.2250    55.5730    58.8070     2.2550   -24.0690 
  174.5000    78.0820    24.7070    66.8630    57.0000    60.3070     2.2540   -24.0490 
  174.6250    76.7140    24.7070    68.0010    58.6810    62.0740     2.2560   -24.0000 
  174.7500    76.8000    24.7060    70.2550    60.3580    63.8360     2.2620   -23.9010 
  174.8750    77.2270    24.7060    75.4670    61.6180    65.1600     2.2700   -23.8280 
  175.0000    77.8520    24.7060    81.1050    61.8060    65.3580     2.2700   -23.8240 
  175.1250    77.9400    24.7060    84.1000    60.8030    64.3040     2.2590   -23.7880 
  175.2500    77.3750    24.7060    83.6440    58.6360    62.0270     2.2450   -23.7180 
  175.3750    77.6600    24.7050    79.6720    55.4530    58.6810     2.2420   -23.6520 
  175.5000    79.5900    24.6950    71.5980    51.4520    54.4760     2.2570   -23.6100 
  175.6250    81.3370    24.6770    61.0430    47.2070    50.0140     2.2830   -23.6010 
  175.7500    82.2230    24.6680    51.3280    43.0570    45.6530     2.3090   -23.6300 
  175.8750    82.9560    24.6780    45.3770    39.1190    41.5140     2.3300   -23.6520 
  176.0000    84.0870    24.6810    44.3270    35.4060    37.6120     2.3420   -23.6370 
  176.1250    85.6790    24.6730    43.3930    31.8630    33.8880     2.3510   -23.6630 
  176.2500    88.0080    24.6740    39.1800    28.4900    30.3430     2.3560   -23.7380 
  176.3750    90.7900    24.6970    32.0760    25.3120    27.0030     2.3580   -23.8420 
  176.5000    93.2550    24.7180    25.1320    22.4490    23.9940     2.3610   -24.0000 
  176.6250    95.7060    24.7090    19.5410    19.9530    21.3710     2.3670   -24.1350 
  176.7500    98.3430    24.7040    16.1440    17.9510    19.2660     2.3770   -24.1940 
  176.8750   100.6660    24.7450    14.9320    16.5950    17.8410     2.3860   -24.2670 
  177.0000   101.4830    24.8710    14.4150    16.1710    17.3950     2.3890   -24.4900 
  177.1250   100.4470    25.0460    13.5740    16.6810    17.9320     2.3800   -24.7250 
  177.2500    97.8710    25.2120    13.4640    18.2700    19.6010     2.3590   -24.8000 
  177.3750    94.9850    25.3070    16.0270    21.0240    22.4960     2.3300   -24.7350 
  177.5000    93.1020    25.3270    23.1540    24.9520    26.6240     2.3030   -24.7280 
  177.6250    91.7290    25.3140    32.3060    29.3760    31.2740     2.2820   -24.8710 
  177.7500    89.8410    25.2960    39.9250    33.5800    35.6920     2.2700   -25.0030 
  177.8750    87.2030    25.2880    43.9190    36.7390    39.0130     2.2680   -24.9480 
  178.0000    84.5510    25.2970    44.1370    37.8900    40.2230     2.2790   -24.7460 
  178.1250    82.5940    25.3180    41.9970    37.3110    39.6130     2.2990   -24.6400 
  178.2500    82.2940    25.3400    38.2860    35.6150    37.8320     2.3130   -24.6880 
  178.3750    84.5890    25.3440    34.3550    33.6530    35.7690     2.3110   -24.7720 
  178.5000    88.5060    25.3240    32.3080    32.3480    34.3970     2.2950   -24.6920 
  178.6250    90.3960    25.3010    32.6800    32.0880    34.1250     2.2810   -24.5230 
  178.7500    89.1880    25.2940    34.2590    33.0560    35.1420     2.2750   -24.4700 
  178.8750    87.0560    25.3030    35.8620    35.2920    37.4920     2.2710   -24.5600 
  179.0000    87.1590    25.3130    39.1770    38.8990    41.2820     2.2640   -24.6240 
  179.1250    88.3750    25.3040    45.4640    43.4120    46.0260     2.2570   -24.5850 
  179.2500    88.8580    25.2910    53.5420    48.3900    51.2580     2.2550   -24.5090 
  179.3750    88.4150    25.2840    61.4170    53.2490    56.3650     2.2600   -24.5230 
  179.5000    88.3640    25.2810    67.6690    57.1750    60.4910     2.2630   -24.5950 
  179.6250    89.1490    25.2750    72.3430    59.7590    63.2060     2.2530   -24.5890 
  179.7500    89.9170    25.2700    74.1960    60.7700    64.2690     2.2370   -24.5230 
  179.8750    89.7750    25.2690    72.9850    60.2970    63.7720     2.2280   -24.4720 
  180.0000    88.3850    25.2740    69.4390    58.6450    62.0360     2.2400   -24.4210 
  180.1250    87.2100    25.2790    65.6440    56.6120    59.8990     2.2580   -24.3400 
  180.2500    87.6810    25.2790    62.3830    54.6700    57.8580     2.2660   -24.2650 
  180.3750    89.4760    25.2720    58.8440    53.1420    56.2520     2.2630   -24.1860 
  180.5000    90.5050    25.2690    55.2860    52.2800    55.3460     2.2640   -24.1100 
  180.6250    89.6650    25.2660    55.3690    51.9820    55.0330     2.2740   -24.0620 
  180.7500    87.6550    25.2450    61.7480    52.1710    55.2320     2.2830   -24.0360 
  180.8750    86.1490    25.1770    71.5540    52.8010    55.8940     2.2790   -24.0400 
  181.0000    86.8800    25.0160    75.8530    53.8620    57.0080     2.2670   -24.0990 
  181.1250    88.3810    24.8610    70.2960    55.1150    58.3260     2.2610   -24.1610 
  181.2500    87.9210    24.7590    59.8770    56.4530    59.7320     2.2700   -24.2010 
  181.3750    84.5510    24.7030    52.8600    57.9050    61.2590     2.2960   -24.2670 
  181.5000    80.2240    24.5450    59.5970    59.6450    63.0860     2.3440   -24.4210 
  181.6250    77.1670    24.3950    78.2050    61.9220    65.4800     2.3960   -24.5740 
  181.7500    76.0560    24.3420    93.2940    65.3670    69.1010     2.4280   -24.6460 
  181.8750    76.8200    24.3520    91.9430    70.8780    74.8930     2.4240   -24.6990 
  182.0000    78.1020    24.3580    84.8800    79.6070    84.0990     2.3790   -24.7960 
  182.1250    78.2700    24.3740    99.2220    90.8450    96.1410     2.3150   -24.8600 
  182.2500    78.2300    24.3940   132.4510   103.2950   109.7730     2.2570   -24.8860 
  182.3750    79.3520    24.4060   168.2860   114.8050   122.3390     2.2240   -24.8820 
  182.5000    79.9470    24.4070   192.2450   122.1350   130.2520     2.2170   -24.8270 
  182.6250    77.8130    24.4080   205.5930   124.0820   132.3240     2.2190   -24.7390 
  182.7500    74.4570    24.4080   212.2680   120.5200   128.5330     2.2210   -24.6680 
  182.8750    72.8670    24.4120   208.0250   112.9160   120.4430     2.2250   -24.6040 
  183.0000    74.3760    24.4090   181.7460   104.2490   111.2210     2.2330   -24.5180 
  183.1250    77.0700    24.3900   143.3590    97.5520   104.0950     2.2460   -24.4210 
  183.2500    79.5760    24.3680   109.1810    93.7520   100.0520     2.2590   -24.3070 
  183.3750    80.7840    24.3660    92.5120    92.4310    98.6460     2.2620   -24.1650 
  183.5000    80.7070    24.3910    98.9140    92.4770    98.6960     2.2500   -23.9870 
  183.6250    81.5510    24.4110   110.8480    92.4380    98.6540     2.2340   -23.7950 
  183.7500    83.6910    24.4410   117.4090    91.6660    97.8330     2.2270   -23.5920 
  183.8750    85.2950    24.5000   114.2530    90.0100    96.0700     2.2290   -23.3960 
  184.0000    84.7360    24.5920   104.2970    87.6130    93.5210     2.2320   -23.2280 
  184.1250    83.2640    24.6590    93.5130    85.0700    90.8150     2.2310   -23.0880 
  184.2500    82.0390    24.6980    85.5310    82.7540    88.3500     2.2260   -22.9710 
  184.3750    81.4120    24.7120    82.2170    80.7670    86.2360     2.2140   -22.9130 
  184.5000    81.2470    24.7010    84.4790    78.9200    84.2710     2.2020   -22.9770 
  184.6250    80.6180    24.6770    88.9130    76.9340    82.1580     2.2000   -23.0810 
