~V
VERS. 2.00: Ver 2.00
~W
STRT.M 55.0000:
STOP.M 271.0000:
STEP.M 0.1250:
NULL. -999.2500:
UWI. DF5028:
~C
DEPT.M :
SP.MV :
GR.API :
RML.OHMM :
RI. :
RXO.OHMM :
CALI.CM :
DEN.GM/CC :
~A
# ...
   77.5000   -38.1060    71.5260     8.9070     7.4290    10.3750    23.6200     2.1620 
   77.6250   -37.3490    81.6740     8.6200     7.2260    10.6860    23.6310     2.2090 
   77.7500   -36.6440    88.8780     8.3280     7.0090    10.0860    23.7020     2.2640 
   77.8750   -35.9710    91.1740     8.0900     6.8220     8.8360    23.8140     2.3150 
   78.0000   -35.4940    90.3990     7.9550     6.7090     7.7780    23.9100     2.3450 
   78.1250   -35.1230    88.2920     7.9740     6.7140     7.3980    23.9380     2.3410 
   78.2500   -34.9750    86.3980     8.1160     6.8280     7.4160    23.8990     2.3160 
   78.3750   -35.0370    85.3450     8.3490     7.0320     7.6550    23.7960     2.2840 
   78.5000   -35.2740    82.9350     8.6290     7.2910     8.0170    23.6610     2.2580 
   78.6250   -35.7000    78.0320     8.8990     7.5570     8.4020    23.5670     2.2410 
   78.7500   -36.1860    74.4740     9.1230     7.7880     8.7220    23.5280     2.2310 
   78.8750   -36.6780    73.3830     9.2750     7.9620     9.0010    23.4950     2.2230 
   79.0000   -37.1350    73.3680     9.3410     8.0640     9.2520    23.4190     2.2120 
   79.1250   -37.5230    72.1270     9.3150     8.0880     9.4050    23.3290     2.1990 
   79.2500   -37.8740    70.7100     9.2370     8.0590     9.4810    23.2750     2.1840 
   79.3750   -38.0880    70.4990     9.1420     8.0000     9.5910    23.2590     2.1710 
   79.5000   -38.2400    70.3640     9.0770     7.9420     9.7730    23.2320     2.1620 
   79.6250   -38.2510    70.9230     9.1320     7.9420     9.8930    23.1340     2.1540 
   79.7500   -38.1060    70.6590     9.3490     8.0340     9.8630    23.0610     2.1420 
   79.8750   -37.9520    69.3290     9.6950     8.2080     9.7900    23.1570     2.1190 
   80.0000   -37.5630    68.0310    10.0670     8.4090     9.7990    23.4380     2.0850 
   80.1250   -37.0560    67.3950    10.2790     8.5280     9.9100    23.7720     2.0530 
   80.2500   -36.4240    66.6930    10.2010     8.4810    10.1330    24.0840     2.0450 
   80.3750   -35.6920    67.0070     9.7690     8.2130    10.5480    24.3180     2.0770 
   80.5000   -34.9810    72.1250     9.0480     7.7370    11.3990    24.3450     2.1500 
   80.6250   -34.2680    82.8650     8.2420     7.1540    12.4190    24.1840     2.2430 
   80.7500   -33.7510    91.7260     7.5840     6.6280    12.0770    24.0980     2.3170 
   80.8750   -33.2790    94.8210     7.2200     6.2780    10.2000    24.1370     2.3490 
   81.0000   -33.0520    92.0580     7.2200     6.1810     8.3320    24.1630     2.3420 
   81.1250   -33.0220    86.1870     7.5840     6.3750     7.4600    24.0830     2.3120 
   81.2500   -33.0670    79.6950     8.1170     6.7410     7.2470    23.9820     2.2770 
   81.3750   -33.2370    74.2700     8.6500     7.1710     7.4710    23.9020     2.2460 
   81.5000   -33.2960    72.0370     9.0070     7.5350     8.0170    23.8650     2.2220 
   81.6250   -33.2920    73.7710     9.0030     7.6740     8.5570    23.8940     2.2100 
   81.7500   -33.1410    75.5780     8.7160     7.5840     8.9150    23.9800     2.2070 
   81.8750   -32.8340    75.7340     8.2680     7.3170     8.9490    24.1310     2.2110 
   82.0000   -32.4480    77.4950     7.7850     6.9580     8.5210    24.3230     2.2170 
   82.1250   -32.0510    83.0840     7.4090     6.6110     7.9290    24.4740     2.2270 
   82.2500   -31.6700    88.0930     7.2210     6.3660     7.5720    24.5470     2.2400 
   82.3750   -31.3660    91.2620     7.2630     6.2750     7.3990    24.5700     2.2550 
   82.5000   -31.2460    93.2550     7.5400     6.3600     7.2440    24.5710     2.2680 
   82.6250   -31.3800    93.1500     8.0600     6.6440     7.1070    24.5500     2.2730 
   82.7500   -31.6480    90.5560     8.7180     7.0570     7.1380    24.5220     2.2660 
   82.8750   -32.2100    88.2810     9.4210     7.5400     7.3500    24.4960     2.2520 
   83.0000   -32.8570    87.3410    10.0630     8.0140     7.6660    24.4140     2.2360 
   83.1250   -33.5680    83.9930    10.5230     8.3890     8.1020    24.1950     2.2270 
   83.2500   -34.3610    78.5270    10.7760     8.6240     8.6560    23.9440     2.2220 
   83.3750   -35.0680    73.1300    10.8310     8.7100     9.2250    23.7820     2.2170 
   83.5000   -35.7870    69.0000    10.7460     8.6770     9.6000    23.7350     2.2090 
   83.6250   -36.3040    66.7850    10.5960     8.5670     9.6610    23.7320     2.1980 
   83.7500   -36.8000    67.2300    10.4590     8.4440     9.6430    23.7220     2.1880 
   83.8750   -37.1310    68.5190    10.3690     8.3420     9.6560    23.7280     2.1830 
   84.0000   -37.3800    68.9160    10.3280     8.2790     9.6750    23.7660     2.1810 
   84.1250   -37.5780    70.6100    10.3180     8.2620     9.7220    23.8180     2.1810 
   84.2500   -37.6360    73.2030    10.3190     8.2750     9.8280    23.8470     2.1810 
   84.3750   -37.7350    75.0090    10.3400     8.3200     9.9290    23.8560     2.1820 
   84.5000   -37.7760    74.7160    10.3990     8.4000     9.9020    23.8890     2.1820 
   84.6250   -37.8950    72.5250    10.5150     8.5170     9.7830    23.9810     2.1810 
   84.7500   -37.9810    69.4940    10.6620     8.6410     9.7830    24.0800     2.1780 
   84.8750   -37.9980    66.8060    10.7850     8.7310     9.9200    24.1370     2.1720 
   85.0000   -38.0260    67.8820    10.8030     8.7300    10.0580    24.1440     2.1650 
   85.1250   -37.9260    73.1250    10.5840     8.5500    10.0680    24.1520     2.1610 
   85.2500   -37.7370    78.8320    10.0980     8.1760     9.9520    24.1830     2.1620 
   85.3750   -37.4470    83.9520     9.3610     7.6190     9.7360    24.2050     2.1700 
   85.5000   -37.0440    90.2830     8.4600     6.9330     9.4400    24.2030     2.1870 
   85.6250   -36.6030    96.8330     7.5460     6.2160     8.8590    24.2390     2.2090 
   85.7500   -36.1620    98.1980     6.7840     5.5830     7.8910    24.3540     2.2320 
   85.8750   -35.8720    93.9700     6.2900     5.1190     6.7990    24.4840     2.2540 
   86.0000   -35.7320    88.7740     6.1320     4.8830     5.9300    24.5140     2.2730 
   86.1250   -35.7680    87.0580     6.3840     4.9470     5.5570    24.3680     2.2900 
   86.2500   -36.1650    84.2720     6.9540     5.2620     5.6490    24.1700     2.3010 
   86.3750   -36.7680    78.3460     7.7590     5.7880     6.1700    24.0310     2.3000 
   86.5000   -37.6420    71.5750     8.6740     6.4500     7.0290    23.9790     2.2820 
   86.6250   -38.6020    65.7810     9.5240     7.1360     8.1650    23.9770     2.2460 
   86.7500   -39.5620    61.1340    10.1770     7.7320     9.4420    23.9800     2.2020 
   86.8750   -40.4570    57.4330    10.5750     8.1690    10.4970    23.9490     2.1590 
   87.0000   -41.1210    56.6510    10.7340     8.4220    10.8200    23.8420     2.1250 
   87.1250   -41.7050    58.6700    10.7200     8.4990    10.5050    23.6900     2.1080 
   87.2500   -42.0090    59.6410    10.6560     8.4830    10.1940    23.5980     2.1060 
   87.3750   -42.1660    58.8410    10.6060     8.4270     9.9730    23.5900     2.1170 
   87.5000   -42.1160    58.8740    10.6050     8.3710     9.8070    23.5890     2.1290 
   87.6250   -41.9270    60.1430    10.6520     8.3350     9.7800    23.5000     2.1310 
   87.7500   -41.7130    60.6270    10.7110     8.3060     9.8940    23.3870     2.1220 
   87.8750   -41.3620    58.8840    10.7590     8.2710    10.1040    23.3330     2.1070 
   88.0000   -40.9930    57.4470    10.7640     8.2120    10.3460    23.3120     2.0960 
   88.1250   -40.4950    58.9280    10.6790     8.0940    10.5430    23.2170     2.0970 
   88.2500   -39.8700    61.1950    10.4890     7.9080    10.6290    23.0440     2.1080 
   88.3750   -39.1530    63.1090    10.1870     7.6490    10.5430    22.8520     2.1230 
   88.5000   -38.3380    65.4110     9.7870     7.3300    10.2250    22.6680     2.1410 
   88.6250   -37.4390    70.5980     9.3330     6.9780     9.6960    22.5090     2.1620 
