~V
VERS. 2.00: Ver 2.00
~W
STRT.M 61.0000:
STOP.M 253.0000:
STEP.M 0.1250:
NULL. -999.2500:
UWI. DF5045:
~C
DEPT.M :
GR.API :
CALI.CM :
RXO.OHMM :
RI. :
RML.OHMM :
DEN.GM/CC :
SP.MV :
~A
# ...
  207.2500    70.6570    24.7820   171.4880   144.6710   154.2300     2.1760   -22.5380 
  207.3750    70.9650    24.7770   167.6860   148.2040   157.9890     2.1700   -22.5910 
  207.5000    71.7310    24.7350   154.0070   152.0060   162.0350     2.1670   -22.6180 
  207.6250    72.4030    24.7200   153.2490   156.3210   166.6250     2.1710   -22.6420 
  207.7500    73.1120    24.7320   171.4870   161.0690   171.6770     2.1780   -22.6380 
  207.8750    74.0850    24.7250   193.4990   165.9450   176.8660     2.1870   -22.6420 
  208.0000    74.8930    24.7000   201.7600   170.5540   181.7690     2.1980   -22.6800 
  208.1250    74.0510    24.6830   199.3570   174.7710   186.2560     2.2060   -22.6750 
  208.2500    71.1440    24.6780   197.4720   178.5780   190.3070     2.2070   -22.6530 
  208.3750    67.8370    24.6770   202.3420   181.9300   193.8730     2.1940   -22.6270 
  208.5000    66.9750    24.6750   213.1950   184.4050   196.5070     2.1770   -22.5050 
  208.6250    68.4380    24.6720   221.3950   185.4840   197.6550     2.1700   -22.2800 
  208.7500    70.4810    24.6730   220.7330   184.4430   196.5470     2.1730   -22.0550 
  208.8750    71.9010    24.6770   211.3000   180.7350   192.6020     2.1790   -21.8220 
  209.0000    72.9110    24.6910   198.3140   173.8070   185.2300     2.1820   -21.4450 
  209.1250    73.8320    24.7100   185.5170   164.9030   175.7560     2.1780   -21.0540 
  209.2500    73.8940    24.7190   170.2390   155.3870   165.6320     2.1660   -20.7220 
  209.3750    72.4310    24.7050   152.6550   146.7490   156.4400     2.1540   -20.4020 
  209.5000    70.4460    24.7020   142.5870   140.6310   149.9320     2.1540   -20.1000 
  209.6250    69.7270    24.7180   143.3730   137.1170   146.1930     2.1640   -19.8420 
  209.7500    70.0810    24.7310   147.8020   135.8140   144.8060     2.1790   -19.5950 
  209.8750    70.7230    24.7220   149.6650   135.9020   144.9000     2.1970   -19.3550 
  210.0000    72.0320    24.6940   151.1560   136.3800   145.4090     2.2120   -19.1540 
  210.1250    73.7930    24.6940   158.3720   136.1120   145.1230     2.2150   -18.9670 
  210.2500    74.2160    24.7160   168.3610   134.2620   143.1540     2.2050   -18.7090 
  210.3750    72.5940    24.7280   171.9480   130.4280   139.0750     2.1930   -18.4180 
  210.5000    72.0200    24.7100   158.7860   124.3860   132.6460     2.1870   -18.1840 
  210.6250    74.1990    24.6910   140.5410   116.8640   124.5640     2.1840   -18.0050 
  210.7500    76.2260    24.7050   127.6130   108.3310   115.1770     2.1850   -17.7920 
  210.8750    75.1060    24.7180   121.2790    99.2210   104.8150     2.1910   -17.5470 
  211.0000    72.5700    24.7130   113.5100    90.0240    94.7950     2.1980   -17.4360 
  211.1250    72.7390    24.6960   101.0470    81.3490    85.5910     2.1990   -17.3970 
  211.2500    75.3400    24.6960    86.2350    73.7290    77.6200     2.1930   -17.3810 
  211.3750    77.6780    24.7090    73.1400    67.5100    71.1150     2.1940   -17.3790 
  211.5000    78.0100    24.7120    64.5400    63.1430    66.5470     2.2080   -17.3970 
  211.6250    77.1630    24.7070    58.8060    60.3760    63.6530     2.2230   -17.4150 
  211.7500    75.8680    24.7150    54.4520    59.0880    62.3060     2.2250   -17.4780 
  211.8750    74.9940    24.7480    54.0280    59.0980    62.3160     2.2120   -17.6130 
  212.0000    75.1580    24.7500    59.5980    60.3290    63.6040     2.1910   -17.7080 
  212.1250    75.6160    24.7430    65.7330    62.3130    65.6800     2.1790   -17.7560 
  212.2500    75.6700    24.7670    67.6300    64.9090    68.3950     2.1820   -17.8640 
  212.3750    75.3550    24.7840    67.2000    68.1250    71.7590     2.2030   -18.0230 
  212.5000    74.5190    24.7600    72.0010    71.9720    75.7830     2.2280   -18.1240 
  212.6250    73.3060    24.7330    83.9010    76.0280    80.0260     2.2270   -18.2020 
  212.7500    72.4260    24.7480    95.7100    79.8990    84.0740     2.1950   -18.3090 
  212.8750    72.1890    24.7660   100.1380    83.2180    87.5460     2.1590   -18.3960 
  213.0000    72.0650    24.7420   101.3700    85.3690    89.7960     2.1740   -18.4150 
  213.1250    72.1760    24.6760   112.0290    86.0970    90.5580     2.2360   -18.4440 
  213.2500    73.2040    24.5380   130.8760    85.2720    89.6950     2.3010   -18.4900 
  213.3750    75.0450    24.4370   135.3830    83.2070    87.5350     2.3210   -18.5280 
  213.5000    76.3440    24.4140   116.4410    80.7290    84.9430     2.2830   -18.5630 
  213.6250    76.1790    24.3980    92.0350    78.9810    83.1140     2.2370   -18.5830 
  213.7500    74.9090    24.3770    79.3320    78.7660    82.8890     2.2140   -18.5920 
  213.8750    73.8060    24.3730    75.2980    80.7940    85.0110     2.2120   -18.6090 
  214.0000    73.9170    24.3830    74.8780    86.3990    90.8730     2.2130   -18.6710 
  214.1250    74.0980    24.3780    79.7080    95.4490   100.3400     2.2100   -18.7040 
  214.2500    73.0230    24.3750    93.8540   107.3180   112.7550     2.2070   -18.7090 
  214.3750    70.9790    24.3910   117.3660   120.2910   126.3240     2.2010   -18.7180 
  214.5000    68.9790    24.4230   141.2280   131.1180   137.6500     2.1930   -18.7130 
  214.6250    67.3690    24.4610   155.3700   137.1260   143.9340     2.1850   -18.7220 
  214.7500    66.3050    24.5300   155.8650   136.7550   143.5450     2.1860   -18.7260 
  214.8750    66.1010    24.6030   144.2470   130.0880   136.5720     2.2050   -18.7040 
  215.0000    67.1160    24.6560   127.7000   118.5960   124.5510     2.2470   -18.6320 
  215.1250    68.7410    24.6790   114.0930   106.1500   111.5320     2.2920   -18.5870 
  215.2500    70.4920    24.6880   101.0670    95.2350   100.1160     2.3140   -18.5630 
  215.3750    71.9900    24.6900    87.5550    87.2570    91.7710     2.2980   -18.5210 
  215.5000    72.8390    24.6850    80.9360    82.9850    87.3030     2.2590   -18.4730 
  215.6250    73.1360    24.6860    81.8910    81.3130    85.5530     2.2330   -18.4150 
  215.7500    73.0470    24.6910    86.3920    81.4200    85.6650     2.2340   -18.3510 
  215.8750    72.8580    24.6910    89.7120    82.4490    86.7420     2.2490   -18.3010 
  216.0000    72.8280    24.6850    91.1690    83.5300    87.8720     2.2560   -18.2830 
  216.1250    72.7340    24.6870    91.2130    84.0070    88.3710     2.2500   -18.2430 
  216.2500    72.8480    24.6900    89.1890    83.5970    87.9420     2.2390   -18.1420 
  216.3750    73.6310    24.6830    86.5270    82.2920    86.5770     2.2290   -18.0080 
  216.5000    74.4550    24.6820    87.0750    80.2250    84.4160     2.2220   -17.8910 
  216.6250    74.5070    24.6860    88.3600    77.8040    81.8830     2.2100   -17.7670 
  216.7500    74.5140    24.6900    86.8800    75.2940    79.2570     2.1940   -17.5820 
  216.8750    75.8130    24.6850    83.0850    72.9530    76.8090     2.1800   -17.3570 
  217.0000    78.1510    24.6880    79.9520    71.1940    74.9690     2.1770   -17.1680 
  217.1250    79.7320    24.6950    78.6890    70.2700    74.0020     2.1840   -16.9910 
  217.2500    79.6080    24.6940    77.0600    70.5150    74.2590     2.2000   -16.7860 
  217.3750    77.4090    24.6810    72.9370    72.2680    76.0920     2.2300   -16.5740 
  217.5000    74.0850    24.6730    68.8340    76.1940    80.1990     2.2650   -16.3980 
  217.6250    71.8580    24.6570    70.1610    82.1640    86.4430     2.2850   -16.2590 
  217.7500    71.4070    24.6260    78.1780    89.9660    94.6050     2.2800   -16.1470 
  217.8750    71.5800    24.5800    90.7290    98.7840   103.8280     2.2550   -16.0470 
  218.0000    71.0880    24.6090   105.4060   106.8130   112.2270     2.2230   -15.9260 
  218.1250    70.8100    24.5730   120.2980   112.3190   117.9860     2.1990   -15.8490 
  218.2500    71.4180    24.4140   129.4110   114.1500   119.9000     2.1900   -15.8380 
  218.3750    71.9370    24.1740   132.2870   112.0630   117.7180     2.1950   -15.8930 
