~V
VERS. 2.00: Ver 2.00
~W
STRT.M 55.0000:
STOP.M 270.0000:
STEP.M 0.1250:
NULL. -999.2500:
UWI. DF5017:
~C
DEPT.M :
SP.MV :
GR.API :
CALI.CM :
RXO.OHMM :
RI. :
RML.OHMM :
DEN.GM/CC :
~A
   55.0000     5.1610  -999.2500  -999.2500  -999.2500  -999.2500  -999.2500  -999.2500 
   55.1250     6.0540  -999.2500  -999.2500  -999.2500  -999.2500  -999.2500  -999.2500 
   55.2500     6.6860  -999.2500  -999.2500  -999.2500  -999.2500  -999.2500  -999.2500 
   55.3750     6.9460  -999.2500  -999.2500  -999.2500  -999.2500  -999.2500  -999.2500 
   55.5000     6.7400  -999.2500  -999.2500  -999.2500  -999.2500  -999.2500  -999.2500 
   55.6250     6.0120  -999.2500  -999.2500  -999.2500  -999.2500  -999.2500     1.9770 
   55.7500     4.9720  -999.2500  -999.2500  -999.2500  -999.2500  -999.2500     1.9770 
   55.8750     3.8080  -999.2500  -999.2500  -999.2500  -999.2500  -999.2500     1.9840 
   56.0000     2.6540  -999.2500  -999.2500  -999.2500  -999.2500  -999.2500     2.0000 
   56.1250     1.6270  -999.2500  -999.2500  -999.2500  -999.2500  -999.2500     2.0190 
   56.2500     0.8420  -999.2500  -999.2500  -999.2500  -999.2500  -999.2500     2.0380 
   56.3750     0.3720  -999.2500  -999.2500  -999.2500  -999.2500  -999.2500     2.0590 
   56.5000     0.2560  -999.2500  -999.2500  -999.2500  -999.2500  -999.2500     2.0690 
   56.6250     0.5230    55.9480    25.0060     1.0190     0.1240     5.3060     2.0550 
   56.7500     0.9910    55.9480    25.0060     1.0190     0.1240     5.3060     2.0280 
   56.8750     1.5190    55.9480    24.8930     1.0190     0.1240     5.3060     2.0090 
   57.0000     2.0370    56.6400    24.8720     1.0370     0.1530     5.2010     2.0090 
   57.1250     2.4720    57.3140    24.8820     1.0550     0.1910     5.0270     2.0230 
   57.2500     2.8060    57.2250    24.9000     1.0620     0.2190     4.8130     2.0310 
   57.3750     3.0530    54.8870    24.9710     1.0540     0.2370     4.5630     2.0290 
   57.5000     3.1780    51.3890    25.1010     1.0330     0.2440     4.3280     2.0220 
   57.6250     3.2270    51.7930    25.2340     1.0090     0.2380     4.2000     2.0170 
   57.7500     3.2630    54.8740    25.3200     0.9810     0.2140     4.1930     2.0150 
   57.8750     3.3230    56.5090    25.2960     0.9580     0.1710     4.2600     2.0130 
   58.0000     3.4340    55.1800    25.2530     0.9640     0.1190     4.3170     2.0050 
   58.1250     3.6800    54.0240    25.2480     0.9930     0.0720     4.2910     1.9960 
   58.2500     4.0600    54.6490    25.2970     1.0200     0.0430     4.2270     1.9900 
   58.3750     4.6360    54.9800    25.3110     1.0300     0.0290     4.1920     1.9880 
   58.5000     5.4840    52.8140    25.2850     1.0230     0.0260     4.1970     1.9890 
   58.6250     6.6080    49.9040    25.2460     1.0140     0.0340     4.1980     1.9920 
   58.7500     7.8200    50.2880    25.2520     1.0110     0.0600     4.1680     1.9940 
   58.8750     9.0370    53.3000    25.3130     1.0120     0.1030     4.1270     1.9900 
   59.0000    10.2170    54.1010    25.3560     1.0120     0.1570     4.0960     1.9890 
   59.1250    11.2070    52.3000    25.3620     1.0120     0.2040     4.0390     2.0050 
   59.2500    12.0540    51.6590    25.3520     1.0160     0.2310     3.8980     2.0210 
   59.3750    12.6710    52.0250    25.3450     1.0240     0.2310     3.6710     2.0160 
   59.5000    13.0540    51.7530    25.3440     1.0350     0.2030     3.4390     2.0000 
   59.6250    13.0910    52.3650    25.3390     1.0480     0.1550     3.3280     2.0350 
   59.7500    12.9690    54.9830    25.3200     1.0580     0.1040     3.3470     2.1350 
   59.8750    12.7780    57.0870    25.2850     1.0600     0.0640     3.4430     2.2550 
   60.0000    12.5230    56.9890    25.2400     1.0510     0.0490     3.5260     2.3260 
   60.1250    12.3360    55.7760    25.2400     1.0400     0.0690     3.5040     2.2920 
   60.2500    12.1940    54.5660    25.2880     1.0330     0.1120     3.3710     2.1980 
   60.3750    12.1530    53.1970    25.3700     1.0280     0.1620     3.1560     2.0930 
   60.5000    12.2120    52.2120    25.4240     1.0260     0.2070     2.9110     2.0020 
   60.6250    12.4270    52.5330    25.4390     1.0280     0.2390     2.7070     1.9470 
   60.7500    12.7120    52.5870    25.4390     1.0320     0.2590     2.6120     1.9520 
   60.8750    13.0750    52.7730    25.4390     1.0370     0.2660     2.6700     2.0410 
   61.0000    13.5300    54.2410    25.4390     1.0380     0.2580     2.8930     2.1920 
   61.1250    13.9960    55.0340    25.3930     1.0400     0.2280     3.2200     2.3370 
   61.2500    14.4720    53.1950    25.2170     1.0500     0.1810     3.4310     2.4220 
   61.3750    14.8930    52.0030    24.9090     1.0680     0.1260     3.2540     2.4430 
   61.5000    15.1950    54.4900    24.6870     1.0850     0.0640     2.5360     2.4270 
   61.6250    15.2560    57.3100    24.6100     1.0890     0.0040     1.5850     2.3990 
   61.7500    15.0060    58.7380    24.5930     1.0830    -0.0460     0.8700     2.3560 
   61.8750    14.2070    62.7970    24.5980     1.0790    -0.0790     0.4640     2.2970 
   62.0000    12.6330    72.5460    24.6490     1.1230    -0.0940     0.2980     2.2600 
   62.1250    10.0300    85.4940    24.7270     1.4210    -0.0740     0.3460     2.2890 
   62.2500     6.5730    97.3800    24.7340     2.2810     0.0120     0.5960     2.3360 
   62.3750     2.4020   106.4790    24.6330     3.8020     0.2260     1.1530     2.3450 
   62.5000    -2.1960   111.9800    24.4530     5.3990     0.6500     2.2110     2.3140 
   62.6250    -6.9720   113.9030    24.1640     6.0210     1.3650     3.9720     2.2940 
   62.7500   -11.7330   114.4100    24.0390     5.9730     2.1990     5.5640     2.3070 
   62.8750   -16.2110   113.6420    24.0060     5.8210     2.9150     5.9920     2.3290 
   63.0000   -20.1240   112.1530    24.0050     5.7360     3.3980     5.5950     2.3340 
   63.1250   -23.2140   110.1510    24.0050     5.5880     3.6990     5.2740     2.3250 
   63.2500   -25.6840   109.6040    24.0160     5.4440     3.9540     5.2640     2.3220 
   63.3750   -27.6740   109.4510    24.0430     5.5540     4.1950     5.4780     2.3240 
   63.5000   -29.3840   106.7050    24.0640     5.9000     4.4300     5.8090     2.3130 
   63.6250   -31.0280    98.8300    24.0700     6.2340     4.6860     6.1930     2.2700 
   63.7500   -32.6290    89.5700    24.0700     6.6770     4.9850     6.6070     2.2130 
   63.8750   -34.2120    83.2910    24.0700     7.6080     5.3290     7.0560     2.1650 
   64.0000   -35.7830    80.3050    24.0710     8.8080     5.6970     7.5320     2.1410 
   64.1250   -37.3030    77.9400    24.0860     9.5910     6.0510     8.0100     2.1380 
   64.2500   -38.6340    76.4450    24.1280     9.8990     6.3610     8.4560     2.1380 
   64.3750   -39.8190    77.5000    24.1810    10.1280     6.5960     8.8290     2.1350 
   64.5000   -40.8700    79.4960    24.1980    10.7370     6.7290     9.0910     2.1330 
   64.6250   -41.6710    79.7810    24.1900    11.9450     6.7330     9.2050     2.1430 
   64.7500   -42.2580    79.8820    24.1880    12.6650     6.6380     9.1930     2.1570 
   64.8750   -42.6710    81.4410    24.1590    11.9610     6.4750     9.0710     2.1630 
   65.0000   -42.9560    82.8960    24.0600    10.4010     6.2920     8.8960     2.1530 
   65.1250   -43.1320    81.6890    24.0180     9.7620     6.1550     8.7620     2.1340 
   65.2500   -43.3190    78.9680    23.9510     9.7420     6.0960     8.7270     2.1210 
   65.3750   -43.4200    76.0140    23.8870     9.9110     6.1190     8.8050     2.1160 
   65.5000   -43.4500    73.6160    23.8530    10.1300     6.2130     8.9730     2.1160 
   65.6250   -43.3910    73.2070    23.8450    10.3420     6.3600     9.1820     2.1200 
   65.7500   -43.2610    74.3180    23.8440    10.3030     6.5170     9.3760     2.1260 
   65.8750   -43.0260    75.1660    23.8430     9.9330     6.6440     9.5090     2.1350 
   66.0000   -42.6630    75.9610    23.8450     9.4970     6.6910     9.5170     2.1430 
   66.1250   -42.1310    77.5220    23.8540     9.3170     6.6170     9.3270     2.1470 
