~V
VERS. 2.00: Ver 2.00
~W
STRT.M 60.0000:
STOP.M 251.0000:
STEP.M 0.1250:
NULL. -999.2500:
UWI. DF5053:
~C
DEPT.M :
GR.API :
RML.OHMM :
RI. :
RXO.OHMM :
CALI.CM :
DEN.GM/CC :
SP.MV :
~A
# ...
  116.2500   106.2450     5.1820     4.8630     4.9240    24.2620     2.2920    -9.4710 
  116.3750   111.5680     5.0320     4.7290     4.6550    24.2600     2.3080    -9.4190 
  116.5000   113.2930     5.0720     4.7340     4.6680    24.2450     2.3140    -9.4480 
  116.6250   113.8260     5.2700     4.8750     4.9710    24.2080     2.3080    -9.5380 
  116.7500   111.9420     5.5520     5.1090     5.5010    24.1460     2.2940    -9.6880 
  116.8750   105.7090     5.8130     5.3550     5.9900    24.0800     2.2800    -9.8650 
  117.0000   101.4770     5.9120     5.4930     6.2310    24.0470     2.2730   -10.0390 
  117.1250   104.9570     5.8160     5.4680     6.0950    24.1230     2.2750   -10.2220 
  117.2500   114.1820     5.5560     5.2840     5.6000    24.2090     2.2850   -10.3920 
  117.3750   123.2200     5.2140     4.9950     5.1000    24.2480     2.2990   -10.5370 
  117.5000   128.7690     4.8860     4.6750     4.7270    24.2500     2.3130   -10.6500 
  117.6250   128.1780     4.6230     4.3870     4.5300    24.2460     2.3230   -10.7390 
  117.7500   121.6040     4.4360     4.1550     4.4180    24.2240     2.3300   -10.8140 
  117.8750   115.0470     4.3260     3.9880     4.3790    24.1760     2.3330   -10.9160 
  118.0000   114.8140     4.3200     3.9130     4.3590    24.0960     2.3310   -11.1070 
  118.1250   115.8970     4.4330     3.9380     4.3620    23.9700     2.3280   -11.3800 
  118.2500   112.9970     4.6890     4.0850     4.4920    23.8140     2.3240   -11.7630 
  118.3750   107.1550     5.0820     4.3590     4.8090    23.7040     2.3170   -12.2650 
  118.5000    98.3310     5.5790     4.7450     5.3810    23.6670     2.3050   -12.8760 
  118.6250    89.4640     6.0810     5.1670     5.9580    23.6700     2.2890   -13.5590 
  118.7500    83.1590     6.5230     5.5640     6.4200    23.6940     2.2720   -14.3160 
  118.8750    78.9900     6.8700     5.8950     6.7270    23.7120     2.2550   -15.1650 
  119.0000    73.8090     7.1340     6.1500     6.8450    23.7240     2.2430   -16.1170 
  119.1250    68.2510     7.3840     6.3760     7.1840    23.7760     2.2340   -17.0720 
  119.2500    68.6170     7.6530     6.6090     7.9070    23.9200     2.2250   -17.9910 
  119.3750    74.3980     7.9330     6.8560     8.9170    24.1370     2.2160   -18.8400 
  119.5000    75.9980     8.1650     7.0890     9.8220    24.2030     2.2060   -19.5930 
  119.6250    73.3000     8.3200     7.2750    10.3800    24.1690     2.1960   -20.2590 
  119.7500    70.3940     8.4140     7.4100    10.7850    24.1550     2.1870   -20.7820 
  119.8750    69.8980     8.5140     7.5250    11.0800    24.2600     2.1780   -21.1290 
  120.0000    67.9630     8.7250     7.6830    11.1560    24.3520     2.1720   -21.2190 
  120.1250    67.4100     9.0470     7.8960    11.1180    24.3810     2.1690   -21.0990 
  120.2500    69.6460     9.3800     8.1040    11.1800    24.3300     2.1700   -20.7400 
  120.3750    70.9080     9.5300     8.1780    11.3570    24.2720     2.1770   -20.1100 
  120.5000    66.4460     9.1930     7.9030    11.3490    24.2500     2.1890   -19.1320 
  120.6250    62.2330     8.3420     7.2470    10.6690    24.2090     2.2050   -17.8730 
  120.7500    67.1160     7.1160     6.2870     9.4810    24.1020     2.2210   -16.4130 
  120.8750    83.7790     5.8380     5.2320     7.8550    23.9940     2.2360   -14.8370 
  121.0000   101.6250     5.0050     4.4070     6.0430    24.0680     2.2520   -13.3010 
  121.1250   110.8220     4.8760     4.0170     5.2030    24.2360     2.2760   -11.9230 
  121.2500   108.8780     5.5920     4.2000     6.2140    24.2960     2.3170   -10.7510 
  121.3750    95.1050     7.1740     5.0350     9.1670    24.2690     2.3790    -9.8330 
  121.5000    73.2990     9.5400     6.5990    13.6240    24.2130     2.4570    -9.2640 
  121.6250    57.0950    12.1240     8.5700    18.0980    24.1880     2.5280    -9.0150 
  121.7500    54.4230    14.3780    10.5840    20.7140    24.1820     2.5780    -9.0820 
  121.8750    61.2480    15.8420    12.2290    20.8010    24.1780     2.6050    -9.4060 
  122.0000    66.8450    16.2420    13.0990    19.7590    24.1350     2.6190    -9.9050 
  122.1250    67.6830    15.9820    13.3200    19.3700    24.0660     2.6300   -10.4990 
  122.2500    66.1480    15.2980    13.0340    18.9360    24.0480     2.6320   -11.2160 
  122.3750    66.1690    14.2620    12.3360    17.8960    24.0800     2.6150   -12.0800 
  122.5000    70.8760    12.8170    11.2250    16.3910    24.0970     2.5630   -13.1650 
  122.6250    75.6970    11.1520     9.8840    14.4890    24.0590     2.4880   -14.3930 
  122.7500    76.8400     9.5350     8.5180    12.0450    23.9630     2.4050   -15.6860 
  122.8750    76.5070     8.2530     7.3500     9.6890    23.8630     2.3320   -17.0060 
  123.0000    80.0070     7.5790     6.6090     8.7040    23.7960     2.2840   -18.3210 
  123.1250    81.7020     7.4330     6.2800     8.7660    23.7710     2.2550   -19.6330 
  123.2500    77.9840     7.7050     6.3190     9.5050    23.7820     2.2370   -20.9050 
  123.3750    72.5690     8.2300     6.6290    10.7120    23.8490     2.2250   -22.0780 
  123.5000    73.3250     8.8090     7.0810    11.6680    24.0280     2.2170   -23.0210 
  123.6250    77.0630     9.2600     7.5050    11.9290    24.0840     2.2120   -23.7690 
  123.7500    78.6660     9.5090     7.8130    11.7730    23.9510     2.2130   -24.3800 
  123.8750    78.9450     9.5590     7.9690    11.7750    23.7420     2.2170   -24.8800 
  124.0000    79.6520     9.4580     7.9810    11.9490    23.5210     2.2190   -25.2820 
  124.1250    78.2500     9.3140     7.9230    12.0390    23.2660     2.2180   -25.5910 
  124.2500    75.2610     9.1840     7.8420    12.0170    23.0140     2.2120   -25.7870 
  124.3750    71.4100     9.0980     7.7680    11.6470    22.8350     2.2030   -25.8630 
  124.5000    69.0940     9.0760     7.7220    11.1300    22.7370     2.1950   -25.8340 
  124.6250    68.3670     9.1010     7.7040    11.0380    22.6300     2.1920   -25.7570 
  124.7500    69.6530     9.1500     7.7070    11.2110    22.4770     2.1950   -25.6470 
  124.8750    71.9290     9.1920     7.7170    11.4470    22.4030     2.2040   -25.5160 
  125.0000    72.5510     9.1830     7.7090    11.4400    22.4950     2.2130   -25.3630 
  125.1250    72.0910     9.1130     7.6710    11.1600    22.7030     2.2160   -25.1530 
  125.2500    68.3390     8.9920     7.6020    10.7520    22.9150     2.2140   -24.9240 
  125.3750    62.5160     8.8520     7.5160    10.3330    23.0270     2.2060   -24.7170 
  125.5000    63.4230     8.7410     7.4380    10.1580    22.9920     2.1960   -24.5670 
  125.6250    68.6210     8.6830     7.3880    10.2700    22.9380     2.1870   -24.4580 
  125.7500    71.4830     8.6760     7.3700    10.6240    22.8930     2.1810   -24.3840 
  125.8750    69.9190     8.6980     7.3780    11.2250    22.8270     2.1770   -24.3390 
  126.0000    68.9700     8.7120     7.3930    12.0300    22.7290     2.1760   -24.2820 
  126.1250    70.4970     8.6960     7.3980    12.5270    22.6690     2.1740   -24.2290 
  126.2500    70.2640     8.6580     7.3910    12.6660    22.7180     2.1720   -24.1670 
  126.3750    67.9330     8.6210     7.3810    12.3820    22.8080     2.1700   -24.1070 
  126.5000    66.7550     8.6160     7.3830    11.9780    22.8260     2.1700   -24.0480 
  126.6250    70.1800     8.6440     7.4030    11.5280    22.8830     2.1730   -24.0280 
  126.7500    75.1650     8.6850     7.4320    11.1260    22.9970     2.1770   -24.0220 
  126.8750    75.2180     8.7120     7.4520    10.8970    23.1740     2.1810   -24.0100 
  127.0000    69.4830     8.6920     7.4400    10.8360    23.4100     2.1850   -24.0150 
  127.1250    62.5420     8.6330     7.3990    10.9000    23.5620     2.1900   -24.0320 
  127.2500    61.1570     8.5530     7.3400    10.9230    23.6760     2.1950   -24.0490 
  127.3750    69.3010     8.4860     7.2870    10.8410    23.7760     2.1980   -24.0290 
