~V
VERS. 2.00: Ver 2.00
~W
STRT.M 60.0000:
STOP.M 256.0000:
STEP.M 0.1250:
NULL. -999.2500:
UWI. DF5048:
~C
DEPT.M :
GR.API :
CALI.CM :
RXO.OHMM :
RI. :
RML.OHMM :
DEN.GM/CC :
SP.MV :
~A
# ...
  105.0000    77.7780    24.3290     7.4490     7.0370     7.8600     2.1520   -29.7070 
  105.1250    69.7590    24.3730     7.5950     7.1120     7.9670     2.1370   -29.7700 
  105.2500    62.3110    24.4060     7.5250     7.1440     8.0060     2.1240   -29.7950 
  105.3750    58.9140    24.4210     7.4670     7.1390     8.0120     2.1180   -29.8120 
  105.5000    58.9280    24.4280     7.4460     7.1520     8.0640     2.1250   -29.8050 
  105.6250    59.6970    24.4600     7.4020     7.2690     8.2550     2.1540   -29.8180 
  105.7500    60.7490    24.5470     7.3440     7.4950     8.5640     2.2000   -29.7860 
  105.8750    61.6560    24.6370     7.3280     7.7830     8.9140     2.2520   -29.7410 
  106.0000    62.2370    24.6030     7.3360     8.0430     9.1800     2.2890   -29.6830 
  106.1250    61.6980    24.3750     7.3390     8.1280     9.2010     2.2860   -29.5740 
  106.2500    62.2750    24.1260     7.3250     8.0070     8.9880     2.2540   -29.5030 
  106.3750    65.6420    23.9840     7.2560     7.7210     8.6280     2.2150   -29.4080 
  106.5000    68.3400    23.9660     7.1390     7.3540     8.2390     2.1840   -29.3100 
  106.6250    66.7580    24.0380     6.9610     7.0070     7.9340     2.1610   -29.1950 
  106.7500    64.3100    24.1420     6.8120     6.7440     7.7390     2.1480   -29.1210 
  106.8750    65.4830    24.2310     6.7270     6.5790     7.6340     2.1410   -29.0480 
  107.0000    69.6620    24.2720     6.6670     6.4940     7.5840     2.1420   -28.9810 
  107.1250    72.3450    24.2750     6.5670     6.4720     7.5700     2.1470   -28.9290 
  107.2500    72.0880    24.2740     6.5450     6.4880     7.5780     2.1530   -28.8380 
  107.3750    70.5800    24.2710     6.6580     6.5260     7.5970     2.1550   -28.7550 
  107.5000    68.9010    24.2480     6.7680     6.5700     7.6150     2.1520   -28.6820 
  107.6250    67.5220    24.1820     6.6960     6.6050     7.6220     2.1460   -28.5940 
  107.7500    66.0820    24.1010     6.5740     6.6270     7.6200     2.1390   -28.5300 
  107.8750    67.6870    24.0430     6.5010     6.6360     7.6100     2.1350   -28.4240 
  108.0000    73.6220    24.0220     6.4760     6.6310     7.5900     2.1350   -28.3350 
  108.1250    77.9280    24.0310     6.5290     6.6050     7.5450     2.1380   -28.2170 
  108.2500    76.1680    24.0490     6.5170     6.5490     7.4640     2.1400   -28.1090 
  108.3750    70.4860    24.0700     6.4410     6.4610     7.3500     2.1390   -28.0190 
  108.5000    66.6450    24.0840     6.3930     6.3550     7.2300     2.1370   -27.9440 
  108.6250    68.2500    24.0850     6.4250     6.2700     7.1530     2.1340   -27.8220 
  108.7500    71.5820    24.0660     6.3420     6.2220     7.1250     2.1330   -27.7030 
  108.8750    73.6090    24.0260     6.1810     6.2010     7.1140     2.1330   -27.5750 
  109.0000    72.7460    23.9850     6.0390     6.1670     7.0700     2.1350   -27.4560 
  109.1250    70.2540    23.9620     5.9550     6.0720     6.9430     2.1390   -27.3800 
  109.2500    69.0670    23.9560     5.7290     5.9230     6.7670     2.1470   -27.3010 
  109.3750    70.3220    23.9890     5.4380     5.7610     6.6060     2.1560   -27.2210 
  109.5000    74.5940    24.0520     5.1760     5.6400     6.5250     2.1600   -27.1510 
  109.6250    77.5980    24.0360     5.2980     5.6190     6.5800     2.1540   -27.1110 
  109.7500    75.8230    23.9120     5.4390     5.6890     6.7350     2.1400   -27.1050 
  109.8750    70.9880    23.7740     5.5180     5.8270     6.9380     2.1270   -27.1270 
  110.0000    68.1580    23.7180     5.5870     5.9900     7.1330     2.1190   -27.1570 
  110.1250    69.3040    23.7390     5.6770     6.1370     7.2750     2.1190   -27.1110 
  110.2500    70.3990    23.7660     5.8290     6.2480     7.3670     2.1230   -27.0990 
  110.3750    70.1020    23.7530     6.0830     6.3290     7.4290     2.1280   -27.0550 
  110.5000    69.1190    23.6680     6.4280     6.3970     7.4830     2.1350   -26.9860 
  110.6250    68.2230    23.5900     6.8280     6.4630     7.5320     2.1420   -26.8640 
  110.7500    67.6880    23.6740     7.0770     6.5260     7.5680     2.1470   -26.6690 
  110.8750    68.2670    23.9540     7.1480     6.5750     7.5830     2.1480   -26.4420 
  111.0000    70.2320    24.3030     7.2290     6.6010     7.5780     2.1440   -26.1690 
  111.1250    72.7730    24.5200     7.2950     6.5990     7.5570     2.1400   -25.9230 
  111.2500    74.8000    24.5830     7.1270     6.5870     7.5270     2.1390   -25.6260 
  111.3750    73.9160    24.5570     6.7180     6.5660     7.4730     2.1410   -25.3010 
  111.5000    69.9600    24.5190     6.3390     6.5120     7.3550     2.1460   -24.9370 
  111.6250    68.0650    24.4990     6.1410     6.3550     7.0970     2.1560   -24.6030 
  111.7500    71.8460    24.4940     6.0990     6.0730     6.7010     2.1710   -24.2410 
  111.8750    77.9620    24.5520     5.9890     5.6860     6.2130     2.1910   -23.9170 
  112.0000    82.6410    24.7430     5.5300     5.2620     5.7250     2.2130   -23.5830 
  112.1250    86.9330    25.0620     4.9970     4.9070     5.3600     2.2280   -23.3250 
  112.2500    92.5010    25.3380     4.8760     4.6740     5.1540     2.2340   -23.1070 
  112.3750    97.7710    25.4720     5.0970     4.5690     5.0880     2.2330   -22.9800 
  112.5000    99.8630    25.4880     5.3550     4.5610     5.1060     2.2290   -22.8630 
  112.6250    98.5270    25.4720     5.6540     4.6020     5.1380     2.2310   -22.8160 
  112.7500    96.7590    25.4670     5.5690     4.6400     5.1390     2.2360   -22.8410 
  112.8750    95.4950    25.4690     5.1690     4.6560     5.1140     2.2420   -22.8990 
  113.0000    95.0730    25.4560     4.9180     4.6570     5.0920     2.2450   -23.0400 
  113.1250    96.1640    25.4130     5.0760     4.6600     5.1060     2.2450   -23.1310 
  113.2500    99.6310    25.3700     5.4100     4.6660     5.1400     2.2440   -23.2200 
  113.3750   103.5380    25.3630     5.6010     4.6560     5.1550     2.2440   -23.2620 
  113.5000   103.6420    25.3960     5.4590     4.6020     5.1090     2.2460   -23.3810 
  113.6250    98.9580    25.4350     5.3060     4.4770     4.9770     2.2490   -23.4680 
  113.7500    93.8390    25.4440     5.2530     4.3080     4.8110     2.2530   -23.5980 
  113.8750    91.3510    25.4180     5.1280     4.1560     4.7000     2.2600   -23.7140 
  114.0000    90.6750    25.3760     4.9400     4.1190     4.7730     2.2730   -23.8330 
  114.1250    88.7680    25.3400     5.1410     4.3720     5.2700     2.2980   -23.9210 
  114.2500    86.9440    25.3120     5.8690     5.0170     6.3190     2.3390   -24.0490 
  114.3750    86.0320    25.2880     7.5000     6.1750     8.0210     2.3960   -24.2000 
  114.5000    84.1480    25.2710    12.0690     7.8960    10.2730     2.4600   -24.3630 
  114.6250    79.8380    25.2600    17.8840     9.9280    12.4490     2.5080   -24.5200 
  114.7500    75.3110    25.2420    19.4830    11.3610    13.4960     2.5190   -24.6840 
  114.8750    74.2080    25.2130    15.4070    11.3710    12.7740     2.4900   -24.8150 
  115.0000    77.1740    25.1770    10.0450     9.9630    10.6260     2.4340   -24.9670 
  115.1250    82.7170    25.1400     7.5180     7.9970     8.2150     2.3690   -25.1410 
  115.2500    89.3770    25.1180     5.8090     6.3540     6.4500     2.3120   -25.3360 
  115.3750    94.6460    25.1220     5.0010     5.2550     5.4660     2.2660   -25.5320 
  115.5000    96.8930    25.1370     4.8660     4.6680     5.1040     2.2320   -25.7180 
  115.6250    94.5710    25.1120     5.4570     4.5310     5.1910     2.2100   -25.8490 
  115.7500    90.1460    25.0500     5.9940     4.6380     5.4580     2.1930   -25.9830 
  115.8750    86.1900    24.9930     6.0320     4.8640     5.7560     2.1810   -26.0990 
  116.0000    83.6230    24.9720     5.7010     5.1010     5.9810     2.1730   -26.1870 
  116.1250    82.8810    24.9730     5.6880     5.2580     6.0700     2.1670   -26.2440 
