~V
VERS. 2.00: Ver 2.00
~W
STRT.M 55.0000:
STOP.M 271.0000:
STEP.M 0.1250:
NULL. -999.2500:
UWI. DF5016:
~C
DEPT.M :
SP.MV :
GR.API :
CALI.CM :
RXO.OHMM :
RI. :
RML.OHMM :
DEN.GM/CC :
~A
# ...
  178.7500   -36.2950    68.8910    20.6900    50.3010    71.5360    74.6020     2.2080 
  178.8750   -36.1740    68.7970    21.5890    58.9660    77.1280    80.4020     2.2020 
  179.0000   -36.0530    68.4530    22.2420    64.4350    82.6790    86.1580     2.1970 
  179.1250   -35.9120    67.4530    22.5920    70.2020    85.4010    88.9810     2.1890 
  179.2500   -35.7640    66.6650    22.7630    83.4740    83.8560    87.3790     2.1780 
  179.3750   -35.6280    66.6440    22.8520   100.5770    77.7520    81.0490     2.1720 
  179.5000   -35.5100    67.9370    22.8700   111.5120    68.3330    71.2820     2.1800 
  179.6250   -35.3980    72.1130    22.8100   103.7710    58.1550    60.7260     2.2030 
  179.7500   -35.2790    78.4560    22.8040    80.7780    49.8730    52.1390     2.2280 
  179.8750   -35.1590    84.1150    22.8660    52.8020    44.8950    46.9760     2.2460 
  180.0000   -35.0620    86.2240    22.9380    32.9780    43.8210    45.8620     2.2560 
  180.1250   -35.0120    83.8080    22.9230    29.2430    46.9710    49.1290     2.2620 
  180.2500   -34.9910    79.3360    22.8450    37.7500    52.6800    55.0500     2.2620 
  180.3750   -34.9750    75.0320    22.7680    57.4760    59.5230    62.1450     2.2510 
  180.5000   -34.9470    72.4660    22.7510    84.3920    65.7050    68.5560     2.2280 
  180.6250   -34.9140    71.9700    22.8480   104.9410    68.8160    71.7820     2.2090 
  180.7500   -34.8940    72.6230    23.0530   106.6270    68.5210    71.4770     2.2040 
  180.8750   -34.8850    74.1420    23.2560    91.0600    65.7640    68.6170     2.2120 
  181.0000   -34.8640    76.2360    23.2750    69.4370    62.4750    65.2060     2.2280 
  181.1250   -34.8070    78.0470    23.2180    54.4060    61.1270    63.8090     2.2500 
  181.2500   -34.7240    78.5260    23.2760    48.2270    62.7790    65.5220     2.2660 
  181.3750   -34.6400    77.5130    23.4340    50.4340    67.5850    70.5050     2.2640 
  181.5000   -34.5700    75.8340    23.5100    60.3020    74.8860    78.0770     2.2420 
  181.6250   -34.5120    74.0400    23.4370    77.6500    83.2280    86.7280     2.2170 
  181.7500   -34.4450    71.5830    23.3000    97.6760    90.3680    94.1320     2.2040 
  181.8750   -34.3690    69.4390    23.1270   113.4040    94.7010    98.6250     2.2040 
  182.0000   -34.3060    70.2120    22.9840   116.7380    95.5940    99.5510     2.2140 
  182.1250   -34.2980    74.4280    22.9570   105.6820    93.3850    97.2600     2.2290 
  182.2500   -34.3520    78.0320    23.0160    91.5280    90.3100    94.0720     2.2440 
  182.3750   -34.4600    79.0990    23.1270    82.1270    87.9510    91.6250     2.2540 
  182.5000   -34.6070    78.7340    23.3080    79.6860    87.3800    91.0330     2.2560 
  182.6250   -34.7980    77.8870    23.5260    83.1410    89.4010    93.1290     2.2520 
  182.7500   -35.0430    75.9580    23.6860    89.9180    93.5820    97.4640     2.2490 
  182.8750   -35.3500    73.2400    23.8440    99.1670    99.6990   103.8080     2.2510 
  183.0000   -35.7070    71.2910    24.0400   108.4670   107.5270   111.9260     2.2560 
  183.1250   -36.0850    71.2360    24.2480   113.2410   117.2070   121.9640     2.2570 
  183.2500   -36.4610    71.4220    24.3730   114.3610   128.1050   133.2650     2.2540 
  183.3750   -36.8400    70.1960    24.4240   116.4240   139.2070   144.7770     2.2500 
  183.5000   -37.2340    67.3400    24.4730   128.3970   148.7550   154.6790     2.2440 
  183.6250   -37.6380    65.0390    24.5080   163.1150   153.6740   159.7800     2.2290 
  183.7500   -38.0220    65.2340    24.4980   206.8550   152.5630   158.6280     2.2090 
  183.8750   -38.3620    67.4920    24.4850   234.8070   144.9840   150.7680     2.1940 
  184.0000   -38.6530    69.5480    24.4860   227.8500   132.3730   137.6910     2.1900 
  184.1250   -38.9030    69.1800    24.4420   184.6300   117.9060   122.6890     2.1970 
  184.2500   -39.1260    67.7480    24.3570   134.1830   105.5630   109.8890     2.2080 
  184.3750   -39.3110    67.3340    24.2850    95.8830    97.8370   101.8770     2.2210 
  184.5000   -39.4410    68.4160    24.2430    77.3160    96.2240   100.2040     2.2360 
  184.6250   -39.5160    69.2000    24.2150    76.7290   102.4290   106.6390     2.2560 
  184.7500   -39.5710    68.8210    24.2030    92.5810   114.9270   119.5990     2.2720 
  184.8750   -39.6290    68.3610    24.2310   128.2060   132.4240   137.7440     2.2700 
  185.0000   -39.6940    68.4890    24.2910   179.8270   152.5720   158.6370     2.2440 
  185.1250   -39.7500    68.3920    24.3690   227.3130   171.4310   178.1940     2.2050 
  185.2500   -39.7900    67.3680    24.4330   247.2980   185.5770   192.8630     2.1760 
  185.3750   -39.8230    65.5310    24.4860   240.6650   193.1410   200.7070     2.1680 
  185.5000   -39.8640    63.3910    24.4880   222.8420   194.0980   201.6990     2.1780 
  185.6250   -39.9130    61.7570    24.4460   210.6430   189.7520   197.1930     2.1910 
  185.7500   -39.9430    61.7840    24.4000   200.2960   183.6310   190.8450     2.1930 
  185.8750   -39.9340    64.3500    24.3180   192.0210   177.5040   184.4920     2.1850 
  186.0000   -39.8860    68.9410    24.2010   187.5950   172.1150   178.9030     2.1750 
  186.1250   -39.8160    72.6140    24.0220   184.3080   167.5930   174.2140     2.1790 
  186.2500   -39.7430    73.2420    23.8320   177.3450   163.8050   170.2860     2.1970 
  186.3750   -39.6570    71.9090    23.7700   165.8740   161.0810   167.4600     2.2150 
  186.5000   -39.5420    70.7920    23.9940   154.3350   159.8450   166.1790     2.2210 
  186.6250   -39.3990    69.6220    24.3020   152.8130   160.7170   167.0830     2.2100 
  186.7500   -39.2600    67.1470    24.4720   161.9660   163.2550   169.7160     2.1820 
  186.8750   -39.1520    64.3240    24.5120   178.1700   166.9110   173.5070     2.1330 
  187.0000   -39.0750    63.0200    24.5170   194.2200   170.7340   177.4710     2.0790 
  187.1250   -39.0070    63.6250    24.5370   200.1540   173.0900   179.9140     2.0500 
  187.2500   -38.9320    65.1880    24.5500   194.4980   173.1560   179.9830     2.0530 
  187.3750   -38.8610    67.1540    24.5530   182.2160   170.7360   177.4730     2.0670 
  187.5000   -38.8160    68.3580    24.5620   171.0930   166.2820   172.8540     2.0810 
  187.6250   -38.8140    67.8390    24.5240   167.9290   160.5770   166.9390     2.0980 
  187.7500   -38.8340    67.4310    24.4640   165.8210   154.8500   160.9990     2.1220 
  187.8750   -38.8590    68.6160    24.4280   158.1490   149.9200   155.8870     2.1460 
  188.0000   -38.8930    70.9570    24.4490   146.9030   146.3270   152.1610     2.1640 
  188.1250   -38.9700    72.6960    24.4300   139.2580   144.6520   150.4240     2.1750 
  188.2500   -39.1090    73.6810    24.3770   134.0180   144.7340   150.5100     2.1810 
  188.3750   -39.3020    74.3280    24.3790   126.8920   146.4460   152.2840     2.1830 
  188.5000   -39.5240    74.4290    24.4530   120.9980   149.5980   155.5530     2.1780 
  188.6250   -39.7460    73.3220    24.5050   121.8160   153.9870   160.1050     2.1730 
  188.7500   -39.9680    71.7730    24.5500   128.5930   158.7340   165.0270     2.1770 
  188.8750   -40.2000    70.8940    24.6130   139.9970   162.9740   169.4240     2.1850 
  189.0000   -40.4390    71.2060    24.6810   153.4220   165.9500   172.5110     2.1850 
  189.1250   -40.6530    71.8380    24.6470   161.5790   166.8620   173.4560     2.1770 
  189.2500   -40.8130    71.5190    24.5850   161.3220   165.8970   172.4550     2.1760 
  189.3750   -40.9190    70.0860    24.4770   156.0320   163.2530   169.7140     2.1830 
  189.5000   -40.9930    68.6200    24.3200   151.0030   159.2130   165.5240     2.1910 
  189.6250   -41.0590    68.0120    24.2000   146.4960   153.9360   160.0520     2.1950 
  189.7500   -41.1190    67.5340    24.0910   141.7540   147.8430   153.7340     2.2010 
  189.8750   -41.1570    66.5220    23.8940   141.6410   141.1470   146.7890     2.2080 
