~V
VERS. 2.00: Ver 2.00
~W
STRT.M 58.0000:
STOP.M 250.0000:
STEP.M 0.1250:
NULL. -999.2500:
UWI. DF5046:
~C
DEPT.M :
GR.API :
CALI.CM :
RXO.OHMM :
RI. :
RML.OHMM :
DEN.GM/CC :
SP.MV :
~A
# ...
  170.5000    59.5630    24.5980    69.4110    68.2310    72.0320     2.2330   -32.8940 
  170.6250    59.5460    24.6630    92.2230    86.3660    91.5590     2.2190   -33.1740 
  170.7500    59.8880    24.6330   127.5850   108.8930   115.8600     2.2220   -33.3020 
  170.8750    60.3590    24.6860   160.8540   133.9810   143.3960     2.2290   -33.2660 
  171.0000    60.1280    24.8660   182.0300   159.9220   172.5460     2.2240   -33.0640 
  171.1250    58.2520    25.0120   210.1220   186.0930   202.5650     2.2010   -32.7080 
  171.2500    55.6290    25.0610   263.1820   212.8760   233.4690     2.1760   -32.2680 
  171.3750    54.6170    25.0650   325.7750   240.7560   265.8320     2.1600   -31.7470 
  171.5000    55.1780    25.0760   369.0510   269.2040   299.3570     2.1580   -31.1730 
  171.6250    54.2900    25.0760   382.0930   294.5980   329.5510     2.1650   -30.5940 
  171.7500    52.5000    25.0610   384.7780   312.0880   349.3460     2.1730   -30.0270 
  171.8750    50.4710    25.0780   380.2620   316.2880   351.0610     2.1780   -29.5100 
  172.0000    49.1480    25.1640   370.3000   302.4640   328.6320     2.1800   -29.0630 
  172.1250    50.1800    25.2770   356.4020   265.4690   277.9130     2.1820   -28.6880 
  172.2500    53.2770    25.3140   314.4890   214.1440   214.5220     2.1900   -28.3550 
  172.3750    56.5790    25.2480   235.6830   159.6200   154.2170     2.2060   -28.0780 
  172.5000    58.6040    25.1480   148.4180   112.6650   107.3210     2.2330   -27.8430 
  172.6250    64.3480    25.1000    88.7520    80.9190    78.1430     2.2680   -27.6630 
  172.7500    73.3360    25.0930    54.4030    61.5900    61.2130     2.3020   -27.5470 
  172.8750    77.7660    25.0980    38.4200    52.3410    53.8570     2.3240   -27.4910 
  173.0000    72.2860    25.0940    36.0950    51.5810    54.6330     2.3240   -27.4830 
  173.1250    62.7030    25.0920    54.7580    61.0790    65.0980     2.2950   -27.5070 
  173.2500    58.5250    25.1150   120.0640    81.0500    85.3940     2.2500   -27.5350 
  173.3750    58.5480    25.1550   261.3330   111.0900   115.9010     2.2070   -27.5530 
  173.5000    58.8120    25.1510   369.0680   143.7220   149.8980     2.1760   -27.5560 
  173.6250    58.7570    25.1020   329.2690   156.9820   161.7550     2.1670   -27.4950 
  173.7500    59.8590    25.0880   217.9770   143.2710   143.5140     2.1760   -27.3330 
  173.8750    64.4320    25.1040   137.2860   115.0730   113.3260     2.1940   -27.0570 
  174.0000    71.6690    25.0670    82.7820    88.7830    88.5800     2.2150   -26.6840 
  174.1250    75.6720    24.9220    58.0310    72.8550    74.7130     2.2360   -26.2490 
  174.2500    73.8590    24.7640    54.1500    63.9810    66.9960     2.2530   -25.8210 
  174.3750    69.9540    24.6780    62.5870    58.4990    61.9250     2.2590   -25.4240 
  174.5000    68.6610    24.7030    71.3490    53.5960    56.9160     2.2580   -25.0920 
  174.6250    71.5290    24.8030    64.6690    48.1120    50.9850     2.2700   -24.8230 
  174.7500    77.8770    24.9040    46.5050    42.8680    45.3680     2.2980   -24.5950 
  174.8750    84.0790    24.9880    30.2840    39.1470    41.7140     2.3220   -24.4120 
  175.0000    84.1960    25.0450    25.4590    38.1050    41.3900     2.3210   -24.2560 
  175.1250    77.2340    25.0630    36.2450    41.2380    45.9410     2.2890   -24.1260 
  175.2500    70.3700    25.0650    56.3250    48.2930    54.8140     2.2540   -24.0300 
  175.3750    67.3110    25.0660    77.1550    58.6480    67.1860     2.2370   -23.9250 
  175.5000    66.6330    25.0660    92.6700    70.1690    80.6080     2.2410   -23.8050 
  175.6250    66.5270    25.0620   100.3960    78.3600    89.7960     2.2530   -23.6920 
  175.7500    65.7810    25.0670    97.8860    81.0040    92.2650     2.2620   -23.5940 
  175.8750    63.6340    25.0900    85.3080    79.0170    89.4380     2.2690   -23.5240 
  176.0000    62.7200    25.1130    70.5000    74.9710    84.5810     2.2750   -23.4810 
  176.1250    63.1570    25.1050    64.8570    71.0030    80.0440     2.2710   -23.4800 
  176.2500    63.5150    25.0820    69.7390    67.5530    76.0200     2.2620   -23.5090 
  176.3750    64.8060    25.0560    79.3100    64.1990    71.9410     2.2550   -23.5610 
  176.5000    66.4830    25.0350    83.5230    60.5980    67.5020     2.2540   -23.6400 
  176.6250    66.3130    25.0170    75.2250    57.0700    63.2990     2.2570   -23.7250 
  176.7500    64.5530    25.0010    61.6710    54.4950    60.4650     2.2650   -23.8200 
  176.8750    63.8170    24.9800    51.6140    53.7100    59.9110     2.2790   -23.9280 
  177.0000    64.6130    24.9620    51.0380    54.9770    61.6740     2.2920   -24.0550 
  177.1250    66.9720    24.9810    62.8990    56.9770    63.7910     2.2870   -24.1930 
  177.2500    69.3240    25.0280    79.6020    56.7070    62.7080     2.2640   -24.3570 
  177.3750    70.2330    25.0600    88.6420    52.4130    56.7350     2.2370   -24.5660 
  177.5000    71.2630    25.0400    76.4910    45.0230    47.5780     2.2240   -24.7930 
  177.6250    73.5490    25.0150    47.8990    37.7940    39.4760     2.2340   -25.0220 
  177.7500    73.7740    25.0710    27.3470    33.3010    35.1060     2.2550   -25.2560 
  177.8750    70.6900    25.1710    25.0320    32.5210    35.3000     2.2730   -25.5050 
  178.0000    68.2380    25.2160    40.5980    35.7750    40.1460     2.2780   -25.7810 
  178.1250    68.1880    25.1750    66.6070    43.6740    50.0100     2.2690   -26.0920 
  178.2500    67.5490    25.1350    84.4410    54.5410    62.7860     2.2560   -26.4000 
  178.3750    66.1540    25.1160    89.4010    65.7470    75.3860     2.2480   -26.7310 
  178.5000    65.3680    25.0720    87.6460    73.7090    83.7840     2.2440   -27.0920 
  178.6250    65.0400    25.0170    81.5740    75.8310    85.5110     2.2400   -27.5230 
  178.7500    64.5270    24.9990    73.6670    74.9150    84.4300     2.2350   -27.9980 
  178.8750    64.2200    25.0240    70.4310    73.7150    83.8220     2.2320   -28.4700 
  179.0000    63.1440    25.0650    77.5400    74.1070    85.5730     2.2360   -28.8980 
  179.1250    61.1190    25.1200    94.1820    77.3450    90.9060     2.2430   -29.2560 
  179.2500    61.3530    25.1810   109.9640    82.9540    99.1700     2.2450   -29.5600 
  179.3750    63.6710    25.2020   122.5550    90.4090   109.7590     2.2390   -29.7810 
  179.5000    64.3590    25.1790   136.3090    99.0120   121.7420     2.2300   -29.9170 
  179.6250    63.8210    25.1250   146.2620   107.9760   133.8500     2.2260   -29.9670 
  179.7500    65.8660    25.0210   144.0660   116.4400   144.7910     2.2360   -29.9630 
  179.8750    67.6240    24.8520   135.0130   123.5640   153.4330     2.2740   -29.9400 
  180.0000    64.1960    24.6510   131.9730   128.3160   158.6000     2.3390   -29.9350 
  180.1250    58.3330    24.5280   138.7130   129.5590   159.2700     2.4020   -29.9120 
  180.2500    57.8920    24.5420   141.3760   128.6070   157.6110     2.4250   -29.8530 
  180.3750    62.5060    24.6710   132.3950   127.1410   155.8930     2.4100   -29.7700 
  180.5000    65.8880    24.7820   119.1590   126.8240   156.0400     2.3910   -29.6610 
  180.6250    66.3800    24.7300   123.0040   129.3180   159.8070     2.3880   -29.5160 
  180.7500    66.4850    24.6240   148.0650   134.5190   166.7480     2.3810   -29.3190 
  180.8750    65.5690    24.5670   175.7050   141.6180   175.6840     2.3480   -29.0540 
  181.0000    61.0680    24.5300   183.9620   148.9330   184.4110     2.2920   -28.6910 
  181.1250    56.5440    24.4090   174.2450   153.8370   189.5040     2.2390   -28.2580 
  181.2500    56.8600    24.2390   168.1190   155.1230   189.6810     2.2100   -27.8180 
  181.3750    59.5470    24.1100   165.2850   152.6140   184.9660     2.2080   -27.3610 
  181.5000    60.8090    24.0430   156.1320   146.7570   176.0880     2.2180   -26.9340 
  181.6250    60.2970    24.0030   139.5110   137.8780   163.7130     2.2210   -26.5420 
