~V
VERS. 2.00: Ver 2.00
~W
STRT.M 50.0000:
STOP.M 258.0000:
STEP.M 0.1250:
NULL. -999.2500:
UWI. DF5038:
~C
DEPT.M :
GR.API :
CALI.CM :
RXO.OHMM :
RI. :
RML.OHMM :
DEN.GM/CC :
SP.MV :
~A
# ...
   72.5000    75.1860    25.4510     7.5440     7.2090     8.0890     2.1350   -41.0100 
   72.6250    74.4840    25.4510     7.2800     7.1130     8.0070     2.1190   -40.8960 
   72.7500    72.7130    25.4510     7.1350     7.0520     7.9740     2.1280   -40.8460 
   72.8750    70.9490    25.4510     6.9950     7.0230     7.9760     2.1670   -40.7080 
   73.0000    70.0340    25.4510     6.9380     7.0080     7.9840     2.2150   -40.5410 
   73.1250    70.0060    25.4510     7.0590     6.9980     7.9870     2.2320   -40.3010 
   73.2500    71.1270    25.4510     7.3020     7.0240     8.0420     2.2170   -40.1720 
   73.3750    73.9450    25.4500     7.5440     7.1420     8.2290     2.1960   -39.9500 
   73.5000    76.2290    25.4470     7.7010     7.3910     8.5870     2.2030   -39.7720 
   73.6250    74.8330    25.4510     8.1630     7.7500     9.0680     2.2580   -39.6270 
   73.7500    72.5050    25.4700    10.6760     8.0890     9.4840     2.3180   -39.3940 
   73.8750    72.3710    25.4980    15.6960     8.2630     9.6510     2.3350   -39.2060 
   74.0000    73.2450    25.5200    18.2060     8.1710     9.4610     2.2910   -39.0830 
   74.1250    72.1000    25.5250    14.2170     7.8170     8.9690     2.2150   -39.1040 
   74.2500    71.6740    25.5240    10.0660     7.4000     8.4540     2.1610   -39.1100 
   74.3750    72.9750    25.5210     8.6780     7.0600     8.0970     2.1410   -39.1300 
   74.5000    74.7560    25.5360     8.3830     6.8790     7.9790     2.1450   -39.1440 
   74.6250    74.7890    25.5990     8.2270     6.8940     8.0990     2.1620   -39.1820 
   74.7500    71.3490    25.6990     8.2040     7.0040     8.2890     2.1820   -39.2810 
   74.8750    66.2610    25.8040     8.7060     7.1200     8.4280     2.1880   -39.4170 
   75.0000    64.0870    25.8770     9.5300     7.1790     8.4490     2.1680   -39.5460 
   75.1250    66.8990    25.9430     9.3990     7.1540     8.3400     2.1370   -39.5980 
   75.2500    69.7160    26.0750     8.5440     7.0780     8.1720     2.1230   -39.5950 
   75.3750    69.0470    26.2650     8.0260     6.9890     8.0000     2.1300   -39.5690 
   75.5000    67.3440    26.4270     7.9430     6.9220     7.8680     2.1400   -39.5520 
   75.6250    67.5080    26.4790     7.9190     6.9040     7.8090     2.1280   -39.3940 
   75.7500    68.1210    26.4800     7.7880     6.9280     7.8090     2.1050   -39.2630 
   75.8750    65.6640    26.4840     7.5770     6.9790     7.8480     2.0850   -39.1130 
   76.0000    60.1100    26.4480     7.3110     7.0390     7.8990     2.0780   -38.8020 
   76.1250    57.7200    26.3070     7.0690     7.0840     7.9270     2.0860   -38.3890 
   76.2500    59.9890    26.1070     6.9010     7.0900     7.8980     2.1070   -37.9480 
   76.3750    63.1180    25.9230     6.7640     7.0280     7.7840     2.1360   -37.3790 
   76.5000    65.2180    25.7650     6.6570     6.8770     7.5710     2.1690   -36.8010 
   76.6250    68.1260    25.5510     6.7440     6.6250     7.2660     2.1950   -36.2430 
   76.7500    72.5960    25.3090     6.8250     6.3240     6.9340     2.2150   -35.6640 
   76.8750    77.0970    25.1350     6.6250     6.0300     6.6410     2.2360   -35.0840 
   77.0000    80.6970    25.0740     6.3170     5.8040     6.4510     2.2600   -34.5380 
   77.1250    84.1400    25.0820     6.2640     5.7070     6.4350     2.2730   -34.1690 
   77.2500    87.7510    25.0850     6.2350     5.7300     6.5710     2.2680   -33.8730 
   77.3750    90.8040    25.0850     6.5310     5.8450     6.8150     2.2490   -33.7380 
   77.5000    91.1200    25.0850     7.1060     5.9980     7.0840     2.2290   -33.5810 
   77.6250    88.5340    25.0850     7.4700     6.1010     7.2480     2.2140   -33.6110 
   77.7500    84.5370    25.0850     7.4320     6.1090     7.2560     2.2010   -33.6870 
   77.8750    81.7930    25.0850     7.2530     6.0400     7.1490     2.1890   -33.6490 
   78.0000    81.7420    25.0850     7.0620     5.9680     7.0440     2.1880   -33.7760 
   78.1250    81.7120    25.0810     7.0500     6.0210     7.1360     2.2090   -33.8460 
   78.2500    78.9070    25.1070     7.5540     6.3130     7.5960     2.2420   -33.8250 
   78.3750    74.3280    25.2090     9.8460     6.9850     8.6210     2.2740   -33.8580 
   78.5000    71.5860    25.3680    16.3240     8.1610    10.3270     2.3070   -33.8310 
   78.6250    72.2430    25.4870    24.6830     9.9030    12.6170     2.3580   -33.6450 
   78.7500    71.6790    25.5270    29.2530    11.7720    14.7840     2.4140   -33.4710 
   78.8750    68.3840    25.5260    28.8400    13.1600    16.0490     2.4340   -33.2920 
   79.0000    65.1040    25.5240    24.9910    13.5240    15.9140     2.3910   -33.0320 
   79.1250    66.0230    25.5240    18.1950    12.7150    14.4700     2.3210   -32.8030 
   79.2500    69.1040    25.5240    12.1000    11.4270    12.6770     2.2970   -32.4610 
   79.3750    70.5790    25.5250    10.1920    10.0780    11.0350     2.3160   -31.9640 
   79.5000    70.6970    25.5250    11.0610     8.8630     9.7010     2.3410   -31.5550 
   79.6250    74.8500    25.5100    10.4320     7.8530     8.6620     2.3780   -31.1980 
   79.7500    82.7680    25.4800     8.0640     7.0040     7.7850     2.3700   -30.9000 
   79.8750    90.5010    25.4520     6.2270     6.3070     7.0390     2.3270   -30.7200 
   80.0000    93.5820    25.4400     5.9540     5.7750     6.4520     2.2800   -30.4880 
   80.1250    93.0810    25.4410     6.2990     5.4800     6.1390     2.2490   -30.3050 
   80.2500    90.9950    25.4420     6.3900     5.4340     6.1150     2.2250   -30.2770 
   80.3750    87.5320    25.4420     6.3830     5.6430     6.3610     2.2050   -30.3370 
   80.5000    83.5580    25.4420     6.7610     6.0440     6.7830     2.1980   -30.4210 
   80.6250    80.7740    25.4420     7.1590     6.5040     7.2140     2.2180   -30.4650 
   80.7500    80.0810    25.4420     7.2720     6.8310     7.4670     2.2600   -30.4300 
   80.8750    80.2210    25.4420     7.5010     6.8870     7.4120     2.3040   -30.3540 
   81.0000    81.4850    25.4420     7.3650     6.6060     7.0010     2.3290   -30.3840 
   81.1250    85.4250    25.4420     6.5160     6.0300     6.3140     2.3270   -30.2670 
   81.2500    92.2450    25.4420     5.5790     5.3870     5.6060     2.3160   -30.2440 
   81.3750    99.5710    25.4420     4.9550     4.8130     5.0230     2.3120   -30.2530 
   81.5000   102.9540    25.4420     4.6590     4.3760     4.6290     2.3150   -30.2680 
   81.6250   103.2020    25.4420     4.6340     4.1370     4.4690     2.3120   -30.4770 
   81.7500   103.3340    25.4470     4.6620     4.0680     4.4920     2.2990   -30.7230 
   81.8750   103.1570    25.4320     4.6530     4.1550     4.6710     2.2860   -31.1190 
   82.0000   101.3780    25.3360     4.7420     4.3740     4.9780     2.2810   -31.4940 
   82.1250    98.5880    25.1080     5.1870     4.7030     5.3920     2.2860   -31.9870 
   82.2500    97.3060    24.8210     6.0550     5.0710     5.8290     2.2820   -32.5430 
   82.3750    96.0140    24.5620     6.4800     5.4120     6.2070     2.2630   -33.0640 
   82.5000    91.6090    24.3930     6.1490     5.6730     6.4670     2.2310   -33.6540 
   82.6250    85.4410    24.3400     6.2040     5.8170     6.5870     2.1990   -34.1340 
   82.7500    82.1240    24.3230     6.6480     5.8890     6.6470     2.1760   -34.4890 
   82.8750    81.4930    24.2570     6.9720     5.9420     6.7230     2.1670   -34.8170 
   83.0000    81.4590    24.1290     6.9380     6.0220     6.8700     2.1700   -35.1730 
   83.1250    81.0420    24.0170     7.0550     6.1560     7.1000     2.1750   -35.5040 
   83.2500    80.5990    23.9700     7.4470     6.3130     7.3510     2.1730   -35.7890 
   83.3750    77.8400    23.9670     7.6740     6.4510     7.5580     2.1700   -36.0460 
   83.5000    74.4040    23.9620     7.7320     6.5320     7.6750     2.1750   -36.3260 
   83.6250    74.8180    23.9730     7.6360     6.5310     7.6760     2.1880   -36.5560 
