~V
VERS. 2.00: Ver 2.00
~W
STRT.M 55.0000:
STOP.M 270.0000:
STEP.M 0.1250:
NULL. -999.2500:
UWI. DF5017:
~C
DEPT.M :
SP.MV :
GR.API :
CALI.CM :
RXO.OHMM :
RI. :
RML.OHMM :
DEN.GM/CC :
~A
# ...
  212.5000   -30.0180    69.8160    23.9750    88.9140    92.8610    95.6670     2.1370 
  212.6250   -30.4920    66.7370    24.0610   127.4410   106.7290   111.2960     2.1260 
  212.7500   -30.9850    68.6350    24.1550   175.4540   126.8150   133.0250     2.1310 
  212.8750   -31.4780    71.3740    24.1800   205.8220   150.8300   158.0290     2.1420 
  213.0000   -31.9640    71.2630    24.1410   211.2900   173.3520   181.5210     2.1530 
  213.1250   -32.4630    68.0400    24.0990   212.2750   186.8860   197.8930     2.1650 
  213.2500   -32.9550    65.8880    24.2640   222.0030   192.5100   207.8710     2.1710 
  213.3750   -33.4200    66.3830    24.3550   232.8040   193.9860   214.0160     2.1630 
  213.5000   -33.8430    66.9350    24.3540   235.6050   193.2580   217.7280     2.1470 
  213.6250   -34.2350    66.6910    24.3260   236.7110   188.7300   217.0310     2.1430 
  213.7500   -34.5530    67.3030    24.2840   243.9240   180.2430   211.0310     2.1660 
  213.8750   -34.8310    69.3160    24.2510   237.1030   169.6660   200.7790     2.2040 
  214.0000   -35.1120    70.7690    24.2100   205.3230   160.3130   189.5300     2.2340 
  214.1250   -35.4070    69.9960    24.1100   176.3980   156.2290   182.2450     2.2350 
  214.2500   -35.6970    68.0620    24.0020   175.2570   158.4770   181.4570     2.2140 
  214.3750   -35.9730    66.5940    24.0060   200.4460   167.4220   188.0480     2.1840 
  214.5000   -36.2100    68.5930    23.9460   235.1110   182.3420   201.2690     2.1630 
  214.6250   -36.4000    71.4150    23.9850   262.6350   200.9870   218.9670     2.1690 
  214.7500   -36.5690    71.2150    24.0820   270.1420   218.0510   236.1620     2.1970 
  214.8750   -36.7430    67.9300    24.1600   271.1590   229.4070   249.3670     2.2260 
  215.0000   -36.8740    63.7640    24.2220   282.6410   233.5260   257.4020     2.2260 
  215.1250   -36.9080    60.5850    24.2650   291.6220   232.3350   261.5120     2.1850 
  215.2500   -36.8620    59.2200    24.1540   281.2290   231.1990   264.7170     2.1400 
  215.3750   -36.7750    60.1680    24.0140   265.3040   232.7910   267.7560     2.1190 
  215.5000   -36.6730    61.2320    23.9060   268.6700   237.3330   269.7840     2.1240 
  215.6250   -36.5210    61.7130    23.8790   288.8030   241.8750   268.2570     2.1290 
  215.7500   -36.3530    63.5000    23.8650   301.0390   241.7590   262.0290     2.1280 
  215.8750   -36.1530    67.1690    23.8340   286.5780   234.2600   250.9120     2.1280 
  216.0000   -35.8990    69.6910    23.7460   250.8280   220.1630   235.9220     2.1340 
  216.1250   -35.5810    69.0560    23.6670   219.9150   203.0380   219.0090     2.1390 
  216.2500   -35.2520    67.4940    23.6740   205.8820   186.7810   202.9030     2.1470 
  216.3750   -34.8900    65.6440    23.5950   195.5710   172.6950   189.0680     2.1650 
  216.5000   -34.5080    63.9910    23.5680   178.6390   160.9100   177.9190     2.1900 
  216.6250   -34.1110    62.8430    23.6510   161.2830   151.1970   169.4180     2.1990 
  216.7500   -33.7060    63.0080    23.8320   153.4700   142.7530   162.5250     2.1880 
  216.8750   -33.2820    65.1980    23.9080   155.1250   135.2490   156.5710     2.1660 
  217.0000   -32.8360    69.6800    23.8980   157.3520   128.4580   150.9250     2.1470 
  217.1250   -32.3760    74.8040    23.8660   154.7000   122.5590   145.3650     2.1380 
  217.2500   -31.8970    77.6670    23.8680   148.7370   117.8940   140.5100     2.1360 
  217.3750   -31.4500    76.4140    23.8680   139.3080   115.1530   137.6040     2.1370 
  217.5000   -31.0190    71.9150    23.8680   128.9810   115.0540   138.0610     2.1420 
  217.6250   -30.5730    67.6580    23.9090   131.2440   118.6360   143.7180     2.1480 
  217.7500   -30.1100    65.4530    24.0070   150.0070   124.8820   153.3860     2.1510 
  217.8750   -29.6090    65.1310    24.1160   176.0060   131.6250   164.2520     2.1550 
  218.0000   -29.1460    66.2770    24.1700   193.6910   134.9810   171.4900     2.1650 
  218.1250   -28.7940    67.7090    24.1780   192.0880   129.9020   168.5670     2.1800 
  218.2500   -28.4840    67.9130    24.1840   170.9740   118.7170   156.4330     2.1910 
  218.3750   -28.1840    66.3050    24.1910   137.5960   106.2090   139.4740     2.1930 
  218.5000   -27.8710    64.2770    24.1930   107.0830    96.4700   123.3590     2.1880 
  218.6250   -27.6100    63.9060    24.1880    94.8620    91.8520   112.7930     2.1800 
  218.7500   -27.4040    65.4860    24.2090    99.2010    90.8730   107.2850     2.1750 
  218.8750   -27.2580    67.6780    24.2700   113.7900    91.7920   105.1890     2.1730 
  219.0000   -27.1820    68.2280    24.3250   125.0540    92.6960   104.6040     2.1690 
  219.1250   -27.1080    67.3290    24.3000   118.3940    92.1220   103.9790     2.1650 
  219.2500   -27.0810    68.7410    24.2920   102.4680    90.5850   102.8660     2.1720 
  219.3750   -27.0760    72.8030    24.3190    91.9710    89.2710   101.9410     2.1940 
  219.5000   -27.1080    74.4620    24.2990    96.5650    89.4650   102.4070     2.2330 
  219.6250   -27.1680    72.2550    24.2980   100.9840    92.4660   105.7060     2.2820 
  219.7500   -27.2580    72.0930    24.2560    97.4510    97.7820   111.4610     2.3200 
  219.8750   -27.3390    74.7670    24.0720    90.3230   104.3600   118.5820     2.3360 
  220.0000   -27.3460    74.1080    23.8970    89.7110   110.3950   125.1240     2.3290 
  220.1250   -27.3080    68.5240    23.8100    84.1690   113.1450   128.1570     2.3040 
  220.2500   -27.2520    66.8760    23.7820    68.7670   111.6880   126.7860     2.2730 
  220.3750   -27.1360    69.5010    23.6760    51.6430   106.1700   121.3320     2.2430 
  220.5000   -27.0660    71.0670    23.5830    44.4510    97.8650   113.1880     2.2240 
  220.6250   -26.9830    69.4550    23.4540    49.2890    88.8500   104.2280     2.2160 
  220.7500   -26.8430    68.8150    23.4290    59.3860    81.1560    96.1910     2.2080 
  220.8750   -26.6710    68.9770    23.5400    69.7340    75.6650    89.8990     2.1950 
  221.0000   -26.5720    67.2240    23.8730    76.6050    72.4490    85.6590     2.1790 
  221.1250   -26.5110    64.6470    23.9030    79.0550    71.1070    83.5360     2.1700 
  221.2500   -26.4590    64.2660    23.9220    80.8120    70.4030    82.6100     2.1730 
  221.3750   -26.4430    67.1790    23.9100    83.7470    69.6470    82.2600     2.1840 
  221.5000   -26.4190    71.9020    23.8860    86.3870    68.5940    82.0240     2.1970 
  221.6250   -26.4570    74.0930    23.8790    84.6640    67.5060    81.8140     2.2030 
  221.7500   -26.5810    71.0850    23.8810    82.1680    66.9220    82.0080     2.1990 
  221.8750   -26.7640    66.1550    23.8820    83.1010    67.2950    83.1320     2.1890 
  222.0000   -26.9250    65.0250    23.8790    88.8250    68.8230    85.5100     2.1770 
  222.1250   -27.0980    68.2090    23.8800    99.3980    71.3900    89.0550     2.1740 
  222.2500   -27.2210    69.2200    23.8820   109.2590    74.2600    92.7860     2.1830 
  222.3750   -27.3040    67.4090    23.8840   113.7950    77.0880    96.0240     2.1930 
  222.5000   -27.3100    66.7740    23.8840   111.2330    80.0380    98.7130     2.1930 
  222.6250   -27.2410    70.4140    23.8880   104.6810    84.0590   101.7510     2.1750 
  222.7500   -27.1150    74.3000    23.8940   101.4080    90.0320   106.3530     2.1540 
  222.8750   -26.9700    74.4770    23.8880   110.2680    98.6830   113.4300     2.1440 
  223.0000   -26.8400    72.1780    23.8690   136.7280   110.0670   123.1690     2.1510 
  223.1250   -26.7100    70.8570    23.8730   155.0020   123.1520   134.6680     2.1710 
  223.2500   -26.6200    70.3360    23.9150   151.5540   135.5070   145.4730     2.1880 
  223.3750   -26.5120    68.5600    23.9260   141.5960   145.3820   153.6850     2.2020 
  223.5000   -26.4310    66.0420    23.9240   153.0570   151.7090   158.4630     2.2160 
  223.6250   -26.3860    65.6680    23.8910   185.2780   154.2040   160.0890     2.2310 
