~V
VERS. 2.00: Ver 2.00
~W
STRT.M 55.0000:
STOP.M 253.0000:
STEP.M 0.1250:
NULL. -999.2500:
UWI. DF5051:
~C
DEPT.M :
SP.MV :
GR.API :
RML.OHMM :
RI. :
RXO.OHMM :
CALI.CM :
DEN.GM/CC :
~A
# ...
  223.7500   -16.5430    76.9410    41.2110    36.7190    40.8790    24.1750     2.3130 
  223.8750   -16.6330    69.7780    46.0740    41.0100    49.3270    24.1550     2.3170 
  224.0000   -16.6900    62.5490    50.6680    45.3510    58.2710    24.1480     2.3180 
  224.1250   -16.7450    60.5340    53.4030    48.3310    64.4500    24.1470     2.3160 
  224.2500   -16.7690    64.0540    53.8470    49.3230    61.2800    24.1360     2.3100 
  224.3750   -16.7290    71.3610    52.3830    48.4540    52.2680    24.1090     2.3040 
  224.5000   -16.6770    77.0270    50.0860    46.5380    46.1420    24.0770     2.3000 
  224.6250   -16.5550    75.3060    48.2500    44.6820    44.2420    24.0450     2.2980 
  224.7500   -16.4180    71.0750    47.4580    43.5670    43.5990    24.0220     2.2950 
  224.8750   -16.2120    69.4850    47.7770    43.3730    43.4370    24.0140     2.2910 
  225.0000   -15.9880    70.6600    49.0860    44.0780    43.9170    24.0120     2.2840 
  225.1250   -15.7410    70.4990    51.4860    45.8140    44.8310    24.0120     2.2780 
  225.2500   -15.4720    69.8660    54.9650    48.5660    46.6140    24.0120     2.2740 
  225.3750   -15.2400    70.4530    59.7100    52.5000    50.0900    24.0120     2.2720 
  225.5000   -14.9620    70.3190    65.7530    57.6630    55.7590    24.0120     2.2710 
  225.6250   -14.6970    67.6400    72.8170    63.8730    64.0450    24.0120     2.2690 
  225.7500   -14.4220    64.1900    79.7420    70.1460    73.6130    24.0120     2.2670 
  225.8750   -14.1340    61.9830    85.2350    75.3900    82.0940    24.0120     2.2640 
  226.0000   -13.8450    62.4430    87.9760    78.4620    87.5530    24.0120     2.2670 
  226.1250   -13.5270    65.7470    86.3940    77.9340    88.0490    24.0120     2.2790 
  226.2500   -13.2050    67.9750    81.1470    74.1820    83.6890    24.0110     2.3020 
  226.3750   -12.8460    65.7730    73.1890    67.8500    75.3190    24.0020     2.3310 
  226.5000   -12.5030    61.3140    63.9990    60.1080    65.9150    23.9810     2.3570 
  226.6250   -12.1760    60.6310    55.3710    52.4970    55.5170    23.9130     2.3670 
  226.7500   -11.8370    64.4660    48.3850    46.1600    44.9760    23.7000     2.3630 
  226.8750   -11.5440    68.7440    43.3110    41.4730    35.1060    23.2990     2.3490 
  227.0000   -11.2640    69.9830    39.8470    38.2540    28.5780    22.9220     2.3360 
  227.1250   -11.0160    68.7500    37.4240    36.0380    26.7150    22.5980     2.3330 
  227.2500   -10.8150    66.5580    35.1610    34.0210    26.6800    22.2730     2.3390 
  227.3750   -10.6230    65.8280    32.6570    31.8070    27.0640    22.0840     2.3470 
  227.5000   -10.4760    67.0060    29.8500    29.2950    26.9600    22.1740     2.3500 
  227.6250   -10.3220    69.0650    27.0410    26.6990    24.7910    22.5680     2.3410 
  227.7500   -10.2140    70.9650    24.6310    24.3820    21.9600    23.0860     2.3250 
  227.8750   -10.1150    71.9100    22.8280    22.5540    20.5200    23.5620     2.3090 
  228.0000   -10.0250    69.9490    21.6420    21.2650    19.5910    23.8200     2.2980 
  228.1250   -10.0120    66.0740    20.9790    20.4840    19.0270    23.8730     2.2930 
  228.2500    -9.9940    67.0880    20.5520    19.9670    18.5830    23.8770     2.2920 
  228.3750   -10.0350    72.5350    20.2250    19.5790    18.2710    23.8770     2.2900 
  228.5000   -10.0980    76.0450    19.9400    19.2450    18.0610    23.8770     2.2890 
  228.6250   -10.1740    74.5030    19.7260    18.9700    18.0930    23.8770     2.2870 
  228.7500   -10.2900    72.1460    19.6520    18.8040    18.1250    23.8720     2.2850 
  228.8750   -10.4290    69.7150    19.8210    18.8430    18.0970    23.8510     2.2830 
  229.0000   -10.5680    66.9440    20.3270    19.1750    18.1760    23.7910     2.2800 
  229.1250   -10.7200    65.3500    21.2530    19.8940    18.7600    23.7270     2.2770 
  229.2500   -10.8940    65.4060    22.4370    20.8770    19.8580    23.6710     2.2740 
  229.3750   -11.0320    66.6690    23.6960    21.9790    21.1900    23.6080     2.2710 
  229.5000   -11.1720    67.2710    24.8210    23.0220    22.5810    23.4730     2.2680 
  229.6250   -11.3170    65.3290    25.6170    23.8220    23.6670    23.3420     2.2630 
  229.7500   -11.4220    62.8490    26.1750    24.4130    23.9130    23.2900     2.2560 
  229.8750   -11.5090    61.5220    26.7030    24.9430    23.8800    23.2880     2.2530 
  230.0000   -11.5810    62.0000    27.4600    25.6280    24.2950    23.2900     2.2530 
  230.1250   -11.6180    64.2890    28.6920    26.6980    24.7750    23.2680     2.2580 
  230.2500   -11.6180    65.9260    30.2360    28.0580    25.8160    23.2220     2.2610 
  230.3750   -11.6220    64.9730    31.7140    29.4100    26.9690    23.1970     2.2610 
  230.5000   -11.5750    62.4190    32.5680    30.2590    27.8430    23.2380     2.2560 
  230.6250   -11.4940    62.0350    32.0210    29.8680    27.8870    23.3680     2.2500 
  230.7500   -11.4130    63.8410    30.1190    28.2080    26.7890    23.4560     2.2490 
  230.8750   -11.3140    66.2190    27.2500    25.5980    24.3400    23.4860     2.2530 
  231.0000   -11.2450    68.3050    24.1340    22.6820    20.6270    23.4830     2.2610 
  231.1250   -11.1690    70.5560    21.7100    20.2880    17.0500    23.5090     2.2710 
  231.2500   -11.1170    71.9780    20.4150    18.8270    15.5930    23.6020     2.2800 
  231.3750   -11.1290    70.1650    20.3680    18.4460    16.6340    23.7940     2.2850 
  231.5000   -11.1660    66.3460    21.4130    19.0920    19.4380    24.0400     2.2860 
  231.6250   -11.2210    63.0530    23.2370    20.6190    22.8850    24.2310     2.2820 
  231.7500   -11.2730    60.6930    25.1620    22.4550    26.4110    24.3140     2.2740 
  231.8750   -11.3160    58.9070    26.7000    24.1390    29.5680    24.3340     2.2640 
  232.0000   -11.3740    57.8210    27.5400    25.2960    30.8180    24.3350     2.2560 
  232.1250   -11.4040    58.4230    27.5740    25.6910    29.8490    24.3350     2.2500 
  232.2500   -11.4010    59.9440    27.2370    25.6350    28.3300    24.3350     2.2460 
  232.3750   -11.3840    62.2590    26.9000    25.4420    27.3470    24.3340     2.2420 
  232.5000   -11.3430    63.1110    26.8470    25.3920    27.1180    24.3330     2.2400 
  232.6250   -11.2900    60.1650    27.2250    25.6620    27.6250    24.3320     2.2400 
  232.7500   -11.2420    56.2830    27.7920    26.0970    29.0570    24.3340     2.2450 
  232.8750   -11.1860    53.9330    28.2070    26.4330    30.5020    24.3340     2.2560 
  233.0000   -11.0990    54.0330    28.1380    26.3740    31.2060    24.3320     2.2730 
  233.1250   -11.0210    57.5840    27.2410    25.6170    30.2440    24.3290     2.2890 
  233.2500   -10.9280    60.7760    25.7550    24.3190    28.2300    24.3270     2.2960 
  233.3750   -10.8120    59.0660    23.9910    22.7390    25.4020    24.3260     2.2920 
  233.5000   -10.7020    54.6020    22.3420    21.2070    22.2980    24.3260     2.2820 
  233.6250   -10.6350    53.9160    21.3410    20.0710    20.6640    24.3260     2.2790 
  233.7500   -10.5740    57.1930    20.8940    19.4000    20.1560    24.3260     2.2870 
  233.8750   -10.5500    60.7770    20.9210    19.1610    20.2040    24.3260     2.3050 
  234.0000   -10.5740    62.2320    21.2710    19.2580    20.5390    24.3260     2.3250 
  234.1250   -10.6290    62.9820    21.8190    19.6080    21.5710    24.3260     2.3350 
  234.2500   -10.7300    64.3680    22.4730    20.1100    23.1040    24.3260     2.3310 
  234.3750   -10.8670    66.8090    23.2890    20.7880    24.6720    24.3260     2.3160 
  234.5000   -11.0380    68.1980    24.4050    21.7420    25.9930    24.3260     2.3000 
  234.6250   -11.1680    67.4930    26.1080    23.2070    27.1220    24.3140     2.2980 
  234.7500   -11.3160    66.8540    28.4680    25.2510    28.5870    24.2750     2.3150 
  234.8750   -11.4680    66.9690    31.4960    27.9090    29.9240    24.2170     2.3490 
