~V
VERS. 2.00: Ver 2.00
~W
STRT.M 60.0000:
STOP.M 277.0000:
STEP.M 0.1250:
NULL. -999.2500:
UWI. DF5010:
~C
DEPT.M :
GR.API :
CALI.CM :
RXO.OHMM :
RI. :
RML.OHMM :
SP.MV :
DEN.GM/CC :
~A
# ...
  195.0000    65.8580    24.9560   109.0880   119.3200   136.2550   -52.7770     2.2470 
  195.1250    66.7110    24.8830   103.6810   109.9920   125.7170   -52.8370     2.2460 
  195.2500    67.8870    24.8140    92.3800   104.3380   119.6620   -53.0120     2.2450 
  195.3750    68.2900    24.7820    77.9960   102.9980   118.7530   -53.0820     2.2460 
  195.5000    68.3490    24.7800    71.3950   106.5000   123.5030   -53.3320     2.2450 
  195.6250    69.4330    24.7810    84.5130   115.6470   134.6320   -53.4700     2.2420 
  195.7500    68.4480    24.7810   121.7430   128.2370   149.3570   -53.6250     2.2370 
  195.8750    64.9230    24.7810   151.5670   141.3180   164.0000   -53.9090     2.2300 
  196.0000    62.1880    24.7810   147.4450   150.9730   173.8120   -54.0460     2.2190 
  196.1250    62.8130    24.7820   131.3870   153.1020   174.2540   -54.0780     2.2110 
  196.2500    65.4870    24.7780   125.7160   149.3590   168.2580   -54.1590     2.2140 
  196.3750    68.5400    24.7600   120.2660   142.6410   159.7530   -54.2210     2.2280 
  196.5000    70.9060    24.7320   113.1490   135.5840   151.6510   -54.2170     2.2430 
  196.6250    69.6240    24.7140   112.1620   129.1700   144.5290   -54.2060     2.2490 
  196.7500    66.6850    24.7110   115.2050   122.6170   137.0260   -54.1410     2.2480 
  196.8750    66.6620    24.7140   110.1580   115.3620   128.4190   -53.9240     2.2440 
  197.0000    69.4750    24.7140    98.3750   107.6740   119.1430   -53.6680     2.2410 
  197.1250    70.4110    24.7030    84.9810   100.7410   110.7990   -53.4710     2.2400 
  197.2500    69.5820    24.6820    74.1670    95.6300   104.7200   -53.2010     2.2430 
  197.3750    68.9180    24.6600    69.2430    93.0300   101.6480   -52.8630     2.2480 
  197.5000    69.1070    24.6480    74.2470    93.1870   101.7570   -52.3810     2.2480 
  197.6250    70.2190    24.6460    80.1410    96.2340   105.1120   -51.9860     2.2370 
  197.7500    72.4230    24.6460    84.1440   100.8810   110.2210   -51.6030     2.2210 
  197.8750    74.1290    24.6460    85.4570   105.6180   115.3390   -51.1610     2.2100 
  198.0000    73.5290    24.6480    88.5800   108.3260   118.0230   -50.7580     2.2070 
  198.1250    71.0160    24.6480    94.6130   106.2480   115.1860   -50.1970     2.2190 
  198.2500    68.6990    24.6010    95.5690    99.9220   107.7950   -49.6540     2.2380 
  198.3750    66.8850    24.4800    85.9090    91.4180    98.5950   -49.1570     2.2580 
  198.5000    66.5970    24.3070    66.7220    83.8830    91.3140   -48.6110     2.2740 
  198.6250    67.4900    24.1520    54.2210    81.5780    90.5840   -48.0180     2.2810 
  198.7500    67.6200    24.0490    52.0480    86.8950    98.4410   -47.3420     2.2780 
  198.8750    65.9380    23.9940    64.4120   102.8900   117.7680   -46.6160     2.2650 
  199.0000    63.5010    23.9780    84.0000   133.2910   152.7260   -45.9210     2.2410 
  199.1250    61.9700    23.9800   111.4250   184.9830   213.6560   -45.2940     2.2140 
  199.2500    60.9500    23.9810   122.8690   254.3290   301.6410   -44.5940     2.2050 
  199.3750    59.8330    23.9820   127.3900   330.5450   407.3580   -43.8390     2.2320 
  199.5000    58.8400    23.9780   130.1710   389.6140   493.2030   -43.0840     2.3050 
  199.6250    56.7450    23.9790   130.7670   394.1570   490.3670   -42.3680     2.4110 
  199.7500    54.4150    24.0570   143.3680   349.0210   413.4510   -41.7550     2.5140 
  199.8750    52.9850    24.2550   190.5530   278.4070   313.0120   -41.1370     2.5780 
  200.0000    54.5760    24.4980   209.1230   208.6300   227.2100   -40.5040     2.5790 
  200.1250    57.6600    24.6300   159.1860   156.6640   170.3300   -39.8310     2.5080 
  200.2500    58.8830    24.6540   105.5820   121.0480   132.9860   -39.2080     2.4090 
  200.3750    59.4540    24.6460    84.4510    97.7770   108.6350   -38.6340     2.3230 
  200.5000    61.8370    24.6460    77.6940    82.5100    92.2270   -38.1070     2.2730 
  200.6250    65.3290    24.6460    76.6900    72.4990    80.9560   -37.5810     2.2650 
  200.7500    66.2090    24.6450    70.3070    65.2210    72.5010   -37.0120     2.2740 
  200.8750    66.6920    24.6410    60.5750    60.4150    66.8650   -36.4520     2.2880 
  201.0000    70.3930    24.6390    53.5220    58.5270    64.7950   -35.9780     2.3070 
  201.1250    75.3920    24.6380    51.0680    61.2220    68.3010   -35.5650     2.3490 
  201.2500    77.2500    24.6210    55.9150    68.8810    77.4980   -35.0660     2.4180 
  201.3750    76.2360    24.5800    76.9230    80.7390    91.2510   -34.5310     2.5040 
  201.5000    73.5800    24.5340   109.3690    91.5510   103.4270   -34.1480     2.5880 
  201.6250    68.8680    24.5100   148.2550    87.0860    97.5840   -33.6700     2.6450 
  201.7500    64.4230    24.5050   157.5470    66.0370    72.8520   -33.2020     2.6690 
  201.8750    62.7720    24.5000   118.9240    40.8710    44.0690   -32.9080     2.6640 
  202.0000    62.4100    24.4800    53.3960    22.3220    23.3170   -32.5370     2.6370 
  202.1250    61.5440    24.4540    16.3390    12.8200    12.9850   -32.2340     2.5860 
  202.2500    60.0320    24.4380     5.9790     8.0680     8.0140   -31.9820     2.5310 
  202.3750    58.0300    24.4350     4.6810     5.8420     5.8720   -31.8770     2.4940 
  202.5000    55.6650    24.4350     4.5240     4.9010     5.1200   -31.8720     2.4860 
  202.6250    53.6850    24.4370     4.4990     4.7300     5.0820   -31.8370     2.4920 
  202.7500    51.0460    24.4520     4.4590     4.8830     5.2680   -31.8940     2.4830 
  202.8750    47.0780    24.4770     4.4100     5.1520     5.4780   -31.9370     2.4560 
  203.0000    44.2900    24.4990     4.3430     5.4030     5.6150   -31.9940     2.4240 
  203.1250    44.9970    24.5040     4.3490     5.5760     5.6680   -32.2020     2.4070 
  203.2500    47.3600    24.5030     4.4150     5.6890     5.6910   -32.4490     2.4060 
  203.3750    49.6450    24.5030     4.5770     5.7590     5.7150   -32.6910     2.4100 
  203.5000    51.6810    24.5030     4.7220     5.8020     5.7590   -32.9400     2.4060 
  203.6250    52.5070    24.5030     4.7840     5.8210     5.8420   -33.1960     2.3920 
  203.7500    52.4090    24.5030     4.9370     5.8230     5.9600   -33.4580     2.3810 
  203.8750    52.1080    24.5030     5.1090     5.8120     6.1150   -33.8170     2.3760 
  204.0000    52.7290    24.5040     5.1330     5.8020     6.3090   -34.2270     2.3750 
  204.1250    55.1630    24.5010     5.2100     5.8180     6.5570   -34.4770     2.3820 
  204.2500    60.1520    24.5070     5.4280     5.8810     6.8620   -34.7970     2.3970 
  204.3750    66.6540    24.5380     5.9070     6.0070     7.2390   -35.1220     2.4120 
  204.5000    72.5540    24.5870     6.6320     6.2060     7.7030   -35.4040     2.4220 
  204.6250    75.9670    24.6220     7.1780     6.4930     8.2850   -35.8280     2.4290 
  204.7500    78.2680    24.6300     7.6430     6.8480     8.9570   -36.2370     2.4370 
  204.8750    83.4500    24.6250     8.1620     7.2540     9.6900   -36.5770     2.4390 
  205.0000    90.8940    24.6210     8.9790     7.6780    10.4310   -36.9660     2.4290 
  205.1250    97.7730    24.6200     9.8340     8.0610    11.0700   -37.4020     2.4070 
  205.2500   100.8710    24.6100    10.5090     8.3430    11.5260   -37.8200     2.3880 
  205.3750    99.5620    24.5740    10.7930     8.4900    11.7750   -38.2200     2.3760 
  205.5000    96.9770    24.5110    10.8220     8.5430    11.9140   -38.5400     2.3720 
  205.6250    97.1260    24.4620    10.6050     8.6490    12.2130   -38.8570     2.3710 
  205.7500    99.1460    24.4250    10.3790     8.9570    12.9010   -39.1410     2.3710 
  205.8750    98.5550    24.3390    10.8770     9.5410    14.0610   -39.3740     2.3770 
  206.0000    94.7350    24.1820    12.6620    10.3730    15.5600   -39.5520     2.3970 
  206.1250    90.6260    24.0310    16.8540    11.2630    16.9550   -39.6290     2.4300 
