~V
VERS. 2.00: Ver 2.00
~W
STRT.M 65.0000:
STOP.M 258.0000:
STEP.M 0.1250:
NULL. -999.2500:
UWI. DF5030:
~C
DEPT.M :
SP.MV :
GR.API :
RML.OHMM :
RI. :
RXO.OHMM :
CALI.CM :
DEN.GM/CC :
~A
# ...
  222.5000   -27.8170    56.3090   169.0490   154.4760   181.7130    24.0820     2.1990 
  222.6250   -27.7630    55.5360   173.7060   158.0220   181.1630    24.0310     2.1980 
  222.7500   -27.6980    58.4910   177.3210   160.5660   182.4870    23.9950     2.1960 
  222.8750   -27.6560    60.3770   179.7860   162.0610   189.8930    23.9780     2.1970 
  223.0000   -27.6180    58.2540   181.5300   162.8970   205.6750    23.9590     2.2040 
  223.1250   -27.6030    57.2300   182.7740   163.2890   226.7640    23.9220     2.2170 
  223.2500   -27.6180    58.7840   183.4850   163.2810   248.6260    23.8590     2.2330 
  223.3750   -27.6370    56.2060   182.9410   162.4220   257.9420    23.8540     2.2390 
  223.5000   -27.6610    53.7050   180.3560   160.1210   244.3860    23.9240     2.2260 
  223.6250   -27.6630    57.8680   174.8950   155.6440   211.3820    24.0080     2.1930 
  223.7500   -27.6430    64.9480   166.2660   148.5770   182.9520    24.0390     2.1500 
  223.8750   -27.5270    61.2960   154.8860   138.9740   166.8650    24.0450     2.1170 
  224.0000   -27.3220    52.3450   142.8320   128.4480   151.2510    24.0670     2.1070 
  224.1250   -26.9990    49.0070   131.6170   118.3130   134.6540    24.0880     2.1230 
  224.2500   -26.5690    52.5060   122.1700   109.5280   117.1980    24.0780     2.1550 
  224.3750   -26.0330    55.6820   114.8940   102.6820   109.5490    24.0650     2.1880 
  224.5000   -25.3970    55.4550   108.9520    97.1780   108.1640    24.0610     2.2110 
  224.6250   -24.6730    53.7500   103.8850    92.6060   104.2720    24.0610     2.2220 
  224.7500   -23.8830    55.4810    99.5660    88.7700    96.9650    24.0610     2.2240 
  224.8750   -23.0440    60.5580    96.4900    85.9880    88.4510    24.0610     2.2230 
  225.0000   -22.1530    62.2090    95.0470    84.5440    81.5340    24.0610     2.2230 
  225.1250   -21.2390    60.3360    95.6780    84.8390    79.2180    24.0610     2.2230 
  225.2500   -20.2880    62.6350    98.5050    87.0420    82.3360    24.0610     2.2240 
  225.3750   -19.3080    68.2510   103.2980    91.0290    89.2840    24.0610     2.2250 
  225.5000   -18.3350    69.4770   108.5830    95.5380    95.5340    24.0610     2.2250 
  225.6250   -17.4070    67.0840   112.9090    99.3320   100.1510    24.0610     2.2240 
  225.7500   -16.5340    65.6100   114.9010   101.2050   104.0520    24.0610     2.2250 
  225.8750   -15.7210    64.0760   113.3780    99.9170   105.8850    24.0610     2.2300 
  226.0000   -15.0420    59.2550   108.9730    96.0600   101.8980    24.0630     2.2390 
  226.1250   -14.4820    59.7160   102.7850    90.4610    92.7480    24.0700     2.2480 
  226.2500   -14.0500    68.4880    95.4630    84.1910    82.8870    24.0950     2.2570 
  226.3750   -13.7480    75.9400    88.5950    78.3710    75.9340    24.1340     2.2610 
  226.5000   -13.5250    75.8530    82.0120    73.5770    71.4880    24.1660     2.2650 
  226.6250   -13.3390    72.4400    76.4210    70.0270    69.2300    24.1730     2.2710 
  226.7500   -13.1710    72.0470    74.1070    67.8040    67.9780    24.1590     2.2800 
  226.8750   -13.0490    70.6320    74.0310    67.3260    66.3800    24.1280     2.2900 
  227.0000   -12.9300    67.2010    75.8470    68.7100    65.6480    24.0950     2.3010 
  227.1250   -12.7930    65.7770    80.0060    72.3680    68.7280    23.9980     2.3180 
  227.2500   -12.6340    65.0600    86.7710    78.5950    78.7270    23.7760     2.3460 
  227.3750   -12.4630    65.1890    96.5050    87.8610    97.6580    23.5720     2.3880 
  227.5000   -12.2680    67.0980   108.2890    99.3520   121.9440    23.4860     2.4240 
  227.6250   -12.0410    70.7990   120.8770   111.9850   145.9590    23.5180     2.4310 
  227.7500   -11.8100    73.1870   131.7190   123.5790   162.0490    23.6480     2.3970 
  227.8750   -11.5570    72.9830   135.8070   129.3550   153.3510    23.8590     2.3430 
  228.0000   -11.2820    72.3510   129.6520   125.6860   133.0860    24.0260     2.3150 
  228.1250   -10.9940    69.0330   111.6510   110.1700   116.5720    24.0510     2.3370 
  228.2500   -10.7060    63.6050    83.9190    84.3650   101.0320    23.9060     2.4100 
  228.3750   -10.4370    62.2780    55.8830    55.8370    87.8390    23.7900     2.5020 
  228.5000   -10.1810    67.8580    34.9430    33.4830    66.6050    23.7260     2.5600 
  228.6250    -9.9880    74.5950    21.1810    19.4210    34.4280    23.6650     2.5630 
  228.7500    -9.8510    79.1590    13.1310    11.8980    12.8100    23.5870     2.5280 
  228.8750    -9.7870    84.7670     9.7940     8.7790     7.1310    23.5990     2.4850 
  229.0000    -9.7720    91.1400     8.4940     7.5640     6.8910    23.6910     2.4540 
  229.1250    -9.8250    96.2730     8.3010     7.3850     7.6930    23.7900     2.4350 
  229.2500    -9.9240   100.7260     8.6850     7.7440     8.2870    23.8840     2.4240 
  229.3750   -10.0520   108.9980     9.2750     8.2920     8.4380    23.9760     2.4170 
  229.5000   -10.2230   119.3890     9.7660     8.7470     8.4120    24.0100     2.4160 
  229.6250   -10.4170   126.7180    10.0640     9.0200     8.4500    23.9650     2.4200 
  229.7500   -10.6140   130.4670    10.1600     9.1300     8.4900    23.8720     2.4300 
  229.8750   -10.8050   133.3700    10.1220     9.1310     8.5190    23.8010     2.4410 
  230.0000   -11.0170   136.4880    10.0000     9.0970     8.5600    23.7820     2.4480 
  230.1250   -11.2240   138.4300     9.8410     9.0520     8.5910    23.7960     2.4500 
  230.2500   -11.4500   138.1960     9.7310     9.0100     8.6500    23.8170     2.4470 
  230.3750   -11.6650   137.5190     9.6790     8.9820     8.7650    23.8560     2.4410 
  230.5000   -11.9050   135.6890     9.6990     8.9750     8.8490    23.9010     2.4340 
  230.6250   -12.1260   134.0270     9.7670     8.9950     8.9870    23.9510     2.4260 
  230.7500   -12.3350   134.9790     9.8770     9.0380     9.1740    23.9760     2.4180 
  230.8750   -12.5410   136.9900    10.0440     9.1030     9.3130    23.9790     2.4090 
  231.0000   -12.7010   135.4010    10.2150     9.1790     9.4630    23.9550     2.4020 
  231.1250   -12.8340   130.0860    10.3370     9.2600     9.5500    23.9140     2.3980 
  231.2500   -12.9330   126.7740    10.4650     9.3440     9.5250    23.8990     2.3980 
  231.3750   -13.0310   127.5540    10.5670     9.4290     9.4370    23.9360     2.4020 
  231.5000   -13.0920   128.4160    10.6300     9.5060     9.4320    23.9730     2.4080 
  231.6250   -13.1620   129.0000    10.6590     9.5560     9.4880    24.0140     2.4150 
  231.7500   -13.2450   132.0710    10.6410     9.5590     9.5260    24.0240     2.4200 
  231.8750   -13.3390   135.1750    10.5610     9.4940     9.5790    23.9920     2.4200 
  232.0000   -13.4730   132.9080    10.3930     9.3760     9.5920    23.9470     2.4150 
  232.1250   -13.6580   127.9490    10.1520     9.2240     9.4410    23.9160     2.4080 
  232.2500   -13.9040   125.9560     9.8740     9.0620     9.2170    23.8800     2.4010 
  232.3750   -14.2200   127.6360     9.6880     8.9200     9.1690    23.8210     2.3980 
  232.5000   -14.6090   128.7750     9.6390     8.8380     9.4960    23.7870     2.4020 
  232.6250   -15.0530   127.4700     9.6860     8.9110    10.0110    23.7590     2.4100 
  232.7500   -15.5580   123.7840    10.1400     9.3590    10.7830    23.7480     2.4200 
  232.8750   -16.1270   120.5400    11.8980    10.9430    13.1630    23.7300     2.4220 
  233.0000   -16.7630   117.9690    16.6880    14.5900    20.3820    23.7080     2.4140 
  233.1250   -17.4320   109.6000    25.9880    21.5100    36.7530    23.6780     2.3920 
  233.2500   -18.1270    93.1230    40.6120    32.5670    62.7770    23.6890     2.3610 
  233.3750   -18.8110    76.2540    60.2000    47.9090    97.4290    23.7930     2.3280 
  233.5000   -19.4850    66.9710    78.7240    64.4610   128.6070    23.9120     2.3010 
  233.6250   -20.1460    64.0190    94.0590    78.8920   139.8930    24.0020     2.2850 
