~V
VERS. 2.00: Ver 2.00
~W
STRT.M 55.0000:
STOP.M 274.0000:
STEP.M 0.1250:
NULL. -999.2500:
UWI. DF5015:
~C
DEPT.M :
DEN.GM/CC :
GR.API :
CALI.CM :
RXO.OHMM :
RI. :
RML.OHMM :
SP.MV :
~A
# ...
  257.5000     2.2930    62.6840    23.4890     4.5920     4.7040     5.4290    -6.3790 
  257.6250     2.2940    60.8150    23.5250     4.7640     4.7650     5.4940    -6.4080 
  257.7500     2.2890    60.0180    23.5380     4.8680     4.8460     5.5800    -6.4420 
  257.8750     2.2870    60.7230    23.5480     4.9320     4.9400     5.6810    -6.4830 
  258.0000     2.2900    62.4410    23.5420     4.9620     5.0400     5.7880    -6.5280 
  258.1250     2.2920    64.1470    23.5230     4.9730     5.1420     5.8970    -6.5760 
  258.2500     2.2920    65.6560    23.5050     5.0360     5.2420     6.0040    -6.6240 
  258.3750     2.2970    67.3140    23.5000     5.2420     5.3380     6.1060    -6.6720 
  258.5000     2.3100    68.7060    23.5380     5.6270     5.4260     6.2000    -6.7190 
  258.6250     2.3250    68.4580    23.5890     6.1550     5.4990     6.2780    -6.7640 
  258.7500     2.3290    66.9530    23.6480     6.6670     5.5590     6.3420    -6.8120 
  258.8750     2.3150    65.3580    23.7280     7.1200     5.6060     6.3930    -6.8620 
  259.0000     2.2920    64.1010    23.8070     7.4900     5.6440     6.4340    -6.9060 
  259.1250     2.2860    63.5610    23.8660     7.6160     5.6760     6.4670    -6.9350 
  259.2500     2.3010    64.3770    23.8940     7.4530     5.7070     6.5010    -6.9550 
  259.3750     2.3240    65.9260    23.8940     7.0590     5.7410     6.5370    -6.9660 
  259.5000     2.3410    66.4780    23.8760     6.6080     5.7770     6.5760    -6.9570 
  259.6250     2.3440    66.1720    23.8520     6.4260     5.8140     6.6160    -6.9410 
  259.7500     2.3350    67.3790    23.8220     6.6060     5.8510     6.6550    -6.9410 
  259.8750     2.3180    69.8920    23.7730     7.0680     5.8850     6.6920    -6.9470 
  260.0000     2.3010    71.4150    23.8250     7.4860     5.9120     6.7200    -6.9390 
  260.1250     2.2990    70.6730    24.0330     7.4970     5.9280     6.7380    -6.9060 
  260.2500     2.3060    69.2330    24.1790     7.2210     5.9410     6.7510    -6.8630 
  260.3750     2.3160    67.9880    24.0990     6.9320     5.9560     6.7670    -6.8330 
  260.5000     2.3290    67.3010    23.9020     6.7910     5.9810     6.7930    -6.8470 
  260.6250     2.3480    68.2450    23.7520     6.8900     6.0230     6.8390    -6.9110 
  260.7500     2.3620    70.8970    23.7170     7.1630     6.0850     6.9040    -6.9930 
  260.8750     2.3680    73.8000    23.7000     7.3450     6.1660     6.9910    -7.0950 
  261.0000     2.3740    74.6980    23.6430     7.2030     6.2680     7.1000    -7.2380 
  261.1250     2.3880    72.3940    23.5770     6.9910     6.3890     7.2300    -7.4330 
  261.2500     2.4030    69.8750    23.5520     7.3300     6.5200     7.3690    -7.6470 
  261.3750     2.4130    69.8890    23.6150     8.5260     6.6490     7.5080    -7.8500 
  261.5000     2.4170    71.9920    23.7170    10.6260     6.7690     7.6360    -8.0190 
  261.6250     2.4070    72.8020    23.7620    13.5960     6.8740     7.7480    -8.1320 
  261.7500     2.3820    71.9700    23.7540    16.7130     6.9690     7.8500    -8.2000 
  261.8750     2.3590    71.7890    23.7840    18.8070     7.0650     7.9530    -8.2300 
  262.0000     2.3610    73.3820    23.9060    18.7930     7.1720     8.0670    -8.2250 
  262.1250     2.3880    74.6460    23.9940    16.4520     7.3070     8.2110    -8.1790 
  262.2500     2.4040    74.1740    23.9650    14.1770     7.4740     8.3900    -8.1090 
  262.3750     2.3920    72.9360    23.8980    12.9410     7.6700     8.5990    -8.0280 
  262.5000     2.3690    72.4660    23.9190    12.5370     7.8770     8.8210    -7.9470 
  262.6250     2.3580    72.9990    23.9850    12.4290     8.0610     9.0170    -7.8630 
  262.7500     2.3580    73.3120    24.0730    12.4570     8.1890     9.1540    -7.7720 
  262.8750     2.3660    73.1250    24.1710    12.7950     8.2360     9.2050    -7.6730 
  263.0000     2.3780    72.7060    24.2480    13.4490     8.1990     9.1650    -7.5710 
  263.1250     2.3890    72.1010    24.2630    14.0970     8.0810     9.0390    -7.4710 
  263.2500     2.3920    71.3600    24.2500    14.3410     7.9260     8.8730    -7.3760 
  263.3750     2.3870    71.2080    24.2050    14.1170     7.7710     8.7070    -7.2860 
  263.5000     2.3860    72.7450    24.1310    13.5990     7.6460     8.5740    -7.2060 
  263.6250     2.3910    75.0700    24.0500    13.1640     7.5760     8.4990    -7.1460 
  263.7500     2.3950    75.6880    23.9920    12.9800     7.5580     8.4790    -7.1070 
  263.8750     2.3950    74.3280    23.9650    12.7420     7.5850     8.5080    -7.0880 
  264.0000     2.3940    73.1050    23.9710    12.1990     7.6430     8.5700    -7.0940 
  264.1250     2.3950    72.7510    24.0150    11.5210     7.7130     8.6450    -7.1310 
  264.2500     2.3950    72.7510    24.0560    11.1290     7.7780     8.7150    -7.1930 
  264.3750     2.3920    72.7510    24.0780    11.0010     7.8340     8.7750    -7.2690 
  264.5000     2.3920    72.7510    24.1310    10.9590     7.8860     8.8300    -7.3510 
  264.6250     2.3980    72.7510    24.1460    10.8270     7.9420     8.8900    -7.4270 
  264.7500     2.4090    72.7510    24.1370    10.5460     8.0050     8.9570    -7.4890 
  264.8750     2.4200    72.7510    24.1000    10.2340     8.0750     9.0330    -7.5170 
  265.0000     2.4290    72.7510    24.0420     9.9700     8.1520     9.1150    -7.4960 
  265.1250     2.4380    72.7510    24.0280     9.7190     8.2280     9.1960    -7.4340 
  265.2500     2.4460    72.7510    24.0600     9.6250     8.2940     9.2660    -7.3630 
  265.3750     2.4470    72.7510    24.0900    10.0230     8.3420     9.3170    -7.2780 
  265.5000     2.4340    72.7510    24.0720    11.1650     8.3650     9.3420    -7.1510 
  265.6250     2.4180    72.7510    24.0130    12.5320     8.3520     9.3280    -6.9820 
  265.7500     2.4180    72.7510    23.9850    13.2730     8.3070     9.2800    -6.8280 
  265.8750     2.4390    72.7510    23.9750    12.7370     8.2300     9.1980    -6.7220 
  266.0000     2.4650    72.7510    23.9520    11.0080     8.1310     9.0920    -6.6630 
  266.1250     2.4690    72.7510    23.9220     8.9670     8.0260     8.9800    -6.6280 
  266.2500     2.4510    72.7510    23.9430     7.6800     7.9340     8.8820    -6.6000 
  266.3750     2.4310    72.7510    24.0180     7.5670     7.8700     8.8130    -6.5950 
  266.5000     2.4230    72.7510    24.1020     8.5880     7.8400     8.7810    -6.6440 
  266.6250     2.4340    72.7510    24.0710     9.7740     7.8460     8.7870    -6.7510 
  266.7500     2.4570    72.7510    23.9920    10.4100     7.8660     8.8090    -6.8520 
  266.8750     2.4850    72.7510    23.9200    10.6060     7.8890     8.8330    -6.9200 
  267.0000     2.5080    72.7510    23.8620    10.8080     7.9010     8.8460    -6.9750 
  267.1250     2.5040    72.7510    23.9030    11.0970     7.8900     8.8350    -7.0410 
  267.2500     2.4720    72.7510    23.9270    11.2010     7.8620     8.8040    -7.1030 
  267.3750     2.4210    72.7510    23.9310    10.7840     7.8230     8.7630    -7.1520 
  267.5000     2.3710    72.7510    23.9020    10.0800     7.7850     8.7220    -7.1830 
  267.6250     2.3470    72.7510    23.8270     9.5740     7.7580     8.6940    -7.1940 
  267.7500     2.3480    72.7510    23.7280     9.2560     7.7460     8.6800    -7.2060 
  267.8750     2.3610    72.7510    23.6800     8.8510     7.7410     8.6750    -7.2350 
  268.0000     2.3700    72.7510    23.6970     8.2010     7.7390     8.6730    -7.2790 
  268.1250     2.3660    72.7510    23.7330     7.3050     7.7400     8.6740    -7.3270 
  268.2500     2.3510    72.7510    23.7260     6.4580     7.7410     8.6750    -7.3700 
  268.3750     2.3220    72.7510    23.6760     5.9190     7.7440     8.6780    -7.4040 
  268.5000     2.2780    72.7510    23.5890     5.7560     7.7470     8.6810    -7.4290 
  268.6250     2.2340    72.7510    23.4910     5.8110     7.7510     8.6850    -7.4500 
