~V
VERS. 2.00: Ver 2.00
~W
STRT.M 57.0000:
STOP.M 276.0000:
STEP.M 0.1250:
NULL. -999.2500:
UWI. DF5005:
~C
DEPT.M :
GR.API :
RML.OHMM :
RI. :
RXO.OHMM :
CALI.CM :
DEN.GM/CC :
SP.MV :
~A
   57.0000  -999.2500  -999.2500  -999.2500  -999.2500  -999.2500     2.1220  -999.2500 
   57.1250  -999.2500  -999.2500  -999.2500  -999.2500  -999.2500     2.2450  -999.2500 
   57.2500  -999.2500  -999.2500  -999.2500  -999.2500  -999.2500     2.3030  -999.2500 
   57.3750  -999.2500  -999.2500  -999.2500  -999.2500  -999.2500     2.2820  -999.2500 
   57.5000  -999.2500  -999.2500  -999.2500  -999.2500  -999.2500     2.2320  -999.2500 
   57.6250  -999.2500  -999.2500  -999.2500  -999.2500  -999.2500     2.1840  -999.2500 
   57.7500  -999.2500  -999.2500  -999.2500  -999.2500  -999.2500     2.1480  -999.2500 
   57.8750  -999.2500  -999.2500  -999.2500  -999.2500  -999.2500     2.1250  -999.2500 
   58.0000  -999.2500  -999.2500  -999.2500  -999.2500  -999.2500     2.1090  -999.2500 
   58.1250  -999.2500  -999.2500  -999.2500  -999.2500  -999.2500     2.0980  -999.2500 
   58.2500  -999.2500  -999.2500  -999.2500  -999.2500  -999.2500     2.0910  -999.2500 
   58.3750  -999.2500  -999.2500  -999.2500  -999.2500  -999.2500     2.0870  -999.2500 
   58.5000  -999.2500  -999.2500  -999.2500  -999.2500  -999.2500     2.0840    70.9290 
   58.6250  -999.2500  -999.2500  -999.2500  -999.2500  -999.2500     2.0800    70.9290 
   58.7500  -999.2500  -999.2500  -999.2500  -999.2500  -999.2500     2.0760    81.6320 
   58.8750  -999.2500  -999.2500  -999.2500  -999.2500  -999.2500     2.0720    82.3630 
   59.0000  -999.2500  -999.2500  -999.2500  -999.2500  -999.2500     2.0670    82.8870 
   59.1250  -999.2500  -999.2500  -999.2500  -999.2500  -999.2500     2.0620    83.2000 
   59.2500  -999.2500  -999.2500  -999.2500  -999.2500  -999.2500     2.0590    83.3180 
   59.3750  -999.2500  -999.2500  -999.2500  -999.2500  -999.2500     2.0550    83.2300 
   59.5000  -999.2500  -999.2500  -999.2500  -999.2500  -999.2500     2.0500    82.9670 
   59.6250  -999.2500  -999.2500  -999.2500  -999.2500  -999.2500     2.0440    82.5450 
   59.7500     0.0000     0.0000     0.0000     0.0000     0.0000     2.0430    82.0250 
   59.8750     0.0000     0.0000     0.0000     0.0000     0.0000     2.0580    81.4970 
   60.0000     0.0000     0.0000     0.0000     0.0000     0.0000     2.0940    80.9910 
   60.1250    29.7020    -0.0220     0.7290     4.7780    19.0620     2.1500    80.4800 
   60.2500    40.4890    -0.0890     0.9630     6.9250    25.4160     2.2160    79.9570 
   60.3750    42.0570    -0.0780     0.9670     8.0820    25.4140     2.2650    79.4550 
   60.5000    41.7390    -0.0090     0.9810     9.7540    25.3770     2.2820    79.0030 
   60.6250    41.0910     0.0790     0.9990    11.7950    25.2410     2.2640    78.5950 
   60.7500    42.2850     0.1580     1.0130    13.8220    24.9900     2.2250    78.1880 
   60.8750    43.6190     0.1890     1.0180    15.0730    24.9000     2.1820    77.7610 
   61.0000    41.9320     0.1670     1.0130    14.9590    25.0190     2.1470    77.3280 
   61.1250    39.3390     0.1080     0.9990    13.4000    25.2400     2.1220    76.9090 
   61.2500    39.5710     0.0480     0.9790    10.7890    25.3940     2.1040    76.4870 
   61.3750    42.6350     0.0380     0.9620     8.5100    25.4140     2.0940    76.0260 
   61.5000    43.5360     0.0940     0.9530     7.2330    25.3950     2.0890    75.5440 
   61.6250    41.3860     0.1890     0.9540     6.7020    25.3650     2.0850    75.0620 
   61.7500    37.6850     0.2600     0.9630     6.4300    25.3460     2.0810    74.6140 
   61.8750    35.6080     0.2540     0.9650     6.2310    25.3430     2.0730    74.2270 
   62.0000    34.9260     0.2150     0.9530     6.0950    25.3440     2.0670    73.8880 
   62.1250    34.2510     0.2100     0.9260     6.0570    25.3460     2.0700    73.6050 
   62.2500    34.2570     0.2880     0.8920     6.2020    25.3470     2.0900    73.4070 
   62.3750    35.6000     0.4320     0.8680     6.5400    25.3470     2.1290    73.3400 
   62.5000    36.6360     0.5380     0.8590     6.9270    25.3470     2.1720    73.3610 
   62.6250    36.1360     0.5340     0.8640     7.2800    25.3470     2.2050    73.4700 
   62.7500    35.9500     0.4090     0.8790     7.5710    25.3460     2.2210    73.6520 
   62.8750    36.7190     0.2190     0.9020     7.7780    25.3440     2.2240    73.8580 
   63.0000    36.3700     0.0510     0.9260     7.8690    25.3460     2.2340    74.0520 
   63.1250    36.6580    -0.0590     0.9490     7.8380    25.3450     2.2580    74.2370 
   63.2500    38.1820    -0.1110     0.9660     7.6970    25.3350     2.2900    74.4040 
   63.3750    38.8740    -0.1220     0.9760     7.5280    25.2820     2.3230    74.4910 
   63.5000    37.2350    -0.1120     0.9830     7.4980    25.1120     2.3540    74.4900 
   63.6250    36.0180    -0.0920     0.9900     7.6470    24.8040     2.3860    74.3790 
   63.7500    36.5790    -0.0750     1.0010     7.8040    24.4680     2.4230    74.1300 
   63.8750    39.1420    -0.0700     1.0130     7.9580    24.2840     2.4650    73.7130 
   64.0000    42.8820    -0.0740     1.0240     8.1530    24.1590     2.5030    73.1510 
   64.1250    46.9830    -0.0770     1.0350     8.4760    23.9990     2.5310    72.4070 
   64.2500    50.2630    -0.0750     1.0430     8.9580    23.7850     2.5480    71.4460 
   64.3750    50.9780    -0.0730     1.0360     9.5750    23.6220     2.5580    70.2350 
   64.5000    49.0860    -0.0790     0.9980    10.0300    23.5610     2.5640    68.8040 
   64.6250    45.6670    -0.0960     0.9120     9.9840    23.5430     2.5670    67.1580 
   64.7500    41.8900    -0.1200     0.7700     9.3320    23.5240     2.5680    65.2340 
   64.8750    38.0530    -0.1380     0.5770     7.7050    23.4850     2.5760    62.8750 
   65.0000    34.5260    -0.1470     0.3810     5.5340    23.4380     2.5940    60.0010 
   65.1250    32.7600    -0.1530     0.2220     3.1440    23.3860     2.6220    56.4400 
   65.2500    34.2110    -0.1630     0.1170     0.8970    23.3540     2.6480    51.9350 
   65.3750    40.7490    -0.1750     0.0740     0.6330    23.3460     2.6380    46.0120 
   65.5000    47.8140    -0.1450     0.1140     1.3180    23.3450     2.5800    38.7460 
   65.6250    52.4040     0.0110     0.3030     2.8630    23.3450     2.4810    30.2950 
   65.7500    54.3250     0.4010     0.7310     5.1450    23.3480     2.3700    21.0900 
   65.8750    56.3140     1.1540     1.5170     8.5520    23.3800     2.2750    11.6890 
   66.0000    58.4130     2.1690     2.5740    10.0630    23.4670     2.2090     2.6030 
   66.1250    59.8790     3.2520     3.7490    10.5340    23.5960     2.1740    -5.8020 
   66.2500    61.6270     4.1310     4.8320    10.6040    23.7040     2.1610   -13.1740 
   66.3750    60.9790     4.6200     5.6350    10.6210    23.7410     2.1600   -18.9810 
   66.5000    57.6610     4.9040     6.2160    10.5580    23.7490     2.1630   -23.2720 
   66.6250    54.7670     5.1160     6.6460    10.4600    23.7490     2.1670   -26.1940 
   66.7500    54.9580     5.3020     6.9630    10.3850    23.7430     2.1740   -28.0410 
   66.8750    57.3310     5.4520     7.1580    10.3420    23.7220     2.1820   -29.1210 
   67.0000    58.2810     5.5640     7.2600    10.2770    23.6830     2.1890   -29.8440 
   67.1250    59.9650     5.6400     7.2930    10.1370    23.6420     2.1930   -30.4120 
   67.2500    63.3050     5.6980     7.2980     9.9660    23.6190     2.1920   -30.9210 
   67.3750    65.4920     5.7890     7.3430     9.8790    23.6110     2.1870   -31.3770 
   67.5000    66.2730     5.9780     7.4890    10.0290    23.6030     2.1800   -31.7630 
   67.6250    66.0380     6.3110     7.7740    10.2450    23.5930     2.1760   -32.0390 
   67.7500    65.3780     6.7900     8.1940    10.4270    23.6060     2.1770   -32.2810 
   67.8750    64.3210     7.3450     8.6780    10.5050    23.6560     2.1860   -32.5200 
   68.0000    64.4660     7.8200     9.0900    10.5410    23.6730     2.2010   -32.7500 
   68.1250    67.7120     8.0910     9.3200    10.6710    23.6530     2.2160   -32.9900 
