~V
VERS. 2.00: Ver 2.00
~W
STRT.M 60.0000:
STOP.M 277.0000:
STEP.M 0.1250:
NULL. -999.2500:
UWI. DF5010:
~C
DEPT.M :
GR.API :
CALI.CM :
RXO.OHMM :
RI. :
RML.OHMM :
SP.MV :
DEN.GM/CC :
~A
# ...
  206.2500    87.6630    23.9490    19.2180    11.9020    17.7560   -39.6710     2.4560 
  206.3750    86.6470    23.9160    18.1670    12.1000    17.7460   -39.6870     2.4620 
  206.5000    87.4180    23.8960    15.3280    11.8660    17.0740   -39.6380     2.4470 
  206.6250    89.5740    23.8880    13.8110    11.3790    16.1550   -39.5110     2.4240 
  206.7500    91.2470    23.8880    13.3950    10.9140    15.4240   -39.3180     2.4060 
  206.8750    94.3870    23.8890    13.4790    10.5940    15.0240   -39.0600     2.3980 
  207.0000   102.0110    23.8860    12.7540    10.4380    14.9030   -38.7290     2.3970 
  207.1250   114.3830    23.8900    11.4950    10.3430    14.8170   -38.4210     2.3950 
  207.2500   124.1330    23.9330    10.9700    10.1200    14.4580   -38.0550     2.3910 
  207.3750   122.7350    24.0080    11.0120     9.6680    13.6910   -37.6020     2.3910 
  207.5000   109.6550    24.0750    11.1170     9.0220    12.6090   -37.1550     2.4010 
  207.6250    95.7760    24.0940    10.1310     8.3570    11.5430   -36.6980     2.4160 
  207.7500    89.7590    24.0870     8.1600     7.8770    10.8350   -36.2770     2.4270 
  207.8750    92.1740    24.1110     7.0580     7.6880    10.6300   -35.9380     2.4340 
  208.0000    97.7500    24.2090     7.6200     7.7840    10.8550   -35.6000     2.4400 
  208.1250   100.0640    24.3630     8.8240     8.0310    11.1990   -35.3300     2.4430 
  208.2500    96.3550    24.4670     9.8140     8.1470    11.2290   -35.0350     2.4400 
  208.3750    87.9300    24.4670     9.8890     7.9400    10.7170   -34.8550     2.4340 
  208.5000    79.2290    24.3950     8.4060     7.3860     9.7260   -34.8430     2.4250 
  208.6250    72.0250    24.3000     6.6180     6.6650     8.6030   -34.7940     2.4140 
  208.7500    66.0990    24.1760     5.4670     6.0380     7.7160   -34.9260     2.4040 
  208.8750    62.1310    24.0110     5.0880     5.6130     7.1800   -35.0340     2.3970 
  209.0000    60.6660    23.8350     4.8850     5.4070     6.9670   -35.1850     2.3920 
  209.1250    61.2830    23.7260     4.7250     5.4010     6.9970   -35.4030     2.3850 
  209.2500    61.6840    23.6870     4.5910     5.4890     7.1120   -35.6640     2.3800 
  209.3750    63.0560    23.6840     4.5590     5.6150     7.2420   -36.0980     2.3840 
  209.5000    66.4650    23.6860     4.6290     5.7510     7.3650   -36.4600     2.3960 
  209.6250    72.0820    23.6970     4.7920     5.8950     7.4950   -36.8780     2.4150 
  209.7500    79.5930    23.7200     4.8810     6.0450     7.6400   -37.3080     2.4310 
  209.8750    87.3830    23.7420     4.9760     6.1940     7.7970   -37.6830     2.4390 
  210.0000    92.8700    23.7520     5.2240     6.3220     7.9390   -38.1490     2.4310 
  210.1250    92.1340    23.7520     5.5030     6.3880     8.0120   -38.6370     2.4140 
  210.2500    88.2290    23.7520     5.5100     6.3810     8.0040   -39.1310     2.4050 
  210.3750    87.2070    23.7530     5.4140     6.3170     7.9340   -39.5890     2.4110 
  210.5000    90.2370    23.7540     5.5250     6.2270     7.8450   -39.9790     2.4260 
  210.6250    91.5710    23.7530     5.6040     6.1440     7.7820   -40.4020     2.4330 
  210.7500    87.7900    23.7520     5.6580     6.0830     7.7540   -40.8910     2.4210 
  210.8750    85.7540    23.7960     5.9680     6.0470     7.7550   -41.4630     2.3970 
  211.0000    91.2260    23.9250     6.1930     6.0360     7.7820   -42.0660     2.3710 
  211.1250    95.2220    24.0950     6.1570     6.0750     7.8720   -42.6220     2.3560 
  211.2500    90.5430    24.2220     6.0430     6.1940     8.0770   -43.2310     2.3540 
  211.3750    84.3050    24.3120     6.3460     6.4310     8.4480   -43.7660     2.3620 
  211.5000    85.2880    24.4010     7.1810     6.8010     8.9870   -44.3350     2.3700 
  211.6250    88.5420    24.4720     8.0540     7.2860     9.6320   -44.9980     2.3640 
  211.7500    87.2310    24.4960     8.9150     7.7960    10.2560   -45.5240     2.3450 
  211.8750    85.0030    24.4960     9.6190     8.2850    10.8150   -45.9910     2.3260 
  212.0000    84.1100    24.4950    10.2380     8.7720    11.3770   -46.3540     2.3190 
  212.1250    82.0470    24.4950    10.2340     9.4100    12.2450   -46.6450     2.3330 
  212.2500    77.9720    24.4960    10.4950    10.3940    13.7570   -46.9270     2.3640 
  212.3750    74.5410    24.4910    12.4180    11.9180    16.1740   -47.1450     2.4010 
  212.5000    72.0440    24.4720    16.8010    14.0880    19.5230   -47.4400     2.4300 
  212.6250    69.3690    24.4460    21.6740    16.9160    23.5640   -47.6030     2.4410 
  212.7500    69.5590    24.4290    27.0940    20.0020    27.6370   -47.6870     2.4440 
  212.8750    72.6690    24.4260    31.8020    23.0160    31.3710   -47.8070     2.4390 
  213.0000    75.6300    24.4280    33.5960    25.8410    34.8620   -47.8730     2.4170 
  213.1250    76.1010    24.4270    29.6600    28.9070    39.0030   -48.0410     2.3650 
  213.2500    76.1550    24.4270    33.3040    32.8330    44.6210   -48.1230     2.3020 
  213.3750    76.6060    24.4270    45.3790    37.9440    51.9840   -48.2370     2.2520 
  213.5000    76.6240    24.4270    56.0600    44.0750    60.6450   -48.3000     2.2280 
  213.6250    77.6020    24.4270    59.4710    50.4910    69.3690   -48.2430     2.2230 
  213.7500    78.0770    24.4270    61.3410    56.1660    76.7940   -48.2750     2.2170 
  213.8750    75.3180    24.4270    65.8330    60.6880    82.5540   -48.2660     2.2070 
  214.0000    72.2350    24.4270    69.8650    64.4370    87.4150   -48.2810     2.1980 
  214.1250    73.5240    24.4280    68.8920    68.3500    92.7920   -48.2770     2.1930 
  214.2500    75.1530    24.4470    72.4870    72.8600    99.0780   -48.2270     2.1890 
  214.3750    72.9690    24.5250    78.5290    77.7270   105.7350   -48.1580     2.1890 
  214.5000    69.2730    24.6950    85.7890    82.4710   111.9520   -47.9950     2.1990 
  214.6250    68.3110    24.9080    91.5180    86.5830   116.9510   -48.0190     2.2130 
  214.7500    70.7710    25.0540    95.2630    90.1060   120.9670   -47.9340     2.2160 
  214.8750    75.1970    25.1040    95.8950    93.3370   124.5560   -47.8580     2.2070 
  215.0000    77.6640    25.1030    95.9440    96.6650   128.3000   -47.8300     2.1950 
  215.1250    74.6820    25.1010   101.8560   100.1600   132.1330   -47.8320     2.1910 
  215.2500    69.7160    25.1010   117.3980   103.0460   134.7390   -47.9520     2.1940 
  215.3750    65.7810    25.1010   130.5210   104.1760   134.3910   -48.0450     2.1980 
  215.5000    63.4370    25.1010   129.8000   102.7040   130.1120   -48.2750     2.2020 
  215.6250    64.1660    25.1010   123.2140    98.6240   122.5510   -48.3590     2.2060 
  215.7500    68.5180    25.1010   111.9090    93.8700   114.7690   -48.5530     2.2050 
  215.8750    72.0090    25.1010    99.0600    89.8660   108.5970   -48.7280     2.2000 
  216.0000    70.3190    25.1030    91.7170    87.3260   104.6370   -48.9340     2.1950 
  216.1250    66.8340    25.1000    95.3680    86.2830   102.5990   -49.1950     2.1970 
  216.2500    66.0760    25.0700   102.8440    85.8210   101.1820   -49.3640     2.2070 
  216.3750    66.2580    25.0190   104.1280    85.3470    99.6890   -49.6250     2.2190 
  216.5000    64.9370    24.9740    92.8430    84.5750    97.9030   -49.7450     2.2290 
  216.6250    64.3960    24.9620    81.5410    83.6610    96.1960   -50.0090     2.2290 
  216.7500    66.8290    24.9660    82.6870    83.0540    95.0950   -50.3070     2.2230 
  216.8750    68.9030    24.9660    87.2110    83.0060    94.8200   -50.5810     2.2110 
  217.0000    67.5090    24.9690    85.3660    83.5450    95.3220   -50.9230     2.1980 
  217.1250    65.6370    24.9480    83.8730    84.7300    96.6860   -51.0860     2.1890 
  217.2500    65.6470    24.8520    84.1750    86.7660    99.2340   -51.2700     2.1900 
  217.3750    65.5250    24.7130    82.1600    90.4290   103.9570   -51.5190     2.2010 
