~V
VERS. 2.00: Ver 2.00
~W
STRT.M 50.0000:
STOP.M 245.0000:
STEP.M 0.1250:
NULL. -999.2500:
UWI. DF5062:
~C
DEPT.M :
DEN.GM/CC :
GR.API :
RML.OHMM :
RI. :
RXO.OHMM :
CALI.CM :
SP.MV :
~A
# ...
  117.5000     2.3530    97.6090     5.8550     4.7240     5.2460    24.8440   -29.1010 
  117.6250     2.3460    94.9240     6.2140     5.0130     5.2890    24.5730   -29.6510 
  117.7500     2.3290    87.5020     6.6940     5.4220     5.7340    24.0590   -30.2730 
  117.8750     2.3070    80.5570     7.1880     5.8730     6.5440    23.5020   -30.9290 
  118.0000     2.2880    76.9050     7.5730     6.2580     7.4000    23.2170   -31.6220 
  118.1250     2.2780    75.5940     7.7190     6.4480     7.6490    23.2030   -32.2010 
  118.2500     2.2760    74.3920     7.6700     6.4500     7.6480    23.3000   -32.8430 
  118.3750     2.2750    74.9250     7.5220     6.3300     7.5670    23.4380   -33.3540 
  118.5000     2.2690    75.7780     7.3970     6.1970     7.4310    23.5540   -33.8320 
  118.6250     2.2570    73.8530     7.4130     6.1710     7.3060    23.4860   -34.2450 
  118.7500     2.2440    73.1110     7.5750     6.2860     7.4970    23.2260   -34.5400 
  118.8750     2.2340    74.7280     7.8490     6.5330     7.9670    22.9070   -34.8800 
  119.0000     2.2270    73.8680     8.1810     6.8780     8.5550    22.7040   -35.1040 
  119.1250     2.2220    67.9710     8.5100     7.2700     8.9940    22.6180   -35.3790 
  119.2500     2.2170    63.4780     8.7960     7.6400     9.2840    22.5770   -35.6630 
  119.3750     2.2130    63.6020     9.0040     7.9280     9.4290    22.5380   -35.7910 
  119.5000     2.2160    64.7930     9.0890     8.0700     9.3750    22.4810   -35.7790 
  119.6250     2.2290    65.5590     8.9490     7.9570     9.1430    22.4570   -35.6660 
  119.7500     2.2480    68.1470     8.5620     7.5830     8.7070    22.5070   -35.3640 
  119.8750     2.2660    72.3890     7.9390     6.9660     8.1050    22.7020   -34.8050 
  120.0000     2.2700    77.3050     7.1640     6.1930     7.3080    23.0820   -34.1610 
  120.1250     2.2450    83.5920     6.3970     5.4080     6.2780    23.7960   -33.3570 
  120.2500     2.2010    88.9410     5.7800     4.7490     5.3030    24.7220   -32.4890 
  120.3750     2.1580    91.2660     5.3750     4.2820     4.8190    25.5850   -31.7380 
  120.5000     2.1370    90.5660     5.1780     4.0220     4.7190    25.8510   -31.1740 
  120.6250     2.1560    91.6910     5.1870     3.9990     4.9320    25.3470   -30.7230 
  120.7500     2.2010    92.8080     5.4290     4.2080     5.3610    24.8610   -30.5420 
  120.8750     2.2550    90.0070     6.0550     4.7430     5.9260    24.4850   -30.6260 
  121.0000     2.3070    83.8110     7.3450     5.7550     6.6810    24.2510   -30.8350 
  121.1250     2.3600    78.6850     9.5520     7.4730     7.9070    24.3300   -31.2870 
  121.2500     2.4240    75.2970    12.4090     9.6940    10.1800    24.5210   -31.7440 
  121.3750     2.4980    71.0220    15.2890    12.0170    14.0580    24.7140   -32.2830 
  121.5000     2.5580    66.1660    17.1620    13.8100    19.9140    24.7760   -32.8190 
  121.6250     2.5670    64.4820    17.1100    14.2100    27.3040    24.5240   -33.3170 
  121.7500     2.5230    65.9070    15.5190    13.3030    26.2710    23.9020   -33.8500 
  121.8750     2.4430    67.9990    13.2720    11.6580    17.0960    23.1170   -34.2590 
  122.0000     2.3560    68.5620    11.4090    10.0630    10.1820    22.5830   -34.7290 
  122.1250     2.2900    68.2170    10.6930     9.1750     8.7520    22.4080   -35.1210 
  122.2500     2.2540    67.2420    10.9190     8.9930     8.8000    22.4400   -35.4130 
  122.3750     2.2510    66.6940    11.7390     9.3530     9.0640    22.6020   -35.7020 
  122.5000     2.2800    67.4610    12.7020     9.9720     9.0250    22.8130   -35.8640 
  122.6250     2.3340    68.2000    13.2660    10.4680     8.7700    22.9810   -35.9390 
  122.7500     2.3860    68.1640    13.2140    10.5930     8.4930    22.9570   -35.9560 
  122.8750     2.4100    68.5990    12.5930    10.3060     8.4450    22.8200   -35.9080 
  123.0000     2.3920    70.1620    11.6570     9.7390     8.6800    22.7060   -35.7510 
  123.1250     2.3400    69.1820    10.7550     9.1080     8.9570    22.6580   -35.6440 
  123.2500     2.2870    67.4380    10.1040     8.5860     8.9890    22.6230   -35.5830 
  123.3750     2.2520    68.6130     9.7490     8.2220     8.8780    22.6280   -35.4740 
  123.5000     2.2390    70.9460     9.6420     8.0040     8.7410    22.6810   -35.3820 
  123.6250     2.2430    72.6930     9.7050     7.9140     8.5290    22.7760   -35.3000 
  123.7500     2.2500    73.4520     9.8180     7.9030     8.2320    22.9140   -35.2110 
  123.8750     2.2560    74.0070     9.9300     7.9550     8.0690    23.0320   -35.1070 
  124.0000     2.2580    73.0070    10.0180     8.0490     8.0880    23.0220   -35.0520 
  124.1250     2.2560    71.2160    10.0670     8.1450     8.2620    22.8890   -34.8740 
  124.2500     2.2490    70.2320    10.0690     8.1950     8.4950    22.7190   -34.7290 
  124.3750     2.2410    69.2580    10.0110     8.1730     8.7130    22.5680   -34.5520 
  124.5000     2.2340    69.7700     9.8890     8.0810     8.7570    22.4380   -34.3410 
  124.6250     2.2290    73.2580     9.7320     7.9500     8.4280    22.3120   -34.2270 
  124.7500     2.2280    77.2630     9.6080     7.8360     7.9490    22.1710   -34.0390 
  124.8750     2.2320    78.0660     9.5650     7.7680     7.7190    22.0490   -34.0000 
  125.0000     2.2370    75.6670     9.6040     7.7490     7.7740    22.0050   -33.9350 
  125.1250     2.2440    72.7360     9.6750     7.7630     8.0580    22.0710   -33.9580 
  125.2500     2.2500    70.2330     9.6980     7.7760     8.5330    22.2010   -34.0700 
  125.3750     2.2540    69.2550     9.6480     7.7750     8.8380    22.3130   -34.1450 
  125.5000     2.2550    70.3730     9.5500     7.7670     8.5130    22.4090   -34.3200 
  125.6250     2.2510    71.9240     9.4650     7.7730     8.2000    22.5650   -34.4820 
  125.7500     2.2460    71.4700     9.4220     7.7990     8.1200    22.5790   -34.6070 
  125.8750     2.2420    70.5850     9.4030     7.8300     8.1560    22.4990   -34.7520 
  126.0000     2.2420    70.9640     9.3660     7.8330     8.1910    22.4060   -34.9460 
  126.1250     2.2470    72.2010     9.2640     7.7690     8.2590    22.3050   -35.0340 
  126.2500     2.2540    72.8300     9.1140     7.6410     8.1680    22.2300   -35.1070 
  126.3750     2.2600    74.3520     8.9540     7.4720     7.7600    22.2370   -35.2770 
  126.5000     2.2640    76.6070     8.8310     7.2950     7.4260    22.3200   -35.4090 
  126.6250     2.2650    77.3200     8.7850     7.1510     7.3420    22.4260   -35.5010 
  126.7500     2.2650    77.0490     8.7910     7.0610     7.2840    22.5350   -35.6020 
  126.8750     2.2660    76.2600     8.8100     7.0270     7.2350    22.6320   -35.6460 
  127.0000     2.2670    74.0500     8.8120     7.0410     7.3480    22.6800   -35.5740 
  127.1250     2.2640    71.0830     8.7990     7.0910     7.4940    22.6890   -35.5800 
  127.2500     2.2550    70.9910     8.8190     7.1660     7.5810    22.6920   -35.4860 
  127.3750     2.2400    74.1450     8.9270     7.2740     7.6340    22.6920   -35.2890 
  127.5000     2.2230    76.9940     9.1520     7.4350     7.7060    22.6820   -35.1040 
  127.6250     2.2120    77.9730     9.4840     7.6660     7.7980    22.6410   -34.8370 
  127.7500     2.2130    77.3140     9.8220     7.9290     7.8900    22.6060   -34.6370 
  127.8750     2.2280    74.8420    10.0740     8.1680     8.0370    22.5580   -34.3410 
  128.0000     2.2530    72.1650    10.1730     8.3200     8.3030    22.4960   -34.0880 
  128.1250     2.2740    72.7540    10.0930     8.3280     8.5700    22.4910   -33.8350 
  128.2500     2.2800    74.2400     9.9480     8.2470     8.6410    22.5640   -33.5390 
  128.3750     2.2670    74.3630     9.8850     8.1750     8.6250    22.7360   -33.3360 
  128.5000     2.2390    71.1600    10.0710     8.2510     8.9090    22.9930   -33.0470 
  128.6250     2.2120    65.7380    10.7080     8.6730    10.0420    23.2550   -32.8090 
