~V
VERS. 2.00: Ver 2.00
~W
STRT.M 60.0000:
STOP.M 259.0000:
STEP.M 0.1250:
NULL. -999.2500:
UWI. DF5006:
~C
DEPT.M :
SP.MV :
GR.API :
RML.OHMM :
RI. :
RXO.OHMM :
CALI.CM :
DEN.GM/CC :
~A
   60.0000    37.7790  -999.2500  -999.2500  -999.2500  -999.2500  -999.2500  -999.2500 
   60.1250    36.5720  -999.2500  -999.2500  -999.2500  -999.2500  -999.2500  -999.2500 
   60.2500    35.9890  -999.2500  -999.2500  -999.2500  -999.2500  -999.2500  -999.2500 
   60.3750    36.0440  -999.2500  -999.2500  -999.2500  -999.2500  -999.2500  -999.2500 
   60.5000    36.4930  -999.2500  -999.2500  -999.2500  -999.2500  -999.2500  -999.2500 
   60.6250    37.0790  -999.2500  -999.2500  -999.2500  -999.2500  -999.2500  -999.2500 
   60.7500    37.5030  -999.2500  -999.2500  -999.2500  -999.2500  -999.2500  -999.2500 
   60.8750    37.8630  -999.2500  -999.2500  -999.2500  -999.2500  -999.2500  -999.2500 
   61.0000    38.2510  -999.2500  -999.2500  -999.2500  -999.2500  -999.2500  -999.2500 
   61.1250    38.5250  -999.2500  -999.2500  -999.2500  -999.2500  -999.2500  -999.2500 
   61.2500    38.2670  -999.2500  -999.2500  -999.2500  -999.2500  -999.2500  -999.2500 
   61.3750    37.4570  -999.2500  -999.2500  -999.2500  -999.2500  -999.2500  -999.2500 
   61.5000    36.2350     0.0000     0.0000     0.0000     0.0000     0.0000  -999.2500 
   61.6250    34.8330     0.0000     0.0000     0.0000     0.0000     0.0000  -999.2500 
   61.7500    33.5520     9.8390     1.3860     0.3120     3.5510     6.3120  -999.2500 
   61.8750    32.4030    37.5960     5.6630     1.2490    15.1190    25.2480  -999.2500 
   62.0000    31.3830    32.6830     5.9180     1.2530    18.0650    25.2480  -999.2500 
   62.1250    30.6400    29.8360     6.0700     1.2480    19.7420    25.2480  -999.2500 
   62.2500    30.4460    32.3760     6.1380     1.2360    19.7990    25.2480  -999.2500 
   62.3750    30.7100    35.7610     6.2150     1.2230    16.3700    25.2480  -999.2500 
   62.5000    31.3170    36.3770     6.3400     1.2130    11.6530    25.2480     0.0000 
   62.6250    32.1350    34.5730     6.4800     1.2100    10.9600    25.2510     0.0000 
   62.7500    33.0930    33.8530     6.5050     1.2110    13.6130    25.2660     0.4890 
   62.8750    34.1370    35.1550     6.3340     1.2090    17.4900    25.2930     1.9570 
   63.0000    35.1120    37.7490     5.9810     1.2010    20.0540    25.3250     1.9570 
   63.1250    35.8700    40.3250     5.5500     1.1880    19.6180    25.3580     1.9550 
   63.2500    36.2930    40.3820     5.1850     1.1760    18.4010    25.3710     1.9530 
   63.3750    36.4070    37.5100     4.9200     1.1670    17.2970    25.3740     1.9530 
   63.5000    36.1970    33.4330     4.7110     1.1620    17.0290    25.3740     1.9560 
   63.6250    35.6570    31.3260     4.4960     1.1570    19.0530    25.3740     1.9630 
   63.7500    34.7520    33.0300     4.2700     1.1450    22.8810    25.3740     1.9740 
   63.8750    33.5910    35.8900     4.1080     1.1300    27.4370    25.3740     1.9840 
   64.0000    32.3700    38.1420     4.0700     1.1160    31.5830    25.3740     1.9880 
   64.1250    31.2740    39.3040     4.1450     1.1090    27.2730    25.3740     1.9840 
   64.2500    30.4690    41.0370     4.2690     1.1110    22.4600    25.3740     1.9750 
   64.3750    29.9470    42.6090     4.3620     1.1210    20.8140    25.3740     1.9630 
   64.5000    29.6770    42.7080     4.3930     1.1350    20.2200    25.3740     1.9540 
   64.6250    29.7000    41.2300     4.3550     1.1490    19.1840    25.3740     1.9490 
   64.7500    30.1540    37.6020     4.2410     1.1590    16.6150    25.3740     1.9490 
   64.8750    31.0060    33.3630     4.0700     1.1610    13.2430    25.3680     1.9530 
   65.0000    32.1780    32.1170     3.8610     1.1540     8.2650    25.3380     1.9610 
   65.1250    33.4650    36.1310     3.6580     1.1410     4.0790    25.2660     1.9730 
   65.2500    34.6980    41.2230     3.5480     1.1310     3.2770    25.2200     1.9860 
   65.3750    35.8400    42.4800     3.5780     1.1290     4.8870    25.2390     1.9930 
   65.5000    36.9810    41.1060     3.7660     1.1370     9.6130    25.2950     1.9920 
   65.6250    38.1960    39.6900     4.0730     1.1530    17.1870    25.3160     1.9830 
   65.7500    39.5000    39.0670     4.3950     1.1730    25.8110    25.3130     1.9720 
   65.8750    40.8290    39.5940     4.6090     1.1900    31.0320    25.3070     1.9670 
   66.0000    42.2000    41.7230     4.6550     1.2010    26.8770    25.3020     1.9750 
   66.1250    43.7190    44.4230     4.5340     1.2050    15.7530    25.2820     2.0000 
   66.2500    45.4920    46.6530     4.2810     1.1980     4.8630    25.0410     2.0430 
   66.3750    47.6010    48.1820     3.9740     1.1830     2.3500    24.4980     2.0920 
   66.5000    49.9530    48.7990     3.6530     1.1630     1.8610    23.8480     2.1330 
   66.6250    52.3440    49.6510     3.3390     1.1420     1.8380    23.4140     2.1580 
   66.7500    54.5450    50.9110     3.0390     1.1250     1.9200    23.2100     2.1610 
   66.8750    56.4300    52.6170     2.7490     1.1110     2.0020    23.1150     2.1530 
   67.0000    57.8930    54.8600     2.4790     1.1020     2.0510    23.0660     2.1460 
   67.1250    58.8440    56.4920     2.2540     1.0930     2.0800    23.0400     2.1500 
   67.2500    59.1660    57.1320     2.1000     1.0700     2.0980    23.0650     2.1730 
   67.3750    58.8410    57.4050     1.9730     1.0120     2.0800    23.1540     2.2140 
   67.5000    57.8790    57.3750     1.7900     0.9000     1.9500    23.2830     2.2680 
   67.6250    56.3350    55.0420     1.4540     0.7280     1.7350    23.4030     2.3310 
   67.7500    54.1240    50.9170     0.9290     0.5140     1.3800    23.4800     2.3960 
   67.8750    51.3430    48.8580     0.4000     0.3170     0.8870    23.5470     2.4560 
   68.0000    47.8560    47.8880     0.0090     0.1730     0.5490    23.6300     2.5010 
   68.1250    43.5240    46.9840    -0.2190     0.0860     0.6470    23.6990     2.5170 
   68.2500    37.9530    51.2040    -0.2650     0.0790     1.2200    23.7050     2.4860 
   68.3750    31.3720    60.5980    -0.0910     0.2100     2.5050    23.5530     2.4180 
   68.5000    24.1730    70.4470     0.4060     0.5920     4.4620    23.2130     2.3310 
   68.6250    16.7910    77.4840     1.3000     1.3450     6.5730    22.8890     2.2470 
   68.7500     9.5180    79.4410     2.5830     2.5830     8.1220    22.7460     2.1870 
   68.8750     2.5510    77.7270     3.9370     4.1090     8.8650    22.6900     2.1510 
   69.0000    -3.8160    76.7820     5.0250     5.6530     9.1450    22.6110     2.1350 
   69.1250    -9.3260    78.7170     5.6540     6.9450     9.4170    22.5210     2.1280 
   69.2500   -13.4630    78.2870     5.9460     7.8350     9.7460    22.6190     2.1230 
   69.3750   -16.3240    72.4110     6.2050     8.4650    10.0430    22.8220     2.1170 
   69.5000   -18.1870    66.4270     6.4650     8.8780    10.3240    22.9700     2.1090 
   69.6250   -19.4460    64.4520     6.6320     9.0440    10.5750    23.0080     2.1050 
   69.7500   -20.2300    67.3180     6.5570     8.8690    10.6070    22.9540     2.1100 
   69.8750   -20.7670    72.9640     6.2590     8.4390    10.2950    22.8650     2.1270 
   70.0000   -21.1390    80.7160     5.8400     7.8780     9.6690    22.8550     2.1570 
   70.1250   -21.3990    88.9630     5.4670     7.3560     8.7230    22.9910     2.1920 
   70.2500   -21.7180    93.5260     5.3450     7.0790     7.7980    23.2120     2.2160 
   70.3750   -22.2140    92.1650     5.5160     7.1090     7.5750    23.3190     2.2200 
   70.5000   -22.8420    86.7180     5.9580     7.4460     8.3000    23.3070     2.2060 
   70.6250   -23.5600    80.8400     6.5780     8.0180     9.5060    23.2830     2.1810 
   70.7500   -24.3740    74.3900     7.2230     8.6910    10.4660    23.2710     2.1580 
   70.8750   -25.1070    66.5120     7.7310     9.2780    10.8900    23.2400     2.1420 
   71.0000   -25.7290    61.7120     8.0170     9.6640    10.9900    23.1930     2.1340 
   71.1250   -26.2210    63.1170     8.0700     9.8050    10.9270    23.1700     2.1310 
