~V
VERS. 2.00: Ver 2.00
~W
STRT.M 55.0000:
STOP.M 270.0000:
STEP.M 0.1250:
NULL. -999.2500:
UWI. DF5017:
~C
DEPT.M :
SP.MV :
GR.API :
CALI.CM :
RXO.OHMM :
RI. :
RML.OHMM :
DEN.GM/CC :
~A
# ...
   66.2500   -41.4530    79.2200    23.8800     9.2220     6.4680     9.0140     2.1530 
   66.3750   -40.6410    82.2550    23.9440     8.8610     6.2980     8.6740     2.1630 
   66.5000   -39.7480    87.4990    24.0490     8.1190     6.1480     8.3910     2.1770 
   66.6250   -38.8450    92.2970    24.1850     7.6830     6.0360     8.2300     2.1940 
   66.7500   -37.9360    93.7920    24.2960     7.9000     5.9440     8.1500     2.2100 
   66.8750   -37.0220    95.8290    24.4090     8.2040     5.8420     8.0740     2.2190 
   67.0000   -36.1610   101.3190    24.5160     7.8830     5.6940     7.9270     2.2170 
   67.1250   -35.4410   105.2880    24.5540     7.1160     5.4820     7.6840     2.2090 
   67.2500   -34.8770   104.8450    24.5080     6.6250     5.2410     7.4200     2.2040 
   67.3750   -34.4770   104.2590    24.4690     6.4040     5.0120     7.2050     2.2050 
   67.5000   -34.2210   106.2860    24.5050     6.2300     4.8280     7.0590     2.2050 
   67.6250   -34.1190   106.2580    24.5560     6.1560     4.6840     6.9020     2.1980 
   67.7500   -34.1510   102.2710    24.5670     6.3450     4.5610     6.6790     2.1980 
   67.8750   -34.3520   100.4400    24.5740     6.5490     4.5160     6.4990     2.2170 
   68.0000   -34.7030   103.2980    24.5790     6.6980     4.6780     6.5870     2.2670 
   68.1250   -35.0900   102.4070    24.5970     7.0200     5.2510     7.2570     2.3490 
   68.2500   -35.4990    95.6560    24.6160     8.7160     6.2280     8.5530     2.4360 
   68.3750   -35.9350    90.9370    24.6220    14.0280     7.4910    10.3690     2.4900 
   68.5000   -36.3930    92.5590    24.5860    21.3170     8.6690    12.1280     2.4810 
   68.6250   -36.8460    94.6850    24.4470    22.3290     9.0460    12.5220     2.4020 
   68.7500   -37.3050    91.8470    24.2820    16.4750     8.5470    11.5250     2.3020 
   68.8750   -37.7500    88.2720    24.1740    10.9090     7.5690    10.0220     2.2130 
   69.0000   -38.0880    88.9390    24.1240     8.8710     6.5900     8.7900     2.1510 
   69.1250   -38.3540    93.6270    24.0800     8.4450     5.9190     8.1590     2.1280 
   69.2500   -38.4790    98.5560    24.0300     8.5110     5.5260     7.9110     2.1330 
   69.3750   -38.4850   103.0050    23.9850     8.4530     5.3120     7.8310     2.1560 
   69.5000   -38.3870   106.9740    23.8990     7.8690     5.1780     7.7710     2.1860 
   69.6250   -38.2560   108.2990    23.6850     6.9110     5.0940     7.7500     2.2050 
   69.7500   -38.1280   107.0830    23.4890     6.3660     5.0780     7.8720     2.2080 
   69.8750   -38.0230   104.2000    23.3700     6.6990     5.1410     8.1640     2.1990 
   70.0000   -38.0400    99.4490    23.3360     7.6310     5.2500     8.5240     2.1920 
   70.1250   -38.1480    95.9290    23.3910     8.3300     5.3260     8.7200     2.1890 
   70.2500   -38.3930    95.8970    23.5190     8.2240     5.3290     8.6550     2.1860 
   70.3750   -38.7580    98.4930    23.6850     7.6540     5.2840     8.4150     2.1890 
   70.5000   -39.2470    97.7130    23.8410     7.1820     5.2590     8.1900     2.2100 
   70.6250   -39.8040    90.1870    23.9920     7.4250     5.3540     8.2060     2.2470 
   70.7500   -40.3970    81.8260    24.0130     8.4320     5.5980     8.5000     2.2740 
   70.8750   -40.9130    78.2150    23.8880     9.5590     5.9760     9.0200     2.2700 
   71.0000   -41.2790    78.7570    23.6080    10.2280     6.4300     9.6520     2.2350 
   71.1250   -41.5090    78.9990    23.6170    11.0340     6.8550    10.2470     2.1890 
   71.2500   -41.6320    79.3070    23.7670    13.3240     7.1450    10.6760     2.1610 
   71.3750   -41.6230    80.4350    24.0190    16.7380     7.2090    10.8150     2.1550 
   71.5000   -41.4430    82.2270    24.1850    17.5930     7.0010    10.5640     2.1660 
   71.6250   -41.0530    87.3440    24.2030    14.0530     6.5270     9.8780     2.1910 
   71.7500   -40.5280    95.9210    24.1800     9.9160     5.9520     8.9990     2.2170 
   71.8750   -40.0360   103.6990    24.2020     7.6560     5.4010     8.1570     2.2330 
   72.0000   -39.6930   105.0420    24.3080     6.7150     4.9720     7.5310     2.2310 
   72.1250   -39.5890   100.0850    24.4370     6.5560     4.7610     7.2660     2.2090 
   72.2500   -39.5890    93.0400    24.4510     6.9160     4.7820     7.3450     2.1840 
   72.3750   -39.7170    86.5300    24.4100     7.4460     5.0760     7.8060     2.1800 
   72.5000   -39.9610    81.6300    24.3810     7.9240     5.6820     8.7080     2.2230 
   72.6250   -40.3480    78.9300    24.4010     8.5530     6.6560    10.1550     2.3190 
   72.7500   -40.8120    76.6090    24.5050     9.8160     7.8410    11.9240     2.4190 
   72.8750   -41.2990    73.0540    24.6020    11.5300     8.9820    13.6010     2.4760 
   73.0000   -41.7420    70.1220    24.5880    12.5650     9.7220    14.5690     2.4640 
   73.1250   -42.0980    70.6440    24.3520    12.0510     9.7090    14.2590     2.3910 
   73.2500   -42.4860    72.2810    24.0910    11.2440     9.2060    13.2120     2.3050 
   73.3750   -42.8660    71.6140    23.9060    11.0700     8.5480    12.0630     2.2310 
   73.5000   -43.2250    69.7910    23.7960    11.4010     8.0050    11.2580     2.1770 
   73.6250   -43.5280    70.1830    23.8320    11.3770     7.7270    10.9990     2.1470 
   73.7500   -43.7800    70.9300    23.8840    11.0100     7.6330    11.0570     2.1350 
   73.8750   -44.0040    68.3840    23.8970    10.6200     7.6250    11.2080     2.1360 
   74.0000   -44.1400    65.4700    23.8680    10.4500     7.6290    11.2970     2.1400 
   74.1250   -44.2140    67.1430    23.8500    10.4640     7.6280    11.3010     2.1420 
   74.2500   -44.1700    70.2020    23.8440    10.5160     7.6470    11.3140     2.1450 
   74.3750   -44.0800    71.1460    23.8410    10.5170     7.7000    11.3860     2.1480 
   74.5000   -43.9630    70.0690    23.8340    10.4310     7.7800    11.5110     2.1500 
   74.6250   -43.8610    70.6260    23.8200    10.3770     7.8700    11.6530     2.1470 
   74.7500   -43.7860    72.0820    23.8170    10.4010     7.9620    11.8010     2.1430 
   74.8750   -43.7020    72.5890    23.8180    10.4670     8.0620    11.9810     2.1410 
   75.0000   -43.6580    71.6820    23.8190    10.5560     8.1620    12.2040     2.1400 
   75.1250   -43.5940    71.6250    23.8190    10.6630     8.2310    12.4230     2.1360 
   75.2500   -43.5390    72.4060    23.8190    10.6940     8.2330    12.5460     2.1280 
   75.3750   -43.4980    72.7210    23.8180    10.6070     8.1480    12.4980     2.1180 
   75.5000   -43.4690    73.5750    23.8170    10.4760     7.9810    12.2630     2.1110 
   75.6250   -43.4640    76.3210    23.8130    10.4230     7.7630    11.9070     2.1170 
   75.7500   -43.4990    78.1210    23.8110    10.4440     7.5650    11.5790     2.1320 
   75.8750   -43.5570    77.7210    23.8120    10.4990     7.4340    11.3650     2.1470 
   76.0000   -43.6460    76.7350    23.8130    10.5600     7.3930    11.2910     2.1550 
   76.1250   -43.7580    76.7690    23.8170    10.6010     7.4360    11.3350     2.1550 
   76.2500   -43.9660    76.0580    23.8180    10.5700     7.4960    11.3980     2.1510 
   76.3750   -44.2370    74.4920    23.8160    10.5070     7.5260    11.4170     2.1430 
   76.5000   -44.5850    72.7350    23.8130    10.4540     7.4990    11.3690     2.1310 
   76.6250   -44.9480    72.7370    23.8160    10.4220     7.4140    11.2640     2.1160 
   76.7500   -45.2590    73.5800    23.8180    10.3650     7.3110    11.1560     2.1040 
   76.8750   -45.5010    74.5210    23.8190    10.3210     7.2230    11.0940     2.1010 
   77.0000   -45.6650    74.7960    23.8190    10.3230     7.1750    11.1130     2.1040 
   77.1250   -45.7560    73.8330    23.8200    10.4030     7.1830    11.2210     2.1120 
   77.2500   -45.7160    70.5290    23.8170    10.5480     7.2220    11.3670     2.1160 
   77.3750   -45.6080    67.3460    23.7950    10.6860     7.2710    11.5060     2.1150 
