~V
VERS. 2.00: Ver 2.00
~W
STRT.M 58.0000:
STOP.M 276.0000:
STEP.M 0.1250:
NULL. -999.2500:
UWI. DF5012:
~C
DEPT.M :
SP.MV :
GR.API :
CALI.CM :
RXO.OHMM :
RI. :
RML.OHMM :
DEN.GM/CC :
~A
# ...
   69.2500   -51.6000    93.1260    24.6630     6.9670     7.1530     9.5850     2.1710 
   69.3750   -51.7840    94.1000    24.6870     7.4290     7.6340    10.4920     2.1890 
   69.5000   -52.0630    90.7980    24.6390     8.6040     8.2470    11.4510     2.1970 
   69.6250   -52.2210    84.3760    24.5000    10.5380     8.7580    12.0340     2.1930 
   69.7500   -52.4450    78.1110    24.3370    11.6860     8.9690    12.0590     2.1850 
   69.8750   -52.5820    74.5230    24.2290    11.3760     8.8450    11.5940     2.1760 
   70.0000   -52.6550    74.8090    24.2000    10.2470     8.5130    10.9160     2.1660 
   70.1250   -52.5650    74.2720    24.2050    10.1460     8.1660    10.3650     2.1530 
   70.2500   -52.3900    70.3730    24.2070    10.2670     7.9300    10.0680     2.1390 
   70.3750   -52.1050    66.6250    24.2060    10.2390     7.8190     9.9940     2.1270 
   70.5000   -51.7280    66.0770    24.2060    10.0070     7.8080    10.0500     2.1210 
   70.6250   -51.3500    67.4610    24.2060     9.8000     7.8590    10.1450     2.1200 
   70.7500   -50.8920    69.0940    24.2050     9.7530     7.9200    10.2070     2.1180 
   70.8750   -50.3660    72.0920    24.2090     9.8220     7.9510    10.1860     2.1130 
   71.0000   -49.8430    76.0600    24.2230     9.9100     7.9080    10.0410     2.1060 
   71.1250   -49.3290    79.4840    24.2550     9.7730     7.7460     9.7340     2.1030 
   71.2500   -48.8030    83.2560    24.3500     9.4540     7.4870     9.3170     2.1110 
   71.3750   -48.3320    87.5520    24.5440     8.5580     7.1620     8.8480     2.1320 
   71.5000   -47.8970    94.0670    24.7790     7.5270     6.8210     8.3990     2.1650 
   71.6250   -47.5680   102.3040    24.9500     7.1530     6.5280     8.0570     2.2030 
   71.7500   -47.3730   106.2020    25.0820     7.2040     6.3100     7.8330     2.2350 
   71.8750   -47.3100   103.7390    25.2190     6.7730     6.1750     7.7230     2.2550 
   72.0000   -47.3180    98.2160    25.3320     6.3760     6.1230     7.7230     2.2620 
   72.1250   -47.4950    96.1590    25.3610     6.5400     6.1730     7.8620     2.2590 
   72.2500   -47.7970    95.6970    25.3610     6.7660     6.3150     8.1460     2.2530 
   72.3750   -48.1490    92.2730    25.3520     7.0130     6.5540     8.5860     2.2450 
   72.5000   -48.5560    84.8520    25.2380     7.6810     6.8860     9.1570     2.2320 
   72.6250   -49.0230    78.1400    24.9140     8.6530     7.2710     9.7600     2.2150 
   72.7500   -49.3670    75.5730    24.5410     9.4220     7.6150    10.2330     2.1980 
   72.8750   -49.6800    74.3120    24.2990     9.7320     7.8290    10.4530     2.1840 
   73.0000   -50.0260    72.0950    24.2300     9.9740     7.8560    10.3870     2.1760 
   73.1250   -50.2340    72.4070    24.3030    10.0690     7.7250    10.1600     2.1710 
   73.2500   -50.3620    76.5260    24.4940     9.7860     7.6190    10.0980     2.1660 
   73.3750   -50.4620    79.7150    24.7720     9.3990     7.7090    10.5000     2.1600 
   73.5000   -50.5570    78.8260    25.0620     9.4490     8.1490    11.6090     2.1620 
   73.6250   -50.6030    76.4290    25.3180    11.6060     9.1390    13.6160     2.1820 
   73.7500   -50.7890    76.0830    25.5270    17.1040    10.5640    16.0530     2.2250 
   73.8750   -51.0110    78.4080    25.6500    20.9980    12.1120    18.1920     2.2840 
   74.0000   -51.2100    80.8190    25.6730    22.0000    13.1920    19.1130     2.3420 
   74.1250   -51.4990    79.0790    25.5280    20.5410    13.0340    17.9840     2.3640 
   74.2500   -51.8350    73.8110    25.1610    16.5910    11.9000    15.6280     2.3360 
   74.3750   -52.1520    68.4470    24.6700    11.1340    10.3760    13.0690     2.2710 
   74.5000   -52.4540    66.7750    24.2930     9.0730     8.9980    11.0820     2.2000 
   74.6250   -52.7760    68.1960    24.1800     8.6460     8.0900    10.0430     2.1470 
   74.7500   -53.0490    69.9620    24.1710     8.4870     7.6020     9.6800     2.1170 
   74.8750   -53.3080    70.2360    24.1630     8.4610     7.4700     9.7790     2.1040 
   75.0000   -53.6070    67.9530    24.1570     8.6060     7.5950    10.1240     2.1040 
   75.1250   -53.8480    66.8640    24.1560     8.9040     7.8580    10.4970     2.1090 
   75.2500   -54.0520    67.9840    24.1750     9.3240     8.0900    10.7160     2.1150 
   75.3750   -54.2470    70.0150    24.2410     9.6980     8.1900    10.6930     2.1200 
   75.5000   -54.4730    70.5530    24.3580    10.2120     8.1140    10.4200     2.1280 
   75.6250   -54.6180    71.6010    24.4780    11.0160     7.8790     9.9800     2.1400 
   75.7500   -54.7750    74.4220    24.5520     9.8880     7.6040     9.5660     2.1540 
   75.8750   -54.9270    77.4450    24.5450     7.8390     7.3860     9.3220     2.1650 
   76.0000   -55.0280    77.6180    24.4520     7.7290     7.2940     9.3170     2.1640 
   76.1250   -55.1100    72.7510    24.3270     8.8060     7.3670     9.5470     2.1490 
   76.2500   -55.1380    68.2330    24.2650     9.6990     7.5380     9.8660     2.1290 
   76.3750   -55.1880    67.0750    24.3020    10.0180     7.7450    10.1760     2.1110 
   76.5000   -55.1440    67.0230    24.4010    10.1780     7.9250    10.4080     2.1020 
   76.6250   -55.0980    65.9610    24.4890    10.1380     8.0300    10.5440     2.1010 
   76.7500   -54.9700    66.7650    24.5300    10.0620     8.0810    10.6420     2.1020 
   76.8750   -54.8100    69.0540    24.5340    10.1320     8.1040    10.7320     2.1040 
   77.0000   -54.5100    70.8250    24.5310    10.3850     8.1040    10.8010     2.1080 
   77.1250   -54.2840    71.3300    24.5310    10.5040     8.0590    10.7930     2.1140 
   77.2500   -54.0550    71.9780    24.5310    10.4450     7.9610    10.6880     2.1220 
   77.3750   -53.8220    72.0020    24.5320    10.2890     7.8090    10.4910     2.1280 
   77.5000   -53.5950    71.0460    24.5350    10.1860     7.6270    10.2660     2.1310 
   77.6250   -53.4160    71.4150    24.5540    10.2080     7.5030    10.1920     2.1320 
   77.7500   -53.1980    71.6670    24.5880    10.2890     7.5310    10.4150     2.1330 
   77.8750   -53.0440    71.6730    24.6360    10.4400     7.7680    10.9910     2.1400 
   78.0000   -52.9600    72.2410    24.6940    10.9270     8.2090    11.8440     2.1590 
   78.1250   -52.8080    71.6930    24.7580    13.3250     8.7670    12.7180     2.1960 
   78.2500   -52.6400    69.2120    24.7810    16.9480     9.2250    13.2560     2.2460 
   78.3750   -52.4490    66.6640    24.6860    16.5500     9.3940    13.2290     2.2900 
   78.5000   -52.2830    66.6630    24.4740    12.0310     9.2030    12.6510     2.3020 
   78.6250   -52.0740    67.6020    24.2760    11.3030     8.7410    11.8030     2.2690 
   78.7500   -51.9230    67.6240    24.1920    11.1040     8.2650    11.0960     2.2220 
   78.8750   -51.6580    67.6170    24.1870    10.8980     7.9160    10.7070     2.1820 
   79.0000   -51.4290    67.7850    24.1920    10.7730     7.7450    10.6300     2.1530 
   79.1250   -51.1820    67.0600    24.1910    10.8270     7.7300    10.7330     2.1380 
   79.2500   -50.9780    65.7370    24.1890    10.9670     7.7570    10.8130     2.1330 
   79.3750   -50.7640    66.1900    24.1860    11.0790     7.7650    10.8060     2.1330 
   79.5000   -50.6000    68.6160    24.2170    10.9850     7.7430    10.7390     2.1360 
   79.6250   -50.3750    70.6240    24.3340    10.9450     7.7160    10.6910     2.1380 
   79.7500   -50.1570    71.8370    24.4850    11.1620     7.7120    10.7060     2.1370 
   79.8750   -50.0080    72.5130    24.5920    11.4330     7.7380    10.7700     2.1320 
   80.0000   -49.8000    72.5280    24.6260    11.5870     7.7800    10.8380     2.1250 
   80.1250   -49.5990    71.1540    24.6230    11.7720     7.8190    10.8620     2.1180 
   80.2500   -49.3860    69.4500    24.6220    11.8240     7.8540    10.8660     2.1150 
   80.3750   -49.1490    68.0440    24.6230    11.7740     7.9070    10.9070     2.1150 
