~V
VERS. 2.00: Ver 2.00
~W
STRT.M 60.0000:
STOP.M 273.0000:
STEP.M 0.1250:
NULL. -999.2500:
UWI. DF5003:
~C
DEPT.M :
GR.API :
CALI.CM :
RXO.OHMM :
RI. :
RML.OHMM :
DEN.GM/CC :
SP.MV :
~A
# ...
  127.5000    66.1290    24.7230    36.5930    19.5340    23.2880     2.6060   -29.7010 
  127.6250    65.3710    24.7200    49.7750    24.1450    28.1140     2.6160   -30.0810 
  127.7500    65.1770    24.7080    59.1980    26.1330    29.6190     2.5890   -30.4730 
  127.8750    64.7330    24.7000    57.4810    24.5350    26.9990     2.5200   -30.9010 
  128.0000    64.0430    24.7100    46.3300    20.5310    21.8330     2.4240   -31.4450 
  128.1250    62.8410    24.7330    32.7310    16.2370    16.7290     2.3310   -31.9370 
  128.2500    62.2260    24.7390    18.7470    12.8780    13.0100     2.2570   -32.3940 
  128.3750    63.0770    24.7200    11.6700    10.6270    10.7600     2.2070   -32.8840 
  128.5000    65.1900    24.6950    10.4590     9.3300     9.6650     2.1760   -33.3180 
  128.6250    66.2970    24.6830    10.7440     8.8510     9.4310     2.1600   -33.8110 
  128.7500    65.4270    24.6800    10.8470     8.8380     9.5910     2.1480   -34.1540 
  128.8750    65.0470    24.6810    10.7760     9.0870     9.8970     2.1370   -34.5020 
  129.0000    66.3910    24.6810    10.7260     9.4040    10.1610     2.1300   -34.7460 
  129.1250    66.1190    24.6720    10.7500     9.6330    10.2740     2.1300   -34.9820 
  129.2500    62.6530    24.6570    10.8400     9.7510    10.2770     2.1330   -35.1020 
  129.3750    60.3280    24.6430    10.8440     9.7820    10.2240     2.1360   -35.1590 
  129.5000    60.4660    24.6370    10.7860     9.7610    10.1580     2.1370   -35.1420 
  129.6250    59.3800    24.6380    10.7750     9.7150    10.1110     2.1380   -35.0200 
  129.7500    56.7530    24.6380    10.7600     9.6590    10.0830     2.1430   -34.9680 
  129.8750    55.7830    24.6390    10.7720     9.5920    10.0660     2.1530   -34.8290 
  130.0000    56.8060    24.6460    10.8060     9.5070    10.0500     2.1660   -34.6240 
  130.1250    57.2680    24.6420    10.6690     9.4060    10.0330     2.1770   -34.3920 
  130.2500    57.7200    24.6180    10.5260     9.3070    10.0180     2.1820   -34.2940 
  130.3750    59.7260    24.5860    10.3550     9.2260    10.0130     2.1820   -34.0640 
  130.5000    63.8010    24.5680    10.0930     9.1750    10.0270     2.1790   -33.8370 
  130.6250    69.7290    24.5680    10.2270     9.1640    10.0670     2.1780   -33.6490 
  130.7500    73.0830    24.5680    10.4630     9.1790    10.1270     2.1800   -33.4460 
  130.8750    70.6560    24.5650    10.5810     9.2100    10.1980     2.1850   -33.2340 
  131.0000    65.6910    24.5620    10.5740     9.2480    10.2760     2.1880   -33.0010 
  131.1250    65.0170    24.5620    10.6370     9.2850    10.3540     2.1880   -32.8270 
  131.2500    67.4440    24.5650    10.7800     9.3180    10.4250     2.1850   -32.6500 
  131.3750    69.4840    24.5680    10.9630     9.3410    10.4790     2.1800   -32.5650 
  131.5000    70.4610    24.5670    11.1270     9.3500    10.5060     2.1740   -32.3610 
  131.6250    71.4710    24.5700    11.1560     9.3360    10.4900     2.1710   -32.2370 
  131.7500    71.8600    24.5210    11.0590     9.3060    10.4480     2.1710   -32.0860 
  131.8750    72.5190    24.3390    10.9650     9.2730    10.4000     2.1750   -31.9490 
  132.0000    73.1340    24.0520    10.9340     9.2510    10.3660     2.1810   -31.7510 
  132.1250    71.7370    23.8280    10.9780     9.2570    10.3570     2.1890   -31.5550 
  132.2500    69.7060    23.7340    10.9920     9.2840    10.3600     2.1940   -31.3970 
  132.3750    69.0990    23.7070    10.9040     9.3160    10.3520     2.1980   -31.2980 
  132.5000    70.3680    23.6900    10.6480     9.3220    10.3030     2.2010   -31.2140 
  132.6250    74.4990    23.6190    10.3020     9.2480    10.1720     2.2040   -30.9930 
  132.7500    79.9450    23.4120     9.7500     9.0780     9.9490     2.2070   -30.8360 
  132.8750    82.1740    23.1080     9.1560     8.7970     9.6160     2.2060   -30.6920 
  133.0000    78.7580    22.8580     8.3850     8.3990     9.1480     2.2050   -30.5790 
  133.1250    74.0820    22.7790     7.9010     7.8940     8.5530     2.2070   -30.3610 
  133.2500    72.4090    22.7780     7.5970     7.4000     7.9840     2.2230   -29.9780 
  133.3750    73.6530    22.8070     7.2560     7.0520     7.6080     2.2570   -29.5410 
  133.5000    76.6870    22.8860     6.3040     6.9500     7.5400     2.3100   -29.1950 
  133.6250    80.1980    23.0600     5.7770     7.1340     7.7940     2.3670   -28.8670 
  133.7500    81.4850    23.3150     7.3750     7.4130     8.1030     2.3990   -28.4690 
  133.8750    79.3590    23.5930    10.7100     7.5460     8.1770     2.3980   -28.0750 
  134.0000    76.1100    23.8130    11.8430     7.3210     7.8130     2.3730   -27.6940 
  134.1250    78.3010    23.9440     8.3750     6.6970     7.0360     2.3470   -27.4350 
  134.2500    87.4210    24.1020     5.8530     5.9770     6.2230     2.3280   -27.3100 
  134.3750    98.7280    24.3280     4.8690     5.3780     5.6100     2.3120   -27.1480 
  134.5000   103.2730    24.5370     5.0070     5.0100     5.2870     2.2950   -26.9800 
  134.6250    98.2310    24.6210     5.5180     4.9070     5.2440     2.2770   -26.8060 
  134.7500    93.4060    24.6280     5.9760     4.9490     5.3170     2.2660   -26.7420 
  134.8750    93.4640    24.6230     6.1260     5.0460     5.4030     2.2680   -26.6780 
  135.0000    94.6820    24.6270     6.1030     5.1380     5.4550     2.2810   -26.6810 
  135.1250    93.6660    24.6270     5.5250     5.2230     5.4980     2.2940   -26.7160 
  135.2500    93.3150    24.6160     5.3330     5.3320     5.5790     2.2990   -26.7700 
  135.3750    93.6590    24.5960     5.6410     5.4720     5.7000     2.2940   -26.8740 
  135.5000    91.6000    24.5740     6.2840     5.6100     5.8160     2.2830   -26.8950 
  135.6250    89.3230    24.5630     6.5070     5.6840     5.8570     2.2780   -27.0570 
  135.7500    89.3470    24.5600     6.6100     5.6690     5.8090     2.2790   -27.1050 
  135.8750    89.5960    24.5610     6.2230     5.5730     5.6930     2.2830   -27.1590 
  136.0000    88.6590    24.5610     5.5530     5.4260     5.5450     2.2850   -27.1210 
  136.1250    88.7550    24.5610     5.3880     5.2670     5.3930     2.2830   -27.0670 
  136.2500    91.3110    24.5610     5.7560     5.1210     5.2510     2.2820   -27.0320 
  136.3750    94.1400    24.5610     5.8800     5.0110     5.1420     2.2850   -27.0700 
  136.5000    95.5960    24.5600     5.4030     4.9710     5.1200     2.2890   -27.1450 
  136.6250    95.6810    24.5590     5.0940     5.0680     5.2720     2.2860   -27.0460 
  136.7500    95.1760    24.5590     5.4200     5.2910     5.5760     2.2730   -27.0690 
  136.8750    95.4280    24.5600     6.1790     5.5940     5.9620     2.2570   -27.1100 
  137.0000    96.5840    24.5610     6.9150     5.8800     6.3060     2.2440   -27.2550 
  137.1250    94.2190    24.5610     7.4040     6.0050     6.4390     2.2440   -27.3020 
  137.2500    87.5740    24.5610     7.0970     5.9360     6.3480     2.2510   -27.3340 
  137.3750    82.3290    24.5610     6.3400     5.7220     6.1090     2.2580   -27.3390 
  137.5000    83.2570    24.5610     5.8000     5.4660     5.8490     2.2580   -27.5110 
  137.6250    87.0550    24.5610     6.1050     5.3080     5.7320     2.2520   -27.7370 
  137.7500    89.2250    24.5610     6.8190     5.3620     5.8880     2.2550   -27.9070 
  137.8750    89.7910    24.5630     7.4910     5.7550     6.4870     2.2800   -28.0920 
  138.0000    87.7120    24.5680     8.2100     6.6500     7.7710     2.3290   -28.3340 
  138.1250    81.6870    24.5400    10.7270     8.4350    10.2520     2.4030   -28.5970 
  138.2500    75.0900    24.4630    17.5110    11.2510    13.9740     2.4770   -28.7830 
  138.3750    70.9790    24.3600    27.1330    15.0800    18.6510     2.5190   -29.0190 
  138.5000    68.1820    24.2720    35.1530    19.2090    23.1530     2.5030   -29.2250 
  138.6250    64.6840    24.2320    35.8200    21.5120    24.9840     2.4360   -29.5510 
