~V
VERS. 2.00: Ver 2.00
~W
STRT.M 59.0000:
STOP.M 275.0000:
STEP.M 0.1250:
NULL. -999.2500:
UWI. DF5021:
~C
DEPT.M :
SP.MV :
GR.API :
CALI.CM :
RXO.OHMM :
RI. :
RML.OHMM :
DEN.GM/CC :
~A
# ...
  115.2500   -13.9850    75.2750    23.7750     7.8110     7.1790     7.8470     2.1480 
  115.3750   -13.6080    79.3590    23.7950     7.7130     7.0930     7.6680     2.1870 
  115.5000   -13.2280    84.1010    23.8160     7.4200     6.8950     7.3700     2.2430 
  115.6250   -12.6530    89.5300    23.8150     6.8430     6.5900     6.9690     2.2880 
  115.7500   -12.1930    95.4120    23.7920     6.1480     6.2040     6.5060     2.3010 
  115.8750   -11.8130   101.5860    23.7870     5.6310     5.7800     6.0410     2.2820 
  116.0000   -11.3130   107.3060    23.8030     5.3990     5.3780     5.6310     2.2590 
  116.1250   -10.9010   111.3570    23.8190     5.3160     5.0320     5.3040     2.2540 
  116.2500   -10.6740   113.3430    23.8140     5.2250     4.7690     5.0800     2.2720 
  116.3750   -10.3960   114.2030    23.7950     5.0290     4.6240     4.9860     2.3040 
  116.5000   -10.1620   115.1920    23.8250     4.7520     4.5830     4.9970     2.3290 
  116.6250   -10.1870   116.2610    23.9440     4.5300     4.6380     5.0990     2.3330 
  116.7500   -10.1660   116.0930    24.1440     4.5040     4.7750     5.2790     2.3150 
  116.8750   -10.1500   113.9340    24.3080     4.7770     4.9750     5.5080     2.2870 
  117.0000   -10.3240   112.0500    24.3680     5.2610     5.1890     5.7320     2.2750 
  117.1250   -10.5200   113.1070    24.3890     5.7780     5.3780     5.9110     2.2900 
  117.2500   -10.5870   117.6670    24.4190     6.1610     5.5050     6.0110     2.3250 
  117.3750   -10.7530   123.1910    24.4700     6.3590     5.5350     6.0110     2.3560 
  117.5000   -10.9900   125.4340    24.5020     6.4580     5.4930     5.9500     2.3680 
  117.6250   -11.0500   123.2640    24.4960     6.3780     5.4070     5.8640     2.3600 
  117.7500   -11.1620   118.8110    24.4630     6.1270     5.3140     5.7880     2.3360 
  117.8750   -11.3580   115.1350    24.3940     5.8840     5.2480     5.7540     2.2990 
  118.0000   -11.4180   112.4420    24.4540     5.8060     5.2220     5.7640     2.2630 
  118.1250   -11.4340   109.9340    24.5140     5.8440     5.2370     5.8140     2.2400 
  118.2500   -11.6000   107.5600    24.5090     5.9850     5.2830     5.8870     2.2310 
  118.3750   -11.6990   105.3840    24.4470     6.1120     5.3460     5.9680     2.2350 
  118.5000   -11.6990   103.0880    24.4420     6.1920     5.4100     6.0400     2.2410 
  118.6250   -11.8300   100.8940    24.4980     6.1780     5.4590     6.0900     2.2410 
  118.7500   -11.8840    99.8110    24.5560     6.1520     5.4800     6.1080     2.2360 
  118.8750   -11.7970   101.9320    24.5600     6.1720     5.4570     6.0770     2.2390 
  119.0000   -11.8040   106.5790    24.5230     6.1570     5.3970     6.0000     2.2520 
  119.1250   -11.7950   111.0310    24.5040     6.0740     5.3040     5.8830     2.2620 
  119.2500   -11.6320   112.4410    24.5610     5.9460     5.1890     5.7410     2.2600 
  119.3750   -11.5270   110.8670    24.6050     5.7220     5.0660     5.5920     2.2550 
  119.5000   -11.4950   110.3860    24.5850     5.4280     4.9450     5.4490     2.2570 
  119.6250   -11.3130   112.9930    24.5190     5.2640     4.8350     5.3210     2.2640 
  119.7500   -11.1650   117.2330    24.4960     5.2750     4.7430     5.2190     2.2710 
  119.8750   -11.1440   119.9950    24.5400     5.3830     4.6790     5.1610     2.2820 
  120.0000   -11.0320   120.1930    24.5300     5.4330     4.6490     5.1510     2.2990 
  120.1250   -10.9040   118.3800    24.4640     5.3300     4.6570     5.1930     2.3170 
  120.2500   -10.9200   115.3720    24.4080     5.0920     4.7030     5.2770     2.3310 
  120.3750   -10.8990   112.9580    24.4240     4.9520     4.7730     5.3750     2.3280 
  120.5000   -10.7800   112.3160    24.4910     5.1170     4.8280     5.4430     2.3100 
  120.6250   -10.8110   112.6640    24.5380     5.5800     4.8480     5.4580     2.2850 
  120.7500   -10.8990   112.4660    24.5460     6.0570     4.8330     5.4330     2.2690 
  120.8750   -10.8550   111.7400    24.5160     6.1230     4.8060     5.4100     2.2700 
  121.0000   -10.8220   112.2370    24.5200     5.8610     4.7990     5.4360     2.2900 
  121.1250   -10.8870   114.1650    24.5320     5.4750     4.8400     5.5440     2.3290 
  121.2500   -10.8150   115.1560    24.5360     5.1920     4.9470     5.7320     2.3810 
  121.3750   -10.7480   112.3440    24.5360     5.8650     5.1140     5.9600     2.4290 
  121.5000   -10.8290   108.2990    24.5200     7.8890     5.2820     6.1530     2.4640 
  121.6250   -10.8150   107.5310    24.4560    10.2230     5.4030     6.2590     2.4770 
  121.7500   -10.7520   111.8710    24.2740    10.6320     5.4470     6.2600     2.4580 
  121.8750   -10.8620   117.6460    24.0780     8.4930     5.4190     6.1860     2.4060 
  122.0000   -11.0110   119.3070    23.8970     6.4220     5.3920     6.1290     2.3530 
  122.1250   -11.0640   115.7010    23.7290     5.4960     5.4170     6.1540     2.3160 
  122.2500   -11.2710   109.2250    23.5540     5.4020     5.5200     6.2830     2.2910 
  122.3750   -11.4830   103.0080    23.4200     5.7030     5.7040     6.4960     2.2560 
  122.5000   -11.5790    98.4160    23.2670     6.2300     5.9070     6.6920     2.2180 
  122.6250   -11.7850    96.3670    23.1110     6.7290     6.0520     6.7730     2.1960 
  122.7500   -11.9720    97.3930    22.9890     6.9190     6.0710     6.6860     2.2030 
  122.8750   -11.9600   100.4610    23.0230     6.6090     5.9320     6.4330     2.2320 
  123.0000   -11.9300   103.0980    23.1970     6.0590     5.7130     6.1330     2.2590 
  123.1250   -11.9900   104.6270    23.4350     5.5990     5.4890     5.8780     2.2700 
  123.2500   -11.8840   105.0610    23.6610     5.3730     5.3270     5.7330     2.2690 
  123.3750   -11.7630   104.0970    23.7480     5.3030     5.2820     5.7350     2.2650 
  123.5000   -11.7480   102.4910    23.7940     5.3570     5.3260     5.8200     2.2590 
  123.6250   -11.6020   101.1080    23.8450     5.6340     5.4140     5.9210     2.2490 
  123.7500   -11.4530   100.4250    23.8860     6.1010     5.4890     5.9660     2.2350 
  123.8750   -11.4670   101.9340    23.8970     6.4460     5.4860     5.8850     2.2310 
  124.0000   -11.4810   106.5220    23.9310     6.3640     5.3840     5.6900     2.2390 
  124.1250   -11.3320   111.9480    24.0580     5.9110     5.1930     5.4140     2.2530 
  124.2500   -11.2740   113.9760    24.2470     5.3830     4.9500     5.1170     2.2710 
  124.3750   -11.2740   110.6760    24.3750     5.0730     4.7140     4.8780     2.2980 
  124.5000   -11.1510   106.7500    24.4200     4.9250     4.5380     4.7370     2.3300 
  124.6250   -11.1180   105.2510    24.4310     4.8450     4.4490     4.7120     2.3560 
  124.7500   -11.1690   105.3450    24.4460     4.7850     4.4550     4.7890     2.3690 
  124.8750   -11.0990   104.2200    24.4560     4.8900     4.5540     4.9440     2.3760 
  125.0000   -11.0600   100.5920    24.3780     5.2650     4.7030     5.1310     2.3850 
  125.1250   -11.2480    94.8160    24.2700     5.7230     4.8790     5.3330     2.3970 
  125.2500   -11.3970    88.2980    24.1720     5.9380     5.0650     5.5400     2.4030 
  125.3750   -11.4780    83.0980    24.1420     5.8100     5.2500     5.7510     2.3980 
  125.5000   -11.6990    80.0720    24.1510     5.7480     5.4380     5.9760     2.3850 
  125.6250   -11.8720    78.9690    24.1240     5.8620     5.6390     6.2280     2.3670 
  125.7500   -11.9720    79.0190    24.0490     6.0810     5.8670     6.5290     2.3460 
  125.8750   -12.2190    78.8190    23.9380     6.3860     6.1640     6.9350     2.3210 
  126.0000   -12.4560    77.5150    23.8380     6.7460     6.5720     7.4950     2.2930 
  126.1250   -12.4900    75.8860    23.8030     7.0720     7.1550     8.2850     2.2680 
  126.2500   -12.5650    75.2090    23.8250     7.3050     7.9750     9.3690     2.2550 
  126.3750   -12.6880    75.2750    23.8710     7.8530     9.1120    10.7790     2.2720 
