~V
VERS. 2.00: Ver 2.00
~W
STRT.M 61.0000:
STOP.M 253.0000:
STEP.M 0.1250:
NULL. -999.2500:
UWI. DF5045:
~C
DEPT.M :
GR.API :
CALI.CM :
RXO.OHMM :
RI. :
RML.OHMM :
DEN.GM/CC :
SP.MV :
~A
# ...
   72.2500    87.0090    23.3040    10.5100     7.7370     7.9750     2.3590   -28.7760 
   72.3750    84.5590    22.4550     7.5430     7.4000     7.5720     2.2850   -29.1420 
   72.5000    83.7110    21.7830     7.1280     7.1700     7.3290     2.2180   -29.5830 
   72.6250    83.0150    21.4700     7.3560     7.0720     7.2560     2.1710   -30.0240 
   72.7500    81.0560    21.3870     7.6860     7.0950     7.3150     2.1450   -30.4540 
   72.8750    78.5760    21.3910     7.9440     7.1840     7.4240     2.1340   -30.8770 
   73.0000    77.5690    21.4270     7.9990     7.2680     7.5000     2.1320   -31.2260 
   73.1250    77.7840    21.5040     7.9130     7.2990     7.5130     2.1350   -31.4770 
   73.2500    78.2630    21.6040     7.7960     7.2740     7.4720     2.1390   -31.6290 
   73.3750    78.7800    21.6700     7.7580     7.2100     7.4030     2.1440   -31.6820 
   73.5000    79.5740    21.6510     7.8480     7.1220     7.3300     2.1520   -31.7060 
   73.6250    80.4680    21.5340     7.9100     7.0230     7.2530     2.1640   -31.7440 
   73.7500    81.0340    21.4200     7.8240     6.9100     7.1630     2.1730   -31.7440 
   73.8750    80.0930    21.3550     7.6250     6.7770     7.0530     2.1730   -31.6890 
   74.0000    76.6620    21.3450     7.5680     6.6340     6.9450     2.1640   -31.5560 
   74.1250    73.7140    21.3880     7.7270     6.5350     6.9150     2.1530   -31.3310 
   74.2500    73.9150    21.5020     7.9140     6.5420     7.0380     2.1450   -31.0010 
   74.3750    76.7970    21.7030     7.9260     6.6960     7.3540     2.1420   -30.5620 
   74.5000    79.7470    21.9410     7.7310     7.0360     7.8870     2.1490   -29.9730 
   74.6250    81.0140    22.1190     7.8190     7.5170     8.5350     2.1740   -29.2740 
   74.7500    80.0240    22.2160     9.0120     8.0620     9.1690     2.2240   -28.5140 
   74.8750    77.5660    22.2510    11.9930     8.5360     9.6300     2.2850   -27.7440 
   75.0000    76.0210    22.2490    15.7510     8.7500     9.7210     2.3160   -27.0720 
   75.1250    76.4400    22.2570    16.0560     8.6560     9.4460     2.2960   -26.4700 
   75.2500    78.4170    22.2850    12.7900     8.2890     8.8790     2.2390   -25.8960 
   75.3750    82.2230    22.3580     9.2680     7.7680     8.1790     2.1770   -25.3280 
   75.5000    88.9530    22.6300     7.5660     7.2400     7.5320     2.1470   -24.7500 
   75.6250    96.4510    23.1200     6.7800     6.8070     7.0410     2.1490   -24.1610 
   75.7500   102.1210    23.5580     6.1110     6.5130     6.7350     2.1770   -23.5880 
   75.8750   104.5760    23.5920     5.6160     6.3580     6.5870     2.2220   -23.0300 
   76.0000   103.9130    23.0680     5.6060     6.3160     6.5540     2.2660   -22.4190 
   76.1250   102.7240    22.4970     5.8760     6.3440     6.6090     2.2930   -21.8400 
   76.2500   102.7190    22.1480     6.1990     6.4660     6.7830     2.2990   -21.3280 
   76.3750   103.3810    22.0400     6.4970     6.7030     7.0910     2.2910   -20.8710 
   76.5000   102.7590    22.0430     6.8140     7.0690     7.5140     2.2820   -20.4370 
   76.6250   101.1270    22.1420     7.2050     7.4890     7.9350     2.2880   -19.9670 
   76.7500   100.1660    22.4250     8.2160     7.8610     8.2280     2.3200   -19.4080 
   76.8750   100.9400    22.9610    10.9000     8.0560     8.2680     2.3850   -18.7770 
   77.0000   103.9110    23.6310    15.5170     7.9100     7.9240     2.4630   -18.1490 
   77.1250   108.7330    24.1620    17.9320     7.4540     7.2850     2.5110   -17.5510 
   77.2500   115.3120    24.4170    15.4890     6.7770     6.4820     2.5060   -17.0130 
   77.3750   123.2500    24.5000    10.0410     6.0310     5.6850     2.4590   -16.5660 
   77.5000   129.7040    24.5060     6.0840     5.3860     5.0730     2.4080   -16.2830 
   77.6250   131.5340    24.5210     4.4950     4.9030     4.6760     2.3810   -16.1780 
   77.7500   128.9540    24.5200     4.1200     4.5900     4.4720     2.3760   -16.2830 
   77.8750   125.2470    24.5250     4.0850     4.4170     4.3960     2.3820   -16.5440 
   78.0000   123.0080    24.5200     4.0770     4.3450     4.3890     2.3830   -16.9030 
   78.1250   121.9990    24.5120     4.0830     4.3190     4.4030     2.3790   -17.2690 
   78.2500   121.9410    24.5100     4.1010     4.3260     4.4440     2.3750   -17.6460 
   78.3750   122.6620    24.5230     4.1020     4.3780     4.5430     2.3730   -18.0450 
   78.5000   123.5760    24.5170     4.0920     4.5120     4.7530     2.3690   -18.4930 
   78.6250   123.3320    24.4880     4.1290     4.7380     5.0740     2.3640   -18.9930 
   78.7500   120.1900    24.3790     4.4340     5.0550     5.4920     2.3650   -19.5250 
   78.8750   113.1040    24.0610     5.2270     5.4420     5.9740     2.3690   -20.1090 
   79.0000   103.7840    23.3940     6.3150     5.8620     6.4710     2.3510   -20.7880 
   79.1250    95.6570    22.6760     7.0170     6.2650     6.9310     2.3040   -21.5220 
   79.2500    89.2750    22.2430     7.2480     6.6200     7.3260     2.2460   -22.2560 
   79.3750    84.0870    22.1610     7.3950     6.9130     7.6470     2.2010   -22.9200 
   79.5000    80.6670    22.2700     7.6680     7.1350     7.8960     2.1780   -23.4540 
   79.6250    78.6110    22.3700     7.9900     7.3060     8.1040     2.1670   -23.8420 
   79.7500    76.7800    22.4470     8.2650     7.4440     8.2910     2.1640   -24.1040 
   79.8750    74.9400    22.5860     8.4990     7.5600     8.4610     2.1660   -24.2960 
   80.0000    74.3500    22.7550     8.6170     7.6460     8.5970     2.1700   -24.4370 
   80.1250    75.5800    22.8400     8.5770     7.6980     8.6950     2.1670   -24.5450 
   80.2500    78.3380    22.8220     8.4470     7.7190     8.7550     2.1580   -24.6200 
   80.3750    81.1700    22.6690     8.3590     7.7160     8.7840     2.1520   -24.6770 
   80.5000    81.6910    22.3360     8.3550     7.6980     8.7920     2.1550   -24.6840 
   80.6250    79.9290    21.9720     8.3790     7.6760     8.7990     2.1620   -24.6400 
   80.7500    77.3440    21.7370     8.3570     7.6590     8.8160     2.1650   -24.5690 
   80.8750    74.5590    21.6450     8.2500     7.6500     8.8480     2.1610   -24.4350 
   81.0000    70.9070    21.6310     8.0860     7.6500     8.8910     2.1560   -24.2190 
   81.1250    67.7560    21.6420     7.9870     7.6540     8.9360     2.1560   -23.9960 
   81.2500    66.8770    21.6530     7.9810     7.6600     8.9790     2.1630   -23.8500 
   81.3750    68.2590    21.6660     8.0500     7.6670     9.0170     2.1730   -23.8060 
   81.5000    70.4620    21.7100     8.2180     7.6760     9.0530     2.1830   -23.8830 
   81.6250    72.3720    21.7990     8.4380     7.6920     9.0920     2.1880   -24.0620 
   81.7500    74.2120    21.8650     8.5740     7.7220     9.1480     2.1860   -24.2850 
   81.8750    76.0860    21.8880     8.5980     7.7710     9.2270     2.1780   -24.5380 
   82.0000    77.0290    21.9140     8.6260     7.8380     9.3210     2.1790   -24.7210 
   82.1250    76.3490    21.9510     8.6400     7.9040     9.4060     2.1960   -24.8380 
   82.2500    74.6720    21.9720     8.5870     7.9560     9.4650     2.2190   -24.8450 
   82.3750    73.2330    21.9730     8.5030     7.9810     9.4820     2.2320   -24.7500 
   82.5000    72.9590    21.9730     8.4060     7.9660     9.4480     2.2270   -24.6060 
   82.6250    73.1590    21.9820     8.3240     7.9200     9.3800     2.2120   -24.4900 
   82.7500    73.0160    21.9940     8.2600     7.8520     9.2970     2.1940   -24.4130 
   82.8750    72.4190    21.9990     8.1760     7.7820     9.2230     2.1810   -24.3620 
   83.0000    71.7470    21.9780     8.0830     7.7290     9.1850     2.1740   -24.3910 
   83.1250    70.6300    21.9410     8.0790     7.6970     9.1760     2.1700   -24.4060 
   83.2500    68.8810    21.9220     8.0920     7.6780     9.1780     2.1710   -24.3550 
   83.3750    68.3200    21.9350     7.9900     7.6580     9.1700     2.1740   -24.2670 
