~V
VERS. 2.00: Ver 2.00
~W
STRT.M 55.0000:
STOP.M 274.0000:
STEP.M 0.1250:
NULL. -999.2500:
UWI. DF5018:
~C
DEPT.M :
SP.MV :
GR.API :
CALI.CM :
RXO.OHMM :
RI. :
RML.OHMM :
DEN.GM/CC :
~A
# ...
  111.2500   -21.0370    80.8070    24.1760     8.0460     5.8170     7.4440     2.2730 
  111.3750   -20.7900    86.1970    24.1950     7.8810     5.9220     7.5650     2.2760 
  111.5000   -20.5920    92.2550    24.2790     6.8500     5.8860     7.4810     2.2890 
  111.6250   -20.5850    91.6860    24.4820     6.1150     5.7220     7.2450     2.2910 
  111.7500   -20.6590    87.5670    24.6450     6.2830     5.4840     6.9390     2.2770 
  111.8750   -20.7870    87.3220    24.6490     6.8620     5.1890     6.5790     2.2600 
  112.0000   -21.0490    93.2360    24.5940     7.0890     4.8580     6.1760     2.2550 
  112.1250   -21.2610    97.1280    24.6190     6.3200     4.5430     5.7890     2.2670 
  112.2500   -21.6130    93.9440    24.6960     5.4850     4.3170     5.5220     2.2790 
  112.3750   -22.0480    87.6460    24.7110     5.5130     4.2380     5.4610     2.2830 
  112.5000   -22.5980    82.3930    24.6470     6.3660     4.3260     5.6310     2.2790 
  112.6250   -23.1430    80.0060    24.5160     7.3030     4.5980     6.0250     2.2710 
  112.7500   -23.6230    79.8120    24.4620     7.9230     5.0270     6.5690     2.2620 
  112.8750   -24.0400    79.7790    24.4570     8.6520     5.6660     7.3060     2.2630 
  113.0000   -24.3250    77.3010    24.4780     9.9440     6.6220     8.3940     2.2940 
  113.1250   -24.6110    73.7030    24.5380    12.4030     8.1380    10.2340     2.3800 
  113.2500   -24.7730    72.0080    24.6280    16.4940    10.2700    12.9520     2.5000 
  113.3750   -24.9070    72.6110    24.7300    22.6050    12.9320    16.3930     2.6140 
  113.5000   -24.9530    73.3720    24.7850    29.1720    15.5700    19.7130     2.6670 
  113.6250   -25.0550    72.2700    24.7920    31.5290    16.8090    20.9270     2.6130 
  113.7500   -25.2000    70.8970    24.7580    27.7290    16.1750    19.5650     2.5010 
  113.8750   -25.4590    69.4220    24.6360    20.6200    14.2340    16.6640     2.3830 
  114.0000   -25.8310    67.7660    24.4120    14.7740    11.9760    13.6820     2.2890 
  114.1250   -26.1880    66.0980    24.2470    12.6140    10.1690    11.5940     2.2280 
  114.2500   -26.6240    64.5840    24.1870    11.9370     8.9470    10.3740     2.1880 
  114.3750   -26.9920    63.3570    24.1790    11.5310     8.2600     9.8530     2.1650 
  114.5000   -27.3320    62.0960    24.1790    11.2540     7.9840     9.8110     2.1580 
  114.6250   -27.5640    60.9790    24.1790    11.1720     7.9920    10.0290     2.1670 
  114.7500   -27.7190    60.7650    24.1790    11.1860     8.1000    10.2610     2.1830 
  114.8750   -27.8150    62.4890    24.1790    11.2280     8.2240    10.4080     2.1950 
  115.0000   -27.8080    65.9840    24.1790    11.2720     8.3160    10.4530     2.1930 
  115.1250   -27.8430    68.0980    24.1790    11.2840     8.3360    10.4120     2.1810 
  115.2500   -27.8050    67.4670    24.1790    11.2740     8.2910    10.3330     2.1690 
  115.3750   -27.7670    66.6180    24.1790    11.2690     8.2130    10.2460     2.1640 
  115.5000   -27.7100    67.7130    24.1790    11.2450     8.1380    10.1750     2.1630 
  115.6250   -27.6190    68.8910    24.1790    11.1970     8.0980    10.1490     2.1640 
  115.7500   -27.5520    70.0740    24.1790    11.1640     8.0860    10.1720     2.1710 
  115.8750   -27.4390    72.9380    24.1790    11.2100     8.0910    10.2380     2.1930 
  116.0000   -27.3870    77.6590    24.1790    11.2980     8.1030    10.3260     2.2230 
  116.1250   -27.2480    79.5860    24.1790    11.3500     8.1200    10.4050     2.2410 
  116.2500   -27.1490    77.0840    24.1790    11.3910     8.1450    10.4540     2.2360 
  116.3750   -27.0220    73.0040    24.1790    11.4550     8.1770    10.4730     2.2120 
  116.5000   -26.9230    69.9180    24.1790    11.5150     8.2030    10.4680     2.1850 
  116.6250   -26.8300    67.2170    24.1790    11.5550     8.2100    10.4490     2.1710 
  116.7500   -26.7280    64.6750    24.1790    11.5620     8.1970    10.4180     2.1680 
  116.8750   -26.6210    64.1230    24.1790    11.5410     8.1540    10.3690     2.1720 
  117.0000   -26.4840    67.5880    24.1790    11.5060     8.0800    10.3030     2.1770 
  117.1250   -26.3700    73.7300    24.1780    11.5100     7.9790    10.2260     2.1760 
  117.2500   -26.1730    78.1480    24.1760    11.5000     7.8540    10.1310     2.1670 
  117.3750   -26.0220    78.5760    24.1770    11.3920     7.6820     9.9860     2.1540 
  117.5000   -25.7950    75.5120    24.1780    11.2290     7.4470     9.7530     2.1460 
  117.6250   -25.5650    73.8240    24.1790    10.9530     7.1500     9.4140     2.1600 
  117.7500   -25.3340    75.7440    24.1790    10.4700     6.8460     9.0490     2.1910 
  117.8750   -25.1310    78.4150    24.1790     9.8460     6.5980     8.7640     2.2220 
  118.0000   -24.9960    78.3220    24.1790     9.4020     6.4710     8.6540     2.2320 
  118.1250   -24.8800    75.0110    24.1790     9.5120     6.5240     8.8010     2.2140 
  118.2500   -24.9040    73.2430    24.1790    10.1220     6.6990     9.1160     2.1880 
  118.3750   -24.9420    73.8320    24.1790    10.9140     6.9220     9.4730     2.1720 
  118.5000   -25.0440    74.3190    24.1790    11.4760     7.1280     9.7280     2.1720 
  118.6250   -25.2090    70.9360    24.1790    11.7430     7.2850     9.8080     2.1770 
  118.7500   -25.3590    67.5910    24.1790    11.9690     7.4490     9.8550     2.1770 
  118.8750   -25.5080    67.0880    24.1790    12.0730     7.6840    10.0150     2.1760 
  119.0000   -25.5260    67.4820    24.1850    11.9500     8.0190    10.3560     2.1820 
  119.1250   -25.5490    66.6820    24.2150    11.6820     8.4000    10.8140     2.1960 
  119.2500   -25.4200    67.2350    24.2700    11.4740     8.6930    11.1630     2.2070 
  119.3750   -25.2310    69.0450    24.3190    11.3260     8.7900    11.2290     2.2020 
  119.5000   -24.9830    69.0740    24.3460    11.1420     8.6660    10.9830     2.1750 
  119.6250   -24.6180    66.9620    24.3570    10.8880     8.3550    10.5250     2.1370 
  119.7500   -24.1870    66.8580    24.3830    10.6530     7.9590    10.0170     2.1140 
  119.8750   -23.6340    70.8700    24.4570    10.4480     7.5060     9.4870     2.1180 
  120.0000   -23.0440    77.7820    24.5670     9.9600     6.9890     8.8920     2.1380 
  120.1250   -22.2920    83.4270    24.7040     8.6290     6.3850     8.1400     2.1570 
  120.2500   -21.5490    86.5840    24.8010     7.2060     5.7560     7.2910     2.1780 
  120.3750   -20.7610    90.2190    24.8810     6.4350     5.2060     6.5130     2.2140 
  120.5000   -20.0490    95.8140    24.9240     6.4480     4.8520     6.0200     2.2560 
  120.6250   -19.3910    96.8500    24.9280     6.6830     4.8540     6.0720     2.2730 
  120.7500   -18.8440    90.5550    24.9020     6.7350     5.2010     6.6480     2.2660 
  120.8750   -18.4520    85.0930    24.8720     6.7990     5.6180     7.3100     2.2480 
  121.0000   -18.1090    81.8020    24.8440     6.8960     5.9690     7.8610     2.2330 
  121.1250   -17.9150    83.0030    24.7490     7.4720     6.6340     8.8740     2.2290 
  121.2500   -17.7210    88.7150    24.6280     7.8870     6.9490     9.2900     2.2350 
  121.3750   -17.6010    92.5190    24.5320     7.5650     6.7470     8.8610     2.2490 
  121.5000   -17.4500    92.5780    24.4920     6.6650     6.1330     7.8110     2.2670 
  121.6250   -17.3220    93.0660    24.4860     5.9520     5.4270     6.7030     2.2850 
  121.7500   -17.2240    96.7040    24.4700     5.9380     4.9180     5.9570     2.3010 
  121.8750   -17.0900   102.0910    24.4490     6.2240     4.6870     5.6710     2.3200 
  122.0000   -17.0720   105.6500    24.4390     6.6030     4.7110     5.7880     2.3490 
  122.1250   -17.0780   106.7580    24.4380     7.2650     4.9330     6.1880     2.3800 
  122.2500   -17.2210   107.6690    24.4380     8.2280     5.2130     6.6400     2.3920 
  122.3750   -17.4060   107.8110    24.4370     8.5750     5.4690     7.0140     2.3710 
