~V
VERS. 2.00: Ver 2.00
~W
STRT.M 55.0000:
STOP.M 247.0000:
STEP.M 0.1250:
NULL. -999.2500:
UWI. DF5063:
~C
DEPT.M :
SP.MV :
GR.API :
RML.OHMM :
RI. :
RXO.OHMM :
CALI.CM :
DEN.GM/CC :
~A
# ...
   88.7500   -23.1080    72.3930     8.6050     8.4010     8.8130    23.3440     2.1840 
   88.8750   -23.9350    73.0960     8.2560     8.0570     8.8260    23.3330     2.1790 
   89.0000   -24.6400    71.2520     8.2330     7.9580     8.7810    23.3380     2.1740 
   89.1250   -25.1800    70.3930     8.3860     8.0080     8.7730    23.3400     2.1680 
   89.2500   -25.5930    73.6620     8.5790     8.0970     8.7100    23.3110     2.1630 
   89.3750   -25.9350    76.9290     8.7640     8.1840     8.6520    23.2930     2.1610 
   89.5000   -26.2320    76.1320     8.9100     8.2520     8.6530    23.2820     2.1610 
   89.6250   -26.4660    73.7660     8.9760     8.2810     8.7000    23.3000     2.1620 
   89.7500   -26.6770    73.3710     8.9630     8.2690     8.7790    23.2980     2.1650 
   89.8750   -26.8560    72.7380     8.8830     8.2180     8.9070    23.3070     2.1690 
   90.0000   -26.9770    69.8570     8.7680     8.1340     8.9870    23.3010     2.1730 
   90.1250   -27.0370    67.8050     8.6610     8.0320     8.9520    23.2630     2.1760 
   90.2500   -27.0420    68.3270     8.5880     7.9350     8.8730    23.2440     2.1790 
   90.3750   -27.0120    69.9030     8.5610     7.8590     8.8730    23.2560     2.1850 
   90.5000   -27.0180    71.3260     8.5800     7.8120     8.9250    23.2850     2.1940 
   90.6250   -27.1190    71.9150     8.6430     7.7990     8.9470    23.3130     2.2000 
   90.7500   -27.2470    71.2900     8.7280     7.8050     8.9310    23.3260     2.2000 
   90.8750   -27.3760    71.3690     8.8100     7.8140     8.9700    23.3320     2.1940 
   91.0000   -27.5110    72.2430     8.8580     7.8130     9.0020    23.3340     2.1850 
   91.1250   -27.6440    72.2740     8.8290     7.7910     9.0770    23.3280     2.1730 
   91.2500   -27.7570    72.5950     8.7280     7.7520     8.9910    23.2990     2.1600 
   91.3750   -27.8230    74.0170     8.5840     7.7060     8.6340    23.2340     2.1480 
   91.5000   -27.7570    74.1270     8.4320     7.6570     8.5140    23.1590     2.1430 
   91.6250   -27.5650    70.6520     8.3060     7.6030     8.3080    23.1050     2.1460 
   91.7500   -27.3500    69.9150     8.1940     7.5240     8.0860    23.0690     2.1560 
   91.8750   -27.1240    74.7870     8.0630     7.4020     7.9760    23.0530     2.1660 
   92.0000   -26.9090    80.6370     7.8820     7.2240     7.8220    23.0250     2.1750 
   92.1250   -26.6900    83.9430     7.6540     7.0030     7.7450    23.0480     2.1820 
   92.2500   -26.5160    84.2610     7.4440     6.7950     7.5900    23.1310     2.1890 
   92.3750   -26.4600    81.0830     7.3150     6.6510     7.3600    23.2480     2.1970 
   92.5000   -26.5740    75.5950     7.3100     6.6040     7.0060    23.3140     2.2010 
   92.6250   -26.7570    71.8160     7.4240     6.6570     7.0790    23.2770     2.1900 
   92.7500   -26.8650    70.9740     7.5540     6.7380     7.2800    23.1870     2.1720 
   92.8750   -26.9160    70.6980     7.6060     6.7840     7.4230    23.0700     2.1600 
   93.0000   -26.9360    71.4840     7.5350     6.7530     7.4600    22.9780     2.1590 
   93.1250   -26.9880    72.9730     7.3800     6.6580     7.3990    22.9390     2.1700 
   93.2500   -27.0800    72.7990     7.2940     6.5930     7.1240    22.9270     2.1850 
   93.3750   -27.1830    70.9680     7.4010     6.6510     6.7920    22.8990     2.2000 
   93.5000   -27.2850    69.7470     7.7540     6.8890     7.2120    22.9050     2.2110 
   93.6250   -27.4060    68.2460     8.3060     7.3120     8.5340    22.9770     2.2180 
   93.7500   -27.5890    64.3970     8.8390     7.7810    11.2130    23.1090     2.2240 
   93.8750   -27.8080    61.4130     9.1620     8.1500    14.5030    23.2750     2.2240 
   94.0000   -27.9960    60.9280     9.1400     8.2920    14.2710    23.4080     2.2110 
   94.1250   -28.0880    60.1400     8.7240     8.1120    11.0040    23.3360     2.1900 
   94.2500   -28.0580    57.9780     8.1390     7.7360     9.2680    23.1700     2.1780 
   94.3750   -27.8990    59.1860     7.5850     7.2990     8.1740    23.0730     2.1780 
   94.5000   -27.6540    65.3580     7.2100     6.9290     7.5500    23.0240     2.1820 
   94.6250   -27.3910    68.6230     7.1030     6.7220     7.5610    22.9820     2.1830 
   94.7500   -27.1480    67.1730     7.1800     6.6590     7.9320    22.9940     2.1790 
   94.8750   -26.9670    65.9840     7.3670     6.7000     8.1380    23.0960     2.1710 
   95.0000   -26.8890    66.6280     7.5880     6.7920     8.2260    23.2160     2.1640 
   95.1250   -26.9420    66.7250     7.7720     6.8820     8.2250    23.2640     2.1610 
   95.2500   -27.0940    66.5780     7.8790     6.9350     8.2420    23.3140     2.1580 
   95.3750   -27.2820    69.1480     7.8860     6.9320     8.3520    23.3300     2.1550 
   95.5000   -27.4560    73.1270     7.7830     6.8600     8.4980    23.3080     2.1530 
   95.6250   -27.6390    73.8000     7.5610     6.7060     8.5940    23.2850     2.1570 
   95.7500   -27.7600    71.6790     7.2870     6.5070     8.5910    23.2810     2.1610 
   95.8750   -27.7690    70.1730     7.0630     6.3300     8.5190    23.2700     2.1670 
   96.0000   -27.6750    71.0180     7.0510     6.2970     8.4060    23.2840     2.1790 
   96.1250   -27.4350    70.8190     7.5070     6.6200     8.4270    23.3360     2.2020 
   96.2500   -27.0560    67.8990     8.4250     7.3300     8.6800    23.4450     2.2400 
   96.3750   -26.5950    64.0190     9.6420     8.3410     9.6400    23.5940     2.3010 
   96.5000   -26.0960    62.2090    10.7910     9.3920    12.0910    23.7660     2.3880 
   96.6250   -25.5080    61.6060    11.2540     9.9890    15.8070    23.8530     2.4680 
   96.7500   -24.8210    61.7580    10.7930     9.8480    15.0750    23.8140     2.4890 
   96.8750   -24.0060    64.1280     9.5090     8.9620    11.0090    23.6550     2.4390 
   97.0000   -23.0950    68.8310     7.8510     7.6410     8.2010    23.5970     2.3630 
   97.1250   -22.2280    74.6370     6.4390     6.3730     6.7640    23.7800     2.3180 
   97.2500   -21.5090    80.6560     5.5620     5.4590     5.7610    24.0780     2.3060 
   97.3750   -20.9840    88.1580     5.2340     4.9600     5.4710    24.3210     2.3040 
   97.5000   -20.6270    94.4800     5.3180     4.8170     5.4760    24.3570     2.2920 
   97.6250   -20.3770    93.2110     5.6060     4.9190     5.5720    24.0820     2.2680 
   97.7500   -20.1620    87.0240     5.8340     5.0650     6.0460    23.7380     2.2460 
   97.8750   -19.9930    81.9230     5.8810     5.1430     6.7970    23.5640     2.2280 
   98.0000   -19.8890    82.0150     5.7460     5.1140     6.8820    23.6560     2.2180 
   98.1250   -19.8580    86.6370     5.5910     5.0470     6.1220    23.9820     2.2240 
   98.2500   -19.8990    91.3720     5.6510     5.0990     5.1260    24.3320     2.2370 
   98.3750   -20.0010    93.5370     6.0710     5.3970     5.0380    24.5770     2.2460 
   98.5000   -20.1960    90.7630     6.8680     5.9930     5.6740    24.5860     2.2560 
   98.6250   -20.5760    83.1270     7.9120     6.8430     7.0290    24.3140     2.2890 
   98.7500   -21.1980    76.2650     8.8650     7.7020     8.1810    23.8980     2.3380 
   98.8750   -22.0250    72.1730     9.4520     8.3390     8.7490    23.5630     2.3730 
   99.0000   -22.9240    70.2050     9.5250     8.5860     8.9260    23.3760     2.3520 
   99.1250   -23.8070    68.3400     9.1090     8.3820     8.8930    23.3160     2.2800 
   99.2500   -24.5850    68.5850     8.5490     7.9750     8.7770    23.2770     2.2150 
   99.3750   -25.1880    71.6150     8.0700     7.5560     8.4460    23.2190     2.1790 
   99.5000   -25.5970    74.0880     7.7750     7.2440     8.1230    23.1480     2.1640 
   99.6250   -25.8000    73.1440     7.6850     7.0980     8.2510    23.1050     2.1600 
   99.7500   -25.8600    71.5430     7.7160     7.0690     8.4700    23.1300     2.1590 
   99.8750   -25.8680    70.5840     7.8270     7.1210     8.5960    23.2210     2.1580 
