~V
VERS. 2.00: Ver 2.00
~W
STRT.M 61.0000:
STOP.M 253.0000:
STEP.M 0.1250:
NULL. -999.2500:
UWI. DF5045:
~C
DEPT.M :
GR.API :
CALI.CM :
RXO.OHMM :
RI. :
RML.OHMM :
DEN.GM/CC :
SP.MV :
~A
# ...
  128.5000    78.4590    21.2230     7.6280     7.0020     7.8250     2.1980   -21.6900 
  128.6250    81.0690    21.1110     7.7100     6.9920     7.7650     2.2010   -21.7670 
  128.7500    83.5540    21.0490     7.7590     7.0030     7.7470     2.1910   -21.7120 
  128.8750    84.5030    21.0370     7.6990     7.0380     7.7710     2.1770   -21.6460 
  129.0000    81.5490    21.0530     7.5850     7.0950     7.8260     2.1780   -21.6740 
  129.1250    76.4240    21.0690     7.4810     7.1570     7.8820     2.1930   -21.5180 
  129.2500    72.6650    21.0720     7.4130     7.2020     7.9140     2.2060   -21.2860 
  129.3750    72.1220    21.0610     7.3890     7.2110     7.9110     2.2030   -21.1710 
  129.5000    73.1270    21.0420     7.4370     7.1650     7.8610     2.1860   -20.9910 
  129.6250    73.7050    21.0520     7.5220     7.0780     7.7750     2.1710   -20.6880 
  129.7500    75.1250    21.1230     7.5730     6.9590     7.6570     2.1710   -20.4880 
  129.8750    78.7640    21.2630     7.4790     6.8170     7.5070     2.1910   -20.3000 
  130.0000    83.0230    21.4230     7.2790     6.6460     7.3200     2.2200   -19.9340 
  130.1250    85.4260    21.5200     7.1940     6.4490     7.0990     2.2370   -19.6770 
  130.2500    85.3860    21.5240     7.3090     6.2310     6.8470     2.2370   -19.5360 
  130.3750    83.8410    21.4820     7.4770     5.9960     6.5750     2.2360   -19.2890 
  130.5000    82.9240    21.6350     7.3400     5.7680     6.3210     2.2560   -19.0620 
  130.6250    84.1340    22.0160     6.8040     5.5800     6.1380     2.2840   -19.0040 
  130.7500    87.3710    22.4350     6.0880     5.4640     6.0630     2.2950   -18.8960 
  130.8750    91.2790    22.6080     5.7100     5.4390     6.1120     2.2800   -18.7770 
  131.0000    93.9250    22.4040     5.9170     5.5380     6.3020     2.2540   -18.8920 
  131.1250    94.5300    22.1370     6.2750     5.7330     6.5780     2.2370   -19.0220 
  131.2500    93.2010    22.0030     6.6750     5.9920     6.8910     2.2240   -19.0530 
  131.3750    90.5810    22.0050     7.2270     6.2730     7.1930     2.2100   -19.1800 
  131.5000    87.8160    22.0270     7.7240     6.5230     7.4270     2.2000   -19.4160 
  131.6250    86.0470    22.0280     7.8140     6.7080     7.5800     2.2020   -19.4870 
  131.7500    85.3860    21.9920     7.7320     6.8190     7.6570     2.2130   -19.5200 
  131.8750    85.0040    21.9250     7.6740     6.8660     7.6820     2.2230   -19.6630 
  132.0000    84.2120    21.9010     7.6230     6.8630     7.6790     2.2230   -19.7210 
  132.1250    83.7810    21.9570     7.5760     6.8430     7.6780     2.2180   -19.6550 
  132.2500    84.3820    22.1020     7.5970     6.8290     7.7020     2.2120   -19.6880 
  132.3750    85.6800    22.2580     7.6740     6.8330     7.7560     2.2090   -19.7360 
  132.5000    86.7140    22.3590     7.7310     6.8560     7.8340     2.2080   -19.6080 
  132.6250    86.5650    22.4230     7.7090     6.8860     7.9150     2.2040   -19.5790 
  132.7500    84.8710    22.4640     7.7080     6.9110     7.9800     2.1980   -19.6650 
  132.8750    82.3250    22.4960     7.8360     6.9140     8.0110     2.1910   -19.6260 
  133.0000    80.9420    22.5390     8.0750     6.8840     7.9990     2.1880   -19.5240 
  133.1250    80.9770    22.5870     8.1090     6.8470     7.9800     2.1840   -19.5790 
  133.2500    80.7840    22.6010     7.9150     6.8460     8.0110     2.1750   -19.5400 
  133.3750    79.5850    22.5780     7.6700     6.9310     8.1570     2.1650   -19.3770 
  133.5000    78.5810    22.5400     7.6390     7.1760     8.5180     2.1750   -19.3630 
  133.6250    78.0170    22.5640     7.9330     7.6050     9.1030     2.2170   -19.2820 
  133.7500    76.9380    22.6640     8.7250     8.2360     9.8870     2.2850   -19.0040 
  133.8750    75.8100    22.7930    10.1170     9.0240    10.7560     2.3580   -18.7620 
  134.0000    76.6820    22.8630    11.9800     9.8050    11.4660     2.4100   -18.5230 
  134.1250    79.0820    22.8740    13.6620    10.3580    11.7990     2.4390   -18.0380 
  134.2500    81.4520    22.9010    14.7450    10.4960    11.6020     2.4570   -17.5360 
  134.3750    83.0650    23.0630    15.0530    10.1120    10.8310     2.4750   -17.1370 
  134.5000    84.4530    23.4880    14.1370     9.1920     9.5530     2.4830   -16.6030 
  134.6250    86.7140    24.0160    11.7650     8.0220     8.1060     2.4690   -16.0500 
  134.7500    90.8860    24.4310     8.4640     6.8120     6.7200     2.4290   -15.7170 
  134.8750    96.9910    24.6560     5.6870     5.7250     5.5630     2.3740   -15.4320 
  135.0000   102.7160    24.7220     4.5420     4.8950     4.7610     2.3270   -15.1120 
  135.1250   106.0850    24.7220     4.0600     4.3100     4.2600     2.3080   -15.0330 
  135.2500   108.1340    24.6670     3.7640     3.9710     4.0370     2.3230   -15.1130 
  135.3750   110.3320    24.5520     3.5640     3.8620     4.0530     2.3590   -15.1320 
  135.5000   110.7910    24.4120     3.4770     3.9700     4.2700     2.3910   -15.2710 
  135.6250   107.8380    24.2900     3.5370     4.2090     4.5900     2.4100   -15.5960 
  135.7500   102.9730    24.1880     3.9910     4.5320     4.9620     2.4240   -15.8180 
  135.8750    99.1600    24.1260     5.5050     4.8860     5.3330     2.4410   -15.9880 
  136.0000    98.5760    24.1030     8.3360     5.2070     5.6420     2.4550   -16.3560 
  136.1250   100.6790    24.0650    10.4940     5.4590     5.8810     2.4560   -16.6620 
  136.2500   103.8640    23.9360     9.8840     5.6320     6.0510     2.4360   -16.8410 
  136.3750   105.1100    23.6490     7.1710     5.7380     6.1610     2.3930   -17.1230 
  136.5000   102.0190    23.2800     5.7410     5.7910     6.2110     2.3290   -17.3730 
  136.6250    97.7700    23.0120     5.6780     5.7980     6.2050     2.2660   -17.3750 
  136.7500    95.3290    22.9010     6.1960     5.7500     6.1290     2.2230   -17.3830 
  136.8750    95.3290    22.9110     6.5430     5.6450     5.9850     2.2120   -17.4370 
  137.0000    97.6200    23.0950     6.4590     5.4920     5.7910     2.2330   -17.2710 
  137.1250   101.8420    23.4500     6.0000     5.3150     5.5860     2.2640   -17.0710 
  137.2500   106.9430    23.8450     5.3670     5.1470     5.4210     2.2890   -16.9980 
  137.3750   110.1540    24.0920     4.7870     5.0350     5.3530     2.2980   -16.8590 
  137.5000   108.6170    24.0790     4.5470     5.0290     5.4240     2.2920   -16.6430 
  137.6250   103.8530    23.8280     4.6230     5.1110     5.5850     2.2800   -16.6180 
  137.7500    98.5690    23.5360     4.9820     5.2400     5.7760     2.2730   -16.6520 
  137.8750    95.3520    23.3450     5.3450     5.3590     5.9280     2.2730   -16.5880 
  138.0000    95.8750    23.2510     5.4790     5.3940     5.9620     2.2780   -16.5900 
  138.1250    98.5870    23.2290     5.4250     5.3240     5.8750     2.2800   -16.6980 
  138.2500   101.8330    23.2980     5.2870     5.1530     5.6890     2.2810   -16.6910 
  138.3750   104.9810    23.5140     5.0470     4.9140     5.4610     2.2880   -16.6250 
  138.5000   108.6400    23.8590     4.6820     4.6930     5.3190     2.3110   -16.7200 
  138.6250   111.7930    24.1610     4.3590     4.6020     5.4100     2.3410   -16.8190 
  138.7500   111.8100    24.2940     4.2400     4.7500     5.8740     2.3620   -16.8190 
  138.8750   107.9380    24.2180     4.5230     5.2260     6.7930     2.3660   -16.9180 
  139.0000   103.1010    23.9720     5.4950     6.1520     8.2250     2.3650   -17.1570 
  139.1250    99.2290    23.8310     7.5470     7.4370     9.9410     2.3850   -17.2540 
  139.2500    94.4050    23.9630    11.9520     8.9420    11.6730     2.4430   -17.3900 
  139.3750    87.0340    24.1810    19.4680    10.4040    13.0720     2.5240   -17.6940 
  139.5000    79.2390    24.1820    27.7420    11.3730    13.6690     2.5590   -17.8620 
  139.6250    74.5470    23.8580    29.5850    11.6460    13.4180     2.5110   -17.9240 
