~V
VERS. 2.00: Ver 2.00
~W
STRT.M 61.0000:
STOP.M 267.0000:
STEP.M 0.1250:
NULL. -999.2500:
UWI. DF5036:
~C
DEPT.M :
SP.MV :
GR.API :
RML.OHMM :
RI. :
RXO.OHMM :
CALI.CM :
DEN.GM/CC :
~A
# ...
   72.2500   -30.4650    79.6930     9.0230     7.6340     7.9010    22.2550     2.2320 
   72.3750   -29.7650    85.6430     8.7430     7.3710     7.4140    22.3710     2.2310 
   72.5000   -29.0270    87.7170     8.4160     7.0940     6.9020    22.4910     2.2350 
   72.6250   -28.3040    85.6840     8.0510     6.8190     6.5780    22.6060     2.2440 
   72.7500   -27.6860    84.7620     7.7420     6.5880     6.4380    22.7310     2.2580 
   72.8750   -27.2330    86.4970     7.5880     6.4540     6.3040    22.8230     2.2720 
   73.0000   -27.0050    88.5910     7.6360     6.4500     6.2070    22.8340     2.2800 
   73.1250   -27.0640    86.0090     7.8570     6.5810     6.3230    22.7490     2.2750 
   73.2500   -27.2970    81.9220     8.1000     6.7650     6.6620    22.6000     2.2620 
   73.3750   -27.6400    81.0180     8.2580     6.9320     7.0320    22.3790     2.2480 
   73.5000   -28.0410    80.1960     8.2840     7.0360     7.2360    22.2780     2.2380 
   73.6250   -28.5000    77.7220     8.1920     7.0490     7.2630    22.3550     2.2370 
   73.7500   -28.9680    78.4460     8.0750     7.0070     7.3080    22.5680     2.2410 
   73.8750   -29.3910    83.7930     7.9920     6.9410     7.5120    22.8110     2.2440 
   74.0000   -29.7310    88.3620     7.9670     6.8760     7.8060    22.9690     2.2420 
   74.1250   -29.9500    86.2060     8.0000     6.8330     8.0280    22.9530     2.2340 
   74.2500   -30.0470    83.4950     8.0580     6.8140     8.0440    22.9040     2.2220 
   74.3750   -30.0530    83.6650     8.1320     6.8260     7.9390    22.8800     2.2100 
   74.5000   -29.9860    84.3050     8.2420     6.8840     7.8760    22.8850     2.2040 
   74.6250   -29.7750    82.5140     8.4400     7.0220     7.9560    22.9180     2.2160 
   74.7500   -29.4240    81.9570     8.7210     7.2280     8.2010    22.9980     2.2470 
   74.8750   -28.9530    84.2070     9.0320     7.4630     8.6000    23.1240     2.2880 
   75.0000   -28.4160    85.5820     9.2880     7.6650     9.1190    23.2890     2.3220 
   75.1250   -27.8880    86.3950     9.3740     7.7520     9.4320    23.5030     2.3280 
   75.2500   -27.4260    89.5760     9.2690     7.7080     9.3610    23.6830     2.3080 
   75.3750   -27.0480    92.6560     8.9880     7.5420     8.8130    23.6650     2.2740 
   75.5000   -26.7120    91.8840     8.5970     7.2950     8.2590    23.3850     2.2470 
   75.6250   -26.4310    88.1300     8.2240     7.0480     8.4150    23.0990     2.2410 
   75.7500   -26.2200    86.3380     8.0240     6.9050     8.4250    23.0950     2.2480 
   75.8750   -26.0640    86.9630     8.1060     6.9450     7.9630    23.1600     2.2580 
   76.0000   -25.9230    87.1740     8.4840     7.1940     7.4480    23.1320     2.2600 
   76.1250   -25.7520    83.4270     9.0440     7.6000     7.5200    23.1020     2.2500 
   76.2500   -25.5230    77.6010     9.5130     7.9800     8.0380    23.1320     2.2350 
   76.3750   -25.2160    73.5300     9.6890     8.1770     8.6170    23.2300     2.2280 
   76.5000   -24.8660    77.0500     9.4690     8.0840     8.9230    23.3460     2.2350 
   76.6250   -24.5110    90.6600     8.8500     7.6470     8.5730    23.4950     2.2600 
   76.7500   -24.1720   106.6720     8.0620     7.0230     7.8090    23.7000     2.2890 
   76.8750   -23.9070   116.6270     7.2640     6.3460     6.9390    23.8960     2.3120 
   77.0000   -23.7540   117.3760     6.5800     5.7390     6.2230    23.9940     2.3230 
   77.1250   -23.7700   114.1590     6.1340     5.3310     5.8850    24.0080     2.3200 
   77.2500   -23.9670   111.1460     5.9580     5.1560     5.7810    23.9770     2.3080 
   77.3750   -24.3830   107.7180     6.0780     5.2360     6.0450    23.8480     2.2930 
   77.5000   -24.9970   102.7950     6.4800     5.5550     6.6820    23.5950     2.2760 
   77.6250   -25.7800    94.2780     7.1180     6.0840     7.4970    23.3280     2.2560 
   77.7500   -26.6260    82.9040     7.8250     6.6950     8.1800    23.4040     2.2310 
   77.8750   -27.4500    70.7980     8.4770     7.2950     8.7020    23.9040     2.2060 
   78.0000   -28.2000    62.3210     8.9790     7.8030     9.1470    24.6970     2.1800 
   78.1250   -28.8150    59.8170     9.2800     8.1560     9.2470    25.0850     2.1560 
   78.2500   -29.2830    59.6310     9.4390     8.3880     9.1610    25.0100     2.1370 
   78.3750   -29.5730    59.6810     9.5160     8.5300     9.0210    24.7260     2.1230 
   78.5000   -29.6880    59.2700     9.5740     8.6100     9.0120    24.3970     2.1200 
   78.6250   -29.6410    58.7210     9.5850     8.6330     9.2050    23.9790     2.1320 
   78.7500   -29.4740    58.6120     9.5640     8.6040     9.4250    23.5810     2.1550 
   78.8750   -29.2210    60.0190     9.4830     8.5200     9.4560    23.2810     2.1810 
   79.0000   -28.9060    63.1850     9.3450     8.3890     9.1790    23.0490     2.2020 
   79.1250   -28.5610    68.2900     9.1290     8.2350     8.6740    22.8950     2.2100 
   79.2500   -28.2280    71.2920     8.9450     8.0940     8.3110    22.7920     2.2100 
   79.3750   -27.9270    70.1330     8.8590     7.9900     8.1470    22.7500     2.2060 
   79.5000   -27.6900    66.3520     8.8620     7.9350     8.1230    22.7400     2.2010 
   79.6250   -27.5250    64.8010     8.9020     7.9280     8.2490    22.7410     2.1970 
   79.7500   -27.4510    66.7090     8.9470     7.9420     8.4650    22.7510     2.1930 
   79.8750   -27.4740    68.9600     8.9790     7.9560     8.6960    22.7810     2.1910 
   80.0000   -27.5610    68.6380     8.9810     7.9540     8.8640    22.8250     2.1920 
   80.1250   -27.6980    67.2470     8.9470     7.9300     8.9350    22.8620     2.1960 
   80.2500   -27.8440    67.0800     8.8930     7.8950     8.9210    22.8760     2.2010 
   80.3750   -27.9760    67.9450     8.8450     7.8660     8.8670    22.8800     2.2060 
   80.5000   -28.0900    68.2210     8.8350     7.8600     8.8520    22.8840     2.2100 
   80.6250   -28.2070    68.2890     8.8960     7.9000     8.8950    22.8870     2.2090 
   80.7500   -28.3060    68.6270     9.0180     7.9830     8.9580    22.8930     2.2040 
   80.8750   -28.3780    66.3340     9.1790     8.0970     9.0320    22.8980     2.1950 
   81.0000   -28.4370    61.8640     9.3530     8.2250     9.1500    22.8980     2.1830 
   81.1250   -28.4870    59.5450     9.5070     8.3410     9.2130    22.8860     2.1750 
   81.2500   -28.5490    58.8180     9.6270     8.4280     9.2440    22.8790     2.1740 
   81.3750   -28.6480    57.0630     9.7100     8.4780     9.2510    22.8760     2.1790 
   81.5000   -28.7710    55.4550     9.7560     8.4920     9.1950    22.8740     2.1870 
   81.6250   -28.8930    57.1650     9.7680     8.4750     9.1440    22.8760     2.1910 
   81.7500   -29.0270    60.5370     9.7610     8.4440     9.1050    22.8760     2.1870 
   81.8750   -29.1470    62.4510     9.7360     8.4040     9.1110    22.8630     2.1780 
   82.0000   -29.2520    60.8570     9.6960     8.3580     9.1330    22.8220     2.1720 
   82.1250   -29.3400    57.8840     9.6450     8.3070     9.1960    22.7540     2.1740 
   82.2500   -29.4280    57.7840     9.5950     8.2590     9.2340    22.7030     2.1820 
   82.3750   -29.5170    61.3920     9.5590     8.2240     9.3050    22.6990     2.1930 
   82.5000   -29.5990    64.4830     9.5490     8.2100     9.5080    22.7640     2.2010 
   82.6250   -29.6460    63.5030     9.5830     8.2310     9.7300    22.9120     2.2040 
   82.7500   -29.6380    61.2260     9.6620     8.2880    10.0060    23.0590     2.2060 
   82.8750   -29.6020    59.7820     9.7840     8.3780    10.2730    23.1290     2.2080 
   83.0000   -29.5240    60.5340     9.9420     8.4950    10.3380    23.1440     2.2120 
   83.1250   -29.3820    62.7200    10.1150     8.6200    10.2970    23.1440     2.2150 
   83.2500   -29.1790    62.6100    10.2580     8.7180    10.3020    23.1440     2.2150 
   83.3750   -28.9020    59.6700    10.3150     8.7550    10.3790    23.1440     2.2110 
