~V
VERS. 2.00: Ver 2.00
~W
STRT.M 59.0000:
STOP.M 260.0000:
STEP.M 0.1250:
NULL. -999.2500:
UWI. DF5044:
~C
DEPT.M :
GR.API :
CALI.CM :
RXO.OHMM :
RI. :
RML.OHMM :
DEN.GM/CC :
SP.MV :
~A
   59.0000    50.0180    25.3490     1.3590     0.1300     0.4240  -999.2500    36.7890 
   59.1250    49.8050    25.4190     2.2460     0.1270     0.4500  -999.2500    35.7210 
   59.2500    50.4910    25.4520     4.3060     0.1260     0.4580  -999.2500    34.6010 
   59.3750    52.6550    25.4630     9.2920     0.1300     0.4430     2.0520    33.5420 
   59.5000    55.3710    25.4760    18.5520     0.1390     0.4040     2.0520    32.5410 
   59.6250    56.5820    25.4880    29.9200     0.1540     0.3370     2.0460    31.6460 
   59.7500    57.2400    25.4840    75.6370     0.1700     0.2630     2.0460    30.9300 
   59.8750    59.2240    25.4770   267.1470     0.1860     0.2000     2.0540    30.2840 
   60.0000    62.1190    25.4740   697.5470     0.1980     0.1570     2.0620    29.6550 
   60.1250    62.4070    25.4760   998.2470     0.1960     0.1520     2.0550    28.9020 
   60.2500    59.3230    25.4880   824.6040     0.1820     0.1790     2.0370    28.0560 
   60.3750    55.1190    25.5310   373.1010     0.1560     0.2160     2.0230    27.0140 
   60.5000    52.4480    25.6000    78.1010     0.1210     0.2330     2.0310    25.8770 
   60.6250    52.3370    25.5950    23.1500     0.0800     0.2160     2.0730    24.5010 
   60.7500    53.1250    25.5430    62.7340     0.0390     0.1850     2.1310    23.0050 
   60.8750    53.4680    25.4890   116.7210     0.0040     0.1520     2.1810    21.4100 
   61.0000    53.3780    25.4480   128.3740    -0.0210     0.1270     2.2020    19.6820 
   61.1250    54.6090    25.4050    79.0800    -0.0220     0.1120     2.1620    17.7230 
   61.2500    58.9900    25.2950    27.7230     0.0170     0.1070     2.0690    15.4920 
   61.3750    67.2040    24.9970     5.7770     0.1250     0.1270     1.9850    12.9870 
   61.5000    77.8800    24.4390     2.4010     0.3460     0.2030     1.9950    10.0620 
   61.6250    87.1280    23.7100     3.9240     0.7720     0.4170     2.1140     6.7550 
   61.7500    91.9280    23.1430     6.0290     1.4230     0.8260     2.2230     3.1750 
   61.8750    92.2740    22.8230     7.6370     2.2830     1.4500     2.2540    -0.5050 
   62.0000    89.8180    22.6920     8.4460     3.2640     2.2160     2.2280    -4.1640 
   62.1250    86.1870    22.7010     8.7200     4.2020     2.9440     2.2000    -7.5690 
   62.2500    83.0390    22.7650     8.8880     4.9570     3.4690     2.1890   -10.6140 
   62.3750    81.3240    22.7930     8.9670     5.4770     3.7670     2.1800   -13.2210 
   62.5000    82.1820    22.7040     8.9200     5.7960     3.9080     2.1630   -15.2620 
   62.6250    86.1130    22.5710     8.7540     5.9970     3.9910     2.1430   -16.7050 
   62.7500    89.7780    22.4360     8.5810     6.1870     4.1070     2.1310   -17.7480 
   62.8750    90.1970    22.3450     8.4650     6.4230     4.3100     2.1270   -18.4950 
   63.0000    87.6560    22.3150     8.4690     6.7380     4.6220     2.1240   -19.0750 
   63.1250    85.7560    22.3970     8.6810     7.1400     5.0390     2.1170   -19.5490 
   63.2500    86.1030    22.6460     9.0020     7.5640     5.4910     2.1280   -19.9930 
   63.3750    87.5330    23.0270     9.2190     7.9330     5.9040     2.1860   -20.4120 
   63.5000    88.5800    23.3460     9.2070     8.1680     6.1940     2.2950   -20.8130 
   63.6250    88.2240    23.3800     9.1820     8.1840     6.2760     2.4100   -21.1280 
   63.7500    87.8100    23.1970     9.3380     8.0260     6.1900     2.4610   -21.4340 
   63.8750    88.5380    23.0200     9.5410     7.7580     6.0000     2.4250   -21.7480 
   64.0000    89.8170    22.9760     9.6070     7.4590     5.7810     2.3320   -22.0650 
   64.1250    89.2820    23.0540     9.5260     7.2080     5.6070     2.2380   -22.3590 
   64.2500    86.8570    23.1560     9.4520     7.0400     5.5060     2.1730   -22.6160 
   64.3750    84.6260    23.1820     9.4300     6.9590     5.4690     2.1370   -22.8760 
   64.5000    84.4010    23.1060     9.4450     6.9450     5.4730     2.1270   -23.1260 
   64.6250    87.6810    22.9310     9.5210     6.9710     5.4860     2.1350   -23.4010 
   64.7500    92.5320    22.7870     9.6540     7.0050     5.5020     2.1480   -23.6210 
   64.8750    94.7880    22.6830     9.7840     7.0350     5.5310     2.1580   -23.8370 
   65.0000    91.0580    22.6370     9.8250     7.0630     5.5860     2.1620   -24.0240 
   65.1250    82.6310    22.6350     9.7470     7.0920     5.6790     2.1560   -24.1770 
   65.2500    76.1930    22.6440     9.5820     7.1300     5.7990     2.1450   -24.3190 
   65.3750    74.8970    22.6680     9.4490     7.1710     5.9360     2.1380   -24.4180 
   65.5000    77.0770    22.7010     9.4140     7.2040     6.0690     2.1410   -24.5050 
   65.6250    79.3380    22.7270     9.4370     7.1970     6.1650     2.1510   -24.5450 
   65.7500    80.3000    22.6820     9.4440     7.1370     6.2010     2.1540   -24.5800 
   65.8750    81.2030    22.6400     9.4190     7.0150     6.1650     2.1470   -24.5980 
   66.0000    82.6560    22.6450     9.3830     6.8270     6.0570     2.1410   -24.5920 
   66.1250    83.5930    22.8160     9.1310     6.5830     5.8910     2.1430   -24.5890 
   66.2500    83.5220    23.1370     8.5390     6.3380     5.7230     2.1520   -24.5920 
   66.3750    82.7090    23.4670     7.8470     6.1640     5.6220     2.1690   -24.6120 
   66.5000    81.5200    23.6800     7.5470     6.1580     5.6700     2.1890   -24.6960 
   66.6250    80.3370    23.6520     7.8930     6.4930     5.9960     2.2000   -24.8530 
   66.7500    79.5480    23.5050     8.4350     7.2260     6.6350     2.1920   -25.0120 
   66.8750    79.4050    23.4060     9.0770     8.3960     7.6330     2.1770   -25.1760 
   67.0000    79.6580    23.4340    10.6210     9.9490     8.9850     2.1870   -25.3450 
   67.1250    79.5200    23.5630    15.6070    11.6750    10.5470     2.2640   -25.5290 
   67.2500    78.5800    23.7540    24.8260    13.1220    11.8500     2.3890   -25.7710 
   67.3750    77.4340    23.9590    35.0770    13.8640    12.4070     2.5120   -26.0700 
   67.5000    77.4810    24.0890    40.8840    13.6410    11.9710     2.5810   -26.3420 
   67.6250    79.2780    24.0470    38.6360    12.4360    10.6980     2.5730   -26.6970 
   67.7500    80.6690    23.8720    31.4610    10.8430     9.2770     2.5130   -27.1710 
   67.8750    79.8090    23.6620    22.2840     9.2850     8.0730     2.4200   -27.7360 
   68.0000    76.9940    23.5230    14.1820     8.0400     7.2390     2.3130   -28.3760 
   68.1250    75.1000    23.5020    10.1410     7.2900     6.8390     2.2260   -29.0320 
   68.2500    76.0660    23.5040     8.8030     6.9350     6.7610     2.1760   -29.6040 
   68.3750    79.8160    23.4470     8.6210     6.8980     6.9270     2.1560   -30.0510 
   68.5000    83.6500    23.2790     8.5880     7.0770     7.2320     2.1470   -30.4970 
   68.6250    82.7060    23.0950     8.5150     7.3420     7.5230     2.1400   -30.8580 
   68.7500    77.1630    22.9920     8.4830     7.5510     7.6740     2.1450   -31.0620 
   68.8750    70.9120    22.9250     8.5560     7.6330     7.6590     2.1700   -31.1970 
   69.0000    68.8720    22.8400     8.6980     7.5710     7.5140     2.1990   -31.3370 
   69.1250    74.9420    22.7910     8.7760     7.3820     7.3030     2.2080   -31.4700 
   69.2500    85.0510    22.8980     8.7110     7.1470     7.1040     2.1990   -31.5690 
   69.3750    91.7660    23.0790     8.4690     6.9220     6.9620     2.1900   -31.7500 
   69.5000    89.7470    23.2060     8.1790     6.7480     6.9020     2.1920   -31.9800 
   69.6250    81.5060    23.2510     8.0910     6.6570     6.9300     2.1970   -32.1440 
   69.7500    74.5090    23.2620     8.2850     6.6320     7.0000     2.1920   -32.3660 
   69.8750    70.8010    23.2600     8.6500     6.6500     7.0740     2.1780   -32.6400 
   70.0000    70.9220    23.2580     8.9800     6.6870     7.1250     2.1620   -32.8260 
   70.1250    75.5460    23.2450     9.1270     6.7160     7.1450     2.1460   -32.9050 
