~V
VERS. 2.00: Ver 2.00
~W
STRT.M 64.0000:
STOP.M 243.0000:
STEP.M 0.1250:
NULL. -999.2500:
UWI. DF5061:
~C
DEPT.M :
GR.API :
RML.OHMM :
RI. :
RXO.OHMM :
CALI.CM :
DEN.GM/CC :
SP.MV :
~A
# ...
  232.7500    65.8420    16.2550    14.6670    15.0850    24.0780     2.2980    -8.8510 
  232.8750    65.1690    16.5650    14.9300    16.0890    24.0270     2.2910    -8.7630 
  233.0000    65.0830    16.7020    15.1390    17.0200    23.9700     2.2900    -8.6600 
  233.1250    65.0830    16.3890    15.0360    16.4330    23.9080     2.2990    -8.5190 
  233.2500    65.0830    15.5930    14.5070    13.9520    23.8430     2.3190    -8.3960 
  233.3750    65.0830    14.5190    13.6090    11.5840    23.8480     2.3470    -8.2530 
  233.5000    65.0830    13.5390    12.6550    10.4560    23.8890     2.3780    -8.0680 
  233.6250    65.0830    12.8460    11.8540    10.1070    23.9340     2.4100    -7.8590 
  233.7500    65.0830    12.4850    11.3120    10.0780    23.9810     2.4390    -7.6710 
  233.8750    65.0830    12.4150    11.0500    10.2450    24.0040     2.4610    -7.4900 
  234.0000    65.0830    12.4670    10.9270    11.1490    24.0010     2.4720    -7.3150 
  234.1250    65.0830    12.5450    10.8460    13.0610    23.9940     2.4680    -7.1900 
  234.2500    65.0830    12.5790    10.7440    15.5630    23.9890     2.4510    -7.0880 
  234.3750    65.0830    12.5180    10.6110    17.8440    23.9850     2.4290    -7.0330 
  234.5000    65.0830    12.4010    10.4960    16.9050    23.9860     2.4130    -7.0110 
  234.6250    65.0830    12.3040    10.4510    13.0350    24.0110     2.4090    -7.0150 
  234.7500    65.0830    12.3220    10.5080     9.8810    24.0670     2.4190    -7.0240 
  234.8750    65.0830    12.5600    10.6930     9.4430    24.1260     2.4390    -7.0250 
  235.0000    65.0830    12.9740    10.9600     9.9540    24.1500     2.4590    -7.0320 
  235.1250    65.0830    13.4800    11.2680    10.8190    24.1410     2.4720    -7.0350 
  235.2500    65.0830    13.9750    11.5740    11.7790    24.1310     2.4770    -7.0460 
  235.3750    65.0830    14.3700    11.8480    12.6940    24.1360     2.4770    -7.0410 
  235.5000    65.0830    14.6680    12.0970    13.5950    24.1540     2.4750    -7.0280 
  235.6250    65.0830    14.9000    12.3320    14.1990    24.1760     2.4740    -7.0340 
  235.7500    65.0830    15.1040    12.5580    14.3670    24.1870     2.4740    -7.0650 
  235.8750    65.0830    15.2990    12.7630    14.1340    24.1890     2.4760    -7.1200 
  236.0000    65.0830    15.4800    12.9310    14.1660    24.1890     2.4760    -7.1830 
  236.1250    65.0830    15.6410    13.0550    14.5010    24.1920     2.4740    -7.2710 
  236.2500    65.0830    15.7830    13.1380    15.0660    24.2010     2.4700    -7.3900 
  236.3750    65.0830    15.9080    13.1870    15.6160    24.2070     2.4680    -7.5250 
  236.5000    65.0830    16.0150    13.2150    16.1150    24.1950     2.4710    -7.6750 
  236.6250    65.0830    16.0870    13.2290    16.3010    24.1660     2.4810    -7.8150 
  236.7500    65.0830    16.0880    13.2350    16.2830    24.1360     2.4950    -7.9680 
  236.8750    65.0830    15.9610    13.2360    15.9790    24.1240     2.5090    -8.1390 
  237.0000    65.0830    15.7260    13.2360    15.5140    24.1180     2.5170    -8.2950 
  237.1250    65.0830    15.4480    13.2320    14.9750    24.1120     2.5190    -8.3920 
  237.2500    65.0830    15.2340    13.2180    14.4980    24.1060     2.5160    -8.3960 
  237.3750    65.0830    15.2070    13.1920    14.2550    24.1000     2.5090    -8.3760 
  237.5000    65.0830    15.3370    13.1660    14.0810    24.1040     2.5020    -8.3090 
  237.6250    65.0830    15.5290    13.1540    13.6550    24.1020     2.4960    -8.1780 
  237.7500    65.0830    15.6760    13.1660    12.7510    24.0940     2.4940    -7.9810 
  237.8750    65.0830    15.7040    13.1970    11.9440    24.0920     2.4920    -7.7110 
  238.0000    65.0830    15.6630    13.2320    11.4970    24.0720     2.4880    -7.4140 
  238.1250    65.0830    15.6220    13.2560    11.3850    24.0370     2.4770    -7.1370 
  238.2500    65.0830    15.6290    13.2660    11.3850    23.9820     2.4630    -6.9280 
  238.3750    65.0830    15.6820    13.2630    11.3690    23.9060     2.4510    -6.7610 
  238.5000    65.0830    15.7390    13.2530    11.3190    23.8400     2.4460    -6.6160 
  238.6250    65.0830    15.7770    13.2410    11.4900    23.8400     2.4460    -6.5120 
  238.7500    65.0830    15.7970    13.2310    11.7700    23.8660     2.4460    -6.4350 
  238.8750    65.0830    15.8060    13.2260    11.8060    23.8220     2.4390    -6.4210 
  239.0000    65.0830    15.8090    13.2250    11.4880    23.6990     2.4260    -6.4600 
  239.1250    65.0830    15.8090    13.2250    10.7990    23.5160     2.4200    -6.5070 
  239.2500    65.0830    15.8090    13.2250    10.0730    23.3290     2.4000    -6.5310 
  239.3750    65.0830    15.8090    13.2250     9.5130    23.1850     2.3960    -6.5180 
  239.5000    65.0830    15.8090    13.2250     9.3570    23.1050     2.3990    -6.5320 
  239.6250    65.0830    15.8090    13.2250     9.7620    23.0510     2.4070    -6.5660 
  239.7500    65.0830    15.8090    13.2250    10.5250    22.9970     2.4160    -6.6030 
  239.8750    65.0830    15.8090    13.2250    11.1140    22.9370     2.4210    -6.6000 
  240.0000    65.0830    15.8090    13.2250    10.9340    22.8330     2.4210    -6.5650 
  240.1250    65.0830    15.8090    13.2250    10.3300    22.6350     2.4170    -6.5460 
  240.2500    65.0830    15.8090    13.2250    10.0070    22.3170     2.4120    -6.5690 
  240.3750    65.0830    15.8090    13.2250    10.1270    21.8330     2.4020    -6.6760 
  240.5000    65.0830    15.8090    13.2250    10.0500    21.2120     2.3790    -6.8410 
  240.6250    65.0830    15.8090    13.2250     9.6420    20.4410     2.3360    -7.0150 
  240.7500    65.0830    15.8090    13.2250     9.0270    19.4900     2.2710    -7.1950 
  240.8750    65.0830    15.8090    13.2250     8.2290    18.2900     2.1950    -7.3970 
  241.0000    65.0830    15.8090    13.2250     7.7410    17.1180     2.1260    -7.6220 
  241.1250    65.0830    15.8090    13.2250     7.5570    16.1980     2.0750    -7.8320 
  241.2500    65.0830    15.8090    13.2250     7.5280    15.7820     2.0440    -8.0130 
  241.3750    65.0830    15.8090    13.2250     7.5280    15.7130     2.0320    -8.1210 
  241.5000    65.0830    15.8090    13.2250     7.5280    15.7030     2.0290    -8.1530 
  241.6250    65.0830    15.8090    13.2250     7.5280    15.6920     2.0300    -8.1620 
  241.7500    65.0830    15.8090    13.2250     7.5280    15.6840     2.0330    -8.1700 
  241.8750    65.0830    15.8090    13.2250     7.5280    15.6820     2.0350  -999.2500 
  242.0000    65.0830    15.8090    13.2250     7.5280    15.6820     2.0360  -999.2500 
  242.1250    65.0830    15.8090    13.2250     7.5280    15.6820     2.0360  -999.2500 
  242.2500    65.0830    15.8090    13.2250     7.5280    15.6820     2.0340  -999.2500 
  242.3750    65.0830    15.8090    13.2250     7.5280    15.6820     2.0330  -999.2500 
  242.5000    65.0830    15.8090    13.2250     7.5280    15.6820     2.0330  -999.2500 
  242.6250    65.0830    15.8090    13.2250     7.5280    15.6820     2.0350  -999.2500 
  242.7500    65.0830    15.8090    13.2250     7.5280    15.6820     2.0360  -999.2500 
  242.8750    65.0830    15.8090    13.2250     7.5280    15.6820     2.0380  -999.2500 
  243.0000    65.0830    15.8090    13.2250     7.5270    15.6810  -999.2500  -999.2500 
