~V
VERS. 2.00: Ver 2.00
~W
STRT.M 65.0000:
STOP.M 258.0000:
STEP.M 0.1250:
NULL. -999.2500:
UWI. DF5030:
~C
DEPT.M :
SP.MV :
GR.API :
RML.OHMM :
RI. :
RXO.OHMM :
CALI.CM :
DEN.GM/CC :
~A
# ...
  245.0000   -23.2880    67.6330    54.8480    48.6760    48.4250    23.5800     2.2500 
  245.1250   -22.9420    64.2840    54.4210    48.1820    44.3750    23.6230     2.2460 
  245.2500   -22.5040    66.6660    54.7720    48.3300    43.1190    23.6910     2.2400 
  245.3750   -22.0110    73.2060    56.9460    49.9320    45.8450    23.8250     2.2310 
  245.5000   -21.5240    74.4110    61.0300    53.0240    51.3040    23.9920     2.2210 
  245.6250   -21.0050    68.4030    66.8270    57.4210    59.0570    24.1440     2.2120 
  245.7500   -20.4770    61.4460    73.7540    62.6470    68.3220    24.2120     2.2070 
  245.8750   -19.9630    63.9060    80.9040    68.0330    74.9710    24.1570     2.2090 
  246.0000   -19.4270    70.5830    87.2800    72.9290    78.3730    24.0630     2.2180 
  246.1250   -18.9790    71.1610    92.1890    76.9570    80.0710    23.9810     2.2400 
  246.2500   -18.6100    64.8200    95.1710    79.9140    84.3510    23.9420     2.2790 
  246.3750   -18.2950    60.6160    95.6820    81.5080    90.9350    23.9010     2.3370 
  246.5000   -18.0300    62.4240    94.2580    81.9050    99.0300    23.8700     2.3980 
  246.6250   -17.8190    65.3950    91.5020    81.2320   104.2520    23.8750     2.4460 
  246.7500   -17.5840    66.6910    88.4060    79.8950   102.7000    23.8760     2.4650 
  246.8750   -17.3970    68.3540    86.0900    78.5230    89.7490    23.8620     2.4530 
  247.0000   -17.2640    70.4810    84.5140    77.3700    79.9820    23.7890     2.4340 
  247.1250   -17.0710    71.1270    82.6420    75.8900    71.3300    23.7540     2.4220 
  247.2500   -16.8760    69.2100    78.7640    72.8530    66.5120    23.7550     2.4180 
  247.3750   -16.6380    64.8410    70.4950    66.2870    67.9010    23.7460     2.4210 
  247.5000   -16.3670    60.2620    58.6260    56.5860    69.7400    23.7260     2.4250 
  247.6250   -16.0900    57.7830    45.9200    45.5820    65.1100    23.7390     2.4340 
  247.7500   -15.8200    60.3100    35.8700    35.9710    53.3430    23.8060     2.4500 
  247.8750   -15.5430    65.7390    30.9810    30.4050    37.2750    23.9280     2.4730 
  248.0000   -15.2160    65.7390    30.0690    28.5790    32.5860    24.0170     2.4950 
  248.1250   -14.8990    65.7390    31.8030    29.5110    41.8190    23.9930     2.5120 
  248.2500   -14.6060    65.7390    34.3340    31.5700    57.5560    23.8960     2.5220 
  248.3750   -14.4000    65.7390    35.1020    32.5150    68.6990    23.8510     2.5200 
  248.5000   -14.2000    65.7390    32.8390    31.0590    62.5220    23.8390     2.5050 
  248.6250   -13.9680    65.7390    27.9630    27.2780    41.2840    23.8030     2.4790 
  248.7500   -13.7760    65.7390    22.3660    22.4700    25.2530    23.7680     2.4490 
  248.8750   -13.5940    65.7390    18.1000    18.3520    21.4540    23.7990     2.4260 
  249.0000   -13.4400    65.7390    15.3520    15.4790    20.2020    23.8540     2.4110 
  249.1250   -13.3220    65.7390    13.7530    13.7150    16.9360    23.8220     2.4020 
  249.2500   -13.2140    65.7390    12.9160    12.7450    12.6330    23.7850     2.3960 
  249.3750   -13.0750    65.7390    12.6080    12.3410    10.9120    23.7790     2.3920 
  249.5000   -12.9460    65.7390    12.5340    12.2010    10.6240    23.7950     2.3920 
  249.6250   -12.8430    65.7390    12.5700    12.1990    10.9370    23.8000     2.3970 
  249.7500   -12.7440    65.7390    12.6310    12.2480    11.6780    23.7940     2.4050 
  249.8750   -12.6170    65.7390    12.6650    12.2970    12.3110    23.7890     2.4130 
  250.0000   -12.4910    65.7390    12.6560    12.3260    12.6530    23.7490     2.4190 
  250.1250   -12.3460    65.7390    12.6280    12.3380    12.5240    23.6650     2.4190 
  250.2500   -12.2010    65.7390    12.6200    12.3390    11.9260    23.5400     2.4140 
  250.3750   -12.0190    65.7390    12.6190    12.3340    11.4900    23.4940     2.4030 
  250.5000   -11.8070    65.7390    12.6190    12.3270    11.3410    23.5210     2.3910 
  250.6250   -11.5770    65.7390    12.6190    12.3210    11.4930    23.6250     2.3840 
  250.7500   -11.2980    65.7390    12.6190    12.3210    12.1560    23.7230     2.3810 
  250.8750   -11.0530    65.7390    12.6190    12.3280    13.2830    23.7470     2.3800 
  251.0000   -10.8180    65.7390    12.6190    12.3390    14.1650    23.7300     2.3730 
  251.1250   -10.6290    65.7390    12.6190    12.3500    14.6620    23.7160     2.3610 
  251.2500   -10.4740    65.7390    12.6190    12.3580    14.8790    23.7000     2.3500 
  251.3750   -10.3620    65.7390    12.6190    12.3600    14.8690    23.6720     2.3500 
  251.5000   -10.3030    65.7390    12.6190    12.3580    14.7110    23.6620     2.3550 
  251.6250   -10.2750    65.7390    12.6190    12.3510    14.1040    23.6430     2.3860 
  251.7500   -10.3090    65.7390    12.6190    12.3430    12.9450    23.5940     2.4060 
  251.8750   -10.3180    65.7390    12.6190    12.3350    13.1170    23.5270     2.4190 
  252.0000   -10.3360    65.7390    12.6190    12.3290    15.0080    23.4300     2.4260 
  252.1250   -10.3360    65.7390    12.6190    12.3270    17.8290    23.3450     2.4270 
  252.2500   -10.3090    65.7390    12.6190    12.3260    20.7970    23.2460     2.4190 
  252.3750   -10.3160    65.7390    12.6190    12.3240    22.1640    23.1040     2.4020 
  252.5000   -10.3270    65.7390    12.6190    12.3230    19.8390    22.9050     2.3790 
  252.6250   -10.3420    65.7390    12.6190    12.3210    15.6590    22.6480     2.3530 
  252.7500   -10.3270    65.7390    12.6190    12.3220    13.6670    22.2920     2.3290 
  252.8750   -10.3180    65.7390    12.6200    12.3240    13.1150    21.5350     2.3090 
  253.0000   -10.3210    65.7390    12.6220    12.3260    12.8170    20.3280     2.2900 
  253.1250   -10.3740    65.7390    12.6220    12.3260    12.4850    19.1480     2.2680 
  253.2500   -10.4060    65.7390    12.6190    12.3250    12.2680    18.2720     2.2370 
  253.3750   -10.4100    65.7390    12.6130    12.3240    12.2260    17.5410     2.1990 
  253.5000   -10.4550    65.7390    12.6040    12.3240    12.4490    16.8310     2.1550 
  253.6250   -10.4870    65.7390    12.6060    12.3260    13.0630    16.1930     2.1130 
  253.7500   -10.5350    65.7390    12.6120    12.3280    13.9040    15.7230     2.0800 
  253.8750   -10.6090    65.7390    12.6150    12.3300    14.2320    15.3250     2.0590 
  254.0000   -10.6660    65.7390    12.6150    12.3300    13.7150    14.8300     2.0490 
  254.1250   -10.6810    65.7390    12.6150    12.3300    12.8790    14.1800     2.0510 
  254.2500   -10.7060    65.7390    12.6150    12.3300    12.1530    13.4700     2.0620 
  254.3750   -10.7410    65.7390    12.6150    12.3300    11.5160    12.9330     2.0750 
  254.5000   -10.7390    65.7390    12.6150    12.3300    11.0010    12.6720     2.0860 
  254.6250   -10.7420    65.7390    12.6150    12.3300    10.8060    12.5940     2.0930 
  254.7500   -10.7420    65.7390    12.6150    12.3300    10.7800    12.5840     2.0950 
  254.8750   -10.7420    65.7390    12.6150    12.3300    10.7810    12.5850     2.0930 
  255.0000  -999.2500    65.7390    12.6150    12.3300    10.7790    12.5850     2.0900 
  255.1250  -999.2500    65.7390    12.6150    12.3300    10.7750    12.5840     2.0890 
  255.2500  -999.2500    65.7390    12.6150    12.3300    10.7730    12.5830     2.0860 
  255.3750  -999.2500    65.7390    12.6150    12.3300    10.7720    12.5830  -999.2500 
  255.5000  -999.2500    65.7390    12.6150    12.3300    10.7710    12.5830  -999.2500 
  255.6250  -999.2500    65.7390    12.6150    12.3300    10.7700    12.5830  -999.2500 
  255.7500  -999.2500    65.7390    12.6150    12.3300    10.7710    12.5830  -999.2500 
  255.8750  -999.2500    65.7390    12.6150    12.3300    10.7730    12.5830  -999.2500 
  256.0000  -999.2500    65.7390    12.6150    12.3300    10.7760    12.5830  -999.2500 
  256.1250  -999.2500    65.7390    12.6150    12.3300    10.7790    12.5830  -999.2500 
