~V
VERS. 2.00: Ver 2.00
~W
STRT.M 55.0000:
STOP.M 273.0000:
STEP.M 0.1250:
NULL. -999.2500:
UWI. DF5004:
~C
DEPT.M :
GR.API :
CALI.CM :
RXO.OHMM :
RI. :
RML.OHMM :
DEN.GM/CC :
SP.MV :
~A
# ...
  178.7500    66.6030    22.7420   130.3050   127.2630   147.1760     2.2760   -23.9060 
  178.8750    69.3170    23.0830   117.3130   120.0720   139.3880     2.2680   -23.9930 
  179.0000    72.6320    23.4370   115.3720   117.6000   136.9000     2.2640   -24.0650 
  179.1250    75.1240    23.7170   120.0220   120.1540   140.0300     2.2640   -24.0800 
  179.2500    74.9280    23.8530   127.5470   125.8800   146.8170     2.2570   -24.1010 
  179.3750    72.1580    24.0220   137.5550   133.2330   155.6120     2.2460   -24.1450 
  179.5000    69.6500    24.1300   149.4450   140.4950   164.4370     2.2410   -24.1990 
  179.6250    68.7110    24.0620   155.3670   146.0450   171.3110     2.2480   -24.2260 
  179.7500    68.2880    23.9240   157.9490   149.8770   176.1210     2.2550   -24.2110 
  179.8750    67.4500    23.9130   160.0990   152.2760   179.0650     2.2520   -24.1680 
  180.0000    67.0120    23.9840   163.4590   153.0600   179.6410     2.2390   -24.1010 
  180.1250    67.7490    23.8830   164.1090   150.9240   175.8730     2.2300   -24.0580 
  180.2500    67.6440    23.6320   166.0850   145.9370   168.1870     2.2330   -24.0340 
  180.3750    66.1840    23.3550   163.3160   138.9410   158.1140     2.2420   -24.0230 
  180.5000    64.2690    23.1990   148.9680   131.5490   147.9320     2.2510   -24.0100 
  180.6250    62.9020    23.3040   127.6150   126.2380   140.6180     2.2540   -23.9910 
  180.7500    62.9740    23.5000   120.6400   124.5370   137.6340     2.2500   -23.9490 
  180.8750    64.4450    23.7110   126.8660   127.0380   139.5800     2.2400   -23.8880 
  181.0000    66.1830    23.7740   127.4080   132.6180   145.3910     2.2280   -23.8140 
  181.1250    67.4220    23.6730   123.8840   136.2570   149.0800     2.2190   -23.7850 
  181.2500    67.8170    23.5080   133.3850   131.0020   141.3600     2.2210   -23.6890 
  181.3750    67.9210    23.4400   148.4010   114.1030   119.7660     2.2440   -23.5380 
  181.5000    68.2490    23.1980   138.5140    90.6460    92.7840     2.2880   -23.3510 
  181.6250    70.2370    23.1440    97.1980    70.3500    71.8370     2.3320   -23.1570 
  181.7500    73.9450    23.0930    55.3110    57.5180    59.3650     2.3540   -22.9760 
  181.8750    77.2110    23.2490    34.1510    52.6050    54.9200     2.3450   -22.8220 
  182.0000    80.0590    23.4820    37.2500    55.4980    58.0660     2.3170   -22.6980 
  182.1250    81.0590    23.7150    67.2840    68.0750    70.7130     2.2870   -22.5930 
  182.2500    78.6420    23.8440   107.0970    89.1350    92.5820     2.2680   -22.4750 
  182.3750    73.5290    23.8010   134.9660   116.0140   122.5440     2.2580   -22.3720 
  182.5000    68.5900    23.6250   148.7870   141.5980   153.3950     2.2540   -22.2960 
  182.6250    66.3530    23.5690   159.0630   154.6940   169.4190     2.2560   -22.2880 
  182.7500    64.4780    23.6430   169.2670   154.8300   168.6210     2.2640   -22.3080 
  182.8750    63.0960    23.7840   170.3860   146.5050   158.1830     2.2720   -22.3090 
  183.0000    63.4070    23.6460   159.4700   134.7640   145.1430     2.2700   -22.2770 
  183.1250    63.8950    23.5640   137.6100   123.2550   133.6790     2.2550   -22.1480 
  183.2500    64.6610    23.5270   118.4950   113.9750   125.2960     2.2420   -22.0880 
  183.3750    66.6890    23.5540   109.1240   107.5610   120.2370     2.2450   -22.0560 
  183.5000    69.6660    23.5200   109.0410   103.6790   117.7910     2.2630   -22.0390 
  183.6250    71.3620    23.4180   113.3760   101.6300   116.8450     2.2770   -21.9680 
  183.7500    72.7220    23.3700   116.6200   100.5340   116.3730     2.2800   -21.8960 
  183.8750    74.7130    23.3670   113.7720   100.6470   116.7280     2.2740   -21.8430 
  184.0000    75.8930    23.3570   104.4900   102.9220   119.1380     2.2650   -21.8500 
  184.1250    75.3710    23.3340    99.2750   109.6980   126.2730     2.2570   -21.9600 
  184.2500    74.5120    23.3260   107.7590   122.2420   139.5740     2.2470   -22.0820 
  184.3750    73.3030    23.3430   139.0230   141.6180   160.5560     2.2330   -22.2500 
  184.5000    70.4670    23.4180   190.1020   167.2210   189.5380     2.2160   -22.4240 
  184.6250    66.8660    23.5850   229.4140   195.0570   223.4850     2.2060   -22.6050 
  184.7500    63.7990    23.7710   252.8160   215.7510   249.6390     2.2120   -22.7530 
  184.8750    63.1690    23.7840   279.6610   219.6520   252.3110     2.2300   -22.8920 
  185.0000    65.6860    23.8010   300.0500   203.0050   226.6570     2.2540   -22.9910 
  185.1250    68.2510    23.7780   271.0410   171.9300   186.7910     2.2810   -23.0660 
  185.2500    68.1260    23.7580   206.0460   141.1410   152.0340     2.3110   -23.0520 
  185.3750    68.6170    23.5270   137.2560   117.7810   128.0700     2.3350   -22.9560 
  185.5000    73.1330    23.2710    92.2840   104.5490   115.4380     2.3460   -22.8260 
  185.6250    77.2640    23.2480    88.5850   102.4630   114.1750     2.3430   -22.7360 
  185.7500    75.3420    23.4210   115.6710   107.3310   120.3550     2.3340   -22.6710 
  185.8750    71.3790    23.6360   156.8260   116.0950   131.3350     2.3170   -22.6190 
  186.0000    69.4270    23.7860   193.6640   125.3490   143.3980     2.2890   -22.5700 
  186.1250    67.2450    23.7820   196.8370   131.1130   151.1960     2.2600   -22.4970 
  186.2500    63.9510    23.6500   175.5380   132.5900   153.3610     2.2490   -22.4660 
  186.3750    63.1570    23.5450   149.0200   131.0590   151.8660     2.2590   -22.4860 
  186.5000    66.2630    23.6390   132.5040   128.4630   149.5000     2.2780   -22.5700 
  186.6250    69.1290    23.5720   134.0420   126.0830   147.8390     2.2920   -22.6430 
  186.7500    69.8410    23.4720   133.5250   124.1750   146.8880     2.2990   -22.7190 
  186.8750    70.7380    23.1940   128.9970   122.5220   146.1790     2.2990   -22.7550 
  187.0000    72.3320    22.9790   124.4450   120.7070   145.0850     2.2940   -22.8140 
  187.1250    71.9130    22.8770   122.0050   118.4470   143.2960     2.2870   -22.8540 
  187.2500    70.4620    22.7980   122.1640   116.0130   141.2870     2.2780   -22.9420 
  187.3750    69.6480    23.0290   121.3850   113.6940   139.4080     2.2650   -22.9990 
  187.5000    69.4610    23.2190   116.7990   111.6670   137.7590     2.2540   -23.0090 
  187.6250    68.1600    23.2820   110.8150   110.3190   136.7020     2.2600   -22.9150 
  187.7500    67.5310    23.3550   105.7960   110.2280   137.0020     2.2780   -22.7840 
  187.8750    68.2530    23.5800   104.6750   112.2380   139.7580     2.2930   -22.6200 
  188.0000    67.7400    23.8510   110.2340   116.9960   145.8630     2.2890   -22.3930 
  188.1250    65.6620    24.1900   126.2310   124.7940   155.8620     2.2720   -22.1060 
  188.2500    64.3010    24.5400   152.5020   133.8420   167.5920     2.2620   -21.7590 
  188.3750    63.3330    24.6670   182.3930   142.1140   178.3290     2.2610   -21.4020 
  188.5000    61.8900    24.6050   196.3740   147.6690   185.2640     2.2620   -20.9960 
  188.6250    62.4750    24.5530   181.5900   148.9900   186.3480     2.2590   -20.6350 
  188.7500    65.2030    24.4850   164.0320   147.1280   183.3290     2.2560   -20.3130 
  188.8750    67.5140    24.3620   158.1870   142.5440   176.9650     2.2560   -20.0740 
  189.0000    69.3230    24.1250   161.3030   135.0930   166.9020     2.2600   -19.8860 
  189.1250    70.3310    23.9950   160.8820   124.1370   152.2360     2.2610   -19.7590 
  189.2500    69.4730    23.9690   147.7300   111.1810   135.3010     2.2600   -19.6600 
  189.3750    68.2510    24.0050   121.2820    98.1740   118.9030     2.2600   -19.6020 
  189.5000    69.7930    24.0170    93.7420    87.2250   105.6130     2.2640   -19.6180 
  189.6250    73.0140    24.0400    78.9720    80.4960    97.7670     2.2740   -19.6940 
  189.7500    72.4170    24.0610    78.6960    77.7490    94.7770     2.2830   -19.7760 
  189.8750    68.8300    24.0020    85.8770    78.5910    96.0770     2.2820   -19.7990 
