~V
VERS. 2.00: Ver 2.00
~W
STRT.M 55.0000:
STOP.M 268.0000:
STEP.M 0.1250:
NULL. -999.2500:
UWI. DF5025:
~C
DEPT.M :
SP.MV :
GR.API :
CALI.CM :
RXO.OHMM :
RI. :
RML.OHMM :
DEN.GM/CC :
~A
   55.0000    36.2970  -999.2500  -999.2500  -999.2500  -999.2500  -999.2500  -999.2500 
   55.1250    36.2730  -999.2500  -999.2500  -999.2500  -999.2500  -999.2500  -999.2500 
   55.2500    35.8930  -999.2500  -999.2500  -999.2500  -999.2500  -999.2500  -999.2500 
   55.3750    35.2120  -999.2500  -999.2500  -999.2500  -999.2500  -999.2500  -999.2500 
   55.5000    34.3540  -999.2500  -999.2500  -999.2500  -999.2500  -999.2500  -999.2500 
   55.6250    33.5350  -999.2500  -999.2500  -999.2500  -999.2500  -999.2500  -999.2500 
   55.7500    32.9040  -999.2500  -999.2500  -999.2500  -999.2500  -999.2500  -999.2500 
   55.8750    32.4460  -999.2500  -999.2500  -999.2500  -999.2500  -999.2500  -999.2500 
   56.0000    32.0480  -999.2500  -999.2500  -999.2500  -999.2500  -999.2500  -999.2500 
   56.1250    31.6090  -999.2500  -999.2500  -999.2500  -999.2500  -999.2500  -999.2500 
   56.2500    31.1450  -999.2500  -999.2500  -999.2500  -999.2500  -999.2500  -999.2500 
   56.3750    30.7380  -999.2500  -999.2500  -999.2500  -999.2500  -999.2500  -999.2500 
   56.5000    30.5070  -999.2500  -999.2500  -999.2500  -999.2500  -999.2500  -999.2500 
   56.6250    30.5470  -999.2500  -999.2500  -999.2500  -999.2500  -999.2500  -999.2500 
   56.7500    30.8740  -999.2500  -999.2500  -999.2500  -999.2500  -999.2500  -999.2500 
   56.8750    31.5110  -999.2500  -999.2500  -999.2500  -999.2500  -999.2500  -999.2500 
   57.0000    32.4370  -999.2500  -999.2500  -999.2500  -999.2500  -999.2500  -999.2500 
   57.1250    33.5990    53.0960    25.9790     5.0720     1.8740 450179.9060  -999.2500 
   57.2500    34.8960    53.0960    25.9790     5.0720     1.8740 450179.9060  -999.2500 
   57.3750    36.2320    54.7620    25.9780     5.6620     1.8710 450179.9060  -999.2500 
   57.5000    37.4970    58.5610    25.9740     6.7600     1.8820 450179.9060  -999.2500 
   57.6250    38.6210    60.2950    25.9720     7.6970     1.9140 450179.9060  -999.2500 
   57.7500    39.6040    59.7910    25.9750     7.9730     1.9480 450179.9060  -999.2500 
   57.8750    40.4460    59.1950    25.9790     7.6680     1.9760 450179.9060     2.1260 
   58.0000    41.1520    58.5520    25.9810     7.3230     1.9940 450179.9060     2.1260 
   58.1250    41.7100    55.1890    25.9790     7.2250     2.0010 450179.9060     2.1460 
   58.2500    42.1150    51.1330    25.9780     6.8810     2.0030 450179.9060     2.1720 
   58.3750    42.3270    51.0300    25.9770     5.8510     2.0050 450179.9060     2.1880 
   58.5000    42.3260    55.1720    25.9770     4.2420     2.0080 450179.9060     2.1900 
   58.6250    42.0600    55.6830    25.9790     2.7570     2.0130 450179.9060     2.1820 
   58.7500    41.5470    50.6000    25.9800     1.9230     2.0190 450179.9060     2.1710 
   58.8750    40.8120    45.5830    25.9800     1.7360     2.0270 450179.9060     2.1560 
   59.0000    39.9220    44.6180    25.9820     1.9050     2.0350 450179.9060     2.1420 
   59.1250    38.9630    47.1220    25.9840     2.0640     2.0410 450179.9060     2.1410 
   59.2500    38.0470    49.9110    25.9870     2.1420     2.0410 449369.5940     2.1520 
   59.3750    37.2660    51.4680    25.9900     2.8540     2.0520 454299.0310     2.1700 
   59.5000    36.6720    51.2260    25.9940     5.6170     2.0620 459498.6250     2.1960 
   59.6250    36.3550    49.5070    25.9960    11.3270     1.8700 384948.9380     2.2180 
   59.7500    36.2690    47.9200    25.9950    17.3970     1.4650 225090.1410     2.2210 
   59.8750    36.3590    46.5890    25.9940    21.2360     1.0630 65231.2660     2.1990 
   60.0000    36.5310    47.1300    25.9940    22.1870     0.8810  -999.2500     2.1670 
   60.1250    36.6770    50.4040    25.9960    23.1120     0.9030  -999.2500     2.1470 
   60.2500    36.7070    53.3340    25.9970    26.9630     0.9230   810.4840     2.1400 
   60.3750    36.5600    56.6400    25.9970    31.6140     0.9240     0.1630     2.1340 
   60.5000    36.2370    61.6320    25.9970    31.4980     0.9220     0.1600     2.1230 
   60.6250    35.7340    66.2830    25.9970    23.7940     0.9160     0.1520     2.1130 
   60.7500    35.1500    67.3940    25.9970    18.4680     0.9110     0.1450     2.1130 
   60.8750    34.5570    64.1490    25.9970    27.2910     0.9090     0.1430     2.1190 
   61.0000    34.0290    59.9290    25.9970    55.6780     0.9100     0.1450     2.1260 
   61.1250    33.6400    59.2480    25.9970    84.4890     0.9080     0.1420     2.1220 
   61.2500    33.3800    61.0870    25.9970   146.8360     0.8970     0.1280     2.1090 
   61.3750    33.2200    61.4480    25.9970   377.2890     0.8760     0.1010     2.0990 
   61.5000    33.0260    58.3830    25.9970   800.0240     0.8510     0.0690     2.0980 
   61.6250    32.5370    57.4340    25.9960  1045.7250     0.8280     0.0390     2.0950 
   61.7500    31.4630    62.4600    25.9980   837.4010     0.8100     0.0160     2.1100 
   61.8750    29.4280    70.1560    25.9750   372.7580     0.8050     0.0100     2.1780 
   62.0000    26.3130    78.7780    25.7160    40.4860     0.8310     0.0430     2.2900 
   62.1250    22.2960    89.8330    25.3980   -13.7390     0.9400     0.1830     2.3680 
   62.2500    17.8200    99.8140    25.3980     1.7610     1.1690     0.4780     2.3770 
   62.3750    13.0270   101.8760    25.3630     4.9170     1.5460     0.9620     2.3470 
   62.5000     8.1020    95.7790    24.7990     4.8390     2.0580     1.6200     2.3140 
   62.6250     3.3410    89.2340    23.9350     5.4610     2.6620     2.3960     2.2810 
   62.7500    -0.9270    86.1750    23.4850     6.2710     3.2980     3.2120     2.2470 
   62.8750    -4.3690    84.0140    23.4370     7.0220     3.9580     4.0790     2.2210 
   63.0000    -6.9110    81.3460    23.3980     7.5510     4.6900     5.0450     2.2180 
   63.1250    -8.7800    77.7090    23.3950     8.3000     5.6820     6.0200     2.2470 
   63.2500   -10.3620    73.3390    23.4140     9.7680     6.8610     6.8080     2.2920 
   63.3750   -11.7520    69.4900    23.4320    11.6240     7.9200     7.2970     2.3320 
   63.5000   -13.0010    67.1170    23.3950    12.7990     8.5400     7.4760     2.3410 
   63.6250   -14.1470    67.7800    23.2450    12.2870     8.5890     7.3650     2.3070 
   63.7500   -15.2210    70.6410    23.0570    10.9120     8.3500     7.1220     2.2520 
   63.8750   -16.2050    74.2980    22.9510     9.6870     7.9860     6.8980     2.2020 
   64.0000   -17.0570    75.6290    23.0210     9.0960     7.6380     6.7680     2.1750 
   64.1250   -17.6990    73.3530    23.2650     9.0130     7.4250     6.6830     2.1670 
   64.2500   -18.1540    71.9140    23.5370     9.0520     7.3180     6.5320     2.1600 
   64.3750   -18.4280    71.8750    23.7340     9.0800     7.2500     6.2740     2.1460 
   64.5000   -18.5470    72.3070    23.8180     8.9690     7.1490     5.9520     2.1330 
   64.6250   -18.5920    73.9820    23.8280     8.5050     6.9830     5.6710     2.1370 
   64.7500   -18.6650    77.9480    23.8220     7.7830     6.8040     5.4980     2.1570 
   64.8750   -18.8210    82.8200    23.8400     7.1310     6.6860     5.4450     2.1820 
   65.0000   -19.1190    84.3160    23.9310     6.9450     6.6870     5.4930     2.1950 
   65.1250   -19.6090    80.6210    24.0540     7.4370     6.8400     5.6240     2.1840 
   65.2500   -20.2080    75.2170    24.0830     8.1620     7.0730     5.7930     2.1600 
   65.3750   -20.8620    71.0680    23.9900     8.6750     7.3190     5.9710     2.1460 
   65.5000   -21.5020    71.8990    23.8870     8.7390     7.5220     6.1360     2.1520 
   65.6250   -22.0340    77.1330    23.9070     8.4490     7.6500     6.2790     2.1710 
   65.7500   -22.4140    79.6400    24.0680     8.2370     7.7300     6.4110     2.1790 
   65.8750   -22.5860    76.5440    24.2450     8.3280     7.7780     6.5310     2.1750 
   66.0000   -22.4880    72.7130    24.1940     8.6570     7.7960     6.6240     2.1710 
   66.1250   -22.0950    75.5200    23.8410     8.8550     7.7630     6.6650     2.1840 
