~V
VERS. 2.00: Ver 2.00
~W
STRT.M 61.0000:
STOP.M 236.0000:
STEP.M 0.1250:
NULL. -999.2500:
UWI. DF5057:
~C
DEPT.M :
GR.API :
RML.OHMM :
RI. :
RXO.OHMM :
CALI.CM :
DEN.GM/CC :
SP.MV :
~A
# ...
  218.5000    74.7440    26.0890    23.7150    26.7630    25.5280     2.3410    -1.8030 
  218.6250    75.2740    28.7190    26.1760    28.8640    25.5820     2.3260    -1.9910 
  218.7500    78.3210    30.6320    28.0650    27.6730    25.6240     2.3100    -2.1870 
  218.8750    80.2160    31.3770    28.9180    26.9090    25.6460     2.2930    -2.3920 
  219.0000    78.5120    30.7190    28.4520    29.7670    25.6310     2.2770    -2.6160 
  219.1250    75.4810    28.7610    26.7230    33.3220    25.6040     2.2680    -2.8140 
  219.2500    74.5140    26.4750    24.6370    30.4780    25.5640     2.2690    -2.9940 
  219.3750    76.5730    24.6560    22.8890    22.5290    25.5280     2.2790    -3.1620 
  219.5000    80.2120    23.9370    21.9960    19.3790    25.5250     2.2910    -3.3040 
  219.6250    82.3410    24.9290    22.4680    20.1900    25.5170     2.2960    -3.4240 
  219.7500    82.1560    27.2390    24.1090    25.6280    25.5060     2.2920    -3.5270 
  219.8750    80.5400    30.1910    26.5280    33.1440    25.4830     2.2810    -3.5910 
  220.0000    77.7490    32.7610    28.9590    36.8090    25.4670     2.2670    -3.6360 
  220.1250    74.2430    33.7270    30.3070    34.3430    25.4130     2.2550    -3.6770 
  220.2500    71.9900    33.2500    30.4440    29.8970    25.3660     2.2480    -3.7020 
  220.3750    70.6710    32.1350    29.9170    26.0200    25.3100     2.2450    -3.6960 
  220.5000    68.2530    31.3360    29.4950    23.7900    25.2530     2.2440    -3.6700 
  220.6250    66.4850    31.4850    29.7700    27.3980    25.2910     2.2400    -3.6530 
  220.7500    67.0020    32.2090    30.5420    32.1850    25.3570     2.2320    -3.6620 
  220.8750    65.8000    32.9420    31.3700    35.9910    25.4410     2.2250    -3.6870 
  221.0000    61.8860    33.1210    31.7320    35.1700    25.5010     2.2250    -3.7050 
  221.1250    61.8400    32.3070    31.1400    34.8940    25.5260     2.2370    -3.6790 
  221.2500    66.0980    30.8400    29.8430    30.8380    25.4570     2.2540    -3.6300 
  221.3750    69.3090    29.1410    28.2210    26.1660    25.3660     2.2690    -3.5640 
  221.5000    68.3480    27.5510    26.6170    23.8320    25.3720     2.2740    -3.5040 
  221.6250    67.2630    26.1440    25.1430    23.3820    25.3820     2.2660    -3.4270 
  221.7500    68.3080    24.7470    23.6890    23.5590    25.3850     2.2530    -3.3520 
  221.8750    68.5980    23.3640    22.2750    23.9970    25.4250     2.2390    -3.2820 
  222.0000    66.7030    22.2870    21.1500    22.6900    25.4690     2.2290    -3.2230 
  222.1250    64.8570    22.3030    20.9350    20.0120    25.3850     2.2320    -3.1750 
  222.2500    65.8820    23.9190    22.0040    17.8400    25.2500     2.2600    -3.1290 
  222.3750    68.5740    27.4370    24.6570    20.4760    25.1570     2.3200    -3.0920 
  222.5000    68.4150    32.5880    28.8330    32.4100    25.1250     2.4030    -3.0860 
  222.6250    64.5340    37.9100    33.5480    62.5160    25.0550     2.4760    -3.1120 
  222.7500    61.4780    40.9590    36.6360    75.5500    24.9560     2.5060    -3.0830 
  222.8750    62.2930    40.3600    36.6900    54.6700    24.8710     2.4870    -3.0240 
  223.0000    65.3610    36.8340    34.1260    33.3600    24.8610     2.4330    -2.9710 
  223.1250    66.4220    32.6940    30.7790    26.5610    24.8590     2.3750    -2.9690 
  223.2500    65.7350    29.8300    28.2970    27.5280    24.9050     2.3270    -3.0030 
  223.3750    66.3640    28.7050    27.1420    27.7450    24.9770     2.2890    -3.0630 
  223.5000    69.4060    29.1540    27.2740    29.6030    25.0110     2.2560    -3.0920 
  223.6250    70.7760    30.6800    28.4030    30.1860    24.9080     2.2310    -3.0850 
  223.7500    69.8810    32.0680    29.5310    30.7400    24.8230     2.2150    -3.0860 
  223.8750    68.9710    32.1640    29.5820    32.2870    24.7710     2.2060    -3.0870 
  224.0000    68.4990    30.1050    27.6530    32.7970    24.7280     2.2030    -3.0520 
  224.1250    68.7180    25.7610    23.5870    29.6800    24.7280     2.2040    -2.9210 
  224.2500    69.5910    20.7520    18.9710    21.5860    24.7710     2.2130    -2.6970 
  224.3750    70.1630    15.0810    14.9280    12.2800    24.7620     2.2330    -2.3990 
  224.5000    69.7380    11.5360    11.9810     8.4910    24.7320     2.2640    -2.0610 
  224.6250    69.1200     9.8600    10.2970     7.9560    24.7190     2.3020    -1.6440 
  224.7500    68.3620     9.1320     9.4600     8.0660    24.7650     2.3390    -1.2250 
  224.8750    66.0110     9.0400     9.2420     8.0020    24.8050     2.3700    -0.8480 
  225.0000    64.5640     9.2840     9.4210     8.0500    24.8440     2.3890    -0.5370 
  225.1250    66.6840     9.5930     9.7740     8.2720    24.9020     2.3950    -0.2750 
  225.2500    68.7290     9.7990    10.0830     8.6490    24.9670     2.3920    -0.1020 
  225.3750    69.0730     9.8760    10.2740     9.2460    25.0250     2.3840     0.0150 
  225.5000    69.0730     9.8480    10.3360    10.2470    25.0420     2.3760     0.0700 
  225.6250    69.0730     9.7420    10.2770    10.4100    25.0420     2.3720     0.0580 
  225.7500    69.0730     9.5990    10.1510     9.8390    25.0300     2.3760    -0.0100 
  225.8750    69.0730     9.4500     9.9870     9.0250    25.0180     2.3850    -0.0790 
  226.0000    69.0730     9.3260     9.8120     8.6440    25.0130     2.3930    -0.1480 
  226.1250    69.0730     9.2650     9.6620     8.3630    24.9910     2.3930    -0.2690 
  226.2500    69.0730     9.2820     9.5650     8.3150    25.0050     2.3850    -0.3830 
  226.3750    69.0730     9.3730     9.5300     8.4830    25.0290     2.3740    -0.4660 
  226.5000    69.0730     9.5110     9.5440     9.0640    25.0420     2.3670    -0.5200 
  226.6250    69.0730     9.6490     9.5750     9.1050    25.0640     2.3690    -0.5520 
  226.7500    69.0730     9.7480     9.5930     8.9690    25.1200     2.3770    -0.5260 
  226.8750    69.0730     9.7950     9.5880     8.8070    25.2130     2.3890    -0.4790 
  227.0000    69.0730     9.7960     9.5620     9.0250    25.1670     2.4000    -0.4280 
  227.1250    69.0730     9.7710     9.5250     9.6170    25.1180     2.4060    -0.3810 
  227.2500    69.0730     9.7500     9.4890    10.0420    25.1510     2.4050    -0.3220 
  227.3750    69.0730     9.7490     9.4650     9.8130    25.2060     2.3980    -0.2720 
  227.5000    69.0730     9.7760     9.4650     9.5200    25.2690     2.3880    -0.2170 
  227.6250    69.0730     9.8320     9.5030     9.2740    25.3050     2.3830    -0.1890 
  227.7500    69.0730     9.9010     9.5680     9.6900    25.3330     2.3850    -0.1680 
  227.8750    69.0730     9.9730     9.6480    10.3980    25.3760     2.3920    -0.1510 
  228.0000    69.0730    10.0390     9.7370    10.7650    25.3780     2.4010    -0.1480 
  228.1250    69.0730    10.1070     9.8360    10.3850    25.3330     2.4120    -0.1360 
  228.2500    69.0730    10.1990     9.9540     9.7680    25.3120     2.4230    -0.1080 
  228.3750    69.0730    10.3440    10.1080     9.5530    25.3590     2.4340    -0.1010 
  228.5000    69.0730    10.5580    10.3010    10.2880    25.4050     2.4440    -0.1310 
  228.6250    69.0730    10.8320    10.5130    11.3380    25.4150     2.4460    -0.1850 
  228.7500    69.0730    11.0970    10.6990    12.5590    25.4050     2.4390    -0.2590 
  228.8750    69.0730    11.2840    10.8110    13.3330    25.3910     2.4220    -0.3510 
  229.0000    69.0730    11.3320    10.8100    13.2830    25.4060     2.3980    -0.4280 
  229.1250    69.0730    11.2080    10.6630    11.4350    25.3880     2.3720    -0.5090 
  229.2500    69.0730    10.9970    10.4260    10.5540    25.3150     2.3480    -0.6260 
  229.3750    69.0730    10.7840    10.1600    10.5570    25.2470     2.3280    -0.7310 
  229.5000    69.0730    10.6350     9.9220    10.8490    25.2740     2.3140    -0.7950 
  229.6250    69.0730    10.5820     9.7630    10.9370    25.2320     2.3090    -0.8790 
