~V
VERS. 2.00: Ver 2.00
~W
STRT.M 55.0000:
STOP.M 268.0000:
STEP.M 0.1250:
NULL. -999.2500:
UWI. DF5007:
~C
DEPT.M :
SP.MV :
GR.API :
RML.OHMM :
RI. :
RXO.OHMM :
CALI.CM :
DEN.GM/CC :
~A
# ...
  167.5000   -31.3580    72.2930   134.7160   113.9050    59.0590    23.4050     2.2410 
  167.6250   -31.4550    73.4360   137.7700   116.9620    60.9680    23.4060     2.2440 
  167.7500   -31.4770    73.4050   138.5160   118.1680    59.6300    23.4080     2.2480 
  167.8750   -31.5400    70.9790   137.4400   117.8090    55.5090    23.3940     2.2520 
  168.0000   -31.4990    67.1760   135.3560   116.4600    52.6590    23.3350     2.2530 
  168.1250   -31.4870    64.6560   133.2420   114.8950    49.8950    23.2780     2.2480 
  168.2500   -31.4990    63.4860   131.7870   113.7990    47.0530    23.2770     2.2390 
  168.3750   -31.4750    64.1630   131.3600   113.5810    44.1270    23.2260     2.2290 
  168.5000   -31.4440    67.2700   132.1330   114.4840    41.1390    23.0330     2.2210 
  168.6250   -31.3890    69.1910   133.9540   116.5300    39.1300    22.8040     2.2180 
  168.7500   -31.2830    68.4880   135.9840   119.0100    41.4730    22.7840     2.2200 
  168.8750   -31.1260    67.7120   137.4400   121.2900    48.9270    23.0020     2.2260 
  169.0000   -30.9570    68.9960   137.4350   122.6230    57.1220    23.3830     2.2330 
  169.1250   -30.8610    69.7040   134.6870   121.8640    64.2650    23.7240     2.2380 
  169.2500   -30.6910    69.3150   129.3150   118.8520    67.1400    23.8620     2.2420 
  169.3750   -30.5720    68.9820   121.7550   113.6720    67.1690    23.8500     2.2450 
  169.5000   -30.4870    68.6750   112.8930   106.8400    66.5360    23.8460     2.2480 
  169.6250   -30.2800    67.1810   103.9790    99.2480    65.5050    23.9230     2.2500 
  169.7500   -30.2520    65.1020    96.1110    92.0980    63.2570    23.9880     2.2520 
  169.8750   -30.2390    63.3670    89.8850    86.1340    60.6800    24.0830     2.2530 
  170.0000   -30.3470    65.1160    85.6750    81.8790    59.3960    24.1960     2.2530 
  170.1250   -30.4160    72.4200    83.9330    79.9580    59.6140    24.2780     2.2510 
  170.2500   -30.4940    76.4140    84.1040    79.9580    60.1760    24.2780     2.2480 
  170.3750   -30.6410    72.0640    85.7830    81.5360    60.1200    24.2710     2.2450 
  170.5000   -30.7260    64.9060    88.3780    84.1400    62.0890    24.2970     2.2440 
  170.6250   -31.0040    64.4780    91.0600    86.9910    66.3150    24.2930     2.2460 
  170.7500   -31.2180    68.5990    92.9910    89.2310    71.1640    24.2610     2.2510 
  170.8750   -31.4270    71.3750    93.6790    90.3390    74.7590    24.2580     2.2580 
  171.0000   -31.6730    71.5080    93.0120    90.1200    74.4880    24.3050     2.2640 
  171.1250   -31.9030    70.9150    91.2340    88.6670    71.2920    24.3340     2.2680 
  171.2500   -32.2010    70.8120    89.1130    86.6800    67.4390    24.3490     2.2680 
  171.3750   -32.4990    69.4610    87.0640    84.5880    63.0070    24.3750     2.2640 
  171.5000   -32.7780    65.2020    85.3690    82.7170    59.8230    24.3990     2.2580 
  171.6250   -33.0100    61.7940    84.2880    81.3840    58.3690    24.3770     2.2500 
  171.7500   -33.2970    62.6290    83.8130    80.6260    58.6050    24.3430     2.2420 
  171.8750   -33.5840    66.3640    84.0850    80.5570    62.8730    24.3140     2.2360 
  172.0000   -33.8900    69.5570    85.4370    81.4730    67.5850    24.2310     2.2300 
  172.1250   -34.1800    70.4730    88.6820    84.1490    65.5450    24.0610     2.2250 
  172.2500   -34.4000    70.3800    94.0860    88.8780    64.3760    23.9970     2.2200 
  172.3750   -34.5970    69.1310   101.8580    95.8860    65.3060    24.0310     2.2130 
  172.5000   -34.8300    66.5490   111.7180   104.8930    67.1370    24.1070     2.2040 
  172.6250   -35.0790    63.7050   122.7910   115.0320    74.3590    24.2330     2.1940 
  172.7500   -35.2090    61.5840   133.4060   124.7550    82.7910    24.3390     2.1900 
  172.8750   -35.3300    59.6980   142.2700   132.9320    89.0080    24.3810     2.1930 
  173.0000   -35.3310    57.0680   148.5490   138.8120    90.3370    24.3380     2.2040 
  173.1250   -35.2750    56.7290   151.9950   142.0510    87.8680    24.2610     2.2170 
  173.2500   -35.2700    59.6890   154.1750   143.9100    85.5570    24.2280     2.2270 
  173.3750   -35.1790    62.3230   156.3750   145.4810    85.4600    24.2020     2.2280 
  173.5000   -35.0630    62.6670   159.5640   147.6850    87.6250    24.1690     2.2230 
  173.6250   -34.8670    62.3600   164.5530   151.3490    95.5090    24.1770     2.2170 
  173.7500   -34.6450    63.7440   171.3140   156.5780   103.2920    24.2010     2.2160 
  173.8750   -34.4840    66.2680   180.0580   163.6310   108.0380    24.1820     2.2200 
  174.0000   -34.2760    68.2870   191.1770   172.9130   107.3900    24.1570     2.2250 
  174.1250   -34.1010    67.3820   205.7090   185.3340   105.6090    24.1780     2.2270 
  174.2500   -33.9380    64.7120   223.4370   200.4670   108.0170    24.1990     2.2220 
  174.3750   -33.7570    61.9760   243.9520   217.7090   112.6980    24.1620     2.2110 
  174.5000   -33.6420    58.8070   265.5890   235.6020   116.6430    24.0830     2.2000 
  174.6250   -33.5900    54.8300   283.8470   250.8220   115.9200    24.0520     2.1920 
  174.7500   -33.5110    52.7140   293.5650   259.8040   113.2870    24.0380     2.1900 
  174.8750   -33.3860    54.7820   290.3390   259.3950   108.3340    23.9940     2.1900 
  175.0000   -33.3800    60.0710   272.4540   248.0230   102.1190    23.9030     2.1900 
  175.1250   -33.3510    64.5950   241.0090   225.3660    95.7860    23.8610     2.1900 
  175.2500   -33.3100    64.4350   205.0820   197.2060    89.0520    23.8500     2.1920 
  175.3750   -33.3470    60.7600   171.0180   168.1350    83.1320    23.8300     2.1980 
  175.5000   -33.3810    60.5950   142.4050   141.6360    76.5400    23.8260     2.2100 
  175.6250   -33.4600    66.1260   121.3040   120.4790    67.0660    23.8690     2.2230 
  175.7500   -33.6010    69.9150   106.0700   104.4620    54.8880    23.8590     2.2320 
  175.8750   -33.8380    68.8960    95.6490    93.2180    44.9360    23.7740     2.2340 
  176.0000   -33.9980    66.1910    88.7010    85.7770    41.2010    23.7020     2.2290 
  176.1250   -34.2190    65.2820    84.1960    81.2000    43.1780    23.6100     2.2220 
  176.2500   -34.3800    65.2880    80.8800    77.9870    44.4160    23.5440     2.2170 
  176.3750   -34.5130    66.5900    78.5280    75.7130    42.4570    23.5140     2.2170 
  176.5000   -34.7190    68.1320    77.3290    74.4480    42.8320    23.5320     2.2220 
  176.6250   -34.7260    68.0500    77.9910    74.8180    49.5480    23.5410     2.2290 
  176.7500   -34.7500    69.2810    80.7580    77.0620    54.9330    23.5190     2.2320 
  176.8750   -34.6900    73.3500    85.9350    81.4790    51.3260    23.5320     2.2320 
  177.0000   -34.5420    77.0850    93.5710    88.0730    45.3750    23.5990     2.2280 
  177.1250   -34.4430    74.7970   103.5250    96.5480    47.6550    23.6700     2.2220 
  177.2500   -34.2860    67.6620   114.4320   105.5600    57.0700    23.7190     2.2180 
  177.3750   -34.0290    61.0250   125.1290   114.0130    67.3430    23.7850     2.2160 
  177.5000   -33.6880    58.8790   134.6290   121.0450    70.3890    23.8270     2.2150 
  177.6250   -33.3390    61.4280   142.1480   125.9540    67.8690    23.8050     2.2160 
  177.7500   -32.9530    62.7020   148.1120   129.2460    69.4370    23.7880     2.2190 
  177.8750   -32.5950    61.7620   153.1910   131.5600    71.7270    23.8100     2.2220 
  178.0000   -32.2550    62.9250   158.4660   133.8680    73.2970    23.8390     2.2240 
  178.1250   -31.8470    66.6200   165.3390   137.4570    73.5890    23.8580     2.2200 
  178.2500   -31.5160    66.8150   174.1830   142.7920    75.4540    23.8860     2.2130 
  178.3750   -31.2270    63.2480   185.0410   149.9890    78.8750    23.9000     2.2050 
  178.5000   -30.9610    59.6620   197.7330   158.9960    81.9290    23.8430     2.2000 
  178.6250   -30.7200    59.2290   212.1850   169.9610    84.0090    23.7730     2.1990 
