~V
VERS. 2.00: Ver 2.00
~W
STRT.M 55.0000:
STOP.M 273.0000:
STEP.M 0.1250:
NULL. -999.2500:
UWI. DF5004:
~C
DEPT.M :
GR.API :
CALI.CM :
RXO.OHMM :
RI. :
RML.OHMM :
DEN.GM/CC :
SP.MV :
~A
# ...
  145.0000    75.4200    21.8670    10.3370     9.4620    11.3590     2.1860   -27.1510 
  145.1250    74.4010    22.1530     9.9220     9.3720    11.3850     2.1960   -26.8920 
  145.2500    73.4490    22.3070     9.7340     9.1640    11.2450     2.2200   -26.5320 
  145.3750    73.8930    22.3420     9.9380     8.7900    10.8310     2.2640   -26.0710 
  145.5000    76.6790    22.3560    10.2310     8.2560    10.1170     2.3140   -25.5710 
  145.6250    80.3750    22.3890    10.0580     7.7250     9.3160     2.3340   -25.0880 
  145.7500    81.9940    22.4280     9.4930     7.4730     8.8800     2.3200   -24.6810 
  145.8750    81.2000    22.4620     9.3850     7.7700     9.2260     2.3030   -24.3370 
  146.0000    79.9350    22.5420    10.7620     8.8800    10.6970     2.3150   -24.0580 
  146.1250    78.4850    22.7310    16.2310    11.2160    13.7620     2.3740   -23.7640 
  146.2500    75.2450    22.9220    27.3040    14.4380    17.8580     2.4550   -23.4940 
  146.3750    71.8250    23.0850    37.3650    17.4290    21.3720     2.5290   -23.2560 
  146.5000    70.3250    23.1920    36.6970    18.3500    21.8310     2.5630   -23.0460 
  146.6250    69.8410    23.0410    27.0030    16.2210    18.4130     2.5270   -22.7760 
  146.7500    69.1280    22.8580    19.5430    13.0580    14.1920     2.4460   -22.4300 
  146.8750    70.8940    23.0270    14.5000    10.1550    10.7440     2.3610   -22.0150 
  147.0000    75.7890    23.1150    10.0530     7.9650     8.3930     2.3080   -21.5090 
  147.1250    82.1300    22.9960     7.5820     6.5560     7.0450     2.3050   -20.9440 
  147.2500    89.0920    23.1220     6.4170     5.6460     6.2590     2.3270   -20.4010 
  147.3750    96.8670    23.2720     6.0090     5.1080     5.8430     2.3530   -19.8910 
  147.5000   102.7730    23.3290     5.8840     4.8400     5.6520     2.3690   -19.4290 
  147.6250   102.7820    23.4390     5.7640     4.7710     5.5870     2.3720   -19.0340 
  147.7500   101.1450    23.4030     5.6020     4.8000     5.5730     2.3670   -18.7210 
  147.8750   102.3090    23.0620     5.5680     4.8960     5.6180     2.3580   -18.5000 
  148.0000   105.6300    22.7140     5.9090     5.0550     5.7480     2.3430   -18.4280 
  148.1250   106.1210    22.5190     6.5860     5.2860     5.9850     2.3180   -18.5350 
  148.2500   103.8290    22.4590     7.1300     5.5660     6.2910     2.2850   -18.7300 
  148.3750   101.6270    22.4540     7.4310     5.8690     6.6300     2.2570   -18.9660 
  148.5000   100.1790    22.4760     7.5410     6.1620     6.9620     2.2440   -19.1780 
  148.6250    96.7850    22.5090     7.3900     6.3950     7.2390     2.2450   -19.4060 
  148.7500    91.9150    22.5400     7.2030     6.5410     7.4320     2.2470   -19.5960 
  148.8750    89.7390    22.6510     7.1110     6.5630     7.4870     2.2420   -19.7690 
  149.0000    90.6540    22.8150     7.1180     6.4180     7.3380     2.2370   -19.8370 
  149.1250    91.6400    22.7490     7.0850     6.0620     6.9140     2.2480   -19.7820 
  149.2500    92.5370    22.3090     6.8020     5.5750     6.3140     2.2770   -19.6360 
  149.3750    97.4250    21.8170     6.2270     5.0430     5.6600     2.3130   -19.4160 
  149.5000   104.1000    21.6570     5.6350     4.5630     5.0870     2.3460   -19.1720 
  149.6250   106.7630    21.5650     5.2480     4.2480     4.7460     2.3720   -18.8990 
  149.7500   107.4430    21.6730     5.1480     4.1170     4.6540     2.3950   -18.6450 
  149.8750   109.7250    21.6950     5.1770     4.1720     4.8030     2.4110   -18.3630 
  150.0000   113.3200    21.5880     5.4210     4.3860     5.1600     2.4150   -18.1230 
  150.1250   112.2500    21.5340     5.9020     4.7220     5.6700     2.4030   -17.9280 
  150.2500   106.7830    21.6090     6.3770     5.0830     6.2070     2.3780   -17.8090 
  150.3750   101.1500    21.4780     6.8120     5.3920     6.6600     2.3440   -17.7680 
  150.5000    97.6180    21.3190     7.2600     5.5740     6.9210     2.3070   -17.8060 
  150.6250    95.9650    20.9950     7.5180     5.5580     6.8860     2.2850   -17.8790 
  150.7500    94.1800    20.5720     7.3080     5.3980     6.6350     2.2870   -17.9860 
  150.8750    94.2920    19.9830     6.8100     5.1740     6.2860     2.3070   -18.0970 
  151.0000    95.5980    19.1130     6.4750     4.9980     6.0060     2.3370   -18.2690 
  151.1250    94.2210    18.0480     6.6150     5.0260     6.0410     2.3710   -18.4680 
  151.2500    91.4470    17.1580     7.0440     5.3230     6.4930     2.4080   -18.6810 
  151.3750    90.9090    16.7110     7.5720     5.9190     7.4020     2.4390   -18.8720 
  151.5000    91.7770    16.6190     8.3530     6.7730     8.6780     2.4500   -19.0500 
  151.6250    89.7040    16.7790     9.0420     7.6830     9.9300     2.4230   -19.2030 
  151.7500    83.9470    17.2340     9.1590     8.2780    10.5720     2.3730   -19.3100 
  151.8750    79.4100    17.9120     8.5990     8.3230    10.3270     2.3180   -19.3980 
  152.0000    79.2260    18.5950     7.9020     7.8620     9.4050     2.2790   -19.3920 
  152.1250    81.1620    19.3100     7.4500     7.1430     8.3090     2.2730   -19.2290 
  152.2500    83.0500    20.1670     7.3900     6.4810     7.4430     2.2840   -19.0080 
  152.3750    85.6500    21.0700     7.4870     5.9960     6.9080     2.2970   -18.7590 
  152.5000    89.4010    21.9020     7.6120     5.7000     6.6560     2.3050   -18.4950 
  152.6250    91.6950    22.6030     7.8130     5.5610     6.5950     2.3110   -18.2250 
  152.7500    91.9720    23.1170     8.0970     5.4910     6.5840     2.3210   -17.9340 
  152.8750    92.2930    23.4110     8.3870     5.4660     6.5740     2.3390   -17.6430 
  153.0000    91.1810    23.5900     8.6650     5.5040     6.5850     2.3620   -17.3970 
  153.1250    88.6250    23.7200     9.1470     5.7020     6.7470     2.3840   -17.2600 
  153.2500    88.2130    23.7910     9.6040     6.1210     7.1770     2.4090   -17.1350 
  153.3750    89.8390    23.8120    10.2750     6.8390     8.0160     2.4440   -17.0190 
  153.5000    90.2600    23.8110    11.9400     7.9400     9.4120     2.4870   -16.8850 
  153.6250    84.8840    23.8070    15.0330     9.5130    11.5220     2.5280   -16.7840 
  153.7500    77.3500    23.8070    18.0640    11.2440    13.8990     2.5600   -16.7260 
  153.8750    70.5730    23.8030    20.2550    12.5410    15.6590     2.5820   -16.7140 
  154.0000    65.3910    23.8090    21.6270    12.7010    15.6980     2.5900   -16.7080 
  154.1250    62.2660    23.8150    20.5770    11.4430    13.6510     2.5690   -16.7550 
  154.2500    62.7740    23.7940    17.1450     9.7780    11.1580     2.5280   -16.8330 
  154.3750    68.1250    23.7030    12.9680     8.4370     9.3050     2.4850   -16.9430 
  154.5000    74.2430    23.4890    10.4360     7.7900     8.5360     2.4620   -17.0560 
  154.6250    75.6710    23.3660    11.0110     8.1420     9.1860     2.4750   -17.1290 
  154.7500    72.6780    23.3010    14.0530     9.4710    11.1410     2.5100   -17.2200 
  154.8750    66.2450    23.4060    18.4630    11.7600    14.3030     2.5470   -17.3120 
  155.0000    58.9420    23.4930    22.1550    14.5190    17.8740     2.5740   -17.4400 
  155.1250    57.1330    23.4510    24.1790    16.0700    19.3670     2.5890   -17.5650 
  155.2500    60.2620    23.4180    23.7220    15.3900    17.7140     2.5850   -17.6930 
  155.3750    63.6310    23.4910    20.6120    13.1010    14.2400     2.5500   -17.8170 
  155.5000    67.3370    23.5650    15.3960    10.5110    10.8380     2.4810   -17.9710 
  155.6250    74.7420    23.5920    11.1000     8.5970     8.6460     2.3980   -18.1320 
  155.7500    81.9650    23.5920     9.1730     7.4700     7.5690     2.3390   -18.3210 
  155.8750    83.3970    23.6040     8.9430     7.0570     7.4180     2.3240   -18.4920 
  156.0000    79.0380    23.5980     9.4200     7.2040     7.9490     2.3550   -18.6170 
  156.1250    77.2000    23.5500    10.9110     7.6880     8.8150     2.4140   -18.6720 
