~V
VERS. 2.00: Ver 2.00
~W
STRT.M 59.0000:
STOP.M 253.0000:
STEP.M 0.1250:
NULL. -999.2500:
UWI. DF5043:
~C
DEPT.M :
SP.MV :
GR.API :
CALI.CM :
RXO.OHMM :
RI. :
RML.OHMM :
DEN.GM/CC :
~A
# ...
   92.7500   -19.1690    89.6170    23.1780     9.3410    10.0200    10.8210     2.4640 
   92.8750   -19.1020    87.3600    23.0740     8.8340     9.5780    10.3650     2.3790 
   93.0000   -19.1060    87.7140    22.9910     7.9270     9.0710     9.8430     2.2910 
   93.1250   -19.1770    89.9500    22.9140     7.2520     8.6130     9.3710     2.2330 
   93.2500   -19.2960    90.6530    22.8620     6.9640     8.2790     9.0270     2.2110 
   93.3750   -19.4300    88.1040    22.8760     6.9080     8.1100     8.8530     2.2150 
   93.5000   -19.5400    84.9350    22.8290     6.8940     8.0500     8.7920     2.2210 
   93.6250   -19.6000    83.1840    22.6320     6.8890     8.0550     8.7970     2.2210 
   93.7500   -19.5930    83.4850    22.3510     6.8870     8.0830     8.8250     2.2130 
   93.8750   -19.4980    84.9670    22.1420     6.8850     8.0920     8.8350     2.2010 
   94.0000   -19.3370    85.0890    22.0360     6.8680     8.0640     8.8060     2.1900 
   94.1250   -19.1320    82.6970    22.0030     6.8380     7.9940     8.7330     2.1850 
   94.2500   -18.9100    78.3080    22.0050     6.7980     7.8880     8.6250     2.1890 
   94.3750   -18.7080    74.0530    22.0040     6.7450     7.7540     8.4860     2.1950 
   94.5000   -18.5480    71.6680    21.9950     6.6610     7.6070     8.3350     2.1910 
   94.6250   -18.4420    71.2630    22.0000     6.5490     7.4590     8.1830     2.1780 
   94.7500   -18.3930    72.1400    22.0490     6.4260     7.3240     8.0430     2.1680 
   94.8750   -18.3960    74.0020    22.1490     6.2980     7.2140     7.9310     2.1660 
   95.0000   -18.4220    75.6600    22.2680     6.1860     7.1320     7.8460     2.1660 
   95.1250   -18.4510    75.3430    22.3670     6.1020     7.0720     7.7840     2.1630 
   95.2500   -18.4630    72.6720    22.3970     6.0650     7.0290     7.7400     2.1570 
   95.3750   -18.4350    69.8800    22.4330     6.0890     7.0000     7.7100     2.1540 
   95.5000   -18.3650    68.8650    22.4960     6.1560     6.9820     7.6910     2.1580 
   95.6250   -18.2550    68.7020    22.5590     6.2370     6.9720     7.6810     2.1640 
   95.7500   -18.1170    68.5290    22.6100     6.2970     6.9710     7.6800     2.1640 
   95.8750   -17.9750    69.2710    22.6700     6.3330     6.9780     7.6870     2.1580 
   96.0000   -17.8540    71.7860    22.7030     6.3820     6.9880     7.6980     2.1550 
   96.1250   -17.7680    75.5740    22.7880     6.4700     6.9990     7.7090     2.1610 
   96.2500   -17.7280    79.9860    22.8710     6.6000     7.0020     7.7120     2.1700 
   96.3750   -17.7500    85.4870    22.9380     6.7370     6.9850     7.6950     2.1780 
   96.5000   -17.8270    90.7340    23.0000     6.8190     6.9430     7.6520     2.1820 
   96.6250   -17.9490    92.3350    23.0280     6.8050     6.8790     7.5850     2.1830 
   96.7500   -18.1020    88.3730    22.9820     6.6920     6.8020     7.5060     2.1840 
   96.8750   -18.2650    80.9810    22.9620     6.5380     6.7350     7.4370     2.1850 
   97.0000   -18.4250    74.4050    23.0000     6.4130     6.6910     7.3910     2.1850 
   97.1250   -18.5810    69.6980    23.0520     6.3350     6.6790     7.3790     2.1830 
   97.2500   -18.7310    67.1670    23.0830     6.2790     6.6960     7.3970     2.1790 
   97.3750   -18.8750    68.3660    23.1810     6.2180     6.7130     7.4140     2.1740 
   97.5000   -19.0090    71.3880    23.2750     6.1710     6.6770     7.3770     2.1680 
   97.6250   -19.1360    73.6740    23.3320     6.1640     6.5450     7.2420     2.1650 
   97.7500   -19.2610    75.4110    23.3480     6.1850     6.2910     6.9800     2.1670 
   97.8750   -19.3890    79.7440    23.3320     6.1410     5.8990     6.5760     2.1740 
   98.0000   -19.5150    86.7370    23.4210     5.9400     5.4370     6.1010     2.1900 
   98.1250   -19.6290    93.6880    23.6170     5.5520     4.9690     5.6180     2.2170 
   98.2500   -19.7150    98.1140    23.8560     5.0550     4.5590     5.1950     2.2540 
   98.3750   -19.7510    98.3480    24.0750     4.6070     4.2880     4.9170     2.2820 
   98.5000   -19.7340    95.2650    24.1780     4.3520     4.1740     4.7990     2.2850 
   98.6250   -19.6600    90.6320    24.1850     4.3600     4.2200     4.8470     2.2680 
   98.7500   -19.5300    87.1690    24.1640     4.6110     4.4160     5.0480     2.2540 
   98.8750   -19.3390    87.5400    24.1400     4.9780     4.7490     5.3870     2.2560 
   99.0000   -19.1060    92.6390    24.0160     5.2360     5.1500     5.7910     2.2600 
   99.1250   -18.8440    99.9540    23.7820     5.4570     5.5630     6.2120     2.2480 
   99.2500   -18.5690   103.3280    23.4820     5.7280     5.9420     6.6040     2.2220 
   99.3750   -18.3000    97.6020    23.3360     6.0120     6.2360     6.9080     2.2080 
   99.5000   -18.0570    88.9450    23.2700     6.1410     6.4400     7.1160     2.2220 
   99.6250   -17.8520    84.0290    23.2660     6.1250     6.5600     7.2440     2.2510 
   99.7500   -17.6980    83.9690    23.2940     6.0260     6.6150     7.3130     2.2710 
   99.8750   -17.6120    84.5060    23.2930     5.9190     6.6300     7.3480     2.2590 
  100.0000   -17.5830    82.2490    23.1850     5.9070     6.6350     7.3890     2.2280 
  100.1250   -17.6060    77.4870    23.0260     5.9650     6.6490     7.4580     2.1950 
  100.2500   -17.6700    73.5160    23.0010     6.0190     6.6780     7.5640     2.1720 
  100.3750   -17.7700    75.6880    22.9870     6.0560     6.7260     7.7020     2.1650 
  100.5000   -17.8880    82.7080    22.9380     6.1190     6.7840     7.8430     2.1680 
  100.6250   -18.0110    88.5920    22.8520     6.2100     6.8420     7.9660     2.1730 
  100.7500   -18.1250    87.8300    22.8580     6.3000     6.9070     8.0710     2.1770 
  100.8750   -18.2130    81.6520    22.9050     6.3530     7.0200     8.1950     2.1810 
  101.0000   -18.2710    78.3570    22.9520     6.3720     7.2190     8.3910     2.1880 
  101.1250   -18.2970    81.9940    22.9560     6.4170     7.5240     8.6920     2.1910 
  101.2500   -18.2910    89.1690    22.9080     6.7100     7.9280     9.1080     2.1840 
  101.3750   -18.2470    90.9650    22.7300     8.3620     8.3890     9.6080     2.1740 
  101.5000   -18.1690    85.5400    22.5110    12.5030     8.8080    10.0810     2.1760 
  101.6250   -18.0590    78.4360    22.5410    18.8740     9.0830    10.4010     2.1910 
  101.7500   -17.9200    74.7430    22.9820    24.1800     9.1330    10.4490     2.2180 
  101.8750   -17.7500    74.0740    23.3420    23.1990     8.8890    10.1390     2.2420 
  102.0000   -17.5520    73.6000    23.3360    17.2160     8.4520     9.6090     2.2460 
  102.1250   -17.3270    73.7520    23.1490    10.8170     7.9210     8.9910     2.2270 
  102.2500   -17.0800    75.2470    23.0590     7.2940     7.4000     8.4040     2.1960 
  102.3750   -16.8240    76.3760    23.1210     6.3390     6.9800     7.9520     2.1760 
  102.5000   -16.5780    75.6380    23.1650     6.1390     6.6750     7.6410     2.1690 
  102.6250   -16.3490    75.0310    23.1840     6.0610     6.4730     7.4490     2.1680 
  102.7500   -16.1390    77.2900    23.1590     6.0370     6.3420     7.3240     2.1680 
  102.8750   -15.9510    81.5700    23.0770     6.0810     6.2480     7.2160     2.1730 
  103.0000   -15.7900    83.6540    22.9990     6.2120     6.1700     7.1060     2.1830 
  103.1250   -15.6720    83.4090    23.0570     6.3880     6.1100     7.0100     2.1910 
  103.2500   -15.6090    83.5350    23.2670     6.4720     6.0820     6.9530     2.1910 
  103.3750   -15.6010    84.7380    23.3660     6.3220     6.1140     6.9770     2.1770 
  103.5000   -15.6190    84.3980    23.2780     6.0340     6.2140     7.0790     2.1590 
  103.6250   -15.6450    81.7540    23.0320     5.7800     6.3820     7.2640     2.1470 
  103.7500   -15.6750    78.7050    22.7900     5.6640     6.6040     7.5190     2.1470 
  103.8750   -15.7200    77.1280    22.7650     5.7500     6.8520     7.8110     2.1510 
