~V
VERS. 2.00: Ver 2.00
~W
STRT.M 50.0000:
STOP.M 258.0000:
STEP.M 0.1250:
NULL. -999.2500:
UWI. DF5038:
~C
DEPT.M :
GR.API :
CALI.CM :
RXO.OHMM :
RI. :
RML.OHMM :
DEN.GM/CC :
SP.MV :
~A
# ...
  173.7500    64.7410    24.5210    20.9180   112.0470   117.9540     2.1990   -39.9000 
  173.8750    63.4320    24.5170    20.7460   114.7460   123.6550     2.1990   -40.1150 
  174.0000    63.5640    24.5170    20.8740   118.3100   130.8040     2.1990   -40.3700 
  174.1250    63.1940    24.5170    21.3980   124.0790   140.8940     2.2010   -40.5600 
  174.2500    62.4130    24.5190    21.8730   133.3080   154.9940     2.2040   -40.7510 
  174.3750    62.6310    24.5220    22.3040   146.0590   172.7310     2.2020   -40.9230 
  174.5000    63.4370    24.5270    22.2920   159.1830   189.7810     2.1930   -41.1080 
  174.6250    63.3110    24.5270    21.6970   164.4780   195.2400     2.1830   -41.2510 
  174.7500    61.8240    24.5090    21.7080   158.2130   185.3310     2.1830   -41.4530 
  174.8750    60.3720    24.4540    22.0040   143.0400   165.2280     2.1940   -41.4980 
  175.0000    61.0120    24.3520    21.8820   126.2110   145.1840     2.2080   -41.5170 
  175.1250    64.9100    24.2420    20.6170   116.7650   135.8470     2.2140   -41.5180 
  175.2500    68.6360    24.1760    19.7500   118.5140   139.9720     2.2100   -41.5040 
  175.3750    69.3340    24.1580    19.8280   133.1420   158.6930     2.2010   -41.4400 
  175.5000    68.3370    24.1600    20.1090   160.4030   191.7070     2.1920   -41.2790 
  175.6250    66.9550    24.1600    20.0770   196.6980   235.2910     2.1860   -41.2210 
  175.7500    64.7710    24.1600    20.1150   228.1480   272.3500     2.1810   -41.0930 
  175.8750    61.7500    24.1600    20.0700   240.8080   284.3430     2.1770   -41.0510 
  176.0000    60.2910    24.1600    20.3690   229.4880   265.7140     2.1810   -41.0410 
  176.1250    61.2250    24.1600    21.5640   201.7180   229.7550     2.1970   -41.0330 
  176.2500    62.4090    24.1600    23.5560   173.3160   196.2130     2.2150   -41.0800 
  176.3750    65.1950    24.1610    26.0840   150.8990   171.5830     2.2270   -41.1050 
  176.5000    69.5650    24.1580    28.9020   136.7010   157.1640     2.2270   -41.1510 
  176.6250    71.4200    24.1540    31.8750   131.4960   153.1010     2.2180   -41.1690 
  176.7500    68.5440    24.2350    35.2910   132.1770   155.5550     2.2110   -41.1540 
  176.8750    64.4330    24.5310    38.4630   136.7440   162.1170     2.2160   -41.0970 
  177.0000    62.8400    25.0830    39.2660   143.1910   170.3640     2.2320   -41.0650 
  177.1250    62.1830    25.6970    36.3800   149.8520   178.2230     2.2430   -40.9940 
  177.2500    60.3190    26.0980    33.0840   156.2350   185.3470     2.2410   -40.7850 
  177.3750    58.1200    26.2440    31.4770   163.2770   193.0510     2.2250   -40.5760 
  177.5000    57.4770    26.2540    31.1460   172.6770   203.4460     2.2050   -40.3640 
  177.6250    58.3240    26.2470    32.1440   186.7550   219.1830     2.1900   -40.0420 
  177.7500    59.3130    26.2460    33.0730   205.0830   239.5400     2.1800   -39.7320 
  177.8750    59.4730    26.2450    34.0210   225.2880   261.1740     2.1730   -39.4460 
  178.0000    57.7440    26.2440    35.3050   240.6110   274.9820     2.1680   -39.0340 
  178.1250    55.1270    26.2430    36.4210   235.6160   261.4740     2.1700   -38.6950 
  178.2500    53.5900    26.2400    36.5030   206.1480   219.5960     2.1850   -38.4000 
  178.3750    54.3640    26.2380    36.3130   160.5720   164.2080     2.2120   -38.1310 
  178.5000    57.3120    26.2380    35.9760   114.8130   114.3210     2.2410   -37.9480 
  178.6250    61.5340    26.2380    32.3230    82.2800    81.6310     2.2650   -37.7440 
  178.7500    65.7320    26.2380    26.1870    62.4500    62.4300     2.2810   -37.5670 
  178.8750    67.7080    26.2380    21.7550    52.3060    52.9530     2.2880   -37.4400 
  179.0000    67.2770    26.2380    21.8440    48.6350    49.9560     2.2850   -37.4480 
  179.1250    67.0960    26.2380    24.8020    49.5950    51.5750     2.2740   -37.4650 
  179.2500    67.2310    26.2380    26.3700    52.8740    55.3320     2.2600   -37.5240 
  179.3750    67.2250    26.2380    25.7650    57.2490    59.9220     2.2450   -37.6110 
  179.5000    66.7600    26.2380    24.4490    61.6490    64.3610     2.2310   -37.7960 
  179.6250    67.1820    26.2380    25.1580    65.2320    68.0340     2.2260   -37.9910 
  179.7500    68.1010    26.2380    26.9090    67.9770    71.0600     2.2290   -38.2560 
  179.8750    67.5960    26.2380    28.3740    70.0210    73.6010     2.2300   -38.5350 
  180.0000    66.6250    26.2380    28.9940    71.5920    75.9100     2.2190   -38.6920 
  180.1250    67.2880    26.2380    28.4670    73.3890    78.9030     2.2010   -38.8890 
  180.2500    68.1720    26.2370    27.3140    76.6380    83.9590     2.1890   -39.0550 
  180.3750    67.5560    26.2410    25.6280    82.4900    92.3040     2.1920   -39.2440 
  180.5000    66.2860    26.2680    25.2760    91.2400   104.0540     2.2040   -39.2840 
  180.6250    66.6400    26.3180    31.9540   101.3420   116.9110     2.2110   -39.3750 
  180.7500    66.5270    26.3600    46.2360   108.7210   125.6050     2.2130   -39.4060 
  180.8750    64.7000    26.3800    54.6870   109.8660   125.7890     2.2150   -39.4550 
  181.0000    62.9500    26.3810    48.8250   103.9420   117.0540     2.2210   -39.5580 
  181.1250    63.5900    26.3530    38.7460    93.6000   103.7400     2.2330   -39.6580 
  181.2500    65.1080    26.3030    32.8510    83.9040    92.1010     2.2430   -39.7380 
  181.3750    66.2210    26.2600    31.9700    77.1400    84.4590     2.2460   -39.7830 
  181.5000    67.7370    26.2450    33.7190    73.8770    81.0180     2.2430   -39.8510 
  181.6250    69.1710    26.2470    36.0700    73.9260    81.1890     2.2370   -39.8700 
  181.7500    67.1390    26.2480    36.9220    75.4560    82.7760     2.2290   -39.8330 
  181.8750    63.2490    26.2470    36.0940    77.0360    84.2030     2.2190   -39.7320 
  182.0000    62.8900    26.2480    35.5770    77.4670    84.2570     2.2120   -39.5460 
  182.1250    66.4060    26.2470    37.9270    75.9210    82.1990     2.2120   -39.3590 
  182.2500    66.2420    26.2350    38.3090    73.1040    78.9520     2.2140   -39.1930 
  182.3750    62.8280    26.2030    36.6330    70.0350    75.7480     2.2100   -39.0450 
  182.5000    61.6840    26.1600    33.5610    67.9870    74.0580     2.2020   -38.9000 
  182.6250    63.7830    26.1120    31.7830    68.5880    75.7580     2.1980   -38.8050 
  182.7500    65.1200    26.0340    31.2550    72.2360    81.1650     2.1980   -38.7350 
  182.8750    65.4040    25.9290    31.6350    79.1770    90.4450     2.1970   -38.7110 
  183.0000    65.6930    25.8420    32.8200    89.1470   103.1470     2.1920   -38.7960 
  183.1250    65.8770    25.8140    34.9240   101.2200   118.0560     2.1870   -38.8600 
  183.2500    64.6140    25.8160    36.0290   113.1720   132.5850     2.1820   -38.9480 
  183.3750    62.7900    25.8170    35.5610   123.3440   144.7900     2.1790   -39.0510 
  183.5000    63.1250    25.8170    34.4500   130.6390   153.3750     2.1780   -39.2050 
  183.6250    65.5300    25.8170    34.1580   134.2540   157.3130     2.1800   -39.2790 
  183.7500    66.7940    25.8170    34.6620   135.2780   157.8540     2.1860   -39.4300 
  183.8750    66.3110    25.8170    35.6770   134.3560   155.6960     2.1980   -39.4940 
  184.0000    66.6150    25.8170    35.9830   131.8890   151.3280     2.2090   -39.5770 
  184.1250    67.5600    25.8170    35.5180   127.9100   144.8390     2.2130   -39.6000 
  184.2500    66.5010    25.8170    35.2220   122.6930   136.7360     2.2130   -39.6070 
  184.3750    65.0200    25.8170    35.0420   116.2180   127.1600     2.2160   -39.6240 
  184.5000    64.8700    25.8170    34.1280   108.6790   116.5610     2.2230   -39.6990 
  184.6250    65.1950    25.8170    33.4630   100.6110   105.8510     2.2300   -39.7420 
  184.7500    64.2340    25.8170    32.8130    92.8110    95.9720     2.2300   -39.7660 
  184.8750    64.6390    25.8170    31.6970    85.7210    87.3770     2.2270   -39.8090 
