~V
VERS. 2.00: Ver 2.00
~W
STRT.M 60.0000:
STOP.M 273.0000:
STEP.M 0.1250:
NULL. -999.2500:
UWI. DF5003:
~C
DEPT.M :
GR.API :
CALI.CM :
RXO.OHMM :
RI. :
RML.OHMM :
DEN.GM/CC :
SP.MV :
~A
# ...
  116.2500    69.6300    24.5780     8.4730     7.3570     8.1670     2.1720   -33.4010 
  116.3750    68.0830    24.5780     8.3550     7.0750     7.7560     2.1890   -32.8290 
  116.5000    69.2000    24.5780     8.0750     6.6220     7.1750     2.2160   -32.2320 
  116.6250    77.1020    24.5780     7.0130     6.1100     6.5910     2.2460   -31.4200 
  116.7500    89.0990    24.5780     5.9680     5.6840     6.1620     2.2670   -30.6620 
  116.8750    99.4760    24.5780     5.4400     5.4120     5.9420     2.2730   -29.8440 
  117.0000   105.2440    24.5780     5.4310     5.3000     5.9060     2.2710   -29.0850 
  117.1250   105.0470    24.5780     5.6740     5.3040     5.9700     2.2680   -28.3240 
  117.2500   100.5020    24.5780     5.9010     5.3180     6.0080     2.2700   -27.7180 
  117.3750    96.6340    24.5780     5.8170     5.2810     5.9520     2.2780   -27.1680 
  117.5000    97.8280    24.5780     5.5450     5.1660     5.7870     2.2880   -26.7180 
  117.6250   104.5880    24.5780     5.2920     4.9830     5.5420     2.2980   -26.4160 
  117.7500   110.5510    24.5780     5.3760     4.8190     5.3390     2.3100   -26.2480 
  117.8750   112.8960    24.5770     5.7040     4.7790     5.3140     2.3290   -26.2770 
  118.0000   111.3670    24.5810     5.9960     4.9660     5.5920     2.3600   -26.3700 
  118.1250   108.4840    24.5890     6.0320     5.4850     6.2860     2.3960   -26.3980 
  118.2500   106.1880    24.5690     7.6920     6.2460     7.2410     2.4230   -26.3310 
  118.3750   102.4640    24.5100    11.6430     7.0680     8.1930     2.4230   -26.4370 
  118.5000    95.5110    24.4480    14.9180     7.6470     8.7600     2.3940   -26.5110 
  118.6250    90.3360    24.4270    12.5980     7.6190     8.5600     2.3490   -26.6260 
  118.7500    90.6820    24.4260     8.6930     7.1340     7.8570     2.3100   -26.7520 
  118.8750    94.8480    24.4200     6.6950     6.4740     7.0280     2.2810   -26.8990 
  119.0000    98.3420    24.4130     6.1360     5.8920     6.3820     2.2580   -27.0720 
  119.1250    98.2380    24.4100     6.0000     5.5590     6.0950     2.2400   -27.2780 
  119.2500    96.1620    24.4090     5.9930     5.4410     6.0630     2.2260   -27.4350 
  119.3750    95.4530    24.4090     6.0320     5.4680     6.1690     2.2170   -27.5050 
  119.5000    97.2390    24.4110     5.9310     5.5640     6.3100     2.2100   -27.5900 
  119.6250   101.9250    24.4130     5.9670     5.6730     6.4200     2.2050   -27.6310 
  119.7500   106.1370    24.4160     5.9350     5.7650     6.4870     2.2010   -27.6120 
  119.8750   105.3700    24.4230     5.7800     5.8280     6.5110     2.1990   -27.5370 
  120.0000    99.2360    24.4300     5.8800     5.8540     6.4980     2.2030   -27.4010 
  120.1250    94.9150    24.4320     6.1790     5.8310     6.4470     2.2120   -27.3690 
  120.2500    96.0230    24.4240     6.1830     5.7650     6.3630     2.2210   -27.4290 
  120.3750    99.5680    24.4090     5.9770     5.6590     6.2460     2.2280   -27.4100 
  120.5000   102.0950    24.3950     5.9220     5.5220     6.1070     2.2340   -27.3830 
  120.6250   103.1410    24.3830     6.0350     5.3640     5.9570     2.2420   -27.3390 
  120.7500   104.3200    24.3690     5.8040     5.2030     5.8140     2.2530   -27.3620 
  120.8750   109.5660    24.3580     5.4500     5.0560     5.6900     2.2670   -27.3520 
  121.0000   117.4290    24.3620     5.2240     4.9350     5.5930     2.2830   -27.3280 
  121.1250   119.7950    24.3940     5.2430     4.8580     5.5400     2.2990   -27.2140 
  121.2500   115.7580    24.4250     5.3830     4.8260     5.5360     2.3110   -27.1690 
  121.3750   110.4700    24.4280     5.8680     4.8450     5.5870     2.3120   -27.1530 
  121.5000   107.0740    24.3980     6.9380     4.9170     5.6960     2.2960   -27.2240 
  121.6250   102.6130    24.3670     6.9140     5.0480     5.8600     2.2640   -27.3780 
  121.7500    99.8350    24.3600     6.3860     5.2190     6.0610     2.2300   -27.4900 
  121.8750   100.0810    24.3650     6.2830     5.4210     6.2900     2.2030   -27.6700 
  122.0000   100.4390    24.3710     6.5300     5.6460     6.5390     2.1920   -27.8830 
  122.1250    98.3810    24.3710     6.5530     5.8870     6.8000     2.1980   -28.0810 
  122.2500    94.3910    24.3660     6.6710     6.1330     7.0590     2.2190   -28.1550 
  122.3750    90.0920    24.3610     7.0050     6.3640     7.2910     2.2500   -28.3420 
  122.5000    87.5680    24.3600     7.5270     6.5410     7.4510     2.2880   -28.3890 
  122.6250    89.5950    24.3580     7.8630     6.6000     7.4620     2.3230   -28.3620 
  122.7500    93.8850    24.3550     7.5130     6.5290     7.3130     2.3450   -28.3470 
  122.8750    95.4120    24.3560     7.0400     6.3390     7.0300     2.3480   -28.2400 
  123.0000    93.6490    24.3720     6.7460     6.0750     6.6880     2.3290   -28.0720 
  123.1250    93.6720    24.3980     6.4610     5.8210     6.4040     2.2990   -27.8910 
  123.2500    96.3200    24.4160     6.0630     5.6450     6.2500     2.2730   -27.7490 
  123.3750    98.5380    24.4120     5.9510     5.5780     6.2410     2.2590   -27.4970 
  123.5000    98.6230    24.3860     5.9300     5.6140     6.3470     2.2560   -27.4070 
  123.6250    96.1550    24.3130     6.0820     5.7260     6.5100     2.2630   -27.3100 
  123.7500    92.4320    24.1710     6.1970     5.8410     6.6410     2.2710   -27.2180 
  123.8750    88.1610    24.0030     6.2110     5.8960     6.6720     2.2780   -27.1910 
  124.0000    85.6700    23.8850     5.9440     5.8470     6.5650     2.2810   -27.3160 
  124.1250    88.1320    23.8870     6.0390     5.6860     6.3280     2.2820   -27.3910 
  124.2500    92.4000    23.9840     6.1080     5.4840     6.0560     2.2820   -27.4320 
  124.3750    97.1490    24.1040     5.7100     5.3060     5.8320     2.2790   -27.4500 
  124.5000   101.0720    24.1650     5.2290     5.2220     5.7430     2.2760   -27.3520 
  124.6250   100.7970    24.1340     5.5880     5.3400     5.9090     2.2770   -27.3690 
  124.7500    98.9250    24.0970     6.2700     5.6780     6.3200     2.2900   -27.2940 
  124.8750    97.2940    24.0840     6.8150     6.2160     6.9090     2.3130   -27.2610 
  125.0000    95.1940    24.0790     8.0830     6.8480     7.5200     2.3420   -27.1570 
  125.1250    89.3720    24.1730    10.1780     7.3200     7.8540     2.3610   -27.1100 
  125.2500    83.6040    24.3870    11.7250     7.4200     7.7570     2.3610   -26.9770 
  125.3750    83.6190    24.6110    10.3500     7.1080     7.2620     2.3500   -26.8810 
  125.5000    89.2830    24.7240     7.3740     6.5310     6.5750     2.3380   -26.8520 
  125.6250    95.6090    24.7220     5.8270     5.9160     5.9470     2.3340   -26.7330 
  125.7500    98.5280    24.7140     5.4000     5.4140     5.4920     2.3350   -26.6970 
  125.8750    97.7330    24.7150     5.1580     5.0610     5.2160     2.3400   -26.5910 
  126.0000    96.4620    24.7180     4.9010     4.8300     5.0640     2.3470   -26.5230 
  126.1250    99.3710    24.7190     4.7880     4.6670     4.9560     2.3520   -26.5960 
  126.2500   104.9740    24.7150     4.6950     4.5180     4.8370     2.3530   -26.8520 
  126.3750   110.7070    24.7090     4.6220     4.3840     4.7210     2.3470   -27.0630 
  126.5000   113.1930    24.7060     4.5770     4.3010     4.6510     2.3350   -27.2610 
  126.6250   109.8570    24.7060     4.7890     4.3460     4.7270     2.3250   -27.5130 
  126.7500   102.9250    24.7060     5.4760     4.5860     5.0380     2.3280   -27.8040 
  126.8750    96.4480    24.7060     6.5760     5.1230     5.7180     2.3490   -28.1230 
  127.0000    92.2450    24.7040     7.6560     6.0990     6.9610     2.3890   -28.4630 
  127.1250    87.5550    24.7050    10.0520     7.8640     9.2260     2.4460   -28.7480 
  127.2500    78.9970    24.7110    16.7720    10.6120    12.7070     2.5090   -28.9840 
  127.3750    70.7810    24.7190    26.3090    14.5550    17.5290     2.5650   -29.2890 
