~V
VERS. 2.00: Ver 2.00
~W
STRT.M 65.0000:
STOP.M 258.0000:
STEP.M 0.1250:
NULL. -999.2500:
UWI. DF5030:
~C
DEPT.M :
SP.MV :
GR.API :
RML.OHMM :
RI. :
RXO.OHMM :
CALI.CM :
DEN.GM/CC :
~A
# ...
  177.5000   -39.1420    49.1710   219.2860   206.1950   182.9950    24.4230     2.1740 
  177.6250   -38.6990    47.3460   215.1960   201.7200   186.1160    24.4170     2.1710 
  177.7500   -38.1840    43.9180   212.9600   199.1620   183.0970    24.3790     2.1690 
  177.8750   -37.5110    43.6060   212.4570   198.3040   178.4830    24.2490     2.1670 
  178.0000   -36.8130    45.4170   213.1730   198.6060   175.8180    24.0760     2.1660 
  178.1250   -36.1530    45.1870   214.4270   199.4830   176.9180    23.9790     2.1670 
  178.2500   -35.4920    41.4950   214.8630   199.7580   182.0830    24.0230     2.1670 
  178.3750   -34.7820    40.0010   212.2100   197.3580   189.5960    24.1060     2.1690 
  178.5000   -34.0270    42.9340   206.0960   191.7650   189.7260    24.0710     2.1720 
  178.6250   -33.2530    48.2930   197.6580   183.8140   180.8320    23.9170     2.1780 
  178.7500   -32.5560    54.6040   189.6360   175.8570   163.9610    23.8080     2.1880 
  178.8750   -31.9660    60.1430   186.4060   171.8360   147.0530    23.7690     2.1990 
  179.0000   -31.3260    60.8340   189.4780   173.4230   139.6600    23.7320     2.2080 
  179.1250   -30.6090    56.1700   198.1000   180.2760   145.3210    23.6920     2.2130 
  179.2500   -29.9560    50.8640   208.9150   189.6660   159.5100    23.6940     2.2140 
  179.3750   -29.4720    50.3990   215.5790   196.1370   175.8590    23.7810     2.2120 
  179.5000   -29.0370    50.2930   213.8730   195.6220   186.9270    23.9440     2.2110 
  179.6250   -28.5840    48.7680   203.1410   187.1130   192.3650    24.1390     2.2150 
  179.7500   -28.0700    48.4850   186.7550   173.0990   184.2630    24.2420     2.2210 
  179.8750   -27.5330    52.0030   171.0340   158.7990   162.6950    24.2440     2.2290 
  180.0000   -27.0900    59.4080   160.3020   148.4360   148.7360    24.2210     2.2340 
  180.1250   -26.7620    66.9480   155.1140   142.9270   148.9080    24.1860     2.2370 
  180.2500   -26.4280    70.5410   153.7220   141.0110   155.2810    24.1320     2.2370 
  180.3750   -26.0220    69.2290   153.0490   140.0870   156.9090    24.1050     2.2380 
  180.5000   -25.6220    67.1320   150.0860   137.3370   156.4090    24.1160     2.2380 
  180.6250   -25.2910    66.9700   143.4050   131.3370   150.8740    24.1650     2.2360 
  180.7500   -25.0790    65.0130   132.9300   121.8830   130.7570    24.1920     2.2300 
  180.8750   -24.9690    59.6290   119.6000   109.7450   110.2250    24.1930     2.2200 
  181.0000   -24.8570    55.9440   105.8040    97.1130    96.4010    24.2080     2.2110 
  181.1250   -24.6750    58.6000    93.2440    85.5420    82.8570    24.2260     2.2070 
  181.2500   -24.4930    67.7780    83.3580    76.3050    68.4140    24.2580     2.2110 
  181.3750   -24.3990    72.9320    77.8820    70.9130    59.8690    24.2560     2.2230 
  181.5000   -24.3530    67.9640    76.5640    69.2120    56.8700    24.2410     2.2370 
  181.6250   -24.2840    59.3740    79.0050    71.0280    59.9040    24.2230     2.2480 
  181.7500   -24.1580    57.5190    84.1620    75.6900    67.5240    24.1560     2.2520 
  181.8750   -23.9680    60.8310    90.3230    82.0180    77.1710    23.9790     2.2510 
  182.0000   -23.8100    60.8200    95.2460    87.9060    85.2730    23.7640     2.2500 
  182.1250   -23.7240    59.0920    97.4350    91.7620    88.3090    23.6490     2.2520 
  182.2500   -23.6510    60.8350    96.2090    92.5470    84.1480    23.6180     2.2580 
  182.3750   -23.4770    63.5300    91.6400    89.7510    81.8330    23.5870     2.2650 
  182.5000   -23.2540    64.6670    85.7430    85.0260    81.0470    23.5800     2.2690 
  182.6250   -23.0590    66.8190    79.9970    79.7890    80.2080    23.6790     2.2720 
  182.7500   -22.8820    71.2080    75.3100    75.1060    76.3840    23.8950     2.2750 
  182.8750   -22.7550    75.1150    71.7650    71.3270    67.4040    24.1350     2.2790 
  183.0000   -22.6170    75.4310    68.2600    67.6300    59.8120    24.2560     2.2800 
  183.1250   -22.4140    72.9910    63.8640    63.1800    58.3520    24.2830     2.2800 
  183.2500   -22.2050    73.6940    58.2330    57.5810    61.3940    24.2700     2.2800 
  183.3750   -22.0840    84.3050    52.1310    51.3150    63.2260    24.2350     2.2840 
  183.5000   -22.0550    98.3060    47.2230    45.8950    52.5930    24.2090     2.2940 
  183.6250   -22.0900   102.3330    45.1290    42.7420    38.6940    24.1950     2.3050 
  183.7500   -22.1620    92.9030    46.8820    43.0570    34.8880    24.1940     2.3130 
  183.8750   -22.2350    79.1040    54.2160    48.4910    44.2420    24.1970     2.3130 
  184.0000   -22.3630    70.2270    65.9920    58.5850    61.2220    24.2000     2.3080 
  184.1250   -22.6010    67.9220    81.4830    72.7440    84.2370    24.1700     2.2980 
  184.2500   -22.9130    71.2070   100.0060    89.5650   107.9870    24.1370     2.2870 
  184.3750   -23.1890    75.8030   119.0780   107.0160   127.2380    24.1600     2.2760 
  184.5000   -23.4010    73.4040   136.9550   123.3050   146.9760    24.2090     2.2630 
  184.6250   -23.6080    63.6280   153.2320   137.8780   162.0360    24.2230     2.2500 
  184.7500   -23.8590    54.4830   167.8580   150.7240   165.9960    24.1500     2.2370 
  184.8750   -24.1240    53.4680   179.7460   161.0990   163.4020    23.9920     2.2250 
  185.0000   -24.3160    56.4200   187.7240   168.1900   159.4130    23.8850     2.2170 
  185.1250   -24.4030    57.1560   190.5020   170.9370   155.7140    23.8430     2.2140 
  185.2500   -24.4380    55.3740   187.7620   169.0270   149.1700    23.7910     2.2150 
  185.3750   -24.5330    55.4980   179.7750   162.6080   140.9900    23.7100     2.2190 
  185.5000   -24.6520    58.2300   169.0700   153.7730   134.0330    23.7080     2.2230 
  185.6250   -24.6800    61.3730   157.1780   143.8120   129.9490    23.8350     2.2260 
  185.7500   -24.5790    64.4600   145.1620   133.6340   129.5510    24.0290     2.2270 
  185.8750   -24.3850    64.7990   133.6340   123.7360   124.4380    24.0870     2.2290 
  186.0000   -24.1940    61.7760   122.7230   114.2420   112.8340    24.0610     2.2330 
  186.1250   -24.0490    60.3450   112.6390   105.3400    98.7650    24.0390     2.2390 
  186.2500   -23.9010    65.4030   103.7950    97.3990    87.4740    24.0180     2.2470 
  186.3750   -23.6450    71.7140    97.3160    91.3920    79.3590    23.9420     2.2550 
  186.5000   -23.3430    69.7050    93.8800    87.9780    74.5030    23.8120     2.2620 
  186.6250   -23.0680    63.0800    94.3820    88.0330    73.2420    23.6970     2.2660 
  186.7500   -22.8700    58.0440    99.3890    92.2080    78.3830    23.6170     2.2670 
  186.8750   -22.7580    54.7070   109.2060   101.0390    89.8640    23.6030     2.2650 
  187.0000   -22.6440    51.6470   121.1930   112.2870   105.9240    23.7360     2.2610 
  187.1250   -22.4750    49.9230   132.3440   123.2450   125.1760    23.9440     2.2550 
  187.2500   -22.2780    52.8220   139.3690   130.7550   138.5180    24.0350     2.2490 
  187.3750   -22.1590    59.6970   139.1080   131.5330   132.8840    23.9280     2.2450 
  187.5000   -22.0890    64.7630   133.6420   127.0490   111.3840    23.7690     2.2450 
  187.6250   -22.0230    66.9970   126.2280   120.0630    87.8960    23.5700     2.2490 
  187.7500   -21.9240    66.7490   120.3520   113.8330    72.0180    23.3790     2.2550 
  187.8750   -21.7860    63.6980   118.8470   111.2770    71.8860    23.3660     2.2560 
  188.0000   -21.6770    59.0760   121.1600   112.3620    80.8590    23.5090     2.2520 
  188.1250   -21.6720    53.9760   126.1680   116.3160    94.5510    23.7490     2.2440 
  188.2500   -21.7590    50.2370   132.5540   122.0280   109.5430    24.0290     2.2380 
  188.3750   -21.8030    49.6580   139.5890   128.8110   124.4540    24.2360     2.2360 
  188.5000   -21.8200    51.0010   147.4580   136.5750   140.1410    24.2990     2.2400 
  188.6250   -21.8780    52.2010   156.8410   145.8670   155.1560    24.2960     2.2480 
