~V
VERS. 2.00: Ver 2.00
~W
STRT.M 55.0000:
STOP.M 274.0000:
STEP.M 0.1250:
NULL. -999.2500:
UWI. DF5015:
~C
DEPT.M :
DEN.GM/CC :
GR.API :
CALI.CM :
RXO.OHMM :
RI. :
RML.OHMM :
SP.MV :
~A
# ...
  190.0000     2.2010    66.4330    24.5880   264.3290   141.6020   147.3740   -31.8750 
  190.1250     2.2160    66.8930    24.6620   235.8920   134.1000   139.5800   -31.6770 
  190.2500     2.2250    68.3230    24.7300   177.2020   131.1200   136.4840   -31.4540 
  190.3750     2.2270    69.8360    24.7420   134.8570   132.2670   137.6750   -31.2070 
  190.5000     2.2210    70.0160    24.7180   131.0270   136.2380   141.8010   -30.9300 
  190.6250     2.2120    67.9910    24.7060   145.3710   140.6950   146.4320   -30.6210 
  190.7500     2.2090    65.5810    24.6960   150.0750   142.4030   148.2070   -30.2920 
  190.8750     2.2150    64.5720    24.6790   147.1210   138.6570   144.3150   -29.9530 
  191.0000     2.2270    65.3940    24.6470   146.8840   127.8060   133.0410   -29.6140 
  191.1250     2.2340    66.8960    24.5270   147.6320   109.5600   114.0820   -29.2860 
  191.2500     2.2330    68.0570    24.2560   132.0220    88.2410    91.9320   -28.9820 
  191.3750     2.2370    69.8920    23.9000    99.0720    67.3630    70.2400   -28.7130 
  191.5000     2.2600    73.6980    23.5910    62.8100    49.5030    51.6840   -28.4970 
  191.6250     2.3090    79.0510    23.4350    38.3010    36.5480    38.2230   -28.3660 
  191.7500     2.3580    84.3320    23.3250    25.1220    27.6840    29.0130   -28.3270 
  191.8750     2.3880    89.8490    23.2300    18.8300    22.3430    23.4640   -28.3920 
  192.0000     2.3970    96.2170    23.1730    18.1720    19.9780    21.0070   -28.5620 
  192.1250     2.3950   100.9020    23.1700    31.1520    20.8320    21.8940   -28.8480 
  192.2500     2.3840   100.2630    23.2030    70.4190    24.6940    25.9080   -29.2150 
  192.3750     2.3540    93.4940    23.2540   146.5900    32.0280    33.5270   -29.6460 
  192.5000     2.3030    83.8210    23.3490   245.5240    43.2610    45.1980   -30.1160 
  192.6250     2.2430    77.3750    23.4030   307.4440    58.8500    61.3950   -30.6010 
  192.7500     2.2000    75.3630    23.4230   316.0720    76.4180    79.6490   -31.0690 
  192.8750     2.1810    74.9650    23.4310   291.5090    92.8040    96.6730   -31.5030 
  193.0000     2.1800    73.5620    23.4390   255.4430   104.4210   108.7430   -31.8940 
  193.1250     2.1860    70.9300    23.4410   212.0320   107.9000   112.3580   -32.2300 
  193.2500     2.1930    68.3930    23.4380   168.8180   105.5270   109.8930   -32.5210 
  193.3750     2.2050    67.2810    23.4350   134.3990   100.2360   104.3950   -32.7670 
  193.5000     2.2250    68.7150    23.4550   109.9550    94.7710    98.7170   -32.9760 
  193.6250     2.2410    71.5410    23.5840    96.9500    90.7220    94.5100   -33.1550 
  193.7500     2.2450    72.6620    23.8520    94.4560    87.8200    91.4950   -33.3180 
  193.8750     2.2380    71.3050    24.2000   102.4970    85.5440    89.1300   -33.4650 
  194.0000     2.2260    68.5670    24.4900   114.5780    83.4110    86.9140   -33.5910 
  194.1250     2.2190    66.4330    24.6060   118.8140    81.0940    84.5070   -33.6900 
  194.2500     2.2180    66.6000    24.6460   112.2130    78.6720    81.9900   -33.7750 
  194.3750     2.2250    69.4610    24.6480    99.7650    76.4060    79.6360   -33.8600 
  194.5000     2.2350    73.3120    24.6310    87.5880    74.5720    77.7310   -33.9530 
  194.6250     2.2420    75.6800    24.6040    80.1030    73.4030    76.5160   -34.0600 
  194.7500     2.2440    76.4660    24.5910    77.0840    72.7870    75.8760   -34.1860 
  194.8750     2.2390    76.3200    24.5970    76.5500    72.5600    75.6400   -34.3390 
  195.0000     2.2290    75.7930    24.5890    76.2750    72.5430    75.6220   -34.5270 
  195.1250     2.2200    75.3840    24.5360    75.1700    72.8260    75.9160   -34.7580 
  195.2500     2.2210    75.5340    24.4740    71.4930    73.8390    76.9690   -35.0200 
  195.3750     2.2290    76.0980    24.4210    67.2180    76.2950    79.5210   -35.3000 
  195.5000     2.2340    76.9610    24.4210    66.7130    81.1170    84.5310   -35.5810 
  195.6250     2.2270    77.7330    24.4930    72.6740    90.1510    93.9170   -35.8360 
  195.7500     2.2150    77.3460    24.5560    81.3850   104.2730   108.5900   -36.0440 
  195.8750     2.2030    74.7970    24.6060    90.7540   124.7190   129.8330   -36.1940 
  196.0000     2.1880    70.3380    24.6360   104.8550   152.1150   158.2980   -36.2810 
  196.1250     2.1730    65.8050    24.6550   136.7430   186.2380   193.7520   -36.2890 
  196.2500     2.1650    62.9750    24.6660   191.4140   222.2410   231.1580   -36.2250 
  196.3750     2.1650    62.2620    24.6530   261.9040   254.4370   264.6100   -36.0940 
  196.5000     2.1730    62.5900    24.6020   330.9090   276.3520   287.3800   -35.9080 
  196.6250     2.1830    62.2310    24.4690   376.8830   280.6550   291.8510   -35.6770 
  196.7500     2.1900    61.3290    24.3200   384.4520   270.5200   281.3210   -35.4100 
  196.8750     2.1890    61.1910    24.2900   347.8460   251.2330   261.2820   -35.1060 
  197.0000     2.1820    62.4370    24.4580   285.4540   229.7600   238.9710   -34.7600 
  197.1250     2.1700    64.4600    24.6030   232.4830   213.2040   221.7690   -34.3620 
  197.2500     2.1600    66.0340    24.7170   202.3370   203.8720   212.0730   -33.9140 
  197.3750     2.1570    66.2830    24.8660   190.7780   201.8600   209.9820   -33.4020 
  197.5000     2.1590    64.6520    25.1540   195.1400   205.9400   214.2210   -32.8100 
  197.6250     2.1580    61.6040    25.3760   215.6080   214.1460   222.7470   -32.1070 
  197.7500     2.1490    59.5190    25.4120   239.3040   222.3040   231.2240   -31.2980 
  197.8750     2.1360    59.5160    25.2500   256.9680   226.9610   236.0620   -30.3770 
  198.0000     2.1320    60.9770    25.1040   265.5380   225.2840   234.3200   -29.3340 
  198.1250     2.1440    61.7750    25.0160   264.9260   214.7670   223.3930   -28.1380 
  198.2500     2.1620    61.4160    24.9830   254.2680   197.8000   205.7650   -26.8120 
  198.3750     2.1780    61.0010    24.9440   233.6340   176.7070   183.8480   -25.3690 
  198.5000     2.1900    61.3260    24.8820   200.5270   154.1340   160.3950   -23.8370 
  198.6250     2.1990    61.9870    24.7590   156.4140   132.9980   138.4350   -22.2600 
  198.7500     2.2090    62.4580    24.5970   118.7420   115.1570   119.8980   -20.7040 
  198.8750     2.2150    63.2540    24.4360    99.4000   101.7070   105.9230   -19.2130 
  199.0000     2.2170    65.1410    24.4800    96.7870    93.1550    97.0380   -17.8160 
  199.1250     2.2190    68.4530    24.7010    97.9780    89.7730    93.5240   -16.5530 
  199.2500     2.2360    71.5090    24.8820    90.6740    88.5770    92.2810   -15.4200 
  199.3750     2.2820    71.9540    24.8910    81.7690    86.3800    89.9990   -14.4210 
  199.5000     2.3640    68.5740    24.7370    88.1630    80.1870    83.5640   -13.5500 
  199.6250     2.4820    63.3670    24.4260   124.9210    67.9470    70.8470   -12.8020 
  199.7500     2.6160    59.9420    24.1490   169.2400    52.5300    54.8290   -12.1340 
  199.8750     2.7360    58.5940    23.9520   178.5610    37.1680    38.9150   -11.5370 
  200.0000     2.8040    57.7760    23.7660   134.2330    24.3840    25.7520   -11.0170 
  200.1250     2.7880    56.8000    23.5950    66.6000    15.7480    16.9720   -10.6000 
  200.2500     2.7170    56.6990    23.4250    24.5700    10.2910    11.2780   -10.2790 
  200.3750     2.6190    57.8650    23.2630     8.3590     7.2280     8.0020   -10.0560 
  200.5000     2.5200    59.4230    23.1530     4.5170     5.7430     6.3910    -9.9310 
  200.6250     2.4420    60.1300    23.1050     3.9720     5.3290     5.9420    -9.9120 
  200.7500     2.3910    60.0260    23.1070     4.1370     5.4450     6.0680    -9.9650 
  200.8750     2.3650    59.3670    23.1400     4.8290     5.8630     6.5210   -10.0680 
  201.0000     2.3580    58.0910    23.2010     5.6060     6.3970     7.1000   -10.2020 
  201.1250     2.3630    56.1180    23.2970     6.0360     6.8890     7.6350   -10.3520 
