~V
VERS. 2.00: Ver 2.00
~W
STRT.M 60.0000:
STOP.M 277.0000:
STEP.M 0.1250:
NULL. -999.2500:
UWI. DF5010:
~C
DEPT.M :
GR.API :
CALI.CM :
RXO.OHMM :
RI. :
RML.OHMM :
SP.MV :
DEN.GM/CC :
~A
# ...
  172.5000    66.1160    24.3120    15.3430    14.8400    18.1290   -39.1560     2.5220 
  172.6250    65.0770    24.2660    17.1690    15.1020    18.4420   -39.1890     2.5070 
  172.7500    62.4670    24.1760    17.1380    15.2360    18.5510   -39.3180     2.5080 
  172.8750    62.2840    24.0900    16.5500    15.1950    18.4100   -39.4230     2.5250 
  173.0000    65.7400    24.0520    16.4750    14.9850    18.0500   -39.4370     2.5440 
  173.1250    67.1500    24.0550    15.9890    14.6540    17.5530   -39.5650     2.5530 
  173.2500    65.4290    24.0570    14.8990    14.3170    17.0770   -39.6350     2.5530 
  173.3750    63.6130    24.0570    13.9090    14.0530    16.7310   -39.7550     2.5500 
  173.5000    64.7600    24.0570    13.4630    13.9110    16.5720   -39.8150     2.5510 
  173.6250    65.9640    24.0570    13.7920    13.9130    16.6110   -39.8880     2.5600 
  173.7500    64.2100    24.0550    13.9750    13.9900    16.7220   -39.9820     2.5680 
  173.8750    61.3910    24.0540    14.0690    14.0580    16.7720   -40.0310     2.5690 
  174.0000    60.2930    24.0930    14.6920    14.0250    16.6390   -40.1680     2.5640 
  174.1250    61.9670    24.2460    14.8850    13.8140    16.2510   -40.2860     2.5540 
  174.2500    63.8430    24.4530    14.3160    13.4870    15.7300   -40.3850     2.5450 
  174.3750    64.5280    24.6070    13.3660    13.1230    15.2050   -40.4800     2.5420 
  174.5000    63.8690    24.6570    12.2810    12.8020    14.7760   -40.5040     2.5450 
  174.6250    63.2770    24.6480    11.9000    12.5950    14.5190   -40.6700     2.5430 
  174.7500    64.1600    24.6460    12.4600    12.5020    14.3960   -40.7450     2.5300 
  174.8750    64.4740    24.6460    12.9120    12.5130    14.3770   -40.8470     2.5170 
  175.0000    61.9500    24.6460    12.5800    12.6190    14.4540   -41.0650     2.5150 
  175.1250    59.2780    24.6460    12.1860    12.8400    14.6610   -41.2340     2.5240 
  175.2500    60.3290    24.6460    12.1510    13.1530    14.9740   -41.5010     2.5350 
  175.3750    63.8750    24.6460    12.4400    13.5170    15.3280   -41.7320     2.5390 
  175.5000    65.6580    24.6460    12.9650    13.8590    15.6190   -42.1390     2.5300 
  175.6250    65.7820    24.6460    13.4560    14.0640    15.7120   -42.4240     2.5110 
  175.7500    66.9460    24.6460    13.2590    14.1070    15.6190   -42.7850     2.4980 
  175.8750    68.4800    24.6470    12.5700    14.0260    15.4260   -43.2340     2.4930 
  176.0000    70.3340    24.6490    12.2080    13.9090    15.2590   -43.6090     2.4900 
  176.1250    71.2630    24.6370    12.0980    13.8540    15.2370   -44.1290     2.4820 
  176.2500    70.3330    24.6020    12.3870    13.8900    15.3500   -44.5880     2.4710 
  176.3750    68.1240    24.5530    12.8520    14.0010    15.5460   -45.1520     2.4590 
  176.5000    66.7440    24.5090    13.2530    14.1470    15.7620   -45.6160     2.4530 
  176.6250    68.0370    24.4830    13.3060    14.2690    15.9230   -46.1460     2.4500 
  176.7500    68.3240    24.4710    13.1130    14.3170    15.9740   -46.7230     2.4470 
  176.8750    66.3770    24.4680    13.0750    14.2920    15.9300   -47.2260     2.4450 
  177.0000    65.7310    24.4670    13.3950    14.3100    15.9740   -47.8420     2.4480 
  177.1250    69.2700    24.4870    13.8350    14.7410    16.6980   -48.2740     2.4550 
  177.2500    73.7930    24.5340    13.8420    15.9620    18.6680   -48.7480     2.4580 
  177.3750    77.0700    24.5850    14.3680    18.3120    22.2530   -49.2450     2.4500 
  177.5000    80.5150    24.6130    17.8470    21.8120    27.1840   -49.6840     2.4340 
  177.6250    86.0610    24.6140    32.7670    25.6400    31.9170   -50.2170     2.4190 
  177.7500    92.2400    24.6130    45.9410    28.0500    34.3090   -50.7640     2.4190 
  177.8750    96.5050    24.6130    44.8990    28.1560    33.6540   -51.2430     2.4280 
  178.0000    95.8460    24.6130    28.8090    26.7220    31.4030   -51.6730     2.4180 
  178.1250    90.3510    24.6130    20.9710    25.8080    30.7120   -52.1790     2.3600 
  178.2500    83.5810    24.6150    32.2250    27.0090    33.5440   -52.7190     2.2800 
  178.3750    77.4250    24.6100    59.6080    31.2160    40.6650   -53.1950     2.2210 
  178.5000    71.8910    24.5770    79.8500    38.8620    51.9250   -53.6620     2.2070 
  178.6250    69.6470    24.5200    85.3360    49.5790    65.6820   -54.1420     2.2270 
  178.7500    71.0130    24.4750    86.4100    59.9120    77.3180   -54.4880     2.2440 
  178.8750    73.7190    24.4600    83.1750    66.6380    83.4640   -54.8890     2.2450 
  179.0000    77.3090    24.4610    74.1430    69.1590    84.5830   -55.2170     2.2410 
  179.1250    78.2830    24.4610    70.2840    70.0740    84.8020   -55.5310     2.2430 
  179.2500    76.1630    24.4610    69.8660    72.5880    87.8000   -55.8180     2.2460 
  179.3750    74.3070    24.4610    67.5040    78.1580    94.9580   -55.9630     2.2450 
  179.5000    74.8770    24.4610    71.3640    87.5540   106.8550   -56.2240     2.2380 
  179.6250    75.8710    24.4610    94.0450   101.2400   123.8210   -56.3120     2.2300 
  179.7500    73.0720    24.4610   122.2330   116.9650   143.1230   -56.3580     2.2260 
  179.8750    69.5790    24.4610   138.2510   132.1920   161.6470   -56.4680     2.2220 
  180.0000    68.7860    24.4610   141.3500   144.4280   176.2290   -56.5040     2.2180 
  180.1250    68.6520    24.4610   136.0220   151.7870   184.5300   -56.5300     2.2130 
  180.2500    67.6100    24.4610   136.5450   155.9320   188.9330   -56.4220     2.2100 
  180.3750    67.8710    24.4610   141.8430   158.4840   191.6180   -56.4100     2.2070 
  180.5000    70.0200    24.4610   146.2620   160.3320   193.5920   -56.3330     2.2040 
  180.6250    71.4570    24.4610   148.8580   161.3020   194.4570   -56.1440     2.2010 
  180.7500    71.8950    24.4610   150.5260   161.6260   194.4770   -56.1140     2.2020 
  180.8750    72.4970    24.4610   149.3550   162.2450   194.8670   -55.9870     2.2070 
  181.0000    72.6170    24.4610   142.8570   164.6420   197.4590   -55.8760     2.2110 
  181.1250    71.0750    24.4610   134.7080   170.9310   204.6900   -55.6690     2.2060 
  181.2500    70.1020    24.4630   133.7160   181.0030   216.2020   -55.5250     2.1950 
  181.3750    69.4110    24.4620   136.2750   193.3900   229.9200   -55.3640     2.1860 
  181.5000    67.6410    24.4340   132.7540   204.4560   240.9730   -55.0590     2.1840 
  181.6250    65.4910    24.3640   136.5900   206.9780   239.8140   -55.0200     2.1930 
  181.7500    63.5830    24.2940   142.6800   198.0270   223.8870   -54.9000     2.2080 
  181.8750    63.6810    24.2590   137.5400   178.7650   196.5730   -54.7250     2.2260 
  182.0000    66.8230    24.2570   115.8950   153.6930   164.7350   -54.5520     2.2400 
  182.1250    71.6230    24.2590    96.1410   128.2490   135.0300   -54.3530     2.2470 
  182.2500    75.6850    24.2590    80.3860   106.0410   110.2890   -54.2050     2.2520 
  182.3750    80.2530    24.2590    68.1810    88.2690    91.1450   -54.0020     2.2600 
  182.5000    85.1190    24.2590    57.6950    75.0590    77.3060   -54.0220     2.2720 
  182.6250    85.5580    24.2590    46.5970    66.7560    68.9010   -53.8720     2.2860 
  182.7500    82.0900    24.2590    43.1090    62.1800    64.4880   -53.6530     2.2930 
  182.8750    77.7790    24.2590    47.0410    60.7120    63.3540   -53.5240     2.2920 
  183.0000    74.7540    24.2590    46.5460    61.6230    64.7090   -53.3200     2.2830 
  183.1250    73.3990    24.2590    48.6720    64.2940    67.8660   -53.2760     2.2770 
  183.2500    74.3260    24.2590    53.8110    67.4780    71.5340   -53.1740     2.2790 
  183.3750    76.9180    24.2590    58.9900    70.4280    75.0210   -53.1360     2.2860 
  183.5000    78.5110    24.2590    58.2750    72.9500    78.2700   -53.0270     2.2920 
  183.6250    76.2030    24.2590    49.5350    75.6230    82.0930   -52.8050     2.2900 
