~V
VERS. 2.00: Ver 2.00
~W
STRT.M 60.0000:
STOP.M 259.0000:
STEP.M 0.1250:
NULL. -999.2500:
UWI. DF5006:
~C
DEPT.M :
SP.MV :
GR.API :
RML.OHMM :
RI. :
RXO.OHMM :
CALI.CM :
DEN.GM/CC :
~A
# ...
  228.7500   -18.1790    59.6830    82.6910    78.9430    81.7660    23.8420     2.2110 
  228.8750   -18.2920    61.8220    80.7810    77.5250    76.9750    24.0900     2.2090 
  229.0000   -18.3910    60.0580    80.5520    77.2160    73.6690    24.2750     2.2110 
  229.1250   -18.4690    56.6300    82.5820    78.5870    72.9070    24.3360     2.2160 
  229.2500   -18.5180    57.6950    86.6710    81.8770    76.0510    24.3260     2.2290 
  229.3750   -18.5850    62.6750    91.6860    86.1350    82.5510    24.2990     2.2490 
  229.5000   -18.5880    66.1490    96.6610    90.5090    89.5560    24.2620     2.2730 
  229.6250   -18.6030    65.0380   100.8160    94.2680    93.9760    24.2120     2.2970 
  229.7500   -18.5580    61.2400   103.5150    96.8220    94.5960    24.1330     2.3150 
  229.8750   -18.4630    58.8420   104.7820    98.1940    94.4490    24.0020     2.3260 
  230.0000   -18.2770    56.9100   104.3180    98.2000    94.8310    23.9190     2.3290 
  230.1250   -18.0360    56.8520   101.7580    96.5710    95.2540    23.9880     2.3260 
  230.2500   -17.6860    60.1450    97.0900    93.2180    95.9390    24.0920     2.3210 
  230.3750   -17.2390    62.1930    92.2260    89.5470    96.9790    24.1050     2.3230 
  230.5000   -16.7280    60.3630    89.1840    87.1730    96.6120    24.0810     2.3440 
  230.6250   -16.1250    56.4970    89.1450    87.2080    95.8100    24.0840     2.3900 
  230.7500   -15.4370    54.4670    91.2120    89.1430   105.6320    24.0990     2.4600 
  230.8750   -14.7060    54.3180    91.3470    89.5290   123.2320    24.1050     2.5270 
  231.0000   -13.9480    55.7570    85.6580    84.7180   131.5500    24.1080     2.5680 
  231.1250   -13.1530    59.2130    72.1540    72.5110   120.4130    24.0860     2.5730 
  231.2500   -12.3210    62.1780    52.8700    54.1280    90.0480    24.0050     2.5460 
  231.3750   -11.4230    65.0100    34.9350    36.2990    57.3140    23.9020     2.5070 
  231.5000   -10.5420    66.7790    21.9660    22.9790    27.1710    23.7680     2.4670 
  231.6250    -9.6740    65.1430    14.1600    14.7440    12.0240    23.6250     2.4350 
  231.7500    -8.9480    58.0760    10.4580    10.6400     8.1030    23.5660     2.4170 
  231.8750    -8.3370    52.5180     8.6850     8.4960     6.9830    23.5510     2.4130 
  232.0000    -7.8740    51.8080     7.9160     7.4450     6.7830    23.5510     2.4150 
  232.1250    -7.5440    51.8150     7.5960     6.9880     6.5690    23.5510     2.4130 
  232.2500    -7.4280    51.7050     7.4980     6.8970     6.2390    23.5520     2.4030 
  232.3750    -7.5320    54.9740     7.6050     7.0500     6.1390    23.5610     2.3890 
  232.5000    -7.7730    61.7230     8.0280     7.4960     6.5520    23.5980     2.3780 
  232.6250    -8.1300    66.8200     8.8070     8.2710     7.5770    23.6950     2.3760 
  232.7500    -8.4530    69.4520     9.8270     9.3240     9.2660    23.9040     2.3820 
  232.8750    -8.6880    75.0150    10.7430    10.3620    10.8660    24.1280     2.3920 
  233.0000    -8.8040    83.2550    11.2770    11.0950    11.5940    24.2700     2.4030 
  233.1250    -8.8200    90.1730    11.2860    11.3050    11.2770    24.3370     2.4150 
  233.2500    -8.7170    93.8250    10.8010    10.9140    10.2570    24.3600     2.4260 
  233.3750    -8.5480    97.6270    10.1770    10.2610     9.4100    24.3480     2.4340 
  233.5000    -8.3050   103.8210     9.6570     9.6110     9.0280    24.3190     2.4370 
  233.6250    -8.0510   108.9530     9.3660     9.1320     8.8910    24.2810     2.4350 
  233.7500    -7.8290   110.2610     9.3330     8.9030     8.8070    24.2650     2.4260 
  233.8750    -7.7150   109.1560     9.4300     8.8390     8.7510    24.2600     2.4170 
  234.0000    -7.6970   107.8130     9.5680     8.8690     8.7580    24.2560     2.4130 
  234.1250    -7.7760   106.0390     9.6830     8.9300     8.8240    24.2420     2.4180 
  234.2500    -7.8960   104.8050     9.7340     8.9790     8.9280    24.2160     2.4320 
  234.3750    -8.0020   106.0080     9.7470     9.0180     8.9740    24.2040     2.4480 
  234.5000    -8.1300   110.2440     9.7690     9.0770     8.8820    24.2010     2.4510 
  234.6250    -8.2280   114.8300     9.8620     9.1970     8.7620    24.2000     2.4320 
  234.7500    -8.3340   117.0690    10.1000     9.4290     8.9030    24.1800     2.3900 
  234.8750    -8.4110   116.4550    10.4590     9.7490     9.2830    24.1960     2.3470 
  235.0000    -8.4870   113.9420    10.8660    10.1000     9.7970    24.2590     2.3230 
  235.1250    -8.5200   109.7240    11.2120    10.3910    10.3440    24.1520     2.3280 
  235.2500    -8.5860   103.6690    11.3590    10.4990    10.5740    23.7720     2.3590 
  235.3750    -8.6610   100.1980    11.2930    10.3970    10.7810    23.6910     2.3900 
  235.5000    -8.7630   102.6230    11.0420    10.1040    10.7090    23.9360     2.4070 
  235.6250    -8.8930   107.6790    10.6810     9.6810    10.2510    24.2100     2.4070 
  235.7500    -9.0270   108.7240    10.2810     9.2160    10.2630    24.2820     2.3960 
  235.8750    -9.2070   108.5700     9.9250     8.8240    10.3900    24.2480     2.3840 
  236.0000    -9.4190   110.1790     9.8110     8.6210    10.5930    24.1950     2.3700 
  236.1250    -9.7050   110.5440    10.1970     8.7700    11.0140    24.1400     2.3550 
  236.2500   -10.0170   105.5100    11.9570     9.7330    12.5650    24.0860     2.3440 
  236.3750   -10.3970    96.5260    15.6290    12.0810    16.6210    24.0140     2.3400 
  236.5000   -10.7770    84.7690    22.2810    16.8340    24.0440    23.9230     2.3430 
  236.6250   -11.1750    73.1840    32.9400    25.2250    35.0520    23.8310     2.3420 
  236.7500   -11.5920    66.5860    48.2430    38.9730    51.3440    23.7280     2.3260 
  236.8750   -11.9960    63.7410    67.2440    56.8530    68.4180    23.6660     2.2960 
  237.0000   -12.4100    61.3700    87.7080    76.7060    85.9580    23.6770     2.2620 
  237.1250   -12.8360    59.5320   106.3570    95.2020   106.3270    23.7500     2.2320 
  237.2500   -13.2250    58.9950   119.0350   108.1520   120.1420    23.9000     2.2180 
  237.3750   -13.5740    58.2490   125.7350   115.2870   126.3450    24.0130     2.2160 
  237.5000   -13.8730    57.4760   128.0320   117.8340   127.8610    24.0500     2.2200 
  237.6250   -14.1540    56.8420   128.1430   117.7710   133.5020    24.0200     2.2250 
  237.7500   -14.3910    57.6350   127.8340   116.9210   155.8560    23.9770     2.2260 
  237.8750   -14.6000    59.5360   127.9220   116.4720   188.3750    23.9130     2.2230 
  238.0000   -14.7490    59.8990   128.3570   116.5900   222.6120    23.8170     2.2160 
  238.1250   -14.8190    57.4130   128.8820   117.0680   234.9860    23.7250     2.2090 
  238.2500   -14.8730    56.8290   129.3810   117.7370   220.3910    23.6770     2.2030 
  238.3750   -14.9170    60.0200   129.9910   118.5940   212.4330    23.6520     2.1990 
  238.5000   -14.9980    63.1210   130.8770   119.7540   205.5040    23.6470     2.1970 
  238.6250   -15.0450    62.8350   132.1340   121.2770   201.1770    23.6800     2.1990 
  238.7500   -15.0510    62.4890   133.7890   123.1520   203.4470    23.7240     2.2030 
  238.8750   -14.9660    62.8240   135.6880   125.1950   196.3990    23.7420     2.2090 
  239.0000   -14.8210    62.8120   137.7840   127.3440   172.1530    23.7400     2.2140 
  239.1250   -14.6120    62.2980   140.0450   129.6050   149.1900    23.7250     2.2150 
  239.2500   -14.3830    61.9720   142.3890   132.0070   135.8290    23.6900     2.2110 
  239.3750   -14.1020    60.8590   144.7760   134.5600   131.0160    23.6620     2.2040 
  239.5000   -13.7890    58.8160   147.4570   137.4830   126.1630    23.6420     2.1970 
  239.6250   -13.4520    57.9010   150.8720   141.1330   123.7850    23.6570     2.1930 
  239.7500   -13.1580    59.4580   155.0920   145.7300   127.8980    23.7460     2.1920 
  239.8750   -12.9180    61.1260   158.8200   150.3350   133.3570    23.8740     2.1930 
