~V
VERS. 2.00: Ver 2.00
~W
STRT.M 60.0000:
STOP.M 249.0000:
STEP.M 0.1250:
NULL. -999.2500:
UWI. DF5060:
~C
DEPT.M :
GR.API :
CALI.CM :
RXO.OHMM :
RI. :
RML.OHMM :
DEN.GM/CC :
SP.MV :
~A
# ...
  172.5000    69.1060    25.3180    43.7770    89.2670   109.5870     2.1900   -21.7890 
  172.6250    67.9110    25.2680    40.0690    87.5380   104.7530     2.1850   -21.8260 
  172.7500    67.2100    25.1420    33.1400    84.9200    98.8890     2.1750   -21.8560 
  172.8750    65.3840    24.9730    28.4850    81.2600    91.4630     2.1630   -21.8870 
  173.0000    61.0670    24.8270    27.8220    74.5240    80.3400     2.1530   -21.8810 
  173.1250    57.8360    24.7440    28.2900    62.2970    64.2490     2.1560   -21.8990 
  173.2500    58.4130    24.6890    22.7990    47.5760    47.1050     2.1730   -21.7950 
  173.3750    64.2730    24.6290    14.9110    34.1210    32.5010     2.2050   -21.7510 
  173.5000    75.1200    24.6130     8.3330    24.1590    22.1610     2.2500   -21.7340 
  173.6250    84.8560    24.7040     6.0750    18.3010    16.3780     2.2970   -21.7470 
  173.7500    89.2860    24.8620     5.9790    14.9030    13.2170     2.3310   -21.7530 
  173.8750    89.1580    25.0450     6.2780    13.0380    11.6080     2.3490   -21.7630 
  174.0000    87.3180    25.2270     6.5420    12.0500    10.8180     2.3580   -21.8750 
  174.1250    86.9090    25.3550     6.5040    11.5980    10.4840     2.3660   -21.9520 
  174.2500    90.1400    25.3340     6.0300    11.4250    10.4150     2.3740   -22.0610 
  174.3750    95.2810    25.1830     5.3670    11.5630    10.7260     2.3790   -22.1780 
  174.5000    97.5440    25.0330     5.1330    12.1930    11.6970     2.3770   -22.3810 
  174.6250    95.3850    24.9880     5.9650    13.7870    13.9820     2.3640   -22.6250 
  174.7500    92.9430    25.0050     7.9360    16.6590    17.9170     2.3430   -22.9390 
  174.8750    88.5230    25.0560    14.1150    21.2520    23.8200     2.3160   -23.2440 
  175.0000    81.0150    25.1260    25.1090    27.7410    31.5290     2.2890   -23.4790 
  175.1250    74.7780    25.2060    34.4230    35.4570    39.9160     2.2700   -23.6890 
  175.2500    72.5240    25.2880    37.2570    42.1400    46.8020     2.2590   -23.9610 
  175.3750    73.0240    25.3400    37.3550    45.9520    50.6320     2.2550   -24.1910 
  175.5000    73.0500    25.3520    35.9340    46.4370    51.1800     2.2550   -24.4060 
  175.6250    70.2360    25.3730    33.0210    44.6470    49.6850     2.2560   -24.5710 
  175.7500    67.6160    25.4330    31.4810    42.8100    48.4670     2.2550   -24.7080 
  175.8750    69.2020    25.4950    30.8800    42.0480    48.7270     2.2500   -24.8320 
  176.0000    74.6140    25.5080    30.0270    42.8940    50.9570     2.2400   -24.9430 
  176.1250    77.1760    25.4800    32.0200    45.6560    55.1570     2.2270   -25.0770 
  176.2500    76.2110    25.4670    36.9800    49.3880    59.8270     2.2150   -25.1200 
  176.3750    73.6880    25.4930    43.2860    52.8060    63.2310     2.2100   -25.1400 
  176.5000    70.4180    25.5370    47.6460    54.4410    63.7680     2.2140   -25.1260 
  176.6250    68.1980    25.5550    45.2720    53.0000    60.4830     2.2260   -25.1110 
  176.7500    69.0720    25.5340    37.1020    49.4260    55.1970     2.2410   -25.0740 
  176.8750    71.4490    25.4890    28.9280    44.9600    49.6170     2.2520   -25.0970 
  177.0000    72.2950    25.4560    26.3120    40.8190    45.0450     2.2590   -25.1560 
  177.1250    72.3960    25.4660    28.0970    38.0430    42.4540     2.2600   -25.2970 
  177.2500    74.8410    25.4950    26.8060    36.8050    41.7850     2.2590   -25.4950 
  177.3750    77.7220    25.5110    23.8090    37.2450    43.1370     2.2560   -25.7110 
  177.5000    77.5960    25.5120    23.1740    39.4880    46.6340     2.2510   -25.8880 
  177.6250    73.5640    25.5130    29.4220    44.0670    52.8080     2.2460   -26.0560 
  177.7500    69.7170    25.5130    36.8170    50.7920    61.2880     2.2400   -26.2120 
  177.8750    67.7410    25.5120    38.1310    59.5610    71.7920     2.2350   -26.3120 
  178.0000    66.2120    25.5110    40.4660    69.8870    83.6380     2.2290   -26.4620 
  178.1250    65.4710    25.5110    48.8440    80.6040    95.4360     2.2210   -26.5180 
  178.2500    67.3320    25.5120    57.5830    89.9440   105.4180     2.2120   -26.5380 
  178.3750    70.9370    25.5100    59.7080    96.5140   112.2150     2.2040   -26.5260 
  178.5000    73.1580    25.4990    59.8840    99.5930   115.2420     2.2010   -26.5290 
  178.6250    71.7060    25.4740    60.1790    99.1810   114.8280     2.2040   -26.5380 
  178.7500    68.4280    25.4520    59.0150    97.5680   113.5970     2.2110   -26.5620 
  178.8750    65.3570    25.4520    56.5400    96.8600   113.7870     2.2180   -26.5870 
  179.0000    63.1340    25.4560    54.4880    98.7500   117.0120     2.2220   -26.5230 
  179.1250    62.3810    25.4130    54.5370   104.3700   124.1740     2.2210   -26.4470 
  179.2500    62.3070    25.3310    57.0560   112.1790   133.2480     2.2140   -26.3460 
  179.3750    62.0070    25.2390    62.8170   119.8170   141.1560     2.2060   -26.3050 
  179.5000    61.6690    25.1440    68.0220   124.0490   143.8530     2.2010   -26.2480 
  179.6250    60.4580    25.0440    67.0010   121.3270   137.6460     2.2030   -26.1140 
  179.7500    60.0020    24.9510    58.5290   113.4080   126.2470     2.2080   -25.9160 
  179.8750    61.4010    24.9080    48.3470   103.4180   114.1960     2.2110   -25.6670 
  180.0000    62.1960    24.9830    45.2330    94.5720   104.9760     2.2070   -25.3330 
  180.1250    60.9440    25.1750    42.5640    89.4530   100.7830     2.1950   -24.9320 
  180.2500    60.5500    25.3500    43.0200    88.0590   100.8520     2.1810   -24.5680 
  180.3750    62.8300    25.4460    47.9770    90.1880   104.7420     2.1720   -24.1440 
  180.5000    65.7960    25.5020    54.1290    95.5450   112.1400     2.1680   -23.7290 
  180.6250    66.5940    25.5460    56.3310   104.5340   123.6710     2.1720   -23.3130 
  180.7500    66.3100    25.5600    55.7700   114.0100   135.6050     2.1810   -22.8930 
  180.8750    65.9390    25.5560    55.0840   120.9990   144.3460     2.1910   -22.4280 
  181.0000    64.2680    25.5130    51.0580   135.8450   162.8670     2.1990   -21.9300 
  181.1250    61.7470    25.4100    57.4690   155.4850   187.3810     2.2050   -21.5160 
  181.2500    59.7300    25.3210    68.7460   176.8880   214.0840     2.2100   -21.0050 
  181.3750    58.3980    25.2830    77.2350   198.7330   241.2040     2.2150   -20.5170 
  181.5000    55.8940    25.2550    76.4060   219.9950   267.3530     2.2200   -19.9470 
  181.6250    50.8910    25.1990    73.1630   240.2340   291.8870     2.2230   -19.3550 
  181.7500    46.1990    25.2090    80.4790   258.8880   313.7360     2.2240   -18.8660 
  181.8750    43.3130    25.3130    95.8470   272.0220   326.4710     2.2280   -18.5570 
  182.0000    41.2630    25.3810   100.8190   270.9120   316.4030     2.2420   -18.0320 
  182.1250    40.6520    25.3040    89.5090   242.6540   268.3090     2.2750   -17.5680 
  182.2500    43.1950    25.2230    72.3490   195.2130   202.6430     2.3250   -17.0830 
  182.3750    47.2770    25.2860    62.5930   142.5810   141.2210     2.3870   -16.6800 
  182.5000    49.1830    25.4310    59.3450    96.9430    94.5400     2.4470   -16.2440 
  182.6250    49.7630    25.4210    45.1880    65.4400    64.5800     2.4880   -15.8890 
  182.7500    52.3520    25.2870    30.3890    44.9810    45.0960     2.5080   -15.5280 
  182.8750    57.7760    25.1120    22.5120    32.6810    33.1460     2.5190   -15.1980 
  183.0000    64.3450    24.9180    18.1210    25.9030    26.6450     2.5290   -14.8900 
  183.1250    67.3230    24.7820    13.3520    23.3110    24.6260     2.5430   -14.5200 
  183.2500    65.5800    24.7930    12.7460    23.0710    25.0570     2.5640   -14.1460 
  183.3750    62.4170    24.8970    17.8470    24.0490    26.4260     2.5900   -13.7630 
  183.5000    60.9950    24.9490    24.8350    24.6240    26.8320     2.6160   -13.4260 
  183.6250    60.0330    24.9420    27.2360    22.6260    24.1190     2.6260   -13.1320 
