~V
VERS. 2.00: Ver 2.00
~W
STRT.M 55.0000:
STOP.M 262.0000:
STEP.M 0.1250:
NULL. -999.2500:
UWI. DF5047:
~C
DEPT.M :
GR.API :
CALI.CM :
RXO.OHMM :
RI. :
RML.OHMM :
DEN.GM/CC :
SP.MV :
~A
# ...
  178.7500    65.8600    23.7980    34.9110    50.0020    47.9980     2.2890   -39.7870 
  178.8750    70.5440    23.9300    37.0150    50.9490    49.6350     2.2740   -39.9900 
  179.0000    74.0290    24.0290    38.7240    52.9320    52.8700     2.2600   -39.9920 
  179.1250    74.1370    23.9000    38.3010    57.8800    59.9880     2.2460   -40.0680 
  179.2500    70.7490    23.6810    45.3490    67.7980    72.6860     2.2330   -40.1960 
  179.3750    65.5930    23.5540    93.0130    85.2860    93.0490     2.2190   -40.1910 
  179.5000    62.2200    23.5270   194.4480   112.1740   122.6050     2.2050   -40.3700 
  179.6250    62.3120    23.4950   288.1700   148.1510   161.4840     2.1920   -40.5590 
  179.7500    62.4230    23.4520   327.8680   183.9860   200.8190     2.1810   -40.4580 
  179.8750    61.1130    23.4130   306.5100   209.3290   229.2670     2.1770   -40.4450 
  180.0000    60.0470    23.4080   250.7400   218.5690   239.9190     2.1780   -40.5350 
  180.1250    60.2890    23.4420   205.2210   214.2530   235.6450     2.1820   -40.3330 
  180.2500    61.2810    23.4750   192.5460   206.1600   227.4970     2.1840   -40.2110 
  180.3750    62.7760    23.4890   195.3690   197.6800   218.8860     2.1810   -40.1760 
  180.5000    63.1650    23.4920   197.5220   189.5470   210.2490     2.1750   -39.9250 
  180.6250    61.7250    23.4930   190.9570   181.6710   201.1880     2.1710   -39.7520 
  180.7500    61.3650    23.4980   161.3390   173.3410   191.0830     2.1720   -39.7110 
  180.8750    62.4990    23.5110   137.5860   163.8930   179.3810     2.1780   -39.4690 
  181.0000    63.3760    23.5660   137.9450   153.0280   165.9630     2.1880   -39.2110 
  181.1250    64.2610    23.6600   161.4740   140.9030   151.3500     2.1990   -39.1640 
  181.2500    66.1480    23.7250   153.2100   128.8200   137.2410     2.2080   -38.9490 
  181.3750    67.1890    23.7300   116.8420   118.1170   125.1900     2.2120   -38.8110 
  181.5000    65.8160    23.7050    90.9020   109.7840   116.1650     2.2110   -38.7590 
  181.6250    64.5670    23.7120    83.0750   104.5920   110.7760     2.2040   -38.4800 
  181.7500    65.0990    23.7260    74.9890   101.8210   107.8790     2.1990   -38.3080 
  181.8750    65.1560    23.6800    81.2660   100.7770   106.5050     2.1980   -38.2640 
  182.0000    65.0730    23.5410    94.8470   100.4760   105.5970     2.2040   -38.2350 
  182.1250    66.5730    23.3660    88.5220   100.0060   104.3680     2.2160   -38.1970 
  182.2500    68.1160    23.2790    82.1610    99.1380   102.7920     2.2260   -38.1310 
  182.3750    67.1940    23.3480    83.8360    98.0510   101.1130     2.2300   -38.0430 
  182.5000    63.6220    23.5230    86.5560    97.0490    99.5620     2.2260   -38.1490 
  182.6250    60.4800    23.6940    87.6970    96.2380    98.0010     2.2170   -38.3600 
  182.7500    60.0380    23.9050    87.3960    95.0180    95.6760     2.2070   -38.3050 
  182.8750    62.5630    24.2620    83.5360    92.4850    91.7080     2.2000   -38.2870 
  183.0000    65.7460    24.6900    78.1080    87.9990    85.6620     2.2010   -38.4910 
  183.1250    66.7800    24.8340    71.8220    81.4430    77.8060     2.2090   -38.5540 
  183.2500    66.7410    24.6120    54.6020    74.1680    69.7360     2.2190   -38.6800 
  183.3750    68.0090    24.2050    40.5690    67.4390    62.7550     2.2270   -38.8110 
  183.5000    72.1890    23.7990    35.0100    62.2800    57.7520     2.2290   -38.8330 
  183.6250    75.3400    23.4730    31.7690    59.4900    55.2920     2.2290   -39.0170 
  183.7500    74.6860    23.2390    30.7920    58.4870    54.5140     2.2310   -39.2290 
  183.8750    72.0620    23.0920    33.6040    58.5440    54.5720     2.2370   -39.4230 
  184.0000    71.1120    22.9860    37.8010    58.6710    54.5200     2.2420   -39.5770 
  184.1250    71.0230    22.8940    39.0010    57.7880    53.4990     2.2440   -39.7520 
  184.2500    69.8310    22.8750    37.0420    55.7490    51.5730     2.2440   -40.0530 
  184.3750    70.7090    23.0180    33.5600    52.9430    49.2350     2.2420   -40.3620 
  184.5000    73.8250    23.3020    30.8820    50.2020    47.3470     2.2390   -40.5100 
  184.6250    73.7520    23.5740    30.6340    48.9560    47.4240     2.2360   -40.6930 
  184.7500    70.6440    23.7130    33.2960    50.2520    50.4920     2.2320   -41.1290 
  184.8750    68.9290    23.7330    35.1270    55.3300    57.7980     2.2260   -41.4780 
  185.0000    68.1450    23.7070    37.1280    65.8570    70.7630     2.2150   -41.6870 
  185.1250    63.2150    23.7010    69.0450    85.3250    92.1870     2.2000   -42.0550 
  185.2500    57.6340    23.7220   113.9380   113.6660   121.5510     2.1870   -42.3190 
  185.3750    56.7260    23.7470   148.6030   148.9980   156.9050     2.1830   -42.7020 
  185.5000    60.6950    23.7410   164.1610   184.8640   191.7210     2.1860   -43.1880 
  185.6250    62.8950    23.7160   167.6660   207.2750   210.9770     2.1920   -43.3920 
  185.7500    61.1460    23.7070   170.5920   208.8190   207.5490     2.1940   -43.5910 
  185.8750    58.6090    23.7340   176.5870   190.5360   184.5200     2.1940   -43.9260 
  186.0000    57.7590    23.8090   171.9070   160.9030   152.5900     2.1960   -44.1820 
  186.1250    59.1170    23.8980   140.0010   130.9000   123.5650     2.2080   -44.3650 
  186.2500    60.7740    23.9510    97.7790   107.7070   102.9790     2.2240   -44.5030 
  186.3750    63.3780    23.9750    61.2020    93.6090    91.9590     2.2390   -44.4800 
  186.5000    65.4370    23.9900    42.8890    88.6440    89.7800     2.2450   -44.5850 
  186.6250    65.9530    23.9860    57.9930    92.8230    95.8910     2.2390   -44.7160 
  186.7500    66.1600    23.9810    88.7970   102.7250   106.8220     2.2280   -44.6180 
  186.8750    66.4770    24.0090   110.8030   115.8080   120.0850     2.2170   -44.5250 
  187.0000    65.6320    24.0590   111.4510   129.4100   133.3330     2.2110   -44.5000 
  187.1250    62.7160    24.0820   100.2330   142.0280   145.6880     2.2110   -44.3490 
  187.2500    60.3200    24.1070    94.1960   155.1810   159.0900     2.2130   -44.2680 
  187.3750    58.4550    24.2310    98.7790   170.9900   175.6610     2.2140   -44.0450 
  187.5000    56.1000    24.4820   129.9920   189.8160   195.6090     2.2110   -43.7130 
  187.6250    53.2590    24.7470   210.5520   207.7630   214.7610     2.2070   -43.5460 
  187.7500    51.8090    24.8930   254.2190   218.6110   226.4530     2.2060   -43.2400 
  187.8750    53.2620    24.9060   209.3500   219.0890   227.3630     2.2080   -42.8010 
  188.0000    55.4020    24.8270   140.2380   210.8140   219.6250     2.2080   -42.4620 
  188.1250    55.5310    24.6860   132.6220   198.8380   208.8350     2.2050   -42.0600 
  188.2500    54.4620    24.5430   158.3440   188.7560   200.2810     2.1990   -41.6690 
  188.3750    53.8300    24.4490   174.8830   183.0540   196.0590     2.1920   -41.3700 
  188.5000    54.5700    24.4330   185.5020   182.7480   196.9970     2.1850   -40.8270 
  188.6250    55.1610    24.5230   191.3470   189.1210   204.4060     2.1810   -40.2630 
  188.7500    54.1160    24.7210   175.2910   201.6630   217.7660     2.1770   -39.9640 
  188.8750    52.1420    24.9960   227.3770   219.9950   236.3420     2.1750   -39.5230 
  189.0000    51.5070    25.2400   318.0360   240.4040   255.7840     2.1740   -38.9360 
  189.1250    53.3020    25.3070   328.1580   251.7500   263.5320     2.1750   -38.5460 
  189.2500    54.2440    25.2280   316.3610   245.1950   251.1260     2.1770   -38.0210 
  189.3750    53.5260    25.0850   296.4830   220.1260   220.3420     2.1790   -37.6070 
  189.5000    53.1200    24.9510   263.5020   185.1160   182.3990     2.1810   -37.3320 
  189.6250    53.0780    24.9010   193.3240   152.4050   149.9750     2.1790   -37.0610 
  189.7500    51.8360    24.9500   133.2740   127.7610   126.5400     2.1710   -36.6850 
  189.8750    50.7170    25.0360    90.8960   111.0890   110.8300     2.1650   -36.3120 
