~V
VERS. 2.00: Ver 2.00
~W
STRT.M 55.0000:
STOP.M 263.0000:
STEP.M 0.1250:
NULL. -999.2500:
UWI. DF5056:
~C
DEPT.M :
GR.API :
CALI.CM :
RXO.OHMM :
RI. :
RML.OHMM :
DEN.GM/CC :
SP.MV :
~A
# ...
  212.5000    63.9200    26.1390    41.7450    62.4860    62.2530     2.1640   -34.1300 
  212.6250    64.1540    26.1900    51.0450    61.9430    61.7990     2.1720   -33.9880 
  212.7500    63.4150    26.3370    59.1810    61.5430    61.1490     2.1770   -33.8060 
  212.8750    62.7350    26.4870    59.7010    60.5020    59.6250     2.1750   -33.5840 
  213.0000    62.6840    26.5470    53.7720    58.5990    57.2800     2.1680   -33.3550 
  213.1250    62.3510    26.4890    46.6800    56.3820    54.9300     2.1620   -33.1080 
  213.2500    61.5480    26.3660    44.0710    54.7200    53.3400     2.1620   -32.9310 
  213.3750    61.9190    26.1950    43.9650    53.8910    52.5750     2.1660   -32.8090 
  213.5000    63.1480    26.0330    43.4680    53.6400    52.1790     2.1720   -32.6720 
  213.6250    61.8790    25.9390    43.8880    53.2130    51.2600     2.1740   -32.5470 
  213.7500    61.1630    25.8320    44.2070    51.8010    49.1590     2.1760   -32.3910 
  213.8750    62.7630    25.6490    43.3540    48.9610    45.6640     2.1800   -32.3270 
  214.0000    64.6820    25.4160    40.1690    44.8500    41.1500     2.1900   -32.2630 
  214.1250    63.6570    25.2200    37.2820    40.4070    36.7300     2.2080   -32.2660 
  214.2500    61.3040    25.0710    34.5960    37.0090    33.6940     2.2350   -32.2200 
  214.3750    60.7450    24.9260    30.3800    35.5340    32.7750     2.2740   -32.1560 
  214.5000    62.5170    24.7540    25.2060    36.2570    33.9690     2.3270   -32.1410 
  214.6250    63.9510    24.5500    29.7220    38.8190    36.4560     2.3980   -32.1840 
  214.7500    62.2590    24.3620    48.6160    41.2940    38.2710     2.4770   -32.3150 
  214.8750    56.6750    24.2210    73.9260    41.7010    37.8420     2.5390   -32.4460 
  215.0000    52.1750    24.1020    73.4610    38.9070    34.6380     2.5520   -32.6230 
  215.1250    55.9180    24.0250    43.0830    33.7230    29.7250     2.5010   -32.7970 
  215.2500    64.8200    24.0460    24.3270    28.7410    25.3560     2.4290   -33.0650 
  215.3750    71.7630    24.1370    21.4770    25.1660    22.5960     2.3650   -33.3880 
  215.5000    72.2070    24.1920    20.0560    23.3680    21.7860     2.3190   -33.7510 
  215.6250    68.9490    24.1790    22.1020    23.6740    23.2580     2.2920   -34.1480 
  215.7500    67.2810    24.1850    25.6400    25.7870    26.6820     2.2770   -34.5530 
  215.8750    67.4500    24.2230    28.8800    29.8440    32.2310     2.2690   -34.9550 
  216.0000    67.0220    24.2460    32.4960    36.2290    40.2980     2.2640   -35.3620 
  216.1250    63.7490    24.2430    48.5850    46.1910    51.9880     2.2590   -35.7080 
  216.2500    61.2210    24.2390    79.6320    59.6610    67.0310     2.2500   -35.9870 
  216.3750    61.3220    24.2590   106.6280    75.9220    84.6820     2.2360   -36.1470 
  216.5000    62.1190    24.3190   116.0740    92.8190   102.7920     2.2170   -36.2100 
  216.6250    60.4670    24.3830   116.7970   106.1360   116.8810     2.1980   -36.1790 
  216.7500    57.9620    24.3980   113.4620   113.5570   124.4950     2.1850   -36.1180 
  216.8750    55.8420    24.4010   105.8390   115.0240   125.7500     2.1750   -36.0340 
  217.0000    54.6110    24.5000   108.1190   111.9710   122.3610     2.1680   -35.9230 
  217.1250    55.9400    24.7300   117.4520   105.4090   115.3740     2.1650   -35.8280 
  217.2500    57.6810    24.9570   112.4900    96.9540   106.3780     2.1710   -35.6420 
  217.3750    58.2900    25.1500   101.3790    87.7240    96.5670     2.1900   -35.4110 
  217.5000    57.7390    25.3980    90.5380    78.8670    87.1740     2.2160   -35.1670 
  217.6250    57.4030    25.6990    75.7500    71.3740    79.1980     2.2310   -34.9320 
  217.7500    57.3760    25.8820    62.8520    65.2420    72.5820     2.2270   -34.7180 
  217.8750    57.9650    25.9090    66.9520    60.3050    67.1630     2.2080   -34.5280 
  218.0000    59.9230    25.8640    71.2660    56.3940    62.8390     2.1870   -34.3430 
  218.1250    62.4240    25.6740    57.2680    53.7110    59.9150     2.1820   -34.1420 
  218.2500    63.9950    25.2270    43.7290    52.2290    58.3980     2.1970   -34.0810 
  218.3750    64.0670    24.6190    38.9120    52.0610    58.4330     2.2290   -33.9740 
  218.5000    63.2690    24.0320    37.0280    53.2790    60.0790     2.2660   -33.9100 
  218.6250    64.7720    23.6750    39.5910    56.0270    63.3980     2.2890   -33.9080 
  218.7500    67.0740    23.6390    48.5290    59.6640    67.5650     2.2920   -33.8760 
  218.8750    66.8460    23.9010    61.7340    63.4290    71.6590     2.2790   -33.8170 
  219.0000    63.5240    24.2450    71.5470    66.3320    74.5560     2.2600   -33.6960 
  219.1250    59.7050    24.3940    73.8250    67.1570    74.9370     2.2450   -33.6480 
  219.2500    58.5470    24.4040    73.6510    66.0910    73.2110     2.2370   -33.6020 
  219.3750    59.5870    24.3800    70.8220    63.8300    70.3020     2.2420   -33.5610 
  219.5000    61.2410    24.3620    61.8340    61.3160    67.2660     2.2610   -33.5070 
  219.6250    62.6430    24.3640    53.9650    59.2580    64.7100     2.2980   -33.3930 
  219.7500    64.1330    24.4070    51.4990    57.5950    62.3900     2.3460   -33.3270 
  219.8750    65.7090    24.4920    53.5450    56.1170    60.1320     2.4000   -33.2390 
  220.0000    64.8820    24.5950    55.7850    54.9100    58.3180     2.4440   -33.2020 
  220.1250    62.7870    24.6890    54.4670    54.9640    58.4110     2.4600   -33.0830 
  220.2500    63.4740    24.7510    50.1400    57.1720    61.1190     2.4540   -33.0070 
  220.3750    66.2610    24.7370    47.7560    61.4940    65.7580     2.4450   -32.9080 
  220.5000    68.3310    24.6300    52.9060    65.6160    69.2020     2.4480   -32.8420 
  220.6250    70.0400    24.4960    66.6000    62.7670    64.4000     2.4710   -32.8120 
  220.7500    73.5740    24.4040    82.5280    50.7060    50.3280     2.5000   -32.7540 
  220.8750    76.7880    24.3380    78.0350    34.3710    32.6080     2.5110   -32.7280 
  221.0000    76.6470    24.2530    44.8440    20.5850    18.2840     2.4870   -32.7140 
  221.1250    74.4720    24.1390    17.6090    12.5890    10.5680     2.4370   -32.8290 
  221.2500    74.4750    24.0550     6.8050     8.3000     6.8140     2.3920   -32.9670 
  221.3750    75.9150    24.0410     5.3710     6.2570     5.2830     2.3610   -33.1840 
  221.5000    76.3570    24.0950     5.0710     5.5430     4.9500     2.3430   -33.4460 
  221.6250    74.7450    24.1680     5.5330     5.8130     5.4080     2.3320   -33.7590 
  221.7500    72.3760    24.2210     7.0780     6.6520     6.2620     2.3230   -34.1330 
  221.8750    70.3640    24.2290     8.4080     7.7930     7.2400     2.3200   -34.5520 
  222.0000    70.3010    24.0690     8.4460     8.8980     8.0400     2.3260   -35.0260 
  222.1250    72.7240    23.6400     7.7780     9.5800     8.4000     2.3420   -35.4270 
  222.2500    77.6140    23.2440     7.6760     9.8050     8.4070     2.3570   -35.7730 
  222.3750    85.9430    23.1970     7.5550     9.6880     8.2060     2.3640   -36.0920 
  222.5000    96.5660    23.5530     7.5790     9.3900     7.9440     2.3590   -36.3680 
  222.6250   103.3920    24.0290     7.8460     9.0020     7.7090     2.3460   -36.6290 
  222.7500   103.6630    24.3410     7.9300     8.5650     7.5100     2.3340   -36.8620 
  222.8750   102.5750    24.4480     7.7140     8.1120     7.3660     2.3310   -37.0770 
  223.0000   104.0500    24.4320     7.4860     7.7280     7.3400     2.3390   -37.1670 
  223.1250   108.2780    24.4070     7.5290     7.5890     7.6130     2.3510   -37.3110 
  223.2500   111.4900    24.4120     7.8570     7.8060     8.3270     2.3600   -37.4720 
  223.3750   108.0150    24.4210     8.4470     8.5030     9.6580     2.3620   -37.6390 
  223.5000    97.2880    24.4110    10.9630     9.7950    11.7320     2.3560   -37.8080 
  223.6250    85.7600    24.3690    14.4330    11.8540    14.6010     2.3430   -37.9600 
