~V
VERS. 2.00: Ver 2.00
~W
STRT.M 55.0000:
STOP.M 271.0000:
STEP.M 0.1250:
NULL. -999.2500:
UWI. DF5028:
~C
DEPT.M :
SP.MV :
GR.API :
RML.OHMM :
RI. :
RXO.OHMM :
CALI.CM :
DEN.GM/CC :
~A
# ...
  100.0000   -35.5180    60.5850     9.3390     7.6010     9.0050    23.9530     2.1530 
  100.1250   -35.9560    60.9710     9.2400     7.5350     9.1200    23.9630     2.1470 
  100.2500   -36.3330    62.5450     9.2490     7.5210     9.2300    23.9300     2.1510 
  100.3750   -36.5080    64.0240     9.3540     7.5670     9.2320    23.8690     2.1630 
  100.5000   -36.6720    64.2500     9.5090     7.6500     9.1270    23.8290     2.1790 
  100.6250   -36.7750    62.3330     9.6720     7.7400     9.0090    23.8520     2.1930 
  100.7500   -36.9030    59.6510     9.8210     7.8200     9.0000    23.9250     2.2010 
  100.8750   -37.0450    58.3420     9.9340     7.8830     9.1100    24.0420     2.1980 
  101.0000   -37.1110    58.7490     9.9960     7.9230     9.2690    24.1630     2.1870 
  101.1250   -37.2480    60.6830     9.9880     7.9370     9.4200    24.1910     2.1740 
  101.2500   -37.3090    61.6930     9.9240     7.9390     9.5440    24.1180     2.1650 
  101.3750   -37.3150    61.6110     9.8240     7.9390     9.6190    24.0010     2.1660 
  101.5000   -37.3000    62.2900     9.7250     7.9470     9.6660    23.9150     2.1750 
  101.6250   -37.1690    64.0460     9.6740     7.9750     9.7250    23.9500     2.1890 
  101.7500   -37.0160    64.5580     9.6670     8.0180     9.7980    24.1050     2.2010 
  101.8750   -36.7770    63.1450     9.6880     8.0670     9.8650    24.2730     2.2050 
  102.0000   -36.5490    62.0560     9.7210     8.1150     9.9060    24.2670     2.2010 
  102.1250   -36.3080    64.6960     9.7650     8.1510     9.9220    23.9940     2.1910 
  102.2500   -35.9940    68.7050     9.8150     8.1810     9.9130    23.6780     2.1810 
  102.3750   -35.7620    70.2860     9.8720     8.2140     9.8670    23.4810     2.1730 
  102.5000   -35.4390    66.3030     9.9330     8.2630     9.8050    23.3930     2.1710 
  102.6250   -35.1730    61.4460    10.0030     8.3350     9.7510    23.3050     2.1750 
  102.7500   -34.8710    61.2770    10.0810     8.4150     9.6970    23.2060     2.1800 
  102.8750   -34.5510    63.6770    10.1290     8.4730     9.6200    23.1510     2.1800 
  103.0000   -34.1630    64.6970    10.0740     8.4590     9.5130    23.1780     2.1710 
  103.1250   -33.6320    63.3110     9.8140     8.3030     9.4180    23.2920     2.1520 
  103.2500   -33.1250    62.6250     9.3610     7.9960     9.3700    23.4330     2.1320 
  103.3750   -32.4270    65.6060     8.7450     7.5420     9.3280    23.5830     2.1240 
  103.5000   -31.6790    72.6180     8.0210     6.9710     9.2070    23.7830     2.1400 
  103.6250   -30.7850    80.4300     7.2710     6.3390     8.8860    24.0720     2.1840 
  103.7500   -29.8690    84.8480     6.5710     5.7220     8.2150    24.3730     2.2430 
  103.8750   -29.0130    84.6010     5.9700     5.1710     7.2850    24.6280     2.2970 
  104.0000   -28.1820    82.6460     5.5040     4.7260     6.4560    24.8310     2.3300 
  104.1250   -27.5180    81.4320     5.2280     4.4440     5.9930    25.0200     2.3310 
  104.2500   -26.9940    81.1730     5.1580     4.3390     5.7080    25.2260     2.3100 
  104.3750   -26.6720    80.7300     5.3280     4.4400     5.4470    25.4340     2.2810 
  104.5000   -26.5950    79.1980     5.7320     4.7510     5.2690    25.5220     2.2600 
  104.6250   -26.7350    77.2400     6.3620     5.2760     5.4690    25.3080     2.2630 
  104.7500   -27.0220    74.3250     7.1110     5.9310     6.0940    24.9590     2.2930 
  104.8750   -27.4230    71.0970     7.8690     6.6290     6.9700    24.7170     2.3420 
  105.0000   -27.9920    68.7850     8.4990     7.2550     7.9020    24.5920     2.3950 
  105.1250   -28.7190    66.5940     8.8630     7.6720     9.3210    24.3830     2.4240 
  105.2500   -29.4240    65.2210     8.9790     7.8710    11.0210    24.1080     2.4150 
  105.3750   -30.2110    66.6410     8.8900     7.8680    11.4040    23.9380     2.3760 
  105.5000   -30.8490    70.3430     8.7000     7.7320     9.9910    23.8960     2.3220 
  105.6250   -31.4300    72.0970     8.5270     7.5490     9.0130    23.8720     2.2740 
  105.7500   -31.9570    69.9480     8.4120     7.3810     8.9110    23.8380     2.2390 
  105.8750   -32.2910    66.0240     8.3680     7.2600     8.9250    23.8090     2.2160 
  106.0000   -32.5460    64.1080     8.3900     7.1980     8.7660    23.7740     2.2010 
  106.1250   -32.5460    64.9050     8.4360     7.1810     8.6450    23.7430     2.1930 
  106.2500   -32.5490    66.3990     8.4740     7.1800     8.5150    23.7450     2.1920 
  106.3750   -32.4830    68.0000     8.5190     7.2010     8.2840    23.7620     2.2000 
  106.5000   -32.4540    68.6420     8.5850     7.2570     8.0810    23.7370     2.2180 
  106.6250   -32.5390    66.7920     8.6830     7.3540     8.1600    23.6480     2.2390 
  106.7500   -32.6250    64.1440     8.8110     7.4870     8.4190    23.5380     2.2530 
  106.8750   -32.8520    62.8150     8.9670     7.6530     8.6300    23.4360     2.2510 
  107.0000   -33.0770    62.4980     9.1520     7.8470     8.7360    23.3480     2.2330 
  107.1250   -33.4440    61.5650     9.3680     8.0680     8.9160    23.2630     2.2100 
  107.2500   -33.8000    61.9870     9.6020     8.3000     9.2100    23.1720     2.1940 
  107.3750   -34.0780    64.6540     9.8330     8.5300     9.5360    23.0690     2.1930 
  107.5000   -34.3890    68.8620    10.0360     8.7350     9.8460    22.9660     2.2050 
  107.6250   -34.6180    71.1120    10.1650     8.8800    10.1600    22.9030     2.2240 
  107.7500   -34.8250    67.9360    10.2010     8.9490    10.5290    22.9230     2.2350 
  107.8750   -35.0190    61.1920    10.1380     8.9310    11.0000    23.0420     2.2340 
  108.0000   -35.1520    56.6630     9.9820     8.8300    11.7550    23.1690     2.2190 
  108.1250   -35.2230    56.7840     9.7590     8.6580    12.8390    23.1940     2.1960 
  108.2500   -35.2220    58.7870     9.5230     8.4570    13.0310    23.1760     2.1740 
  108.3750   -35.2110    60.7180     9.3040     8.2560    11.7420    23.1940     2.1600 
  108.5000   -35.1210    61.7680     9.1270     8.0790    10.2570    23.2440     2.1540 
  108.6250   -34.9560    60.7640     8.9840     7.9460     9.6900    23.2560     2.1570 
  108.7500   -34.7950    60.3290     8.8570     7.8440     9.6010    23.2400     2.1640 
  108.8750   -34.4860    61.3150     8.7210     7.7510     9.4980    23.2180     2.1700 
  109.0000   -34.2480    61.8240     8.5620     7.6400     9.3660    23.1840     2.1720 
  109.1250   -33.9140    62.4910     8.4310     7.4840     9.2530    23.1390     2.1680 
  109.2500   -33.5980    66.0170     8.3270     7.2880     9.1060    23.1030     2.1640 
  109.3750   -33.2920    70.3010     8.2390     7.0790     8.8930    23.0900     2.1640 
  109.5000   -33.0280    72.9210     8.1650     6.8950     8.5850    23.1000     2.1710 
  109.6250   -32.8680    74.0690     8.1180     6.7900     8.1190    23.1190     2.1840 
  109.7500   -32.7230    74.6720     8.1050     6.7830     7.6590    23.1340     2.1960 
  109.8750   -32.7970    73.7170     8.1350     6.8820     7.4480    23.1670     2.2020 
  110.0000   -32.9060    70.2030     8.2080     7.0690     7.5780    23.2920     2.2010 
  110.1250   -33.1470    65.6700     8.3190     7.3110     8.0040    23.5600     2.1920 
  110.2500   -33.4460    60.6120     8.4490     7.5580     8.5900    23.8350     2.1820 
  110.3750   -33.7490    56.2490     8.5820     7.7750     9.2110    23.9790     2.1760 
  110.5000   -34.0780    55.7400     8.7010     7.9430     9.6500    23.9310     2.1760 
  110.6250   -34.2870    60.0150     8.7860     8.0520     9.7240    23.7020     2.1840 
  110.7500   -34.4280    64.8690     8.8340     8.1170     9.6490    23.4550     2.1960 
  110.8750   -34.4510    67.5020     8.8470     8.1430     9.5750    23.3260     2.2080 
  111.0000   -34.3400    69.1610     8.8310     8.1300     9.5410    23.3330     2.2180 
  111.1250   -34.1690    70.8210     8.7960     8.0640     9.5690    23.3740     2.2210 
