~V
VERS. 2.00: Ver 2.00
~W
STRT.M 50.0000:
STOP.M 258.0000:
STEP.M 0.1250:
NULL. -999.2500:
UWI. DF5038:
~C
DEPT.M :
GR.API :
CALI.CM :
RXO.OHMM :
RI. :
RML.OHMM :
DEN.GM/CC :
SP.MV :
~A
# ...
  196.2500    51.4100    26.3830    18.2420    13.9400    15.3440     2.4870   -25.1930 
  196.3750    49.7350    26.3900    20.6590    13.1450    14.6550     2.4890   -24.9110 
  196.5000    48.6890    26.4010    21.3490    12.9860    14.5720     2.5030   -24.5400 
  196.6250    49.4610    26.3880    21.3610    12.9620    14.4240     2.5230   -24.3730 
  196.7500    51.6680    26.2920    20.4020    12.6200    13.8070     2.5320   -24.1590 
  196.8750    54.0990    26.1180    17.8350    11.8790    12.7570     2.5210   -24.0100 
  197.0000    55.3300    25.9610    14.2660    10.9240    11.5550     2.4930   -23.9730 
  197.1250    56.9600    25.9110    10.2560     9.9980    10.5010     2.4610   -23.8920 
  197.2500    58.3770    25.9150     8.8090     9.1940     9.6470     2.4410   -23.8390 
  197.3750    58.3930    25.9180     9.0930     8.4870     8.9300     2.4440   -23.7670 
  197.5000    58.5140    25.9170     9.0850     7.8180     8.2600     2.4660   -23.7110 
  197.6250    60.9080    25.9140     7.6710     7.1610     7.5990     2.4920   -23.7050 
  197.7500    64.2050    25.9110     6.0470     6.5660     7.0160     2.5070   -23.7050 
  197.8750    66.1160    25.9060     5.3120     6.1260     6.6260     2.5120   -23.7410 
  198.0000    68.4370    25.9020     5.2620     5.9270     6.5320     2.5100   -23.8570 
  198.1250    75.2460    25.9390     5.5460     6.0680     6.8390     2.4950   -24.0750 
  198.2500    82.8810    26.0430     6.3050     6.4720     7.4370     2.4700   -24.3540 
  198.3750    88.4220    26.1880     7.7120     7.0360     8.1890     2.4460   -24.6790 
  198.5000    91.9290    26.3100     9.5870     7.6110     8.9200     2.4380   -25.0400 
  198.6250    95.2120    26.3580    10.3260     8.0380     9.4540     2.4330   -25.4350 
  198.7500    97.2200    26.3670    10.1330     8.2990     9.8020     2.4330   -25.9100 
  198.8750    95.2500    26.3650     9.6410     8.4450    10.0440     2.4330   -26.3380 
  199.0000    91.6510    26.3670     9.5740     8.5560    10.2860     2.4330   -26.7360 
  199.1250    92.5990    26.3670    10.5800     8.6970    10.5980     2.4330   -27.0250 
  199.2500    96.6950    26.3660    11.8940     8.8500    10.9270     2.4270   -27.3160 
  199.3750    97.4160    26.3660    12.2040     8.9600    11.1900     2.4100   -27.5800 
  199.5000    92.6400    26.3660    11.7970     8.9880    11.3270     2.3890   -27.9010 
  199.6250    88.3620    26.3660    11.6740     8.9230    11.3320     2.3760   -28.0190 
  199.7500    87.3540    26.3670    11.4970     8.8330    11.3020     2.3720   -28.1730 
  199.8750    86.7720    26.3630    11.3500     8.7750    11.3170     2.3770   -28.2990 
  200.0000    86.6040    26.3480    11.9450     8.7720    11.4010     2.3840   -28.3040 
  200.1250    88.5070    26.3260    12.1520     8.7970    11.5000     2.3930   -28.3450 
  200.2500    88.7090    26.3130    11.9900     8.7790    11.5140     2.4040   -28.2980 
  200.3750    84.7660    26.3110    12.1480     8.6600    11.3620     2.4170   -28.2280 
  200.5000    81.9690    26.3120    12.0530     8.4060    11.0110     2.4220   -28.0230 
  200.6250    87.1190    26.3120    11.2170     8.0430    10.5260     2.4120   -27.9530 
  200.7500    94.3470    26.3120    10.1100     7.7040    10.1130     2.3990   -27.7890 
  200.8750    95.5430    26.3120     9.4130     7.4990     9.9360     2.3940   -27.6150 
  201.0000    89.4700    26.3120     8.6940     7.4950    10.0800     2.3980   -27.4870 
  201.1250    83.7170    26.3120     8.8970     7.7370    10.5660     2.4060   -27.3420 
  201.2500    82.7340    26.3120    10.2900     8.1150    11.1780     2.4060   -27.2300 
  201.3750    82.9460    26.3120    11.4800     8.5130    11.7080     2.3930   -27.1190 
  201.5000    80.2560    26.3120    11.4370     8.8210    11.9940     2.3700   -27.0780 
  201.6250    78.2170    26.3120    10.7000     8.9700    11.9960     2.3600   -27.0080 
  201.7500    81.0850    26.3120    10.2240     9.0450    11.9230     2.3710   -26.9890 
  201.8750    85.8190    26.3120    10.7480     9.1530    11.9790     2.3920   -26.9440 
  202.0000    88.6890    26.3120    11.9790     9.4020    12.3210     2.4090   -26.9990 
  202.1250    88.4060    26.3120    12.4810     9.8860    13.0380     2.4170   -26.9510 
  202.2500    87.1280    26.3120    12.9780    10.5190    13.9270     2.4260   -26.8670 
  202.3750    85.4210    26.3120    13.9800    11.1350    14.7030     2.4430   -26.7200 
  202.5000    82.5960    26.3120    14.4910    11.4760    14.9930     2.4600   -26.6200 
  202.6250    81.0770    26.3120    14.1920    11.1730    14.3280     2.4610   -26.3310 
  202.7500    83.7060    26.3090    12.6890    10.2700    12.8570     2.4500   -25.8980 
  202.8750    88.5030    26.2940    10.6870     8.9980    10.9490     2.4370   -25.4830 
  203.0000    88.6880    26.2660     8.8020     7.6830     9.0850     2.4250   -24.9550 
  203.1250    81.5180    26.2410     7.0250     6.6460     7.7220     2.4140   -24.5250 
  203.2500    74.3170    26.2290     5.8520     5.9670     6.9080     2.4090   -24.0650 
  203.3750    71.3210    26.2260     5.4040     5.6440     6.5820     2.4130   -23.6540 
  203.5000    70.6570    26.2230     5.3450     5.6180     6.6140     2.4210   -23.2590 
  203.6250    67.9000    26.2200     5.4520     5.8070     6.8440     2.4200   -23.0240 
  203.7500    66.6840    26.2200     5.6750     6.0400     7.0580     2.4110   -22.8510 
  203.8750    70.3420    26.2200     5.9230     6.2060     7.1410     2.3970   -22.7870 
  204.0000    77.6030    26.2190     5.9960     6.2480     7.0610     2.3850   -22.7470 
  204.1250    83.4010    26.2170     5.7720     6.1630     6.8550     2.3840   -22.7870 
  204.2500    85.8720    26.2170     5.5180     6.0230     6.6230     2.3930   -22.9600 
  204.3750    87.9010    26.2190     5.3290     5.8770     6.4270     2.4020   -23.2170 
  204.5000    88.4670    26.2200     5.3250     5.7680     6.3140     2.4070   -23.4910 
  204.6250    88.0000    26.2200     5.5630     5.7410     6.3400     2.3990   -23.8400 
  204.7500    88.7490    26.2200     5.7010     5.7970     6.4940     2.3830   -24.2720 
  204.8750    90.0000    26.2200     5.8060     5.9220     6.7490     2.3670   -24.7630 
  205.0000    89.4610    26.2200     6.1760     6.0850     7.0560     2.3590   -25.3760 
  205.1250    85.3560    26.2200     6.7800     6.2520     7.3570     2.3600   -26.0330 
  205.2500    83.7350    26.2200     7.1500     6.4140     7.6430     2.3630   -26.6840 
  205.3750    84.8550    26.2200     7.2080     6.5990     7.9550     2.3670   -27.3580 
  205.5000    84.5880    26.2200     7.4190     6.8580     8.3730     2.3710   -28.0420 
  205.6250    80.1880    26.2200     8.4230     7.2780     9.0290     2.3630   -28.7920 
  205.7500    75.8300    26.2200    10.0810     7.8910     9.9580     2.3420   -29.4750 
  205.8750    73.8470    26.2200    11.4190     8.7340    11.1940     2.3160   -30.1360 
  206.0000    73.2680    26.2200    12.6710     9.8400    12.7720     2.2950   -30.7680 
  206.1250    73.7350    26.2200    14.0690    11.3060    14.8290     2.2980   -31.4150 
  206.2500    74.5510    26.2200    15.8270    13.1700    17.4510     2.3020   -32.1320 
  206.3750    74.6900    26.2200    18.0420    15.5770    20.8560     2.3020   -32.8210 
  206.5000    73.1580    26.2200    21.1800    18.7280    25.3190     2.2980   -33.5320 
  206.6250    70.0200    26.2200    24.9590    23.0470    31.3700     2.2850   -34.1080 
  206.7500    68.1560    26.2200    29.9660    28.5890    39.0030     2.2590   -34.7940 
  206.8750    67.6250    26.2200    35.3250    35.4500    48.2890     2.2290   -35.3750 
  207.0000    67.6600    26.2200    39.5120    43.6070    59.1850     2.2070   -35.9530 
  207.1250    67.7610    26.2200    41.9230    53.0280    71.6870     2.2040   -36.4290 
  207.2500    66.5870    26.2200    42.4040    63.1090    85.0850     2.2090   -36.8010 
  207.3750    63.8650    26.2200    42.8480    73.2760    98.6510     2.2100   -37.1140 
