~V
VERS. 2.00: Ver 2.00
~W
STRT.M 55.0000:
STOP.M 277.0000:
STEP.M 0.1250:
NULL. -999.2500:
UWI. DF5040:
~C
DEPT.M :
GR.API :
CALI.CM :
RXO.OHMM :
RI. :
RML.OHMM :
DEN.GM/CC :
SP.MV :
~A
# ...
   66.2500   109.3770    23.4290     6.0170     5.4300     5.2570     2.2540   -21.1920 
   66.3750   113.9180    23.9650     5.2760     5.2690     5.1740     2.2800   -20.7050 
   66.5000   116.4390    24.2720     4.8910     5.1520     5.1630     2.2870   -20.2850 
   66.6250   115.5490    24.2570     4.8910     5.1120     5.2270     2.2770   -19.9810 
   66.7500   112.9790    24.0590     5.0490     5.1420     5.3410     2.2640   -19.8030 
   66.8750   110.5280    23.7410     5.2990     5.2300     5.4840     2.2530   -19.7620 
   67.0000   109.2270    23.4430     5.5960     5.3530     5.6310     2.2450   -19.8480 
   67.1250   109.3620    23.3650     5.8820     5.4670     5.7370     2.2440   -20.0500 
   67.2500   109.7440    23.5120     6.2210     5.5410     5.7830     2.2480   -20.3130 
   67.3750   108.9500    23.6550     6.5800     5.5770     5.7950     2.2620   -20.6080 
   67.5000   106.9120    23.6750     7.0320     5.6110     5.8420     2.2840   -20.9150 
   67.6250   106.1960    23.6470     7.7530     5.7370     6.0380     2.3110   -21.2230 
   67.7500   107.8120    23.6390     8.3330     6.0360     6.4440     2.3350   -21.5300 
   67.8750   109.1300    23.6450     8.0980     6.5700     7.0950     2.3570   -21.8400 
   68.0000   107.0190    23.6470     7.5940     7.3460     7.9650     2.3830   -22.1550 
   68.1250   100.7120    23.6860     9.1300     8.2960     8.9210     2.4130   -22.4790 
   68.2500    93.3620    23.7760    12.9710     9.1830     9.7050     2.4370   -22.8080 
   68.3750    86.7880    23.8410    17.3400     9.7650    10.0810     2.4440   -23.1360 
   68.5000    82.2610    23.8030    19.4470     9.8590     9.9130     2.4260   -23.4560 
   68.6250    81.5910    23.5900    17.3290     9.3700     9.2240     2.3760   -23.7520 
   68.7500    84.3140    23.2920    13.5090     8.5700     8.3630     2.3080   -24.0220 
   68.8750    88.7410    22.9450     9.9780     7.7090     7.5830     2.2410   -24.2590 
   69.0000    91.8940    22.6830     7.8390     7.0100     7.0600     2.1890   -24.4570 
   69.1250    91.2260    22.6550     7.0960     6.6570     6.9130     2.1640   -24.5900 
   69.2500    88.4480    22.7350     6.9970     6.6070     7.0460     2.1550   -24.6500 
   69.3750    86.5680    22.7870     7.3250     6.7860     7.3520     2.1520   -24.6360 
   69.5000    87.7130    22.7590     8.1570     7.0850     7.7040     2.1600   -24.5600 
   69.6250    91.2960    22.6580     9.5590     7.3710     7.9490     2.1910   -24.4470 
   69.7500    93.2470    22.5440    10.9000     7.5460     8.0190     2.2300   -24.3310 
   69.8750    91.4080    22.4820    11.2520     7.5820     7.9370     2.2560   -24.2270 
   70.0000    87.0010    22.4640    10.6310     7.5160     7.7860     2.2590   -24.1390 
   70.1250    83.9180    22.4480    10.1800     7.4200     7.6650     2.2460   -24.0670 
   70.2500    83.1350    22.3990    10.0860     7.3580     7.6230     2.2330   -24.0080 
   70.3750    83.2490    22.3070     9.7950     7.3560     7.6730     2.2260   -23.9630 
   70.5000    83.3130    22.2420     9.3910     7.4110     7.7890     2.2290   -23.9320 
   70.6250    82.6430    22.2710     9.6850     7.4760     7.8960     2.2390   -23.9070 
   70.7500    79.9880    22.4160    10.1840     7.4890     7.9240     2.2450   -23.8680 
   70.8750    75.2610    22.6250     9.9380     7.4000     7.8240     2.2340   -23.7950 
   71.0000    71.3280    22.6930     8.8300     7.1900     7.5930     2.2020   -23.6720 
   71.1250    71.9280    22.5880     7.9030     6.9020     7.3000     2.1590   -23.4850 
   71.2500    75.6420    22.4010     7.4310     6.6580     7.0980     2.1270   -23.2550 
   71.3750    80.4260    22.2950     7.2240     6.5700     7.1160     2.1210   -23.0000 
   71.5000    84.9160    22.2810     7.0930     6.7310     7.4500     2.1470   -22.7380 
   71.6250    87.5270    22.3560     7.1630     7.2350     8.1650     2.2020   -22.4820 
   71.7500    87.6410    22.5320     7.9120     7.9960     9.1110     2.2750   -22.2390 
   71.8750    86.1200    22.8590    10.2340     8.8880    10.1050     2.3680   -22.0120 
   72.0000    83.7840    23.2960    14.9360     9.7070    10.9010     2.4670   -21.8070 
   72.1250    80.3070    23.6150    21.1370    10.1410    11.1530     2.5140   -21.6420 
   72.2500    76.2670    23.6610    24.9010    10.0940    10.8320     2.4780   -21.5200 
   72.3750    73.5230    23.4240    22.8300     9.6130    10.0580     2.3810   -21.4440 
   72.5000    73.1330    23.0600    16.1850     8.8690     9.0880     2.2760   -21.4060 
   72.6250    74.2710    22.8230    10.4730     8.1240     8.2530     2.2050   -21.3860 
   72.7500    75.8430    22.6460     7.9680     7.5700     7.7160     2.1660   -21.3610 
   72.8750    78.3620    22.4620     7.3400     7.2720     7.4930     2.1560   -21.3230 
   73.0000    81.6720    22.2960     7.2740     7.2160     7.5250     2.1700   -21.2860 
   73.1250    83.4560    22.2000     7.2660     7.3510     7.7140     2.1950   -21.2870 
   73.2500    82.5780    22.1660     7.1910     7.5220     7.9020     2.2070   -21.3490 
   73.3750    80.1590    22.1690     7.0750     7.6340     7.9970     2.2030   -21.4800 
   73.5000    78.4740    22.2190     6.9620     7.6390     7.9700     2.1900   -21.6700 
   73.6250    78.8350    22.3770     6.8680     7.5320     7.8470     2.1760   -21.9060 
   73.7500    79.3830    22.6460     6.7880     7.3740     7.7040     2.1610   -22.1610 
   73.8750    78.5820    22.9070     6.7510     7.2190     7.5950     2.1450   -22.4250 
   74.0000    77.3760    23.0280     6.8190     7.1030     7.5430     2.1310   -22.6910 
   74.1250    77.5990    22.9800     7.0100     7.0510     7.5480     2.1230   -22.9460 
   74.2500    77.9250    22.8690     7.2060     7.0340     7.5670     2.1210   -23.1750 
   74.3750    77.3320    22.7660     7.3650     7.0270     7.5680     2.1190   -23.3590 
   74.5000    76.5980    22.6480     7.5130     7.0010     7.5240     2.1110   -23.4860 
   74.6250    76.5980    22.5000     7.6230     6.9390     7.4170     2.1040   -23.5390 
   74.7500    77.0220    22.3570     7.6210     6.8550     7.2790     2.1130   -23.5390 
   74.8750    78.2530    22.2800     7.4830     6.7700     7.1500     2.1330   -23.5070 
   75.0000    79.9950    22.3030     7.3170     6.7050     7.0740     2.1490   -23.4610 
   75.1250    79.2790    22.4100     7.3050     6.6950     7.0770     2.1510   -23.4150 
   75.2500    75.3640    22.4760     7.4700     6.7360     7.1510     2.1490   -23.3670 
   75.3750    70.7710    22.5180     7.7540     6.8160     7.2750     2.1490   -23.3070 
   75.5000    68.2050    22.5700     8.0420     6.9150     7.4230     2.1530   -23.2270 
   75.6250    68.0910    22.6230     8.1690     7.0110     7.5630     2.1590   -23.1220 
   75.7500    68.1910    22.5910     8.2440     7.0890     7.6720     2.1590   -23.0050 
   75.8750    67.8020    22.4700     8.3440     7.1370     7.7350     2.1520   -22.8850 
   76.0000    67.9970    22.3040     8.4620     7.1540     7.7420     2.1400   -22.7690 
   76.1250    70.2870    22.2280     8.4670     7.1390     7.7060     2.1340   -22.6560 
   76.2500    73.5580    22.2230     8.3540     7.1080     7.6510     2.1340   -22.5380 
   76.3750    75.8640    22.2720     8.1740     7.0720     7.5970     2.1350   -22.4070 
   76.5000    75.6140    22.3490     7.9800     7.0360     7.5620     2.1320   -22.2640 
   76.6250    72.6940    22.4270     7.8280     7.0120     7.5620     2.1260   -22.1210 
   76.7500    69.1840    22.4700     7.7180     7.0040     7.5800     2.1180   -21.9920 
   76.8750    66.8430    22.4780     7.6590     7.0080     7.6100     2.1160   -21.8820 
   77.0000    66.2030    22.4650     7.6780     7.0200     7.6460     2.1220   -21.7830 
   77.1250    66.3660    22.4300     7.8010     7.0310     7.6790     2.1320   -21.6700 
   77.2500    66.6130    22.4370     7.9450     7.0360     7.7050     2.1350   -21.5220 
   77.3750    67.3120    22.5010     8.0490     7.0330     7.7190     2.1290   -21.3260 
