~V
VERS. 2.00: Ver 2.00
~W
STRT.M 58.0000:
STOP.M 240.0000:
STEP.M 0.1250:
NULL. -999.2500:
UWI. DF5049:
~C
DEPT.M :
GR.API :
RML.OHMM :
RI. :
RXO.OHMM :
CALI.CM :
DEN.GM/CC :
SP.MV :
~A
# ...
  136.7500    57.4800    23.0580    22.2330    19.0100    24.8380     2.5860   -13.5210 
  136.8750    59.7120    22.2830    21.7180    19.0970    24.8310     2.5740   -13.5820 
  137.0000    61.1360    21.7470    21.2980    18.5220    24.8280     2.5530   -13.7260 
  137.1250    62.5310    21.6590    21.1590    17.7090    24.8140     2.5300   -13.8740 
  137.2500    62.9480    21.9010    21.2790    17.0850    24.7840     2.5130   -13.9890 
  137.3750    60.7960    22.3040    21.5960    16.9450    24.7380     2.5070   -14.1720 
  137.5000    58.5730    22.6720    21.9950    18.3350    24.7060     2.5110   -14.3350 
  137.6250    59.3160    22.8130    22.2870    18.7420    24.7160     2.5220   -14.4130 
  137.7500    61.5660    22.7020    22.3350    18.3280    24.7220     2.5320   -14.5110 
  137.8750    62.9350    22.3520    22.0690    17.1820    24.7180     2.5370   -14.6470 
  138.0000    63.1010    21.7780    21.4970    15.9920    24.7140     2.5350   -14.6810 
  138.1250    64.9820    20.9850    20.6790    15.1890    24.7180     2.5290   -14.6350 
  138.2500    68.7870    20.0820    19.7770    14.8520    24.7390     2.5220   -14.6040 
  138.3750    72.0390    19.1390    18.8800    14.8520    24.7940     2.5160   -14.5020 
  138.5000    70.9540    18.2110    18.0330    14.1410    24.8640     2.5070   -14.4310 
  138.6250    67.4480    17.3850    17.3130    13.5980    24.9580     2.4960   -14.4090 
  138.7500    67.2590    16.8010    16.8160    14.2240    25.0450     2.4870   -14.3570 
  138.8750    69.4110    16.6310    16.6770    14.8100    25.0950     2.4880   -14.3060 
  139.0000    68.9150    16.9890    17.0110    14.9300    25.1120     2.5030   -14.2640 
  139.1250    65.1250    17.9580    17.9440    14.1170    25.0990     2.5290   -14.2160 
  139.2500    63.2920    19.2120    19.2320    15.8090    25.0750     2.5540   -14.1750 
  139.3750    63.6450    20.2900    20.4580    19.1660    25.0530     2.5640   -14.1430 
  139.5000    65.3690    20.6210    21.0150    21.1470    25.0480     2.5550   -14.0590 
  139.6250    66.4320    19.6380    20.2430    20.2620    25.0580     2.5320   -13.9390 
  139.7500    66.2620    17.7690    18.5230    17.4870    25.0630     2.5100   -13.8450 
  139.8750    67.0660    15.6440    16.4660    14.6420    25.0720     2.4970   -13.7170 
  140.0000    70.5420    13.8750    14.6530    11.3710    25.0620     2.4970   -13.5660 
  140.1250    73.5340    12.9200    13.5120    10.1910    25.0290     2.5040   -13.4230 
  140.2500    71.7760    12.6440    12.9900    10.1970    25.0300     2.5120   -13.3030 
  140.3750    66.2640    12.8810    13.0000    10.9200    25.0350     2.5190   -13.2260 
  140.5000    60.6300    13.4540    13.4150    11.1150    25.0370     2.5280   -13.1750 
  140.6250    57.4760    14.1910    14.0890    11.1650    25.0340     2.5380   -13.1780 
  140.7500    57.1270    14.8750    14.7730    11.3820    25.0110     2.5430   -13.1880 
  140.8750    58.2360    15.3690    15.3080    12.4300    24.9480     2.5390   -13.2260 
  141.0000    59.5000    15.6200    15.6150    13.6410    24.8700     2.5280   -13.3540 
  141.1250    60.0330    15.6890    15.7130    14.2100    24.8500     2.5170   -13.4990 
  141.2500    60.8160    15.7970    15.7870    12.9280    24.8860     2.5160   -13.6300 
  141.3750    62.3700    16.1230    15.9900    12.1000    24.9580     2.5240   -13.7090 
  141.5000    63.4660    16.7610    16.4130    12.6530    24.9940     2.5360   -13.7770 
  141.6250    64.4130    17.6710    17.0760    14.2260    24.9700     2.5420   -13.8740 
  141.7500    64.7710    18.5450    17.7810    16.1830    24.9290     2.5440   -13.9600 
  141.8750    63.9250    19.1000    18.2970    16.7090    24.8760     2.5470   -13.9990 
  142.0000    61.8180    19.1650    18.4250    15.7640    24.8250     2.5540   -14.0470 
  142.1250    58.2470    18.7300    18.0630    15.1600    24.7650     2.5640   -14.1830 
  142.2500    54.8950    18.1230    17.4580    15.2390    24.7240     2.5690   -14.2930 
  142.3750    53.1020    17.6150    16.8550    14.6130    24.7100     2.5670   -14.4620 
  142.5000    54.6090    17.4020    16.4640    13.1320    24.7060     2.5610   -14.6680 
  142.6250    59.2040    17.6060    16.4550    12.7230    24.6890     2.5590   -14.8220 
  142.7500    62.3280    18.1050    16.7620    13.1100    24.6660     2.5630   -14.9790 
  142.8750    62.3590    18.7730    17.2900    14.2860    24.6540     2.5700   -15.2130 
  143.0000    60.5190    19.4230    17.8740    15.5750    24.6460     2.5760   -15.4180 
  143.1250    59.0850    19.8100    18.2710    15.1690    24.6510     2.5750   -15.5140 
  143.2500    58.0110    19.8800    18.3880    14.9160    24.6860     2.5670   -15.6170 
  143.3750    57.0290    19.6990    18.2640    15.2560    24.7460     2.5520   -15.7190 
  143.5000    56.4670    19.4270    18.0400    15.8260    24.7970     2.5330   -15.7710 
  143.6250    56.6330    19.3070    17.9180    15.0870    24.8260     2.5140   -15.7770 
  143.7500    57.7660    19.4620    18.0060    14.1930    24.8340     2.4970   -15.7960 
  143.8750    59.3280    19.8930    18.3090    13.9820    24.8300     2.4870   -15.7480 
  144.0000    60.3280    20.4870    18.7480    14.2570    24.7970     2.4860   -15.6680 
  144.1250    60.3160    20.9750    19.1250    14.7890    24.7000     2.4950   -15.6700 
  144.2500    60.2010    21.1040    19.2270    14.8480    24.6100     2.5090   -15.6650 
  144.3750    60.4410    20.7740    18.9430    15.1360    24.6410     2.5200   -15.6500 
  144.5000    61.5530    20.0800    18.3190    15.9880    24.7780     2.5260   -15.6810 
  144.6250    64.0710    19.2530    17.5330    15.6180    24.8290     2.5280   -15.7540 
  144.7500    67.0460    18.5630    16.8350    14.7250    24.8260     2.5300   -15.8470 
  144.8750    67.5500    18.1430    16.3690    14.5960    24.8030     2.5390   -15.9640 
  145.0000    63.8620    18.0200    16.1890    15.2900    24.7850     2.5550   -16.0780 
  145.1250    58.8980    18.1340    16.2870    15.6620    24.7780     2.5730   -16.2110 
  145.2500    58.4290    18.2360    16.4580    15.2590    24.7760     2.5860   -16.3570 
  145.3750    62.6100    18.0720    16.4880    15.0440    24.7740     2.5870   -16.4590 
  145.5000    65.9910    17.4560    16.1830    15.9650    24.7680     2.5750   -16.5200 
  145.6250    64.4990    16.3630    15.4370    15.4330    24.7630     2.5520   -16.5960 
  145.7500    60.5420    15.1230    14.4680    13.8770    24.7730     2.5290   -16.6200 
  145.8750    55.8120    14.0000    13.4770    11.5350    24.8100     2.5110   -16.5910 
  146.0000    52.6490    13.1550    12.6270    10.1770    24.8660     2.5010   -16.5720 
  146.1250    53.7090    12.6730    12.0500     9.7650    24.9390     2.4970   -16.4580 
  146.2500    54.7920    12.4600    11.7300     9.6330    24.9980     2.4960   -16.2640 
  146.3750    52.7980    12.4780    11.6570     9.3730    24.9930     2.4950   -16.0650 
  146.5000    49.6900    12.6850    11.7970     9.0470    24.9460     2.4960   -15.8990 
  146.6250    49.6240    13.0060    12.0890     9.4150    24.9910     2.4960   -15.7130 
  146.7500    51.7670    13.2860    12.4010    10.4750    25.1670     2.4960   -15.5720 
  146.8750    54.5680    13.4270    12.6400    11.4070    25.3930     2.4960   -15.5610 
  147.0000    57.1740    13.3900    12.7450    11.7990    25.5450     2.4940   -15.5460 
  147.1250    58.9720    13.2000    12.6850    11.3780    25.6070     2.4890   -15.5410 
  147.2500    59.5800    12.9690    12.5290    11.0400    25.6280     2.4800   -15.5850 
  147.3750    58.4170    12.7660    12.3340    10.8970    25.6540     2.4700   -15.6230 
  147.5000    55.5900    12.6210    12.1590    11.0770    25.6970     2.4650   -15.6230 
  147.6250    52.7690    12.5540    12.0680    11.4210    25.7930     2.4730   -15.5650 
  147.7500    52.0270    12.5670    12.0850    11.1800    25.8340     2.4910   -15.4470 
  147.8750    52.0170    12.6760    12.2200    11.1030    25.8450     2.5110   -15.2800 
