~V
VERS. 2.00: Ver 2.00
~W
STRT.M 55.0000:
STOP.M 271.0000:
STEP.M 0.1250:
NULL. -999.2500:
UWI. DF5028:
~C
DEPT.M :
SP.MV :
GR.API :
RML.OHMM :
RI. :
RXO.OHMM :
CALI.CM :
DEN.GM/CC :
~A
# ...
  145.0000   -21.5410    85.6450     7.1820     6.2520     7.4620    24.5210     2.3030 
  145.1250   -21.5180    88.8030     6.9390     6.0670     8.4310    24.3540     2.3150 
  145.2500   -21.5750    92.3680     6.5270     5.7320     9.1870    24.2750     2.3200 
  145.3750   -21.5530    95.7640     6.0430     5.3150     8.6560    24.3570     2.3200 
  145.5000   -21.6140   100.5310     5.6070     4.9090     7.1050    24.5160     2.3180 
  145.6250   -21.5990   105.2390     5.3520     4.6290     5.9920    24.6050     2.3180 
  145.7500   -21.6230   106.6190     5.2930     4.5090     5.5180    24.6250     2.3200 
  145.8750   -21.6800   104.6360     5.4210     4.5640     5.3330    24.6090     2.3270 
  146.0000   -21.7300   102.4040     5.6950     4.7790     5.2580    24.5730     2.3350 
  146.1250   -21.8600    99.3910     6.0440     5.1080     5.3710    24.5300     2.3420 
  146.2500   -21.9800    93.6520     6.3760     5.4600     5.6740    24.4930     2.3420 
  146.3750   -22.1060    86.6240     6.6440     5.7760     6.0910    24.4700     2.3330 
  146.5000   -22.2060    82.2290     6.8190     6.0150     6.4640    24.4590     2.3140 
  146.6250   -22.3020    83.5470     6.8820     6.1360     6.6530    24.4530     2.2910 
  146.7500   -22.4380    87.6190     6.8710     6.1620     6.7550    24.4530     2.2740 
  146.8750   -22.4870    91.4160     6.8120     6.1200     6.8420    24.4580     2.2650 
  147.0000   -22.6150    91.6940     6.7400     6.0480     6.8880    24.4670     2.2660 
  147.1250   -22.6350    88.9060     6.7270     6.0180     6.8470    24.4870     2.2730 
  147.2500   -22.6210    87.3960     6.8560     6.1020     6.8340    24.5160     2.2770 
  147.3750   -22.6170    86.1990     7.1580     6.3820     6.9020    24.5310     2.2740 
  147.5000   -22.5600    83.5090     7.7320     6.9520     7.0470    24.5240     2.2600 
  147.6250   -22.5450    79.5700     8.7780     7.9770     7.3720    24.5140     2.2390 
  147.7500   -22.4110    75.3140    10.3630     9.4270     8.1120    24.5280     2.2240 
  147.8750   -22.2900    69.8560    12.5160    11.2580     9.6300    24.5400     2.2350 
  148.0000   -22.0600    64.6680    15.2740    13.3220    12.2410    24.4710     2.2850 
  148.1250   -21.8740    63.2920    18.1060    15.3280    16.1980    24.2320     2.3770 
  148.2500   -21.6260    64.5840    20.3320    16.9810    20.5650    23.8950     2.4800 
  148.3750   -21.3840    65.7470    21.3530    18.1200    23.6450    23.5460     2.5640 
  148.5000   -21.2110    64.5240    21.8610    18.7640    23.4280    23.3220     2.6100 
  148.6250   -20.9870    61.2520    22.1070    19.0560    20.1120    23.3670     2.6200 
  148.7500   -20.8700    57.5460    22.4380    19.3160    17.6350    23.5580     2.6170 
  148.8750   -20.7200    53.6520    22.9690    19.7050    16.7350    23.7150     2.6120 
  149.0000   -20.6680    50.0630    23.6360    20.2390    16.7630    23.7480     2.6080 
  149.1250   -20.6100    48.2560    24.2480    20.8180    17.0810    23.7080     2.6040 
  149.2500   -20.5460    48.3920    24.6190    21.2810    17.7260    23.6560     2.6000 
  149.3750   -20.5510    49.3930    24.6550    21.5210    18.7290    23.6040     2.5990 
  149.5000   -20.4730    51.6330    24.3890    21.5100    19.2880    23.5800     2.6000 
  149.6250   -20.4120    52.6600    23.9970    21.3310    18.9810    23.5690     2.5990 
  149.7500   -20.3260    50.5750    23.7380    21.2030    18.2260    23.5470     2.5940 
  149.8750   -20.2500    47.5460    23.7560    21.2670    17.1350    23.5230     2.5860 
  150.0000   -20.2040    45.6780    24.1180    21.6190    16.2040    23.5030     2.5780 
  150.1250   -20.1110    45.1500    24.8600    22.3320    16.3310    23.4580     2.5760 
  150.2500   -20.1130    45.3500    25.8080    23.2780    17.4660    23.4050     2.5820 
  150.3750   -20.0460    46.1860    26.8020    24.3160    18.9530    23.4150     2.5960 
  150.5000   -20.0150    46.7190    27.6920    25.2920    20.0610    23.4920     2.6130 
  150.6250   -20.0180    47.5110    28.3140    26.0410    20.7480    23.5530     2.6280 
  150.7500   -19.9850    49.2280    28.6670    26.5230    21.2010    23.5550     2.6370 
  150.8750   -19.9830    50.6760    28.7920    26.7440    21.3240    23.5360     2.6380 
  151.0000   -19.9170    53.1170    28.7790    26.7740    21.1560    23.5360     2.6310 
  151.1250   -19.9620    57.1190    28.7110    26.6800    20.7430    23.5620     2.6170 
  151.2500   -19.9140    58.9930    28.6100    26.5200    20.1230    23.6010     2.6010 
  151.3750   -19.9080    58.0260    28.4620    26.3010    19.6910    23.6310     2.5870 
  151.5000   -19.8750    57.0960    28.2570    26.0350    19.9370    23.6230     2.5760 
  151.6250   -19.8240    56.4350    27.9580    25.7010    20.7170    23.5950     2.5700 
  151.7500   -19.8440    55.3490    27.5420    25.2880    21.1450    23.5830     2.5670 
  151.8750   -19.8180    56.0100    27.0170    24.7950    21.0070    23.5880     2.5660 
  152.0000   -19.8440    58.0730    26.4120    24.2410    20.4590    23.6150     2.5670 
  152.1250   -19.7650    57.5600    25.7400    23.6380    19.4450    23.6910     2.5700 
  152.2500   -19.7040    55.7870    25.0680    23.0330    18.3350    23.7740     2.5730 
  152.3750   -19.6750    55.5340    24.4960    22.4970    17.7610    23.8080     2.5730 
  152.5000   -19.6120    55.9830    24.1250    22.1120    17.7530    23.7990     2.5680 
  152.6250   -19.5620    54.4870    24.1050    22.0160    17.5370    23.8080     2.5580 
  152.7500   -19.4540    52.9060    24.4240    22.2230    16.9140    23.8500     2.5490 
  152.8750   -19.3820    53.2040    25.0060    22.6950    16.4510    23.8960     2.5420 
  153.0000   -19.2700    54.5320    25.6930    23.3190    16.5860    23.9030     2.5430 
  153.1250   -19.1560    54.8220    26.2460    23.9010    17.5430    23.8540     2.5510 
  153.2500   -19.1270    54.4250    26.4800    24.2640    19.0670    23.8070     2.5640 
  153.3750   -19.0060    54.0710    26.3200    24.3040    21.1340    23.7760     2.5780 
  153.5000   -18.9960    54.2720    25.8280    24.0230    23.5340    23.7350     2.5870 
  153.6250   -18.9530    56.8160    25.1930    23.5250    24.3200    23.6700     2.5880 
  153.7500   -18.9320    59.3630    24.6720    23.0330    22.3200    23.6240     2.5820 
  153.8750   -18.8870    59.0700    24.3750    22.6700    19.4170    23.5910     2.5750 
  154.0000   -18.8310    56.0760    24.2700    22.4550    17.7650    23.5360     2.5730 
  154.1250   -18.8800    53.5300    24.1750    22.2780    17.8350    23.4650     2.5760 
  154.2500   -18.8400    52.9540    23.8620    21.9590    18.6340    23.4450     2.5780 
  154.3750   -18.8510    53.2970    23.2080    21.3770    19.3620    23.5040     2.5720 
  154.5000   -18.7580    55.5790    22.2040    20.4970    19.1300    23.6260     2.5590 
  154.6250   -18.7390    59.5740    20.9560    19.3680    17.6650    23.7600     2.5450 
  154.7500   -18.6630    62.4840    19.7310    18.2140    16.0510    23.8590     2.5350 
  154.8750   -18.6140    63.7150    18.7290    17.2140    14.8040    23.9210     2.5290 
  155.0000   -18.6110    62.6640    18.0560    16.4900    13.8300    23.9800     2.5270 
  155.1250   -18.5170    59.7740    17.7670    16.1250    13.1420    24.0430     2.5250 
  155.2500   -18.5230    56.8300    17.7430    16.0280    13.0460    24.0320     2.5210 
  155.3750   -18.4600    55.7180    17.9080    16.1380    13.6690    23.8480     2.5160 
  155.5000   -18.4530    56.3280    18.2010    16.3940    14.6440    23.5070     2.5110 
  155.6250   -18.4480    55.8150    18.6160    16.7640    15.3630    23.2060     2.5080 
  155.7500   -18.4250    54.0710    19.1100    17.1990    15.6580    23.0860     2.5090 
  155.8750   -18.4390    53.7880    19.6330    17.6490    15.5290    23.0880     2.5130 
  156.0000   -18.3790    54.6850    20.1190    18.0520    15.2240    23.1430     2.5150 
  156.1250   -18.3140    54.8070    20.4480    18.3070    15.3750    23.2940     2.5120 
