~V
VERS. 2.00: Ver 2.00
~W
STRT.M 55.0000:
STOP.M 262.0000:
STEP.M 0.1250:
NULL. -999.2500:
UWI. DF5047:
~C
DEPT.M :
GR.API :
CALI.CM :
RXO.OHMM :
RI. :
RML.OHMM :
DEN.GM/CC :
SP.MV :
~A
# ...
  190.0000    52.5720    25.0750    71.8220    99.8840    99.8610     2.1700   -36.0690 
  190.1250    55.9300    25.0410    70.5910    90.6110    89.9300     2.2010   -35.7510 
  190.2500    57.9480    24.9260    81.7540    79.9370    78.2650     2.2540   -35.5050 
  190.3750    59.2580    24.6670    81.5810    67.4180    65.0100     2.3230   -35.1860 
  190.5000    61.9950    24.2700    69.7420    54.6630    52.1060     2.3930   -34.8130 
  190.6250    66.7640    23.9140    42.7130    44.3520    42.2000     2.4310   -34.6710 
  190.7500    70.6990    23.7670    25.9650    37.1950    35.6380     2.4300   -34.5750 
  190.8750    73.3140    23.8140    22.2520    32.9280    31.9940     2.4080   -34.3640 
  191.0000    74.3390    23.9320    23.1300    30.8570    30.4660     2.3780   -34.2330 
  191.1250    74.2310    24.0230    25.3360    30.3300    30.2350     2.3470   -34.1280 
  191.2500    75.7930    24.1090    25.2880    30.2440    30.1570     2.3200   -34.0290 
  191.3750    79.2430    24.2260    23.0360    29.9010    29.6000     2.3020   -33.9940 
  191.5000    82.3690    24.3660    20.3780    28.9240    28.3240     2.2940   -33.9100 
  191.6250    83.2380    24.4730    20.0850    27.3580    26.5190     2.2970   -33.7100 
  191.7500    82.9090    24.5020    18.9930    25.7550    24.8310     2.3040   -33.5100 
  191.8750    81.4830    24.4470    16.5880    24.6190    23.8360     2.3100   -33.3750 
  192.0000    77.8310    24.3510    15.8800    24.4270    24.0090     2.3110   -33.1900 
  192.1250    72.7710    24.2660    17.1250    25.6710    25.6480     2.3080   -32.9510 
  192.2500    69.9630    24.1730    17.8600    27.8650    27.9050     2.3030   -32.6620 
  192.3750    69.8830    24.0680    19.4100    29.9830    29.5470     2.2960   -32.3740 
  192.5000    70.8170    23.9870    23.3600    30.3770    29.1300     2.2910   -32.1530 
  192.6250    71.3010    23.9120    25.9990    27.4130    25.6210     2.2930   -32.0770 
  192.7500    73.4590    23.8150    21.2900    22.6010    20.6870     2.3030   -31.9300 
  192.8750    77.7140    23.7510    15.5590    19.1680    17.3390     2.3240   -31.6190 
  193.0000    82.0410    23.7160    11.4140    16.8910    15.1710     2.3520   -31.4150 
  193.1250    92.5960    23.7070     8.6110    13.6840    12.3200     2.3820   -31.3160 
  193.2500   100.2750    23.7040     8.2840    11.7520    10.8310     2.4030   -31.1680 
  193.3750   101.7120    23.7170     8.3410    10.8180    10.3500     2.4140   -31.1250 
  193.5000    97.3510    23.8450     8.6060    10.5820    10.4890     2.4150   -30.9510 
  193.6250    92.5840    24.1480     8.9410    10.7460    10.8810     2.4080   -30.7730 
  193.7500    89.8400    24.4810     9.4980    10.9670    11.2600     2.4010   -30.7380 
  193.8750    88.8130    24.7100    10.2230    11.1910    11.6770     2.3920   -30.6570 
  194.0000    88.5670    24.7860    10.5820    11.5830    12.4230     2.3820   -30.5370 
  194.1250    88.9060    24.7160    10.1210    12.5880    14.1520     2.3650   -30.4860 
  194.2500    88.5880    24.5520    10.9000    14.6120    17.3110     2.3420   -30.3990 
  194.3750    86.0610    24.3420    18.1100    18.1640    22.3150     2.3150   -30.3220 
  194.5000    81.5760    24.1580    30.5040    23.6400    29.2580     2.2910   -30.2680 
  194.6250    75.0040    24.0430    38.9180    31.0740    37.7290     2.2750   -30.0700 
  194.7500    70.3530    23.9460    38.7850    38.9070    46.1600     2.2670   -29.9390 
  194.8750    68.9010    23.8490    38.0480    45.7980    53.5070     2.2690   -29.8670 
  195.0000    68.8920    23.8170    39.2260    51.3850    59.6950     2.2850   -29.5790 
  195.1250    68.0780    23.9820    40.4010    55.9380    64.9130     2.3180   -29.3040 
  195.2500    66.4230    24.3090    46.1230    58.6970    67.7820     2.3670   -29.0420 
  195.3750    64.5010    24.6070    62.8780    56.9020    64.8930     2.4290   -28.6430 
  195.5000    63.0030    24.6900    94.3100    48.4990    54.2260     2.4920   -28.3650 
  195.6250    64.3310    24.4680    95.4280    35.6860    39.0520     2.5260   -28.0680 
  195.7500    69.0720    24.0510    60.2830    24.3320    26.0890     2.5240   -27.6390 
  195.8750    76.0100    23.5890    22.6030    16.5330    17.4930     2.5010   -27.2060 
  196.0000    82.4690    23.2270     8.3550    12.0220    12.8180     2.4810   -26.9560 
  196.1250    86.1030    23.0430     7.8250    10.0190    11.1100     2.4750   -26.6890 
  196.2500    86.8860    23.0140     8.3630     9.2830    10.8220     2.4780   -26.3760 
  196.3750    85.4290    23.2410     9.5150     9.3360    11.2600     2.4790   -26.0780 
  196.5000    83.5430    23.7400     9.9260     9.7670    11.8570     2.4670   -25.7540 
  196.6250    83.3650    24.2140     9.3690    10.1130    12.0950     2.4440   -25.4260 
  196.7500    85.9460    24.4390     8.8770    10.0950    11.8430     2.4230   -25.0830 
  196.8750    89.7690    24.4860     8.7090     9.7060    11.2090     2.4130   -24.7540 
  197.0000    92.5690    24.4980     8.3380     9.1000    10.4160     2.4170   -24.2840 
  197.1250    93.3640    24.5250     7.8610     8.4860     9.7150     2.4310   -23.7960 
  197.2500    93.7980    24.5620     7.3770     8.0180     9.2560     2.4480   -23.3840 
  197.3750    94.2640    24.5940     7.0620     7.7770     9.1210     2.4620   -22.9220 
  197.5000    94.3590    24.6050     7.5220     7.8050     9.3420     2.4730   -22.4790 
  197.6250    93.6670    24.5900     8.3450     8.1550     9.9470     2.4800   -22.0480 
  197.7500    91.2710    24.5490     8.7690     8.7450    10.8080     2.4880   -21.6640 
  197.8750    86.8640    24.4690     9.6630     9.5250    11.8480     2.4990   -21.3900 
  198.0000    83.4350    24.3880    11.7350    10.4290    12.9920     2.5090   -21.2520 
  198.1250    84.5780    24.4010    12.5750    11.3770    14.1320     2.5180   -21.0470 
  198.2500    85.6670    24.5000    11.8070    12.2320    15.0770     2.5280   -20.8070 
  198.3750    85.1540    24.5640    11.2080    12.7750    15.5410     2.5380   -20.6270 
  198.5000    86.6670    24.5080    12.1250    12.7110    15.1940     2.5480   -20.4110 
  198.6250    90.1000    24.3730    12.7000    11.7280    13.7440     2.5530   -20.2400 
  198.7500    91.3630    24.2640    11.8260    10.1650    11.6530     2.5460   -20.0870 
  198.8750    90.0970    24.2160     9.4970     8.4380     9.4550     2.5260   -19.8750 
  199.0000    86.2890    24.2210     6.6200     6.9160     7.6240     2.4980   -19.6600 
  199.1250    79.9290    24.2290     5.3070     5.8700     6.4890     2.4710   -19.4910 
  199.2500    72.6160    24.1830     4.7910     5.2540     5.9020     2.4490   -19.4500 
  199.3750    67.4270    24.1160     4.7550     5.0040     5.7140     2.4340   -19.4320 
  199.5000    65.5980    24.1070     4.7270     5.0320     5.7760     2.4260   -19.4220 
  199.6250    68.5860    24.1630     4.6390     5.2620     5.9740     2.4250   -19.5320 
  199.7500    73.2970    24.1990     4.6590     5.5620     6.1900     2.4250   -19.6270 
  199.8750    76.3160    24.1690     4.8800     5.8520     6.3670     2.4220   -19.8360 
  200.0000    76.7460    24.0700     5.2360     6.0690     6.4680     2.4170   -20.0570 
  200.1250    77.8410    23.9300     5.5590     6.1540     6.4590     2.4150   -20.2430 
  200.2500    80.7010    23.8150     5.6940     6.1210     6.3710     2.4190   -20.4780 
  200.3750    84.4030    23.7440     5.4850     6.0020     6.2470     2.4250   -20.7260 
  200.5000    88.8000    23.7070     5.1170     5.8510     6.1550     2.4270   -21.0140 
  200.6250    90.1400    23.6970     4.9870     5.7490     6.1880     2.4180   -21.3450 
  200.7500    88.0600    23.7120     5.0440     5.7440     6.3740     2.4010   -21.6000 
  200.8750    86.6090    23.7300     5.2960     5.8550     6.7060     2.3820   -21.7860 
  201.0000    89.0360    23.7330     5.4860     6.0600     7.1400     2.3660   -22.1550 
  201.1250    90.4190    23.7360     5.7330     6.3260     7.6110     2.3580   -22.4920 
