~V
VERS. 2.00: Ver 2.00
~W
STRT.M 55.0000:
STOP.M 247.0000:
STEP.M 0.1250:
NULL. -999.2500:
UWI. DF5063:
~C
DEPT.M :
SP.MV :
GR.API :
RML.OHMM :
RI. :
RXO.OHMM :
CALI.CM :
DEN.GM/CC :
~A
# ...
  122.5000   -22.8420    70.8180     7.6640     7.2440     7.9280    23.1740     2.1930 
  122.6250   -22.7550    70.5670     7.6080     7.1130     7.7960    23.1440     2.1870 
  122.7500   -22.7020    69.5780     7.5870     7.0160     7.7150    23.1200     2.1880 
  122.8750   -22.6430    70.8270     7.5600     6.9330     7.8050    23.0760     2.1960 
  123.0000   -22.5610    73.3150     7.4900     6.8410     7.9640    23.0090     2.2090 
  123.1250   -22.4400    74.1770     7.3850     6.7420     8.2180    22.9470     2.2260 
  123.2500   -22.2610    72.8500     7.3570     6.7060     8.4660    22.8390     2.2460 
  123.3750   -22.0250    69.7980     7.5630     6.8570     8.6690    22.6980     2.2680 
  123.5000   -21.6730    65.4200     8.1750     7.3410     9.7290    22.6510     2.2950 
  123.6250   -21.1740    62.6950     9.3970     8.3650    15.3010    22.8590     2.3370 
  123.7500   -20.6200    63.2410    11.0860     9.8590    28.6060    23.2860     2.3980 
  123.8750   -20.0770    63.2500    12.9820    11.6470    40.6230    23.7160     2.4660 
  124.0000   -19.5470    60.4500    14.6540    13.3750    40.1350    23.9630     2.5120 
  124.1250   -18.9860    59.0820    15.4740    14.4580    36.9890    24.1050     2.5140 
  124.2500   -18.4740    59.4610    15.3120    14.6610    34.7190    24.1290     2.4950 
  124.3750   -18.0940    58.4940    14.3440    14.0390    27.5690    24.0640     2.4620 
  124.5000   -17.9400    56.7330    13.0110    12.9340    18.3150    23.9220     2.4100 
  124.6250   -17.9950    57.3520    11.8470    11.8240    13.8510    23.7120     2.3600 
  124.7500   -18.0940    59.5550    11.0940    11.0140    11.3670    23.4560     2.3440 
  124.8750   -18.1420    62.8220    10.7580    10.5650    10.8720    23.2840     2.3680 
  125.0000   -18.1450    65.2930    10.7200    10.4080    12.9600    23.3980     2.4160 
  125.1250   -18.2330    64.5510    10.7740    10.3820    15.6010    23.6320     2.4620 
  125.2500   -18.3570    62.6590    10.6790    10.2560    15.0830    23.7000     2.4790 
  125.3750   -18.4560    63.4200    10.3190     9.8990    12.3940    23.6250     2.4570 
  125.5000   -18.5490    65.7350     9.6940     9.2910     9.8120    23.5060     2.4050 
  125.6250   -18.6480    65.1060     8.9020     8.5170     8.1800    23.4310     2.3420 
  125.7500   -18.7500    63.3890     8.1280     7.7530     7.5910    23.3530     2.2830 
  125.8750   -18.9090    63.7430     7.4830     7.1060     6.9970    23.2160     2.2340 
  126.0000   -19.1020    67.6870     7.0200     6.6320     6.4100    23.0790     2.2020 
  126.1250   -19.2260    71.4400     6.7690     6.3600     6.3650    23.0100     2.1930 
  126.2500   -19.2730    72.0920     6.6670     6.2370     6.4570    23.0010     2.1970 
  126.3750   -19.2700    70.7870     6.6850     6.2390     6.4860    23.0130     2.2080 
  126.5000   -19.1850    70.7920     6.8040     6.3500     6.4960    23.0100     2.2210 
  126.6250   -18.9860    73.0970     7.0180     6.5680     6.4980    22.9780     2.2350 
  126.7500   -18.7300    73.2310     7.2780     6.8410     6.6420    22.9560     2.2500 
  126.8750   -18.4530    69.3220     7.5240     7.1130     7.1490    22.9570     2.2660 
  127.0000   -18.2140    63.4660     7.6840     7.3180     7.8990    22.9950     2.2870 
  127.1250   -18.0790    61.7510     7.6700     7.3750     8.4870    23.0480     2.3060 
  127.2500   -17.9950    64.5070     7.5050     7.2980     8.1880    23.1230     2.3110 
  127.3750   -17.9680    66.8110     7.2470     7.1310     7.4800    23.1980     2.2980 
  127.5000   -18.0290    67.6820     6.9920     6.9430     7.1400    23.2530     2.2780 
  127.6250   -18.1230    69.4920     6.8660     6.8140     7.0270    23.2140     2.2610 
  127.7500   -18.2100    72.6640     6.9230     6.7950     7.4960    23.0890     2.2490 
  127.8750   -18.2460    74.8810     7.2020     6.9350     7.9460    22.9770     2.2470 
  128.0000   -18.1860    74.9520     7.7210     7.2780     8.1380    22.9050     2.2620 
  128.1250   -18.0240    75.0060     8.4670     7.8570     8.2380    22.9140     2.2980 
  128.2500   -17.8170    74.8720     9.2620     8.5300     9.0880    23.0380     2.3500 
  128.3750   -17.5390    72.9070     9.8920     9.1140    11.7160    23.2640     2.4090 
  128.5000   -17.1200    70.7010    10.1260     9.3960    16.3100    23.3930     2.4450 
  128.6250   -16.6090    73.6900     9.7470     9.1630    13.9220    23.3120     2.4230 
  128.7500   -16.0640    79.9620     8.9890     8.5730    10.0610    23.1800     2.3770 
  128.8750   -15.5600    82.3110     8.2000     7.8950     7.9730    23.2200     2.3490 
  129.0000   -15.1920    78.7410     7.7330     7.4220     6.8630    23.3520     2.3490 
  129.1250   -14.9860    76.1020     7.8550     7.3980     7.5160    23.3840     2.3700 
  129.2500   -14.9150    75.4070     8.3730     7.7270     9.6200    23.3670     2.4030 
  129.3750   -14.9740    72.0170     9.0080     8.2300    13.4940    23.3130     2.4310 
  129.5000   -15.1860    65.9080     9.4400     8.6720    14.0370    23.2330     2.4200 
  129.6250   -15.4900    64.0310     9.3790     8.7890    10.1450    23.1280     2.3550 
  129.7500   -15.8140    67.3380     8.9280     8.5730     8.2600    23.0210     2.2900 
  129.8750   -16.0570    70.7330     8.2700     8.1100     7.7690    22.9480     2.2530 
  130.0000   -16.0950    71.0250     7.5800     7.5290     7.7460    22.9100     2.2460 
  130.1250   -15.9270    72.9890     6.9750     6.9420     7.5280    22.9080     2.2540 
  130.2500   -15.6300    80.1660     6.4930     6.4400     6.8730    23.0480     2.2660 
  130.3750   -15.2150    88.3590     6.2090     6.1040     5.8050    23.3690     2.2830 
  130.5000   -14.7210    92.1010     6.2270     6.0240     5.2140    23.6700     2.3030 
  130.6250   -14.2810    90.1590     6.6720     6.3110     5.7340    23.7090     2.3240 
  130.7500   -13.9040    84.8410     7.3950     6.8600     7.4950    23.5940     2.3460 
  130.8750   -13.5520    76.7860     8.1680     7.4990     9.9160    23.4660     2.3680 
  131.0000   -13.2300    69.2250     8.6990     7.9830    10.8620    23.3970     2.3830 
  131.1250   -12.9280    68.1860     8.6480     7.9990     9.7210    23.4090     2.3870 
  131.2500   -12.6660    74.0470     8.0760     7.5600     8.3970    23.4710     2.3830 
  131.3750   -12.4510    82.9870     7.2050     6.8360     7.1080    23.5310     2.3640 
  131.5000   -12.2190    88.3320     6.3660     6.0950     5.7920    23.5280     2.3270 
  131.6250   -11.9900    84.9930     5.9580     5.6610     5.4910    23.4620     2.2950 
  131.7500   -11.8220    78.4380     6.1130     5.6590     6.0380    23.4260     2.2890 
  131.8750   -11.7420    75.4670     6.8430     6.1280     6.9330    23.4660     2.3110 
  132.0000   -11.7810    75.5500     8.0080     7.0020     8.5430    23.5430     2.3560 
  132.1250   -11.9090    72.2890     9.2890     8.0970    12.2520    23.5290     2.4150 
  132.2500   -12.0200    67.2590    10.2510     9.0590    16.1830    23.4320     2.4580 
  132.3750   -12.0960    65.4240    10.6140     9.6130    14.0930    23.3080     2.4550 
  132.5000   -12.1850    68.4080    10.3270     9.6310    10.2040    23.2310     2.4130 
  132.6250   -12.2630    72.1760     9.5990     9.1690     9.1270    23.1610     2.3710 
  132.7500   -12.3250    74.6850     8.8930     8.5860     8.9690    23.1380     2.3450 
  132.8750   -12.4120    76.4980     8.4340     8.0990     8.4610    23.1470     2.3220 
  133.0000   -12.4850    78.0400     8.2550     7.7980     7.2100    23.0730     2.2930 
  133.1250   -12.5330    77.7360     8.2410     7.6460     6.7840    22.9550     2.2760 
  133.2500   -12.5670    77.5760     8.1680     7.4860     6.6910    22.8890     2.2780 
  133.3750   -12.5550    80.4410     7.8960     7.2020     6.8820    22.8720     2.2850 
  133.5000   -12.4170    85.6080     7.3730     6.7410     7.2500    22.9310     2.2860 
  133.6250   -12.1710    87.2640     6.6420     6.1270     7.3890    23.0330     2.2910 
