~V
VERS. 2.00: Ver 2.00
~W
STRT.M 53.0000:
STOP.M 257.0000:
STEP.M 0.1250:
NULL. -999.2500:
UWI. DF5014:
~C
DEPT.M :
GR.API :
RML.OHMM :
RI. :
RXO.OHMM :
CALI.CM :
DEN.GM/CC :
SP.MV :
~A
# ...
  143.0000    65.4780    10.3220    10.0180     8.3190    22.9580     2.2950   -16.0920 
  143.1250    70.5880     8.9410     8.8480     7.5290    22.8350     2.3020   -15.7520 
  143.2500    75.2450     7.6450     7.6740     6.5110    22.7390     2.3040   -15.3690 
  143.3750    81.2110     6.7940     6.7960     5.5700    22.7600     2.3060   -14.9710 
  143.5000    85.6040     6.4440     6.3070     5.1300    22.8380     2.3070   -14.6340 
  143.6250    87.0590     6.5450     6.2090     5.2860    22.8680     2.3030   -14.3840 
  143.7500    88.7450     6.9440     6.4170     5.6330    22.8230     2.2940   -14.2160 
  143.8750    90.3730     7.3990     6.7760     5.8340    22.7420     2.2870   -14.1510 
  144.0000    88.8740     7.6660     7.0600     5.8480    22.6280     2.2870   -14.1490 
  144.1250    86.1260     7.6320     7.1310     5.7330    22.5760     2.2960   -14.1980 
  144.2500    86.8240     7.3210     6.9450     5.5010    22.7320     2.3090   -14.2900 
  144.3750    89.3820     6.8700     6.5570     5.2620    23.2150     2.3220   -14.3300 
  144.5000    89.2590     6.4630     6.1370     5.1640    23.7270     2.3320   -14.3420 
  144.6250    87.4810     6.1710     5.7840     5.1630    24.0220     2.3400   -14.3640 
  144.7500    86.8570     6.0080     5.5500     5.1760    24.0950     2.3420   -14.4430 
  144.8750    86.6430     5.9880     5.4790     5.4640    24.0640     2.3350   -14.5840 
  145.0000    84.7300     6.1140     5.5600     5.8240    24.0320     2.3190   -14.7790 
  145.1250    81.4940     6.4460     5.8260     6.1980    23.9430     2.2960   -15.0160 
  145.2500    79.4020     7.0640     6.3290     6.6410    23.7460     2.2760   -15.3470 
  145.3750    78.6080     8.0730     7.1540     7.3130    23.5370     2.2760   -15.8330 
  145.5000    75.4810     9.3350     8.2090     8.3150    23.4960     2.3000   -16.3240 
  145.6250    71.3180    10.6450     9.3510     9.5450    23.5980     2.3410   -16.7560 
  145.7500    69.6890    11.7240    10.3660    10.6980    23.6660     2.3770   -17.0810 
  145.8750    69.6520    12.2350    10.9590    11.4520    23.4790     2.3820   -17.3020 
  146.0000    68.4490    12.2220    11.0990    11.2360    23.1680     2.3550   -17.4570 
  146.1250    67.6060    11.8760    10.8870    10.0080    22.8870     2.3090   -17.5700 
  146.2500    68.6220    11.4640    10.5310     9.1540    22.7540     2.2640   -17.5760 
  146.3750    70.2510    11.2120    10.2390     8.9160    22.7280     2.2340   -17.5010 
  146.5000    70.6430    11.1120    10.0670     8.8860    22.7280     2.2200   -17.4240 
  146.6250    70.4750    11.0640     9.9680     8.8930    22.7330     2.2170   -17.3960 
  146.7500    69.9890    10.9520     9.8530     8.8700    22.7550     2.2190   -17.3940 
  146.8750    68.7530    10.7080     9.6460     8.7940    22.8060     2.2210   -17.4100 
  147.0000    66.8490    10.4370     9.3990     8.5860    22.8470     2.2210   -17.4030 
  147.1250    65.0460    10.2880     9.2210     8.2640    22.8670     2.2210   -17.3730 
  147.2500    65.4140    10.3660     9.2100     8.0410    22.8970     2.2230   -17.3090 
  147.3750    69.4440    10.6490     9.3950     8.3550    22.9870     2.2380   -17.1760 
  147.5000    74.7570    10.8870     9.6090     9.0580    23.1120     2.2660   -16.9820 
  147.6250    78.2380    10.8370     9.6570     9.7780    23.2100     2.3030   -16.6970 
  147.7500    79.4040    10.3460     9.3780    10.1690    23.2800     2.3380   -16.3690 
  147.8750    81.1160     9.3950     8.6890     9.3900    23.4170     2.3570   -16.0350 
  148.0000    86.2600     8.3080     7.8180     7.8670    23.6760     2.3570   -15.7620 
  148.1250    92.9660     7.3580     6.9890     6.7260    23.9600     2.3450   -15.5120 
  148.2500    96.3290     6.7280     6.3690     6.4670    24.1120     2.3310   -15.3380 
  148.3750    92.7410     6.5140     6.0590     6.4010    24.1430     2.3200   -15.2770 
  148.5000    88.3220     6.5530     5.9620     6.2120    24.0630     2.3130   -15.3140 
  148.6250    88.1720     6.6940     5.9860     5.8890    23.8860     2.3080   -15.3970 
  148.7500    91.8850     6.8020     6.0410     5.6960    23.7130     2.3050   -15.4910 
  148.8750    92.3710     6.7860     6.0560     5.7190    23.7160     2.3040   -15.5430 
  149.0000    89.0340     6.6840     6.0260     5.7000    23.8060     2.3070   -15.5250 
  149.1250    87.3090     6.5500     5.9660     5.6720    23.9170     2.3110   -15.4930 
  149.2500    89.2670     6.4320     5.8960     5.6620    24.0130     2.3180   -15.4310 
  149.3750    92.1300     6.3660     5.8330     5.6340    24.0090     2.3250   -15.3080 
  149.5000    91.0300     6.3180     5.7880     5.7120    23.8810     2.3320   -15.1540 
  149.6250    88.8030     6.2950     5.7630     5.7620    23.6860     2.3370   -15.0320 
  149.7500    91.7300     6.3140     5.7610     5.7530    23.5090     2.3400   -14.9740 
  149.8750    99.2700     6.3460     5.7830     5.6640    23.4590     2.3380   -14.9850 
  150.0000   105.4320     6.3920     5.8210     5.6260    23.5050     2.3320   -15.0530 
  150.1250   107.7230     6.4530     5.8680     5.6940    23.5590     2.3250   -15.1590 
  150.2500   106.9940     6.5190     5.9220     5.8540    23.5790     2.3180   -15.2980 
  150.3750   103.3600     6.5300     5.9930     6.0580    23.5950     2.3130   -15.4260 
  150.5000    99.7150     6.5960     6.1060     6.1850    23.6310     2.3070   -15.5390 
  150.6250    98.3730     6.7940     6.2990     6.3260    23.6570     2.2970   -15.6520 
  150.7500    97.0050     7.1760     6.6080     6.6240    23.6110     2.2820   -15.7810 
  150.8750    93.3260     7.7360     7.0450     6.9040    23.4850     2.2630   -15.9150 
  151.0000    89.0020     8.2960     7.5100     7.0200    23.3350     2.2430   -16.0650 
  151.1250    83.5360     8.6950     7.8680     6.9810    23.1770     2.2270   -16.1960 
  151.2500    78.4010     8.7590     7.9730     6.9610    23.0850     2.2190   -16.2760 
  151.3750    80.9780     8.4310     7.6770     6.8590    23.0860     2.2250   -16.3280 
  151.5000    90.8670     7.8370     7.0840     6.5020    23.1800     2.2440   -16.3580 
  151.6250   100.1330     7.1950     6.3480     5.8940    23.3640     2.2720   -16.3020 
  151.7500   103.7390     6.6860     5.6550     5.2120    23.5980     2.3040   -16.1300 
  151.8750   103.4250     6.2180     5.2040     4.8690    23.8310     2.3320   -15.8790 
  152.0000   103.1200     6.0600     5.0430     4.8390    24.0250     2.3500   -15.5740 
  152.1250   103.0560     6.2860     5.1680     5.0280    24.1190     2.3550   -15.2690 
  152.2500   104.0780     6.7900     5.5280     5.4590    24.1250     2.3490   -14.9890 
  152.3750   103.9390     7.4460     6.0440     6.1100    24.2040     2.3300   -14.7740 
  152.5000    99.9650     8.0950     6.5920     6.7390    24.2730     2.3050   -14.5830 
  152.6250    93.1160     8.6650     7.1080     7.1670    24.2990     2.2780   -14.4930 
  152.7500    88.0350     9.1410     7.5690     7.4900    24.2970     2.2530   -14.5070 
  152.8750    85.8070     9.5320     7.9740     7.8720    24.2880     2.2330   -14.5970 
  153.0000    85.0540     9.8620     8.3360     8.5280    24.2620     2.2190   -14.6880 
  153.1250    85.8420    10.1210     8.6470     9.2930    24.2110     2.2110   -14.7590 
  153.2500    85.4220    10.3120     8.9040    10.0880    24.1470     2.2120   -14.8130 
  153.3750    82.2840    10.5240     9.1620    10.5970    24.1520     2.2200   -14.8050 
  153.5000    80.8400    10.9220     9.5330    11.1600    24.2170     2.2300   -14.7340 
  153.6250    82.2850    11.6500    10.1310    12.2190    24.2730     2.2320   -14.6030 
  153.7500    83.4150    12.7840    11.0280    13.8320    24.2770     2.2220   -14.4290 
  153.8750    81.0990    14.3150    12.2670    15.8690    24.2330     2.2110   -14.2230 
  154.0000    78.1500    16.0000    13.6910    17.9770    24.1880     2.2160   -14.0330 
  154.1250    74.6150    17.6640    15.1660    18.4300    24.1750     2.2530   -13.8460 
