~V
VERS. 2.00: Ver 2.00
~W
STRT.M 58.0000:
STOP.M 240.0000:
STEP.M 0.1250:
NULL. -999.2500:
UWI. DF5049:
~C
DEPT.M :
GR.API :
RML.OHMM :
RI. :
RXO.OHMM :
CALI.CM :
DEN.GM/CC :
SP.MV :
~A
# ...
  114.2500    68.7010    10.7490     8.8810     8.7460    23.8540     2.1370   -24.6590 
  114.3750    69.6980    10.7570     8.8570     8.8480    23.8660     2.1410   -24.5570 
  114.5000    72.3640    10.7850     8.8750     9.0480    23.8860     2.1520   -24.4410 
  114.6250    72.4610    10.8570     8.9480     9.0810    23.8980     2.1700   -24.3690 
  114.7500    70.5890    10.9710     9.0520     9.1980    23.8990     2.1920   -24.2810 
  114.8750    67.6630    11.1010     9.1610     9.5960    23.8770     2.2090   -24.1790 
  115.0000    63.7990    11.2010     9.2440    10.2730    23.8270     2.2180   -24.1660 
  115.1250    62.5310    11.2020     9.2650    10.4670    23.7820     2.2140   -24.2620 
  115.2500    65.5760    11.0720     9.2230    10.3460    23.7570     2.2000   -24.3650 
  115.3750    68.2800    10.8100     9.1210    10.1240    23.7370     2.1810   -24.4860 
  115.5000    66.1410    10.4700     8.9820    10.0310    23.7460     2.1610   -24.5950 
  115.6250    60.9350    10.1820     8.8500     9.7620    23.8180     2.1460   -24.6350 
  115.7500    57.9690    10.0570     8.7720     9.4110    23.8970     2.1360   -24.5790 
  115.8750    59.4160    10.1210     8.7630     9.0270    23.9210     2.1300   -24.4220 
  116.0000    63.6160    10.2850     8.7890     8.8400    23.9340     2.1280   -24.1400 
  116.1250    67.5750    10.3180     8.7350     8.7490    24.0080     2.1320   -23.6560 
  116.2500    69.1070    10.0300     8.4950     8.7880    24.1540     2.1450   -22.9740 
  116.3750    69.1830     9.3710     8.0130     8.5520    24.3090     2.1690   -22.1380 
  116.5000    70.5590     8.4270     7.3250     7.7630    24.4380     2.2030   -21.1350 
  116.6250    75.7880     7.3950     6.5580     6.5600    24.5280     2.2400   -19.9670 
  116.7500    83.7030     6.5000     5.8720     5.9800    24.6500     2.2700   -18.7730 
  116.8750    91.8160     5.8530     5.3520     5.4710    24.9690     2.2840   -17.5700 
  117.0000    96.8760     5.4970     5.0340     4.8950    25.4320     2.2830   -16.3990 
  117.1250    97.2590     5.4560     4.9520     4.7720    25.7830     2.2770   -15.4400 
  117.2500    96.4090     5.6000     5.0330     4.9600    25.8740     2.2780   -14.7390 
  117.3750    94.7400     5.8240     5.2150     5.2230    25.8210     2.2870   -14.2680 
  117.5000    91.5620     6.0340     5.4160     5.6330    25.7040     2.2920   -14.0210 
  117.6250    88.0080     6.1550     5.5360     5.8710    25.5990     2.2790   -13.9710 
  117.7500    87.2580     6.1760     5.5450     5.7020    25.6970     2.2490   -13.9540 
  117.8750    89.2020     6.1170     5.4640     5.3640    25.8760     2.2180   -13.9890 
  118.0000    91.2470     6.0140     5.3480     5.1120    25.9700     2.2020   -14.0980 
  118.1250    91.2720     5.9190     5.2720     5.2790    25.9020     2.2140   -14.2130 
  118.2500    88.4230     5.8830     5.2700     5.5830    25.7110     2.2410   -14.2800 
  118.3750    85.0350     5.9320     5.3400     5.6540    25.5160     2.2650   -14.2760 
  118.5000    85.0130     6.0440     5.4450     5.5640    25.4060     2.2770   -14.2580 
  118.6250    90.0570     6.1220     5.5090     5.4380    25.3760     2.2780   -14.2740 
  118.7500    95.8660     6.0790     5.4820     5.7220    25.3460     2.2820   -14.3190 
  118.8750    98.7350     5.9030     5.3580     5.8650    25.3660     2.2970   -14.3300 
  119.0000    97.9510     5.6470     5.1700     5.4890    25.4570     2.3250   -14.2580 
  119.1250    94.1480     5.4140     4.9850     5.1820    25.5440     2.3560   -14.0630 
  119.2500    90.9190     5.2680     4.8610     5.4750    25.5050     2.3740   -13.8740 
  119.3750    91.1330     5.2190     4.8240     5.4460    25.3930     2.3730   -13.7370 
  119.5000    94.1570     5.2580     4.8790     5.1290    25.3100     2.3550   -13.6360 
  119.6250    96.1140     5.3910     5.0230     5.0670    25.2670     2.3320   -13.5870 
  119.7500    94.8280     5.5830     5.2110     5.2100    25.2510     2.3140   -13.6360 
  119.8750    92.2160     5.7910     5.4030     5.2940    25.2370     2.3080   -13.8060 
  120.0000    92.9400     5.9560     5.5560     5.3700    25.2170     2.3130   -14.0910 
  120.1250    97.6610     6.0160     5.6090     5.4310    25.2130     2.3250   -14.4870 
  120.2500   101.0900     5.9750     5.5520     5.4030    25.2120     2.3380   -14.8380 
  120.3750   100.6640     5.8560     5.4030     5.3320    25.2160     2.3520   -15.1310 
  120.5000    98.9360     5.6890     5.1990     5.1750    25.2080     2.3660   -15.3920 
  120.6250    99.0230     5.4990     4.9740     4.8360    25.2000     2.3840   -15.5460 
  120.7500    98.8770     5.3120     4.7600     4.7180    25.2030     2.4050   -15.6010 
  120.8750    96.6380     5.1390     4.5760     4.8430    25.2260     2.4190   -15.6550 
  121.0000    94.5470     4.9910     4.4430     4.9580    25.2460     2.4130   -15.7190 
  121.1250    96.0900     4.9310     4.4210     4.9820    25.2500     2.3790   -15.7990 
  121.2500    98.8900     5.0870     4.5680     5.0550    25.2340     2.3320   -16.0750 
  121.3750    98.1000     5.6110     4.9670     5.2820    25.1560     2.2950   -16.6440 
  121.5000    90.8030     6.6280     5.7070     5.9670    24.8970     2.2830   -17.4560 
  121.6250    81.4360     8.2420     6.9120     6.8670    24.4500     2.2960   -18.5210 
  121.7500    75.7050    10.0940     8.4020     8.3090    23.9270     2.3070   -19.7500 
  121.8750    73.0930    11.5860     9.7560    10.1660    23.5010     2.3000   -21.0420 
  122.0000    71.4940    12.0100    10.3240    11.6270    23.2240     2.2750   -22.2690 
  122.1250    71.2950    10.9230     9.6120    10.3490    23.1820     2.2510   -23.2620 
  122.2500    73.5030     9.1820     8.2980     9.3370    23.3320     2.2420   -23.9060 
  122.3750    77.9370     7.5780     7.0020     8.4440    23.6470     2.2440   -24.0600 
  122.5000    83.8580     6.5900     6.0790     6.9930    23.9670     2.2470   -23.8330 
  122.6250    88.5050     6.4450     5.7190     5.9560    24.0330     2.2380   -23.4960 
  122.7500    87.0800     6.8770     5.8060     6.7200    23.8730     2.2200   -23.1920 
  122.8750    79.3090     7.6900     6.2540     8.1560    23.7480     2.2030   -22.8870 
  123.0000    72.4600     8.6540     6.9230     8.6020    23.7220     2.1940   -22.6150 
  123.1250    72.8300     9.3830     7.5470     8.1310    23.7820     2.2000   -22.4340 
  123.2500    75.1650     9.5840     7.8400     8.1330    23.8950     2.2170   -22.3750 
  123.3750    76.5300     9.1990     7.6850     8.3030    24.0940     2.2420   -22.4210 
  123.5000    79.4650     8.4220     7.1730     7.7950    24.3750     2.2690   -22.4290 
  123.6250    84.2760     7.5710     6.5220     6.4240    24.7180     2.2860   -22.1100 
  123.7500    89.1830     6.9060     5.9510     5.6750    25.0840     2.2900   -21.5320 
  123.8750    95.2010     6.5430     5.5570     5.2240    25.3740     2.2830   -20.8810 
  124.0000   101.3820     6.4780     5.3600     5.1250    25.4660     2.2710   -20.2370 
  124.1250   101.9530     6.6030     5.3300     5.3300    25.3110     2.2620   -19.7130 
  124.2500    96.6780     6.7110     5.3480     5.6020    25.0260     2.2630   -19.3150 
  124.3750    91.6530     6.7010     5.3470     6.0590    24.8330     2.2780   -19.0360 
  124.5000    93.0490     6.5680     5.3150     5.9660    24.7770     2.3050   -18.8660 
  124.6250    98.1570     6.4470     5.3090     5.5860    24.8250     2.3300   -18.8960 
  124.7500   100.3340     6.5200     5.4090     5.5930    24.9010     2.3380   -19.1480 
  124.8750    98.0820     6.8640     5.6660     6.5410    24.8740     2.3220   -19.5920 
  125.0000    94.7950     7.4530     6.0930     8.6760    24.6680     2.2880   -20.2690 
  125.1250    91.5360     8.1990     6.6680     8.0340    24.3020     2.2500   -21.2770 
  125.2500    84.8940     8.9180     7.2730     8.5410    24.0270     2.2200   -22.4390 
  125.3750    77.4560     9.4650     7.7940     9.2700    23.9120     2.1980   -23.7110 
