~V
VERS. 2.00: Ver 2.00
~W
STRT.M 55.0000:
STOP.M 247.0000:
STEP.M 0.1250:
NULL. -999.2500:
UWI. DF5063:
~C
DEPT.M :
SP.MV :
GR.API :
RML.OHMM :
RI. :
RXO.OHMM :
CALI.CM :
DEN.GM/CC :
~A
# ...
  190.0000    -9.1430    61.2140     8.9300     8.8150     8.0670    24.5890     2.4420 
  190.1250    -8.4620    60.8950     7.2080     7.0930     6.1570    24.6100     2.4370 
  190.2500    -7.9020    59.9850     6.2070     6.0160     4.7250    24.6070     2.4350 
  190.3750    -7.4340    60.1660     5.7290     5.4200     4.5110    24.5720     2.4310 
  190.5000    -7.0440    59.8140     5.6020     5.1570     4.6740    24.5270     2.4220 
  190.6250    -6.7380    57.7210     5.6770     5.1090     4.5720    24.4790     2.4040 
  190.7500    -6.4390    57.2490     5.7620     5.1120     4.5190    24.3440     2.3860 
  190.8750    -6.1550    59.7590     5.7530     5.0770     4.6050    24.1790     2.3720 
  191.0000    -5.8950    62.5000     5.6090     4.9590     4.6150    24.1170     2.3670 
  191.1250    -5.6610    63.2970     5.3610     4.7650     4.4830    24.1440     2.3720 
  191.2500    -5.4480    63.6800     5.1240     4.5750     4.4880    24.2100     2.3850 
  191.3750    -5.2340    63.9880     4.9790     4.4500     4.5900    24.3520     2.4020 
  191.5000    -5.0620    62.5820     4.9750     4.4280     4.5590    24.5150     2.4170 
  191.6250    -4.9710    61.0000     5.1530     4.5370     5.0710    24.6360     2.4240 
  191.7500    -4.9730    62.4630     5.4690     4.7410     5.3960    24.7100     2.4240 
  191.8750    -5.1230    68.1620     5.8900     5.0080     5.4350    24.6920     2.4180 
  192.0000    -5.4440    76.6410     6.3780     5.3070     5.4570    24.6340     2.4050 
  192.1250    -5.9400    86.2900     6.8880     5.6020     5.9560    24.5810     2.3890 
  192.2500    -6.5240    94.6370     7.3630     5.8650     6.4100    24.5320     2.3820 
  192.3750    -7.1600    99.6230     7.7490     6.0680     6.6770    24.4930     2.3920 
  192.5000    -7.7960   101.3190     7.9990     6.1900     6.9110    24.4950     2.4120 
  192.6250    -8.3920   103.9350     8.0740     6.2050     7.2550    24.5380     2.4230 
  192.7500    -8.9820   108.5960     8.0520     6.1510     7.4020    24.5290     2.4140 
  192.8750    -9.5920   111.4180     8.0480     6.0860     7.2860    24.4950     2.3930 
  193.0000   -10.2500   109.6320     8.1910     6.0920     7.3900    24.4810     2.3800 
  193.1250   -11.0040   103.9670     8.6100     6.2720     7.7260    24.4520     2.3910 
  193.2500   -11.8700    99.3740     9.2410     6.6230     8.2190    24.2580     2.4140 
  193.3750   -12.8650    97.2440     9.9750     7.1020     9.7120    23.9270     2.4310 
  193.5000   -14.0230    96.0990    10.6610     7.6190    12.7330    23.6880     2.4310 
  193.6250   -15.3020    93.5660    11.1340     8.0530    13.6570    23.5280     2.4170 
  193.7500   -16.5290    91.4930    11.3860     8.3500    12.5360    23.3970     2.4030 
  193.8750   -17.6020    91.3870    11.4770     8.5160    11.7420    23.3640     2.3990 
  194.0000   -18.4330    92.5220    11.4920     8.5940    11.8810    23.4410     2.4080 
  194.1250   -18.8680    91.9150    11.4690     8.6120    12.3860    23.5310     2.4220 
  194.2500   -18.9010    90.6230    11.3660     8.5660    12.6670    23.5840     2.4290 
  194.3750   -18.5490    90.4440    11.1070     8.4100    12.0670    23.6520     2.4250 
  194.5000   -17.7970    91.8470    10.6430     8.1070    10.9230    23.8270     2.4150 
  194.6250   -16.7420    93.6670    10.0090     7.6540     9.5330    24.1210     2.4030 
  194.7500   -15.6370    94.8230     9.3930     7.1700     8.6240    24.3990     2.3860 
  194.8750   -14.5460    95.2950     8.9660     6.7750     8.0410    24.5520     2.3670 
  195.0000   -13.5240    93.4720     8.8430     6.5710     7.7340    24.6040     2.3600 
  195.1250   -12.6730    86.8870     9.1070     6.6660     7.9040    24.6110     2.3800 
  195.2500   -12.0440    82.1990     9.6490     7.0220     8.8560    24.6070     2.4120 
  195.3750   -11.6150    86.1390    10.3830     7.5990     9.7540    24.6070     2.4430 
  195.5000   -11.3440    95.8460    11.2070     8.3160    10.5940    24.6050     2.4660 
  195.6250   -11.1390    98.8120    11.9690     9.0430    11.2350    24.5760     2.4820 
  195.7500   -10.8690    94.6910    12.5020     9.6130    11.6860    24.5490     2.4940 
  195.8750   -10.4910    90.7990    12.6400     9.8830    12.1880    24.5370     2.4990 
  196.0000    -9.9700    90.4200    12.2690     9.7540    12.5670    24.5270     2.4920 
  196.1250    -9.2570    92.4740    11.3260     9.1550    11.3020    24.5150     2.4700 
  196.2500    -8.3700    93.7420    10.0760     8.2770     9.4400    24.5050     2.4390 
  196.3750    -7.3040    90.6360     8.7690     7.2980     7.4150    24.4740     2.4110 
  196.5000    -6.1350    81.4580     7.6410     6.3990     5.7250    24.3840     2.3900 
  196.6250    -4.9730    70.3600     6.9090     5.7500     5.3060    24.3190     2.3770 
  196.7500    -3.8750    63.2410     6.5410     5.3610     5.3220    24.2720     2.3730 
  196.8750    -2.8810    61.2430     6.4680     5.2090     5.5150    24.2270     2.3810 
  197.0000    -2.0260    63.7330     6.5780     5.2350     5.7820    24.2120     2.3970 
  197.1250    -1.3510    68.8170     6.7530     5.3750     5.8250    24.2310     2.4140 
  197.2500    -0.8300    73.7150     6.8970     5.5370     5.7560    24.2520     2.4280 
  197.3750    -0.4470    77.6350     6.9790     5.6760     5.7180    24.2280     2.4390 
  197.5000    -0.1530    80.8500     7.0010     5.7710     5.8970    24.1970     2.4450 
  197.6250     0.0400    82.1480     6.9610     5.8050     6.2570    24.2660     2.4400 
  197.7500     0.1780    83.1450     6.8720     5.7910     6.4710    24.4170     2.4280 
  197.8750     0.2960    86.0900     6.7390     5.7370     6.3950    24.5330     2.4130 
  198.0000     0.3870    91.0750     6.5840     5.6590     6.2300    24.5810     2.4010 
  198.1250     0.4400    93.8740     6.4640     5.5900     6.1810    24.5860     2.4000 
  198.2500     0.4350    91.9580     6.4320     5.5670     6.0770    24.5800     2.4040 
  198.3750     0.3270    88.8520     6.5190     5.6220     6.0730    24.5790     2.4070 
  198.5000     0.1470    88.8700     6.7240     5.7670     6.5640    24.5790     2.4060 
  198.6250    -0.0230    91.8210     6.7810     5.8120     7.1850    24.5900     2.4000 
  198.7500    -0.2080    94.5550     7.0820     6.0540     7.6930    24.5890     2.3900 
  198.8750    -0.4280    96.3410     7.3960     6.3270     8.1700    24.5620     2.3810 
  199.0000    -0.6520    97.1640     7.6800     6.5900     8.1020    24.4910     2.3750 
  199.1250    -0.8660    96.7760     7.9050     6.8120     8.2070    24.3920     2.3740 
  199.2500    -1.0690    95.9140     8.0840     6.9950     8.3190    24.2760     2.3750 
  199.3750    -1.2520    94.3800     8.2260     7.1490     8.5040    24.2510     2.3760 
  199.5000    -1.4450    90.6010     8.3260     7.2750     8.6310    24.3690     2.3730 
  199.6250    -1.6380    86.2370     8.3460     7.3470     9.2560    24.4960     2.3690 
  199.7500    -1.8690    85.7970     8.2890     7.3610     9.1900    24.5250     2.3650 
  199.8750    -2.1200    88.1980     8.1870     7.3360     8.1800    24.4820     2.3580 
  200.0000    -2.3750    90.4990     8.1160     7.3260     7.6050    24.4740     2.3500 
  200.1250    -2.6330    90.9070     8.2040     7.4320     7.9530    24.5110     2.3400 
  200.2500    -2.8470    89.9880     8.5080     7.7170     9.2260    24.5220     2.3270 
  200.3750    -3.0350    87.8010     9.0590     8.2180    11.0590    24.5090     2.3090 
  200.5000    -3.2700    85.2680     9.8760     8.9590    11.9250    24.5240     2.2910 
  200.6250    -3.6140    85.0610    11.0880    10.0170    13.4470    24.5630     2.2790 
  200.7500    -4.0020    85.6380    12.6670    11.4270    15.5800    24.5730     2.2730 
  200.8750    -4.4100    82.1020    14.7280    13.3210    20.6360    24.5530     2.2740 
  201.0000    -4.8430    74.7380    17.5850    15.8710    29.4070    24.5370     2.2770 
  201.1250    -5.3110    71.2660    21.6300    19.3850    37.5640    24.5350     2.2770 
