~V
VERS. 2.00: Ver 2.00
~W
STRT.M 55.0000:
STOP.M 263.0000:
STEP.M 0.1250:
NULL. -999.2500:
UWI. DF5056:
~C
DEPT.M :
GR.API :
CALI.CM :
RXO.OHMM :
RI. :
RML.OHMM :
DEN.GM/CC :
SP.MV :
~A
# ...
  167.5000    59.3600    33.5140    51.0620    56.4550    64.9670     2.2340   -39.5280 
  167.6250    59.5900    33.5140    54.2640    57.6080    66.3800     2.2360   -39.4010 
  167.7500    58.4920    33.5090    56.4140    61.9590    71.0770     2.2280   -39.2750 
  167.8750    58.8770    33.5020    59.9700    68.8020    77.9440     2.2140   -39.1800 
  168.0000    60.7700    33.4960    66.1750    76.6340    84.9090     2.1980   -39.0770 
  168.1250    61.8180    33.4620    70.8460    81.1570    86.9590     2.1910   -39.0110 
  168.2500    61.7610    33.3840    71.7740    77.8940    80.3840     2.1980   -38.9120 
  168.3750    60.6260    33.2880    72.3130    65.5740    65.3290     2.2200   -38.7720 
  168.5000    59.6690    33.1880    67.8590    48.3380    46.7810     2.2540   -38.6920 
  168.6250    62.7730    33.0320    55.0890    33.1490    31.4470     2.2970   -38.5320 
  168.7500    69.0630    32.8270    34.1040    22.7370    21.2820     2.3360   -38.4060 
  168.8750    75.0210    32.6600    16.4690    16.6520    15.6250     2.3620   -38.2330 
  169.0000    78.4170    32.5870     9.3440    13.6160    13.1270     2.3710   -38.0520 
  169.1250    79.0330    32.5860     8.9340    12.8330    12.9990     2.3650   -37.8550 
  169.2500    77.9170    32.5980     9.6590    13.4890    14.3860     2.3470   -37.6770 
  169.3750    75.0870    32.6190    12.0430    15.4640    17.0940     2.3230   -37.5440 
  169.5000    71.3310    32.6350    17.3130    18.6650    20.9210     2.2940   -37.3500 
  169.6250    68.4800    32.6240    25.0040    22.9730    25.6290     2.2660   -37.2940 
  169.7500    66.9380    32.6030    31.4140    27.7750    30.6920     2.2420   -37.1890 
  169.8750    64.8230    32.5890    36.6130    32.6830    35.8770     2.2250   -37.1430 
  170.0000    60.5120    32.5880    42.5000    37.4830    41.1090     2.2140   -37.1060 
  170.1250    57.5610    32.5900    47.7920    42.0660    46.3560     2.2080   -37.0930 
  170.2500    58.5760    32.5880    52.6430    46.2370    51.3430     2.2030   -37.0940 
  170.3750    60.6050    32.5760    60.2490    49.4860    55.4980     2.1970   -37.1230 
  170.5000    61.1420    32.5560    69.3700    51.2310    58.1780     2.1940   -37.1980 
  170.6250    61.0900    32.5400    70.2470    51.1070    58.9360     2.1960   -37.1920 
  170.7500    60.3650    32.5270    60.6740    50.0810    58.7260     2.2050   -37.2040 
  170.8750    59.2150    32.5090    49.4660    49.0920    58.5470     2.2180   -37.2340 
  171.0000    58.8630    32.4890    43.2820    48.9460    59.2670     2.2300   -37.2830 
  171.1250    59.4470    32.4620    45.9010    50.3610    61.5220     2.2310   -37.3690 
  171.2500    59.7050    32.4050    54.0330    53.0790    64.8250     2.2230   -37.4750 
  171.3750    60.1060    32.3210    61.1370    56.6630    68.5250     2.2110   -37.6000 
  171.5000    61.6640    32.2440    66.8060    60.5300    71.8470     2.2020   -37.6860 
  171.6250    62.7660    32.1930    69.2550    63.5540    73.3480     2.2000   -37.8510 
  171.7500    61.9680    32.1390    69.2790    64.2320    71.7470     2.2000   -38.0430 
  171.8750    60.9960    32.0720    66.4970    61.4230    66.3380     2.2000   -38.2390 
  172.0000    61.3890    31.9860    72.8040    55.3500    57.9030     2.2010   -38.4480 
  172.1250    62.5270    31.8540    74.3930    47.4820    48.4520     2.2040   -38.6430 
  172.2500    63.8350    31.7090    54.3570    39.8600    39.9690     2.2120   -38.8260 
  172.3750    65.0430    31.6100    29.6560    33.3020    33.0440     2.2250   -38.9680 
  172.5000    66.4690    31.5770    25.1010    27.9250    27.5250     2.2420   -39.1920 
  172.6250    68.8350    31.5570    30.6300    23.6510    23.2270     2.2630   -39.3690 
  172.7500    71.3120    31.4890    26.2120    20.3230    20.0190     2.2840   -39.5950 
  172.8750    73.8130    31.3880    16.6960    18.1620    18.2150     2.3040   -39.8020 
  173.0000    76.0350    31.3020    12.2650    17.3690    18.1700     2.3150   -40.0160 
  173.1250    76.3360    31.2710    11.2070    18.5520    20.7660     2.3110   -40.2520 
  173.2500    73.9820    31.2700    15.3750    22.0250    26.1080     2.2940   -40.5160 
  173.3750    70.8930    31.2710    26.8010    28.2410    34.0620     2.2700   -40.8170 
  173.5000    68.8100    31.2730    43.1330    36.7810    43.3760     2.2440   -41.0590 
  173.6250    66.2960    31.2700    60.9770    45.0020    50.7970     2.2240   -41.3350 
  173.7500    63.4220    31.2460    74.0800    49.5280    53.9740     2.2130   -41.5680 
  173.8750    62.8170    31.2100    73.3660    49.7830    53.4490     2.2110   -41.8480 
  174.0000    64.7000    31.1830    52.6550    48.1370    52.3420     2.2150   -42.1450 
  174.1250    65.7210    31.1730    38.0790    48.7210    55.2450     2.2200   -42.4680 
  174.2500    64.5860    31.1630    59.3130    54.0910    64.1640     2.2170   -42.8310 
  174.3750    63.5990    31.1510    96.8290    65.5360    80.0300     2.2060   -43.1900 
  174.5000    64.1400    31.1470   113.8990    83.1180   102.5780     2.1910   -43.5230 
  174.6250    64.9320    31.1480   115.6060   104.1260   128.3160     2.1800   -43.8190 
  174.7500    62.8670    31.1480   120.7130   120.0030   146.8200     2.1750   -44.1030 
  174.8750    59.2970    31.1480   130.2350   123.5210   149.0180     2.1770   -44.3500 
  175.0000    56.8810    31.1480   135.8100   114.5430   135.7620     2.1840   -44.5670 
  175.1250    55.6660    31.1480   126.5220    99.9350   117.5310     2.1890   -44.7270 
  175.2500    55.2320    31.1420   103.1070    87.4920   103.7080     2.1940   -44.8040 
  175.3750    56.2290    31.1300    72.9700    80.2200    97.1000     2.1990   -44.8460 
  175.5000    59.1870    31.1110    64.6210    79.3680    98.3500     2.2020   -44.9020 
  175.6250    61.0800    31.0930    87.2450    85.8190   107.9060     2.2030   -44.8820 
  175.7500    59.6550    31.0820   114.4770    97.1340   122.7500     2.2010   -44.8440 
  175.8750    57.1390    31.0790   119.1140   111.0140   140.0410     2.1960   -44.7370 
  176.0000    55.7530    31.0740   113.7360   124.1010   155.6030     2.1910   -44.5910 
  176.1250    56.3640    31.0590   118.7780   131.9430   163.8770     2.1860   -44.4960 
  176.2500    58.2790    31.0330   121.7780   134.1040   164.8730     2.1830   -44.3960 
  176.3750    61.3260    30.9610   122.3060   132.0610   160.9840     2.1830   -44.2020 
  176.5000    62.7960    30.8460   120.6090   127.9120   155.1390     2.1850   -44.0180 
  176.6250    60.3060    30.7650   110.2260   123.6010   149.9170     2.1850   -43.7600 
  176.7500    58.6370    30.7490   101.5720   120.7210   146.9690     2.1800   -43.5510 
  176.8750    60.0080    30.7520    98.3880   120.0230   146.9140     2.1740   -43.3740 
  177.0000    61.9830    30.7390   104.5760   121.4930   149.4510     2.1700   -43.2800 
  177.1250    60.3570    30.7310   119.8130   124.5780   153.6460     2.1720   -43.2220 
  177.2500    57.8730    30.7190   129.1090   127.9520   157.8240     2.1780   -43.1700 
  177.3750    55.7740    30.6930   129.2120   130.7730   160.9800     2.1840   -43.1590 
  177.5000    55.1400    30.6510   130.2820   132.5670   162.6580     2.1860   -43.1880 
  177.6250    57.1470    30.5650   128.6270   133.2140   162.8550     2.1830   -43.3070 
  177.7500    59.4870    30.4310   124.3070   133.3290   162.4040     2.1800   -43.4350 
  177.8750    60.0590    30.2840   121.7480   133.3930   161.8760     2.1780   -43.5720 
  178.0000    58.3190    30.1650   121.5930   133.8060   161.7160     2.1790   -43.6820 
  178.1250    56.8130    30.1090   124.0860   135.0850   162.4420     2.1800   -43.7960 
  178.2500    56.2690    30.1250   126.8760   137.5800   164.2360     2.1780   -43.9260 
  178.3750    56.2420    30.1630   123.9710   141.5410   166.9290     2.1710   -44.0650 
  178.5000    55.8180    30.1280   115.4340   146.3650   169.2480     2.1610   -44.2130 
  178.6250    54.6000    29.9700   120.9410   149.4450   167.6390     2.1530   -44.2520 
