~V
VERS. 2.00: Ver 2.00
~W
STRT.M 55.0000:
STOP.M 268.0000:
STEP.M 0.1250:
NULL. -999.2500:
UWI. DF5007:
~C
DEPT.M :
SP.MV :
GR.API :
RML.OHMM :
RI. :
RXO.OHMM :
CALI.CM :
DEN.GM/CC :
~A
# ...
  235.0000   -11.2870    99.7300     9.7300     8.1560     8.8580    23.8670     2.3840 
  235.1250   -11.4030    99.8450     9.6910     8.3320     8.8280    23.8970     2.3830 
  235.2500   -11.4700   102.0560     9.5890     8.4690     8.6420    23.9110     2.3820 
  235.3750   -11.5970   105.6440     9.4390     8.5270     8.8090    23.8790     2.3790 
  235.5000   -11.7270   105.1540     9.2600     8.4740     9.3510    23.8440     2.3750 
  235.6250   -11.9410   100.2930     9.0940     8.3100     9.6820    23.8490     2.3650 
  235.7500   -12.2490    97.8690     9.0500     8.1470     9.6260    23.8240     2.3520 
  235.8750   -12.5530    99.1380     9.2220     8.1190     9.3830    23.7810     2.3400 
  236.0000   -12.9790    99.6920     9.7700     8.4170     9.3300    23.7320     2.3340 
  236.1250   -13.3910    95.3050    11.1640     9.4520    10.9100    23.6470     2.3350 
  236.2500   -13.9190    90.0700    13.8280    11.5630    15.2860    23.5210     2.3340 
  236.3750   -14.4610    85.7100    18.4450    15.3020    23.7030    23.4220     2.3250 
  236.5000   -14.9810    81.0810    26.0630    21.3110    38.1410    23.3850     2.3070 
  236.6250   -15.5580    74.2800    37.8750    30.6850    55.0880    23.3380     2.2920 
  236.7500   -16.1020    66.0860    53.1570    42.9720    63.2230    23.3360     2.2870 
  236.8750   -16.6130    61.4520    70.5020    57.3640    76.4860    23.5300     2.2920 
  237.0000   -17.0690    62.0620    89.0830    72.3420   102.5960    23.8360     2.2980 
  237.1250   -17.4970    63.8270   106.1380    85.6300   114.8790    23.8980     2.2900 
  237.2500   -17.8230    63.5720   119.7880    96.0660   119.0200    23.8480     2.2660 
  237.3750   -18.0720    61.6820   129.6390   103.4580   133.2540    23.8710     2.2350 
  237.5000   -18.2660    61.5050   136.1820   108.2410   139.4600    23.9720     2.2060 
  237.6250   -18.3590    63.8880   139.3010   110.6420   131.3940    24.0550     2.1850 
  237.7500   -18.4160    65.5860   139.9820   111.6000   116.8350    24.1060     2.1750 
  237.8750   -18.4270    65.4650   139.1500   111.7240   111.6570    24.1600     2.1730 
  238.0000   -18.4190    64.8330   137.4550   111.3630   121.2830    24.2020     2.1760 
  238.1250   -18.3140    64.5060   135.1280   110.4730   131.6210    24.2230     2.1760 
  238.2500   -18.2330    64.2070   132.5030   109.0820   131.6750    24.3230     2.1710 
  238.3750   -18.1300    65.2510   129.8310   107.3340   119.3230    24.4750     2.1640 
  238.5000   -18.0600    68.6520   127.6500   105.6610   114.1270    24.5580     2.1580 
  238.6250   -17.9710    68.8850   126.9370   104.9310   112.0910    24.5430     2.1620 
  238.7500   -17.8430    64.6850   128.1970   105.8030   112.4920    24.5240     2.1790 
  238.8750   -17.7200    59.7480   131.8260   108.8620   115.8140    24.5140     2.2080 
  239.0000   -17.5660    59.4130   137.6280   114.2160   118.7170    24.4480     2.2440 
  239.1250   -17.4780    63.9690   144.1180   120.9950   132.8330    24.4190     2.2710 
  239.2500   -17.3340    66.3200   148.2360   126.8790   167.9660    24.4860     2.2810 
  239.3750   -17.2190    64.1600   147.5300   129.7980   200.4180    24.5660     2.2730 
  239.5000   -17.0540    61.1050   140.8510   128.2100   196.6410    24.5920     2.2510 
  239.6250   -16.9270    61.9550   128.6560   121.0490   168.4600    24.5940     2.2260 
  239.7500   -16.8010    65.1230   115.4680   110.3480   145.4500    24.6010     2.2040 
  239.8750   -16.6700    68.7180   103.5800    97.8870   119.9600    24.5700     2.1880 
  240.0000   -16.5420    72.1920    94.1290    85.5660    93.6070    24.5410     2.1780 
  240.1250   -16.3340    73.2520    87.7060    75.3090    70.0310    24.5420     2.1740 
  240.2500   -16.1420    72.2160    80.0710    67.4130    63.0220    24.5520     2.1750 
  240.3750   -15.9090    71.4920    74.4020    61.6480    63.1110    24.4970     2.1770 
  240.5000   -15.6630    72.6130    70.0950    57.6030    57.3440    24.4350     2.1820 
  240.6250   -15.4260    73.5610    67.0210    55.1200    51.1050    24.4380     2.1880 
  240.7500   -15.2300    73.2650    64.8130    53.6790    49.0160    24.4700     2.1900 
  240.8750   -15.0440    72.6670    63.4010    53.0110    51.3670    24.4630     2.1890 
  241.0000   -14.8580    72.0520    62.5470    52.8140    52.8050    24.4460     2.1830 
  241.1250   -14.7550    70.4270    61.9750    52.8110    51.9610    24.4820     2.1760 
  241.2500   -14.6570    68.9520    61.4800    52.7810    52.0940    24.5350     2.1710 
  241.3750   -14.6420    68.8490    60.9950    52.5950    54.6130    24.5130     2.1680 
  241.5000   -14.6150    69.3050    60.4970    52.2060    56.7100    24.4620     2.1660 
  241.6250   -14.6560    68.9250    60.1310    51.8090    52.9840    24.4710     2.1630 
  241.7500   -14.6670    68.5260    60.1800    51.7680    47.3440    24.4790     2.1570 
  241.8750   -14.7370    68.0670    60.9710    52.3550    45.9400    24.4350     2.1500 
  242.0000   -14.7980    66.6130    62.7510    53.7640    48.7420    24.3510     2.1410 
  242.1250   -14.8870    65.7230    65.7900    56.2120    50.2860    24.2890     2.1370 
  242.2500   -14.9510    66.8990    69.5850    59.3640    52.2720    24.2110     2.1400 
  242.3750   -14.9840    69.6090    73.4120    62.7530    56.0540    24.1410     2.1550 
  242.5000   -15.0250    70.4690    76.4130    65.6950    60.7580    24.1020     2.1810 
  242.6250   -15.0520    68.0830    77.2160    67.0440    62.3770    24.1180     2.2150 
  242.7500   -15.0950    67.2200    75.4930    66.2910    63.0090    24.1480     2.2430 
  242.8750   -15.1200    68.7730    71.4190    63.3900    63.9410    24.2470     2.2580 
  243.0000   -15.1660    70.9640    65.7540    58.8150    62.5160    24.4120     2.2550 
  243.1250   -15.2680    71.1180    59.6440    53.3140    58.2710    24.4890     2.2380 
  243.2500   -15.4130    72.3450    54.1760    47.9670    52.6520    24.4510     2.2210 
  243.3750   -15.6090    75.0580    49.9000    43.4290    44.3440    24.4080     2.2080 
  243.5000   -15.8260    75.8920    46.9340    40.0430    35.1610    24.3970     2.2000 
  243.6250   -16.0960    74.9230    45.1700    38.1170    32.2470    24.3660     2.1930 
  243.7500   -16.3870    76.6380    44.3280    37.4130    34.5950    24.3360     2.1840 
  243.8750   -16.7200    80.1970    44.3570    37.8180    37.0260    24.3430     2.1740 
  244.0000   -17.0650    81.0630    45.2700    39.1770    37.5330    24.3540     2.1680 
  244.1250   -17.4040    78.7280    47.0850    41.4250    36.1970    24.3050     2.1720 
  244.2500   -17.7310    78.0680    49.3720    44.0500    37.5980    24.2730     2.1900 
  244.3750   -18.0480    79.7180    51.5960    46.5110    43.5030    24.3000     2.2230 
  244.5000   -18.3720    80.9410    53.2070    48.2780    55.9380    24.3440     2.2640 
  244.6250   -18.6240    79.0590    53.6330    48.7610    69.9570    24.3650     2.2990 
  244.7500   -18.8600    74.6750    52.9050    48.0570    74.8040    24.3230     2.3150 
  244.8750   -19.0240    71.7580    51.4150    46.4930    67.5970    24.2630     2.3090 
  245.0000   -19.2330    73.3330    49.9490    44.7580    49.9610    24.2210     2.2870 
  245.1250   -19.2930    75.5320    49.6130    43.8760    36.1330    24.2290     2.2570 
  245.2500   -19.3740    73.8160    51.0750    44.5360    33.1730    24.3020     2.2360 
  245.3750   -19.3860    70.1490    54.7240    47.2130    39.1410    24.3640     2.2330 
  245.5000   -19.3920    68.0090    60.4890    51.9500    48.5240    24.3470     2.2600 
  245.6250   -19.3270    69.0560    67.8430    58.4090    57.0200    24.2990     2.3240 
  245.7500   -19.2580    70.5640    75.3290    65.2550    62.9930    24.2820     2.4070 
  245.8750   -19.1850    70.9870    81.4650    71.1970    67.8470    24.2800     2.4850 
  246.0000   -19.0450    69.4130    84.9230    74.9700    85.1440    24.2790     2.5290 
  246.1250   -18.9630    69.1640    84.5770    75.4330    84.0840    24.2920     2.5160 
