~V
VERS. 2.00: Ver 2.00
~W
STRT.M 55.0000:
STOP.M 271.0000:
STEP.M 0.1250:
NULL. -999.2500:
UWI. DF5009:
~C
DEPT.M :
GR.API :
CALI.CM :
RXO.OHMM :
RI. :
RML.OHMM :
DEN.GM/CC :
SP.MV :
~A
# ...
  100.0000    83.7940    24.1650     6.9000     5.0810     6.9740     2.1900   -20.5140 
  100.1250    82.4910    24.0290     7.8290     5.4210     7.5430     2.1690   -20.5510 
  100.2500    81.4520    23.9980     8.0920     5.7900     8.0370     2.1550   -20.7000 
  100.3750    76.8900    23.9990     8.0790     6.1280     8.4140     2.1490   -20.9320 
  100.5000    70.7350    24.0020     8.1460     6.4300     8.7400     2.1500   -21.0940 
  100.6250    69.7130    24.0700     8.4550     6.7560     9.1710     2.1590   -21.2140 
  100.7500    72.1610    24.2860     8.6770     7.1680     9.7800     2.1760   -21.2830 
  100.8750    73.4460    24.5540     8.5170     7.6770    10.5220     2.2020   -21.3190 
  101.0000    74.1290    24.6430     8.4080     8.2200    11.2370     2.2350   -21.3440 
  101.1250    75.8780    24.5140     8.6690     8.6290    11.6310     2.2610   -21.2720 
  101.2500    75.8390    24.4680     9.0460     8.7710    11.5880     2.2670   -21.0880 
  101.3750    72.4600    24.6120     9.2170     8.6100    11.1380     2.2480   -20.8670 
  101.5000    69.3660    24.7920     9.1100     8.2230    10.4590     2.2150   -20.6910 
  101.6250    71.7190    24.8400     8.9980     7.7660     9.8010     2.1850   -20.5100 
  101.7500    75.8310    24.8030     8.9620     7.3840     9.3250     2.1660   -20.3620 
  101.8750    77.8620    24.7330     9.0530     7.1320     9.0600     2.1560   -20.2090 
  102.0000    77.0420    24.6770     9.0720     7.0120     8.9710     2.1510   -19.9780 
  102.1250    76.3980    24.6570     9.0680     7.0110     9.0070     2.1480   -19.7640 
  102.2500    76.3070    24.6560     9.1490     7.0620     9.0780     2.1450   -19.6420 
  102.3750    75.5010    24.6590     9.2340     7.1190     9.1200     2.1430   -19.5290 
  102.5000    74.8490    24.6530     9.2300     7.1360     9.0800     2.1410   -19.3860 
  102.6250    76.5900    24.6220     9.3030     7.0690     8.9060     2.1430   -19.2230 
  102.7500    80.4480    24.5820     9.2750     6.9150     8.6190     2.1460   -19.1050 
  102.8750    82.2210    24.5920     8.8760     6.6830     8.2510     2.1490   -19.0150 
  103.0000    80.5840    24.6920     8.1890     6.3980     7.8510     2.1500   -19.0200 
  103.1250    78.9570    24.8310     7.6040     6.1080     7.4740     2.1500   -19.0020 
  103.2500    79.5570    24.9120     7.5070     5.8510     7.1490     2.1520   -18.9340 
  103.3750    82.2020    24.9080     7.3830     5.6450     6.8850     2.1580   -18.8950 
  103.5000    86.6860    24.8520     7.0600     5.4910     6.6750     2.1650   -18.9220 
  103.6250    90.5460    24.7950     6.7710     5.3840     6.5080     2.1680   -18.9560 
  103.7500    90.2730    24.7640     6.7910     5.3080     6.3670     2.1670   -18.9250 
  103.8750    86.2130    24.7510     6.7970     5.2600     6.2640     2.1630   -18.8760 
  104.0000    82.1710    24.7300     6.7060     5.2520     6.2340     2.1580   -18.7580 
  104.1250    81.9270    24.6840     6.5000     5.3230     6.3480     2.1530   -18.6900 
  104.2500    85.4300    24.6370     6.5310     5.4840     6.5940     2.1500   -18.6360 
  104.3750    89.4850    24.6170     6.6800     5.7100     6.8990     2.1540   -18.6080 
  104.5000    89.7550    24.6300     6.9030     5.9100     7.1040     2.1650   -18.4460 
  104.6250    85.9660    24.6440     7.3070     5.8980     6.9520     2.1820   -18.1930 
  104.7500    81.4220    24.6720     7.6550     5.5970     6.4060     2.2000   -17.9550 
  104.8750    78.3320    24.7870     6.8850     5.0480     5.5820     2.2150   -17.7910 
  105.0000    79.5030    25.0280     5.2020     4.4050     4.7300     2.2290   -17.7390 
  105.1250    85.9500    25.3290     3.9490     3.8840     4.1610     2.2390   -17.7600 
  105.2500    92.5460    25.5480     3.7250     3.5890     3.9730     2.2430   -17.7630 
  105.3750    95.7110    25.5920     3.8550     3.5610     4.1850     2.2390   -17.8350 
  105.5000    96.8950    25.4280     4.4280     3.8000     4.7580     2.2230   -18.0500 
  105.6250    96.6850    25.1280     5.2870     4.2870     5.5880     2.1990   -18.5230 
  105.7500    93.3650    24.8700     6.4590     4.8430     6.3610     2.1760   -19.0050 
  105.8750    88.6030    24.7110     7.4290     5.2640     6.7840     2.1620   -19.4500 
  106.0000    84.3030    24.6190     7.8280     5.3880     6.7140     2.1620   -19.8190 
  106.1250    81.6990    24.5620     7.7260     5.2280     6.3480     2.1860   -20.1760 
  106.2500    81.2720    24.5480     7.3060     5.1000     6.2560     2.2300   -20.5510 
  106.3750    81.7510    24.6170     6.6440     5.2940     6.9020     2.2910   -20.7980 
  106.5000    81.4230    24.7830     7.0450     6.0610     8.5900     2.3630   -21.0210 
  106.6250    80.6020    24.9730    13.1900     7.6940    11.4570     2.4290   -21.1980 
  106.7500    81.6510    25.0730    22.3250     9.9080    14.6580     2.4660   -21.4570 
  106.8750    83.0610    25.0730    28.1230    11.9500    16.9050     2.4570   -21.7890 
  107.0000    80.4500    25.0340    27.6450    12.7240    16.9410     2.4050   -22.1860 
  107.1250    73.4900    24.9580    22.6180    11.6520    14.6060     2.3290   -22.5620 
  107.2500    69.0910    24.8230    16.3670     9.9270    11.8100     2.2580   -22.8930 
  107.3750    69.6730    24.6700    11.5220     8.3720     9.6640     2.2070   -23.3200 
  107.5000    71.5710    24.5600     9.2160     7.3060     8.4720     2.1780   -23.7170 
  107.6250    69.7920    24.4810     8.9900     6.7950     8.1400     2.1670   -24.0450 
  107.7500    67.1090    24.3820     8.8720     6.6360     8.2150     2.1620   -24.2140 
  107.8750    67.6700    24.2740     8.7900     6.6960     8.4390     2.1550   -24.2550 
  108.0000    70.7870    24.1760     8.7260     6.8420     8.6210     2.1450   -24.1620 
  108.1250    71.9760    24.0490     8.5760     6.9600     8.6500     2.1380   -24.0450 
  108.2500    69.5950    23.8610     8.3120     7.0190     8.5750     2.1360   -23.9360 
  108.3750    65.9390    23.6370     8.1480     7.0250     8.4540     2.1350   -23.8190 
  108.5000    66.4200    23.4420     8.0770     6.9930     8.3260     2.1360   -23.6310 
  108.6250    73.4400    23.3800     8.2420     6.9340     8.2160     2.1360   -23.3970 
  108.7500    79.2710    23.4380     8.3700     6.8610     8.1230     2.1370   -23.2040 
  108.8750    80.8720    23.5850     8.2500     6.7780     8.0390     2.1390   -23.1400 
  109.0000    80.3980    23.8150     8.0170     6.6840     7.9460     2.1400   -23.1190 
  109.1250    78.4540    24.1070     7.9380     6.5560     7.8030     2.1420   -23.0150 
  109.2500    75.7470    24.3630     7.7750     6.3700     7.5780     2.1470   -22.8780 
  109.3750    75.0050    24.5150     7.3570     6.1140     7.2600     2.1580   -22.7770 
  109.5000    77.4300    24.5720     6.8560     5.8080     6.8920     2.1740   -22.6860 
  109.6250    79.7990    24.5830     6.5080     5.5230     6.5850     2.1860   -22.5470 
  109.7500    81.8090    24.5810     6.3110     5.3310     6.4370     2.1890   -22.3900 
  109.8750    84.0690    24.5770     6.0110     5.2770     6.5010     2.1810   -22.1830 
  110.0000    84.8640    24.5640     6.2190     5.3760     6.7670     2.1680   -22.0640 
  110.1250    82.5320    24.5470     6.9930     5.6090     7.1550     2.1570   -22.0270 
  110.2500    78.8330    24.5430     7.6320     5.8760     7.5010     2.1520   -21.9480 
  110.3750    74.9540    24.5530     7.7380     6.0890     7.6940     2.1530   -21.7950 
  110.5000    72.9230    24.5180     7.5970     6.1880     7.6930     2.1590   -21.7340 
  110.6250    72.9440    24.3470     7.4010     6.1560     7.5500     2.1660   -21.6370 
  110.7500    72.6520    24.0910     7.2140     6.0810     7.4230     2.1710   -21.5670 
  110.8750    72.0350    23.8530     6.9690     6.0310     7.3940     2.1700   -21.3910 
  111.0000    72.9960    23.6920     6.7830     6.0320     7.4650     2.1650   -21.1550 
  111.1250    74.5980    23.5670     6.6700     6.0570     7.5520     2.1610   -20.8410 
