~V
VERS. 2.00: Ver 2.00
~W
STRT.M 60.0000:
STOP.M 271.0000:
STEP.M 0.1250:
NULL. -999.2500:
UWI. DF5026:
~C
DEPT.M :
SP.MV :
GR.API :
CALI.CM :
RXO.OHMM :
RI. :
RML.OHMM :
DEN.GM/CC :
~A
# ...
  262.5000   -28.2610    65.3900    19.7380     4.4420     6.2310     7.5240     2.4100 
  262.6250   -27.9730    65.3900    19.7380     4.2590     6.2590     7.5920     2.4060 
  262.7500   -27.6730    65.3900    19.7380     4.1440     6.2770     7.6120     2.3990 
  262.8750   -27.4910    65.3900    19.7380     4.1940     6.2830     7.5880     2.3900 
  263.0000   -27.3650    65.3900    19.7380     4.3360     6.2860     7.5470     2.3830 
  263.1250   -27.1970    65.3900    19.7380     4.4330     6.2940     7.5210     2.3780 
  263.2500   -26.9620    65.3900    19.7380     4.5490     6.3040     7.5130     2.3740 
  263.3750   -26.7450    65.3900    19.7310     4.8710     6.3100     7.5120     2.3720 
  263.5000   -26.5660    65.3900    19.7400     5.2860     6.3110     7.5100     2.3700 
  263.6250   -26.6260    65.3900    19.8970     5.1220     6.3080     7.5050     2.3670 
  263.7500   -26.6910    65.3900    20.2230     4.7080     6.3050     7.5000     2.3640 
  263.8750   -26.6680    65.3900    20.5780     4.4590     6.3030     7.5000     2.3610 
  264.0000   -26.6750    65.3900    20.7750     4.3900     6.2990     7.5110     2.3610 
  264.1250   -26.6620    65.3900    20.7150     4.3190     6.2910     7.5340     2.3680 
  264.2500   -26.6750    65.3900    20.5380     4.2910     6.2800     7.5590     2.3810 
  264.3750   -26.6480    65.3900    20.3510     4.3680     6.2670     7.5760     2.3980 
  264.5000   -26.6450    65.3900    20.2170     4.4140     6.2550     7.5800     2.4130 
  264.6250   -26.6690    65.3900    20.1310     4.2820     6.2460     7.5750     2.4240 
  264.7500   -26.7480    65.3900    20.0380     4.2340     6.2410     7.5710     2.4290 
  264.8750   -26.7130    65.3900    19.9260     4.2240     6.2420     7.5650     2.4300 
  265.0000   -26.6570    65.3900    19.8090     4.2260     6.2460     7.5470     2.4240 
  265.1250   -26.7620    65.3900    19.6510     4.1860     6.2540     7.5100     2.4110 
  265.2500   -26.9070    65.3900    19.3930     4.1880     6.2640     7.4660     2.3950 
  265.3750   -26.9790    65.3900    19.0420     4.1700     6.2740     7.4340     2.3780 
  265.5000   -26.9990    65.3900    18.6580     4.0720     6.2830     7.4270     2.3610 
  265.6250   -26.9700    65.3900    18.2780     3.9510     6.2870     7.4390     2.3440 
  265.7500   -26.9190    65.3900    17.8960     3.8870     6.2870     7.4490     2.3230 
  265.8750   -26.9330    65.3900    17.5300     3.8790     6.2820     7.4460     2.2960 
  266.0000   -27.0410    65.3900    17.2120     3.9230     6.2730     7.4330     2.2640 
  266.1250   -27.0630    65.3900    16.9720     3.8630     6.2600     7.4220     2.2320 
  266.2500   -27.0570    65.3900    16.8070     3.8930     6.2500     7.4220     2.2060 
  266.3750   -27.0920    65.3900    16.7010     3.9850     6.2460     7.4300     2.1920 
  266.5000   -27.1820    65.3900    16.5760     4.0390     6.2450     7.4320     2.1900 
  266.6250   -27.2230    65.3900    16.3510     4.0390     6.2450     7.4320     2.2000 
  266.7500   -27.2180    65.3900    16.1120     4.1010     6.2450     7.4320     2.2130 
  266.8750   -27.2230    65.3900    15.9370     4.0960     6.2450     7.4320     2.2210 
  267.0000   -27.2300    65.3900    15.7820     4.0330     6.2450     7.4320     2.2220 
  267.1250   -27.2150    65.3900    15.5390     4.0950     6.2450     7.4320     2.2150 
  267.2500   -27.1600    65.3900    15.2580     4.1400     6.2450     7.4320     2.2070 
  267.3750   -27.1010    65.3900    15.0450     4.1190     6.2450     7.4320     2.2020 
  267.5000   -27.0350    65.3900    14.8860     4.0830     6.2450     7.4320     2.2000 
  267.6250   -27.0150    65.3900    14.6940     4.1430     6.2450     7.4320     2.2000 
  267.7500   -26.9740    65.3900    14.5030     4.2110     6.2450     7.4320     2.1980 
  267.8750   -26.9880    65.3900    14.3910     4.2570     6.2450     7.4320     2.1950 
  268.0000   -27.0410    65.3900    14.3680     4.2680     6.2450     7.4320     2.1900 
  268.1250   -27.0250    65.3900    14.3740     4.2650     6.2450     7.4320     2.1870 
  268.2500   -27.0410    65.3900    14.3750     4.2670     6.2450     7.4320     2.1130 
  268.3750   -27.1680    65.3900    14.3740     4.2710     6.2450     7.4320     1.8730 
  268.5000   -27.3580    65.3900    14.3740     4.2720     6.2450     7.4320     1.9500 
  268.6250   -27.4500    65.3900    14.3750     4.2700     6.2450     7.4320     2.3590 
  268.7500   -27.4870    65.3900    14.3740     4.2690     6.2450     7.4320     2.7320 
  268.8750   -27.5140    65.3900    14.3690     4.2680     6.2450     7.4320     3.0070 
  269.0000   -27.5110    65.3900    14.3570     4.2690     6.2450     7.4320     3.1790 
  269.1250   -27.5780    65.3900    14.3400     4.2670     6.2450     7.4320     3.2180 
  269.2500   -27.6390    65.3900    14.3250     4.2660     6.2450     7.4320     3.0370 
  269.3750   -27.6310    65.3900    14.3160     4.2680     6.2450     7.4320     2.8990 
  269.5000   -27.5840    65.3900    14.3130     4.2760     6.2450     7.4320  -999.2500 
  269.6250   -27.5580    65.3900    14.3130     4.2740     6.2450     7.4320  -999.2500 
  269.7500   -27.5870    65.3900    14.3130     4.2710     6.2450     7.4320  -999.2500 
  269.8750   -27.6030    65.3900    14.3130     4.2710     6.2450     7.4320  -999.2500 
  270.0000   -27.6030    65.3900    14.3130     4.2790     6.2450     7.4320  -999.2500 
  270.1250  -999.2500    65.3900    14.3130     4.2790     6.2450     7.4320  -999.2500 
  270.2500  -999.2500    65.3900    14.3130     4.2760     6.2450     7.4320  -999.2500 
  270.3750  -999.2500    65.3900    14.3130     4.2720     6.2450     7.4320  -999.2500 
  270.5000  -999.2500    65.3900    14.3120     4.2750     6.2450     7.4320  -999.2500 
  270.6250  -999.2500    65.3900    14.3110     4.2790     6.2450     7.4320  -999.2500 
  270.7500  -999.2500    65.3900    14.3090     4.2780     6.2450     7.4320  -999.2500 
  270.8750  -999.2500    65.3900    14.3080     4.2760     6.2450     7.4320  -999.2500 
  271.0000  -999.2500    65.3900    14.3070     4.2800     6.2450     7.4320  -999.2500 
