~V
VERS. 2.00: Ver 2.00
~W
STRT.M 55.0000:
STOP.M 277.0000:
STEP.M 0.1250:
NULL. -999.2500:
UWI. DF5040:
~C
DEPT.M :
GR.API :
CALI.CM :
RXO.OHMM :
RI. :
RML.OHMM :
DEN.GM/CC :
SP.MV :
~A
# ...
   88.7500    77.4780    22.3260     6.3590     7.0340     8.3220     2.1920   -17.8200 
   88.8750    79.2720    22.4420     6.7680     7.0830     8.3750     2.1940   -18.0040 
   89.0000    79.7370    22.5490     7.5570     7.1530     8.4580     2.2010   -18.1730 
   89.1250    77.5180    22.6830     8.6370     7.2270     8.5430     2.2120   -18.3230 
   89.2500    73.4660    22.8200     9.4910     7.2830     8.6000     2.2220   -18.4610 
   89.3750    69.4760    22.8490     9.5950     7.3060     8.6160     2.2290   -18.5950 
   89.5000    67.0490    22.7020     9.0150     7.2930     8.5910     2.2290   -18.7260 
   89.6250    66.0330    22.4490     8.5000     7.2470     8.5360     2.2220   -18.8500 
   89.7500    65.3480    22.2650     8.1830     7.1880     8.4710     2.2110   -18.9610 
   89.8750    65.0110    22.2260     8.0950     7.1370     8.4010     2.1940   -19.0580 
   90.0000    65.1590    22.3260     8.2140     7.1040     8.3290     2.1730   -19.1480 
   90.1250    65.3280    22.5460     8.4960     7.0940     8.2580     2.1550   -19.2390 
   90.2500    65.2720    22.7400     8.7540     7.1010     8.1840     2.1460   -19.3390 
   90.3750    65.9680    22.8230     8.8630     7.1190     8.1060     2.1450   -19.4470 
   90.5000    67.7650    22.8100     8.8540     7.1420     8.0280     2.1480   -19.5570 
   90.6250    68.7740    22.7820     8.8420     7.1580     7.9640     2.1530   -19.6510 
   90.7500    68.1350    22.7610     8.8160     7.1590     7.9210     2.1560   -19.7180 
   90.8750    67.2290    22.7400     8.7650     7.1430     7.8980     2.1550   -19.7570 
   91.0000    66.8410    22.7090     8.7240     7.1180     7.8850     2.1510   -19.7750 
   91.1250    65.8550    22.6350     8.7270     7.0890     7.8710     2.1540   -19.7850 
   91.2500    64.0370    22.5010     8.7430     7.0590     7.8530     2.1660   -19.7980 
   91.3750    62.1420    22.3320     8.7620     7.0340     7.8410     2.1750   -19.8060 
   91.5000    60.3340    22.2500     8.7960     7.0300     7.8520     2.1720   -19.7960 
   91.6250    58.8600    22.3410     8.8000     7.0600     7.8970     2.1590   -19.7430 
   91.7500    58.5230    22.5430     8.7640     7.1200     7.9590     2.1500   -19.6510 
   91.8750    59.2700    22.7080     8.7390     7.1910     8.0230     2.1480   -19.5310 
   92.0000    60.2010    22.7780     8.7850     7.2560     8.0690     2.1470   -19.3970 
   92.1250    60.9630    22.7730     8.8780     7.2890     8.0580     2.1500   -19.2610 
   92.2500    61.7880    22.7100     8.9140     7.2790     7.9840     2.1640   -19.1240 
   92.3750    62.4240    22.5900     8.8250     7.2240     7.8570     2.1810   -18.9800 
   92.5000    63.1010    22.4910     8.6430     7.1400     7.7050     2.1840   -18.8280 
   92.6250    65.6330    22.4790     8.4670     7.0550     7.5770     2.1620   -18.6790 
   92.7500    70.0190    22.5600     8.3980     6.9980     7.5090     2.1390   -18.5560 
   92.8750    74.1450    22.6540     8.4330     6.9870     7.5140     2.1340   -18.4800 
   93.0000    76.0080    22.7080     8.5080     7.0270     7.5860     2.1490   -18.4650 
   93.1250    75.6850    22.7560     8.5430     7.1120     7.7050     2.1640   -18.5150 
   93.2500    74.9150    22.8490     8.5180     7.2160     7.8250     2.1680   -18.6020 
   93.3750    74.1700    22.9430     8.4440     7.3090     7.9080     2.1640   -18.7000 
   93.5000    73.1880    22.9910     8.3510     7.3690     7.9360     2.1620   -18.7910 
   93.6250    70.7750    22.9980     8.2600     7.3830     7.9090     2.1620   -18.8570 
   93.7500    66.9200    22.9990     8.2050     7.3610     7.8470     2.1590   -18.8960 
   93.8750    63.6430    23.0000     8.1820     7.3130     7.7670     2.1510   -18.9030 
   94.0000    63.5400    23.0010     8.1850     7.2560     7.6890     2.1430   -18.8690 
   94.1250    67.0120    23.0070     8.1900     7.2060     7.6300     2.1330   -18.7690 
   94.2500    69.9590    23.0370     8.2210     7.1680     7.5860     2.1190   -18.5980 
   94.3750    70.2810    23.1320     8.2780     7.1310     7.5430     2.1020   -18.3510 
   94.5000    69.3860    23.3140     8.3100     7.0790     7.4810     2.0930   -18.0360 
   94.6250    70.7430    23.4450     8.2940     6.9820     7.3690     2.1010   -17.6670 
   94.7500    74.6000    23.4640     8.2770     6.8380     7.2100     2.1160   -17.2770 
   94.8750    78.6160    23.4130     8.2710     6.6480     7.0170     2.1300   -16.8830 
   95.0000    80.4370    23.3430     8.2220     6.4300     6.8150     2.1440   -16.4890 
   95.1250    79.2970    23.2680     8.1250     6.2250     6.6570     2.1660   -16.0930 
   95.2500    77.1480    23.1760     7.9510     6.0830     6.5840     2.1900   -15.6930 
   95.3750    75.8740    23.1110     7.7130     6.0390     6.6140     2.2040   -15.2940 
   95.5000    76.2880    23.1020     7.5060     6.0950     6.7370     2.1980   -14.9030 
   95.6250    78.1870    23.0590     7.3650     6.2250     6.9060     2.1860   -14.5280 
   95.7500    80.5130    22.9970     7.3860     6.3600     7.0460     2.1860   -14.1640 
   95.8750    82.7470    22.9340     7.4770     6.4470     7.0980     2.2000   -13.7970 
   96.0000    85.2700    22.9000     7.6070     6.4390     7.0240     2.2100   -13.4160 
   96.1250    89.5630    22.9640     7.6390     6.2970     6.8090     2.2070   -13.0080 
   96.2500    94.5170    23.1190     7.4300     6.0670     6.5230     2.2120   -12.5900 
   96.3750    97.4440    23.3340     6.9110     5.8020     6.2360     2.2380   -12.1850 
   96.5000    97.2980    23.6060     6.2990     5.5620     6.0130     2.2770   -11.8240 
   96.6250    95.7290    23.8050     5.8500     5.4010     5.8970     2.2910   -11.5370 
   96.7500    93.6720    23.8530     5.6600     5.3100     5.8500     2.2780   -11.3160 
   96.8750    90.6020    23.8030     5.6550     5.2630     5.8310     2.2600   -11.1500 
   97.0000    87.9300    23.7250     5.8340     5.2260     5.7990     2.2640   -11.0250 
   97.1250    88.3340    23.6720     6.2320     5.1580     5.7200     2.2930   -10.9380 
   97.2500    90.7150    23.7070     6.6530     5.0600     5.6050     2.3260   -10.8880 
   97.3750    93.5820    23.8650     6.6540     4.9510     5.4870     2.3410   -10.8790 
   97.5000    96.7880    24.0860     6.0720     4.8630     5.4000     2.3320   -10.9160 
   97.6250    99.2460    24.2460     5.2870     4.8260     5.3800     2.3120   -11.0040 
   97.7500    99.2820    24.2990     4.9420     4.8380     5.4090     2.3050   -11.1250 
   97.8750    97.9050    24.2340     4.9740     4.8800     5.4510     2.3180   -11.2690 
   98.0000    97.4090    24.0760     5.2360     4.9150     5.4590     2.3420   -11.4340 
   98.1250    97.8790    23.9590     5.4720     4.8970     5.4010     2.3550   -11.6350 
   98.2500    98.9180    23.9510     5.4930     4.8310     5.3110     2.3490   -11.8820 
   98.3750   101.7410    23.9650     5.2760     4.7610     5.2570     2.3290   -12.1840 
   98.5000   105.0780    24.0150     4.9360     4.7650     5.3200     2.3050   -12.5370 
   98.6250   103.6850    24.0770     4.7280     4.9340     5.5800     2.2880   -12.9240 
   98.7500    97.5270    24.0670     4.9280     5.2550     5.9860     2.2830   -13.3150 
   98.8750    90.4520    24.0050     5.9870     5.6960     6.4770     2.3000   -13.6980 
   99.0000    85.6710    23.9560     8.5480     6.1960     6.9730     2.3510   -14.0730 
   99.1250    84.1650    24.0060    13.2320     6.6810     7.4080     2.4300   -14.4560 
   99.2500    84.7550    23.9760    17.8370     7.1160     7.7870     2.4860   -14.8560 
   99.3750    85.6810    23.8900    18.8670     7.5140     8.1560     2.4890   -15.2760 
   99.5000    85.3490    23.9790    15.3810     7.9240     8.5820     2.4520   -15.7080 
   99.6250    83.8280    24.1750    11.7780     8.4140     9.1150     2.4290   -16.1430 
   99.7500    82.2180    24.2370    12.8250     8.9650     9.6910     2.4410   -16.5790 
   99.8750    80.0580    24.1300    18.6840     9.4780    10.1750     2.4640   -17.0220 
