~V
VERS. 2.00: Ver 2.00
~W
STRT.M 55.0000:
STOP.M 271.0000:
STEP.M 0.1250:
NULL. -999.2500:
UWI. DF5028:
~C
DEPT.M :
SP.MV :
GR.API :
RML.OHMM :
RI. :
RXO.OHMM :
CALI.CM :
DEN.GM/CC :
~A
   55.0000    49.7480  -999.2500  -999.2500  -999.2500  -999.2500  -999.2500  -999.2500 
   55.1250    49.3440  -999.2500  -999.2500  -999.2500  -999.2500  -999.2500  -999.2500 
   55.2500    48.8020  -999.2500  -999.2500  -999.2500  -999.2500  -999.2500  -999.2500 
   55.3750    48.0950  -999.2500  -999.2500  -999.2500  -999.2500  -999.2500  -999.2500 
   55.5000    47.1780  -999.2500  -999.2500  -999.2500  -999.2500  -999.2500  -999.2500 
   55.6250    46.0890  -999.2500  -999.2500  -999.2500  -999.2500  -999.2500  -999.2500 
   55.7500    44.7830  -999.2500  -999.2500  -999.2500  -999.2500  -999.2500  -999.2500 
   55.8750    43.4490  -999.2500  -999.2500  -999.2500  -999.2500  -999.2500  -999.2500 
   56.0000    41.9720  -999.2500  -999.2500  -999.2500  -999.2500  -999.2500  -999.2500 
   56.1250    40.5530  -999.2500  -999.2500  -999.2500  -999.2500  -999.2500  -999.2500 
   56.2500    39.2350  -999.2500  -999.2500  -999.2500  -999.2500  -999.2500  -999.2500 
   56.3750    38.0120  -999.2500  -999.2500  -999.2500  -999.2500  -999.2500     0.0000 
   56.5000    36.9610  -999.2500  -999.2500  -999.2500  -999.2500  -999.2500     0.0000 
   56.6250    36.0430  -999.2500  -999.2500  -999.2500  -999.2500  -999.2500     0.0000 
   56.7500    35.3040  -999.2500  -999.2500  -999.2500  -999.2500  -999.2500     0.0000 
   56.8750    34.6160  -999.2500  -999.2500  -999.2500  -999.2500  -999.2500     0.0000 
   57.0000    34.0860  -999.2500  -999.2500  -999.2500  -999.2500  -999.2500     0.0000 
   57.1250    33.7050  -999.2500  -999.2500  -999.2500  -999.2500  -999.2500     0.5170 
   57.2500    33.3600  -999.2500  -999.2500  -999.2500  -999.2500  -999.2500     2.0680 
   57.3750    33.1620  -999.2500  -999.2500  -999.2500  -999.2500  -999.2500     2.0690 
   57.5000    32.9880  -999.2500  -999.2500  -999.2500  -999.2500  -999.2500     2.0660 
   57.6250    32.9370  -999.2500  -999.2500  -999.2500  -999.2500  -999.2500     2.0610 
   57.7500    32.8720  -999.2500  -999.2500  -999.2500  -999.2500  -999.2500     2.0550 
   57.8750    32.8840  -999.2500  -999.2500  -999.2500  -999.2500  -999.2500     2.0510 
   58.0000    32.8660  -999.2500  -999.2500  -999.2500  -999.2500  -999.2500     2.0510 
   58.1250    32.8660  -999.2500  -999.2500  -999.2500  -999.2500  -999.2500     2.0550 
   58.2500    32.8440  -999.2500  -999.2500  -999.2500  -999.2500  -999.2500     2.0620 
   58.3750    32.8000  -999.2500  -999.2500  -999.2500  -999.2500  -999.2500     2.0700 
   58.5000    32.7500    39.2080    17.4640     0.9240    10.0040    25.8950     2.0770 
   58.6250    32.5850    39.2080    17.4640     0.9240    10.0040    25.8950     2.0820 
   58.7500    32.4320    39.0850    17.4610     0.9260     9.7670    25.8820     2.0840 
   58.8750    32.0740    39.5460    17.6160     0.9320     9.1550    25.8410     2.0830 
   59.0000    31.6390    41.1980    18.0000     0.9340     8.6210    25.7950     2.0790 
   59.1250    30.9290    41.2690    18.1070     0.9200     8.3790    25.7650     2.0740 
   59.2500    30.0030    40.0570    17.1050     0.8770     8.3400    25.7540     2.0710 
   59.3750    28.8430    40.1230    14.4620     0.7950     8.3110    25.7530     2.0710 
   59.5000    27.3240    41.9830    10.0940     0.6680     8.1280    25.7540     2.0750 
   59.6250    25.5200    43.6970     5.3730     0.5070     7.6360    25.7540     2.0930 
   59.7500    23.3630    42.5490     2.2940     0.3520     6.7520    25.7450     2.1370 
   59.8750    20.8480    39.6540     0.7370     0.2270     5.4740    25.7180     2.2220 
   60.0000    17.8390    37.9970    -0.0140     0.1420     3.9400    25.6760     2.3540 
   60.1250    14.0910    39.9850    -0.3530     0.1180     2.1760    25.5640     2.5130 
   60.2500     9.6970    44.6780    -0.4150     0.1750     0.9260    25.2220     2.6330 
   60.3750     4.5330    50.2770    -0.1910     0.3630     0.6230    24.5750     2.6640 
   60.5000    -1.0640    55.0630     0.5560     0.7450     1.2490    23.8340     2.5960 
   60.6250    -6.9760    57.8900     1.8370     1.4300     2.7940    23.4360     2.4670 
   60.7500   -12.7950    59.3630     3.6720     2.3880     5.1410    23.4010     2.3370 
   60.8750   -18.2790    59.5790     5.6940     3.5550     8.4270    23.5120     2.2340 
   61.0000   -23.2870    59.2080     7.0400     4.8120     9.7420    23.5980     2.1690 
   61.1250   -27.4610    60.0910     7.8900     5.9960     9.5470    23.6290     2.1400 
   61.2500   -30.8550    62.6150     8.4770     7.0140     9.3630    23.6540     2.1270 
   61.3750   -33.3190    63.5540     8.9400     7.8410     9.2930    23.7080     2.1240 
   61.5000   -35.1030    60.4590     9.4080     8.4910     9.3210    23.7890     2.1330 
   61.6250   -36.2460    57.0520     9.8640     8.9340     9.4480    23.7640     2.1610 
   61.7500   -37.1900    56.5780    10.1940     9.1730     9.6010    23.5960     2.1970 
   61.8750   -37.9520    57.9620    10.3320     9.2160     9.7520    23.4250     2.2290 
   62.0000   -38.6670    60.4440    10.3000     9.1220     9.8760    23.3930     2.2430 
   62.1250   -39.3200    64.9150    10.2290     8.9990     9.9390    23.4770     2.2330 
   62.2500   -39.9030    68.3920    10.2790     8.9630     9.9770    23.5330     2.2100 
   62.3750   -40.4950    67.7060    10.5070     9.0620    10.0210    23.5580     2.1860 
   62.5000   -40.9260    64.5940    10.8890     9.2900    10.0760    23.5880     2.1640 
   62.6250   -41.3650    61.8790    11.3540     9.6030    10.1360    23.5890     2.1480 
   62.7500   -41.7250    60.7240    11.7910     9.8940    10.1850    23.5650     2.1400 
   62.8750   -42.0850    61.2630    12.1120    10.0870    10.2270    23.5600     2.1440 
   63.0000   -42.4150    62.2970    12.2630    10.1410    10.2860    23.5800     2.1560 
   63.1250   -42.6470    62.2420    12.2200    10.0340    10.3530    23.5710     2.1700 
   63.2500   -42.9280    61.5570    12.0350     9.8290    10.3940    23.5190     2.1800 
   63.3750   -43.1310    61.4630    11.7780     9.5760    10.4290    23.4580     2.1820 
   63.5000   -43.4220    62.9870    11.5200     9.3190    10.5220    23.4080     2.1810 
   63.6250   -43.6920    66.6860    11.3050     9.0930    10.6800    23.3660     2.1820 
   63.7500   -43.9930    71.4520    11.1410     8.9000    10.7700    23.3410     2.1850 
   63.8750   -44.2930    72.5930    11.0200     8.7290    10.7580    23.3410     2.1870 
   64.0000   -44.5450    67.8960    10.9160     8.5630    10.6560    23.3560     2.1860 
   64.1250   -44.8870    63.3460    10.7680     8.3720    10.4030    23.3900     2.1800 
   64.2500   -45.1490    64.0380    10.5350     8.1440    10.0620    23.4840     2.1740 
   64.3750   -45.4760    67.0170    10.2180     7.8910     9.7920    23.6260     2.1680 
   64.5000   -45.7170    65.9890     9.8910     7.6630     9.7330    23.7560     2.1620 
   64.6250   -45.9310    60.5690     9.7290     7.5870     9.9000    23.8420     2.1510 
   64.7500   -45.9950    57.8920     9.8620     7.7700    10.1730    23.9180     2.1330 
   64.8750   -45.9990    59.3460    10.4070     8.3130    10.4310    23.9890     2.1100 
   65.0000   -45.8940    61.2530    11.4030     9.2610    10.5420    24.0120     2.0960 
   65.1250   -45.6670    60.6750    12.7680    10.5610    10.6100    23.9360     2.1200 
   65.2500   -45.4610    59.5880    14.1020    11.8920    11.0710    23.8200     2.1890 
   65.3750   -45.2000    61.5400    14.9850    12.9250    12.3540    23.7440     2.2940 
   65.5000   -45.1130    65.3810    15.0530    13.3460    14.5730    23.7530     2.4040 
   65.6250   -45.0940    67.9060    14.1180    12.8700    17.3110    23.7690     2.4660 
   65.7500   -45.2770    68.2080    12.7390    11.7870    18.5800    23.6940     2.4620 
   65.8750   -45.6300    67.2860    11.3820    10.4300    16.4680    23.5460     2.4060 
   66.0000   -46.0650    66.0290    10.3010     9.1190    12.8630    23.4020     2.3270 
   66.1250   -46.6340    64.3580     9.6140     8.1370    10.6530    23.3430     2.2560 
