~V
VERS. 2.00: Ver 2.00
~W
STRT.M 58.0000:
STOP.M 256.0000:
STEP.M 0.1250:
NULL. -999.2500:
UWI. DF5024:
~C
DEPT.M :
SP.MV :
GR.API :
CALI.CM :
RXO.OHMM :
RI. :
RML.OHMM :
DEN.GM/CC :
~A
# ...
   80.5000   -21.2230   102.6240    23.6140    20.2190     8.7060     8.7310     2.3950 
   80.6250   -21.3630   104.9490    23.3960    11.7740     7.2290     7.1860     2.3090 
   80.7500   -21.5180   106.9380    23.2580     8.8940     6.3500     6.4040     2.2550 
   80.8750   -21.6720   108.4170    23.1910     8.1180     6.0240     6.2320     2.2320 
   81.0000   -21.8130   107.3590    23.1330     7.9310     6.1360     6.4710     2.2260 
   81.1250   -21.9290   103.9570    23.0380     8.2030     6.5520     6.9200     2.2170 
   81.2500   -22.0180   101.4630    22.9540     8.6810     7.0190     7.3330     2.2020 
   81.3750   -22.0800   100.7050    22.9290     9.0320     7.3620     7.5680     2.1920 
   81.5000   -22.1250   100.7930    22.9350     9.0170     7.4630     7.5510     2.1920 
   81.6250   -22.1740   101.6600    22.9600     8.7500     7.2470     7.2570     2.2010 
   81.7500   -22.2460   104.5900    23.0670     8.3780     6.8250     6.8090     2.2090 
   81.8750   -22.3590   109.8220    23.2420     7.7850     6.3000     6.3080     2.2170 
   82.0000   -22.5280   115.8390    23.4480     6.9330     5.7760     5.8530     2.2300 
   82.1250   -22.7760   120.1250    23.6310     6.1590     5.3740     5.5660     2.2540 
   82.2500   -23.0930   121.2320    23.7730     5.7430     5.1650     5.5100     2.2760 
   82.3750   -23.4700   117.9420    23.7420     5.9470     5.2090     5.7460     2.2850 
   82.5000   -23.8960   110.3150    23.5060     6.8220     5.5440     6.3080     2.2700 
   82.6250   -24.3590   100.8570    23.2010     8.0170     6.2280     7.2350     2.2350 
   82.7500   -24.8350    92.9630    23.0470     9.0560     7.1640     8.3830     2.2060 
   82.8750   -25.3050    87.3630    23.0080    10.4320     8.2430     9.5950     2.2040 
   83.0000   -25.7490    83.6900    23.0220    13.2570     9.2920    10.6610     2.2410 
   83.1250   -26.1440    81.0050    23.0290    17.7120    10.0260    11.2810     2.3000 
   83.2500   -26.4870    78.0650    22.9370    20.8000    10.3210    11.3910     2.3320 
   83.3750   -26.7750    75.3290    22.7370    20.3140    10.1660    11.0390     2.3080 
   83.5000   -27.0100    74.6360    22.5130    17.1680     9.6830    10.4010     2.2400 
   83.6250   -27.1980    77.5660    22.4010    14.5890     9.0700     9.7240     2.1770 
   83.7500   -27.3620    81.8300    22.3700    13.3040     8.5280     9.2070     2.1450 
   83.8750   -27.5130    84.6850    22.3650    12.6890     8.1480     8.9270     2.1420 
   84.0000   -27.6540    84.8070    22.3430    12.1930     7.9550     8.8750     2.1560 
   84.1250   -27.7930    83.6230    22.2850    11.8230     7.9380     8.9830     2.1780 
   84.2500   -27.9410    83.3360    22.2010    11.6330     7.9960     9.1240     2.1970 
   84.3750   -28.1060    83.7340    22.1390    11.6210     8.0700     9.2340     2.2040 
   84.5000   -28.2890    83.9640    22.1190    11.7820     8.1240     9.2840     2.1920 
   84.6250   -28.4830    84.4260    22.1140    12.0980     8.1400     9.2730     2.1730 
   84.7500   -28.6760    85.2400    22.0980    12.4360     8.1250     9.2320     2.1670 
   84.8750   -28.8680    85.0750    22.0800    12.6750     8.0990     9.1980     2.1750 
   85.0000   -29.0570    83.2540    22.0690    12.7250     8.0870     9.2060     2.1820 
   85.1250   -29.2450    81.1110    22.0670    12.6110     8.1200     9.2880     2.1740 
   85.2500   -29.4310    80.2900    22.0680    12.5110     8.1970     9.4240     2.1620 
   85.3750   -29.6170    80.7190    22.0680    12.4360     8.3100     9.5920     2.1550 
   85.5000   -29.8050    81.6380    22.0680    12.3330     8.4410     9.7640     2.1510 
   85.6250   -29.9930    82.4430    22.0680    12.2890     8.5570     9.8920     2.1500 
   85.7500   -30.1780    82.4010    22.0670    12.4330     8.6300     9.9540     2.1530 
   85.8750   -30.3600    80.5320    22.0630    12.6920     8.6510     9.9430     2.1590 
   86.0000   -30.5410    76.6370    22.0540    12.8750     8.6220     9.8730     2.1570 
   86.1250   -30.7200    71.8920    22.0410    12.8520     8.5610     9.7700     2.1440 
   86.2500   -30.8980    68.0830    22.0270    12.7740     8.5030     9.6770     2.1290 
   86.3750   -31.0750    66.1180    22.0290    12.8660     8.4710     9.6110     2.1230 
   86.5000   -31.2510    66.6050    22.0410    13.1480     8.4710     9.5790     2.1300 
   86.6250   -31.4210    68.9950    22.0380    13.4720     8.4990     9.5820     2.1410 
   86.7500   -31.5810    70.8140    22.0280    13.7200     8.5270     9.5910     2.1410 
   86.8750   -31.7300    71.1250    22.0290    13.8600     8.5300     9.5840     2.1320 
   87.0000   -31.8670    70.9970    22.0440    13.8020     8.4950     9.5510     2.1240 
   87.1250   -31.9930    71.9520    22.0470    13.4810     8.4280     9.5060     2.1250 
   87.2500   -32.1080    73.6200    22.0560    13.1330     8.3530     9.4710     2.1230 
   87.3750   -32.2050    75.2630    22.0640    13.0450     8.2860     9.4590     2.1150 
   87.5000   -32.2870    76.5270    22.0670    13.5130     8.2390     9.4650     2.1040 
   87.6250   -32.3560    76.2960    22.0670    14.7400     8.2160     9.4740     2.1080 
   87.7500   -32.4200    73.8590    22.0650    16.0150     8.2050     9.4730     2.1300 
   87.8750   -32.4800    70.3180    22.0620    16.3610     8.1930     9.4550     2.1590 
   88.0000   -32.5340    68.0300    22.0650    15.4050     8.1680     9.4170     2.1820 
   88.1250   -32.5800    68.9920    22.0710    13.8280     8.1280     9.3610     2.1920 
   88.2500   -32.6170    71.7500    22.0810    12.7740     8.0900     9.3100     2.1950 
   88.3750   -32.6420    74.2310    22.0900    12.3040     8.0720     9.2870     2.1920 
   88.5000   -32.6480    74.9540    22.0850    12.2820     8.0880     9.3070     2.1840 
   88.6250   -32.6330    73.5740    22.0790    12.4710     8.1530     9.3850     2.1740 
   88.7500   -32.6020    71.5890    22.0740    12.7420     8.2520     9.4980     2.1660 
   88.8750   -32.5580    69.6940    22.0720    13.0120     8.3700     9.6210     2.1590 
   89.0000   -32.5010    68.0630    22.0720    13.3170     8.4860     9.7300     2.1520 
   89.1250   -32.4300    67.7100    22.0740    13.6100     8.5730     9.7920     2.1490 
   89.2500   -32.3510    68.7560    22.0710    13.8030     8.6180     9.8020     2.1510 
   89.3750   -32.2660    70.0080    22.0690    13.9000     8.6220     9.7660     2.1540 
   89.5000   -32.1760    70.0480    22.0680    14.0220     8.5930     9.7010     2.1550 
   89.6250   -32.0770    68.6230    22.0680    14.1680     8.5520     9.6300     2.1510 
   89.7500   -31.9680    66.8770    22.0680    14.2610     8.5130     9.5740     2.1440 
   89.8750   -31.8470    65.4940    22.0660    14.3810     8.4880     9.5480     2.1360 
   90.0000   -31.7080    65.2040    22.0630    14.7420     8.4830     9.5560     2.1300 
   90.1250   -31.5410    66.3780    22.0510    15.2710     8.4910     9.5860     2.1370 
   90.2500   -31.3480    67.9190    22.0360    15.6550     8.4920     9.6070     2.1540 
   90.3750   -31.1340    69.0490    22.0280    15.6870     8.4700     9.5940     2.1690 
   90.5000   -30.9030    70.4580    22.0380    15.4890     8.4140     9.5350     2.1680 
   90.6250   -30.6560    73.3060    22.0380    15.3380     8.3150     9.4250     2.1490 
   90.7500   -30.3950    75.8100    22.0280    15.1140     8.1940     9.2900     2.1310 
   90.8750   -30.1250    76.0370    22.0320    14.6110     8.0700     9.1510     2.1240 
   91.0000   -29.8550    74.2270    22.0330    13.9340     7.9570     9.0200     2.1230 
   91.1250   -29.5940    72.8030    22.0150    13.6160     7.8680     8.9190     2.1180 
   91.2500   -29.3460    73.2210    22.0150    13.7990     7.8050     8.8510     2.1080 
   91.3750   -29.1100    75.1650    22.0460    14.1860     7.7620     8.8100     2.1000 
   91.5000   -28.8890    77.3820    22.0980    14.4790     7.7340     8.7870     2.1020 
   91.6250   -28.6860    77.5900    22.1390    14.5710     7.7250     8.7920     2.1120 
