~V
VERS. 2.00: Ver 2.00
~W
STRT.M 60.0000:
STOP.M 249.0000:
STEP.M 0.1250:
NULL. -999.2500:
UWI. DF5060:
~C
DEPT.M :
GR.API :
CALI.CM :
RXO.OHMM :
RI. :
RML.OHMM :
DEN.GM/CC :
SP.MV :
~A
# ...
  217.5000   104.9990    25.0970     7.5940    10.0500     8.4740     2.3910   -22.9730 
  217.6250   107.5880    25.0980     7.8690    10.4360     9.2860     2.3800   -23.2440 
  217.7500   105.1470    25.0960     8.4600    11.3320    10.7490     2.3670   -23.6250 
  217.8750   101.7450    25.0770     9.7730    12.8800    12.9970     2.3520   -24.0480 
  218.0000    97.9980    25.0390    12.7420    15.1920    16.0560     2.3360   -24.3450 
  218.1250    93.0010    25.0030    17.4650    18.3130    19.7520     2.3220   -24.5300 
  218.2500    87.3020    24.9870    20.7850    21.7180    23.4200     2.3120   -24.8210 
  218.3750    82.3050    24.9860    22.3160    24.7970    26.4830     2.3070   -25.1490 
  218.5000    77.6830    24.9870    23.0320    27.0230    28.5870     2.3050   -25.3700 
  218.6250    73.7820    24.9870    23.3470    28.1370    29.6790     2.3040   -25.5190 
  218.7500    69.6240    24.9880    23.5280    28.6860    30.3550     2.3030   -25.5500 
  218.8750    65.7140    24.9830    23.6480    29.0970    31.0020     2.3000   -25.5890 
  219.0000    65.1380    24.9610    23.5000    29.6290    31.7980     2.2960   -25.7600 
  219.1250    68.3250    24.9070    23.7660    30.3310    32.7050     2.2930   -25.8850 
  219.2500    68.3060    24.8220    24.2890    31.0300    33.5160     2.2920   -25.7760 
  219.3750    65.6440    24.7110    24.7350    31.5470    34.0580     2.2920   -25.6840 
  219.5000    66.2660    24.5710    24.7880    31.7680    34.2440     2.2940   -25.6990 
  219.6250    70.9000    24.4230    25.2760    31.6930    34.1070     2.2970   -25.6810 
  219.7500    72.7530    24.3060    25.1680    31.5220    33.8770     2.3030   -25.5770 
  219.8750    69.9730    24.2490    24.3770    31.3890    33.7000     2.3120   -25.4690 
  220.0000    67.1430    24.3260    23.5750    31.3600    33.6610     2.3210   -25.3640 
  220.1250    69.3610    24.5830    23.8970    31.4840    33.8490     2.3250   -25.3040 
  220.2500    74.5740    24.8690    25.1660    31.7900    34.3180     2.3220   -25.2300 
  220.3750    78.4170    25.0370    25.6760    32.3990    35.2140     2.3160   -25.0270 
  220.5000    77.0230    25.0670    25.1320    33.4760    36.7010     2.3090   -24.8700 
  220.6250    71.5170    25.0520    25.2390    35.2380    38.9650     2.3040   -24.8560 
  220.7500    67.0000    25.0450    26.7690    37.5550    41.8030     2.2970   -24.8000 
  220.8750    64.7860    25.0360    29.3210    40.2650    44.9920     2.2890   -24.5690 
  221.0000    64.8630    25.0250    32.7430    43.1100    48.2250     2.2790   -24.1740 
  221.1250    67.5470    25.0070    34.0270    45.7230    51.1150     2.2720   -23.8220 
  221.2500    70.3030    24.9900    32.9980    47.9840    53.6350     2.2710   -23.5490 
  221.3750    70.9620    24.9760    33.3830    50.0730    56.0510     2.2740   -23.3080 
  221.5000    69.7690    24.9580    36.2440    52.3420    58.7640     2.2780   -22.9540 
  221.6250    69.0700    24.9330    37.7280    55.1370    62.0870     2.2770   -22.5470 
  221.7500    68.6030    24.9170    37.5340    58.2360    65.6400     2.2700   -22.2070 
  221.8750    67.3020    24.9070    38.6490    61.0920    68.7080     2.2580   -21.8990 
  222.0000    64.3000    24.8980    42.7260    63.0580    70.5440     2.2470   -21.6490 
  222.1250    61.3950    24.8650    45.2790    63.6450    70.6850     2.2430   -21.4160 
  222.2500    60.6580    24.7600    43.8030    63.4010    69.9320     2.2460   -21.1580 
  222.3750    62.2600    24.5760    39.1580    62.8440    68.9070     2.2530   -20.8640 
  222.5000    64.8730    24.3660    36.6110    62.1610    67.7080     2.2640   -20.5330 
  222.6250    66.7870    24.1390    38.5940    60.5870    65.2700     2.2780   -20.1480 
  222.7500    67.5410    23.9390    42.0080    57.1290    60.5660     2.2970   -19.7430 
  222.8750    66.8270    23.9290    41.1370    51.4870    53.5580     2.3230   -19.3280 
  223.0000    66.6470    24.2030    36.4510    44.6320    45.6200     2.3560   -18.9040 
  223.1250    71.2550    24.5700    30.4500    38.5060    39.0520     2.3860   -18.4830 
  223.2500    78.7250    24.7720    23.9410    34.2320    34.8170     2.4060   -18.0770 
  223.3750    83.6400    24.8190    19.6510    31.9390    32.7890     2.4140   -17.6630 
  223.5000    82.1270    24.8920    20.9500    31.1100    32.1530     2.4110   -17.3000 
  223.6250    75.9590    25.0670    25.6640    30.8300    31.7180     2.4000   -16.9380 
  223.7500    69.6560    25.2420    26.7850    30.1230    30.5610     2.3820   -16.5920 
  223.8750    65.6330    25.3840    23.5400    28.7110    28.5830     2.3630   -16.3420 
  224.0000    66.4380    25.4160    19.1240    26.8730    26.2650     2.3460   -16.1470 
  224.1250    69.7270    25.2100    16.5720    25.2330    24.3900     2.3340   -15.9320 
  224.2500    69.7360    24.8740    16.4620    24.1570    23.2650     2.3280   -15.7260 
  224.3750    67.4270    24.6370    17.3760    23.6580    22.7990     2.3230   -15.5660 
  224.5000    66.7500    24.5990    18.7830    23.5140    22.6670     2.3160   -15.4210 
  224.6250    68.1870    24.6200    18.7230    23.3500    22.4430     2.3050   -15.3750 
  224.7500    68.7620    24.6160    17.5320    22.8760    21.8780     2.2920   -15.4020 
  224.8750    68.6790    24.6050    16.3400    22.0210    20.9480     2.2820   -15.4350 
  225.0000    69.2160    24.5670    15.7940    20.8860    19.7830     2.2770   -15.4450 
  225.1250    71.0440    24.5100    15.0840    19.6930    18.6270     2.2800   -15.4100 
  225.2500    72.4860    24.5270    14.3390    18.6760    17.7100     2.2850   -15.3380 
  225.3750    71.2410    24.6610    13.4610    17.9830    17.1850     2.2870   -15.2070 
  225.5000    67.8110    24.8350    12.7840    17.7150    17.1470     2.2840   -15.0550 
  225.6250    66.7310    24.9150    12.8850    18.0110    17.7040     2.2770   -14.8870 
  225.7500    68.5560    24.9170    13.4880    18.7870    18.7070     2.2700   -14.7130 
  225.8750    70.1020    24.9090    14.0960    19.9640    20.0250     2.2640   -14.5440 
  226.0000    69.3620    24.9100    15.8830    21.3720    21.4520     2.2600   -14.3530 
  226.1250    66.5690    24.9090    17.8780    22.6810    22.6410     2.2590   -14.1370 
  226.2500    63.7680    24.9100    19.1660    23.5750    23.3490     2.2620   -13.9140 
  226.3750    62.9060    24.9250    19.6260    23.9020    23.4860     2.2680   -13.7230 
  226.5000    63.3550    24.9610    19.4970    23.7110    23.1620     2.2740   -13.5240 
  226.6250    61.3600    25.0020    18.3780    23.2330    22.6860     2.2730   -13.3030 
  226.7500    58.3610    25.0240    17.2480    22.8530    22.4490     2.2660   -13.0480 
  226.8750    58.3610    25.0270    16.6110    22.7790    22.6190     2.2560   -12.7700 
  227.0000    61.6670    25.0250    17.0280    23.0330    23.1180     2.2480   -12.4990 
  227.1250    64.1180    25.0260    17.8020    23.4190    23.6080     2.2480   -12.2760 
  227.2500    64.3390    25.0240    19.0030    23.6020    23.7480     2.2540   -12.1120 
  227.3750    63.7460    25.0100    19.6490    23.4460    23.4890     2.2610   -12.0150 
  227.5000    62.7640    24.9870    19.5640    23.0860    23.0960     2.2680   -11.9800 
  227.6250    63.7220    24.9690    17.2760    22.9330    23.1210     2.2710   -12.0230 
  227.7500    67.5900    24.9620    15.9380    23.3050    23.8300     2.2710   -12.0690 
  227.8750    71.2890    24.9680    17.4270    24.2680    25.1280     2.2660   -12.0410 
  228.0000    71.0310    24.9860    21.7420    25.5730    26.5580     2.2590   -11.9930 
  228.1250    66.2070    24.9980    25.0120    26.5480    27.2950     2.2510   -12.0350 
  228.2500    61.7840    24.9970    24.2610    26.6600    26.9940     2.2450   -12.1270 
  228.3750    60.0620    25.0090    21.1290    25.9020    25.8910     2.2430   -12.2090 
  228.5000    59.8460    25.0440    18.3480    24.8040    24.7150     2.2430   -12.2610 
  228.6250    58.5790    25.0670    17.2880    24.2670    24.4610     2.2420   -12.2350 
