~V
VERS. 2.00: Ver 2.00
~W
STRT.M 64.0000:
STOP.M 271.0000:
STEP.M 0.1250:
NULL. -999.2500:
UWI. DF5037:
~C
DEPT.M :
SP.MV :
GR.API :
RML.OHMM :
RI. :
RXO.OHMM :
CALI.CM :
DEN.GM/CC :
~A
# ...
  255.2500    -8.6940    67.7010    10.6950     9.5720     7.8840    23.8540     2.4520 
  255.3750    -8.7090    63.8270     9.4460     8.3820     6.9020    23.8590     2.4420 
  255.5000    -8.7380    63.2190     8.8170     7.7280     6.6930    23.8590     2.4340 
  255.6250    -8.7660    65.4390     8.5740     7.4510     6.6560    23.8590     2.4270 
  255.7500    -8.7990    64.6290     8.5490     7.4220     6.5960    23.8590     2.4230 
  255.8750    -8.8540    60.7860     8.5820     7.4770     6.4750    23.8590     2.4230 
  256.0000    -8.9130    57.6710     8.6230     7.5440     6.3680    23.8590     2.4260 
  256.1250    -8.9840    57.2430     8.6410     7.5850     6.3960    23.8590     2.4280 
  256.2500    -9.0640    61.0770     8.6270     7.5840     6.4200    23.8590     2.4280 
  256.3750    -9.1300    65.9030     8.5710     7.5560     6.3840    23.8590     2.4280 
  256.5000    -9.1670    64.3830     8.4730     7.5200     6.3470    23.8590     2.4290 
  256.6250    -9.2140    56.0010     8.3900     7.4970     6.3450    23.8590     2.4310 
  256.7500    -9.2390    50.6220     8.3830     7.5100     6.4210    23.8590     2.4330 
  256.8750    -9.2830    55.2580     8.4570     7.5620     6.5950    23.8590     2.4350 
  257.0000    -9.3090    62.7950     8.5820     7.6480     6.8700    23.8590     2.4370 
  257.1250    -9.3220    64.4700     8.6960     7.7540     7.2040    23.8590     2.4420 
  257.2500    -9.3030    59.5130     8.7780     7.8600     7.4340    23.8590     2.4490 
  257.3750    -9.3180    57.2410     8.8250     7.9460     7.5270    23.8590     2.4540 
  257.5000    -9.3330    62.3650     8.8500     8.0020     7.6420    23.8590     2.4560 
  257.6250    -9.3690    67.7170     8.8670     8.0250     7.8130    23.8590     2.4550 
  257.7500    -9.4050    64.6650     8.9200     8.0250     7.8690    23.8590     2.4530 
  257.8750    -9.4320    58.7650     9.0200     8.0260     7.8360    23.8590     2.4540 
  258.0000    -9.4680    56.0940     9.1620     8.0470     7.7360    23.8540     2.4570 
  258.1250    -9.4710    58.2510     9.3300     8.0980     7.6700    23.8380     2.4630 
  258.2500    -9.5110    61.9500     9.4540     8.1820     7.7940    23.8070     2.4690 
  258.3750    -9.4970    64.5310     9.6220     8.2830     8.0270    23.7920     2.4730 
  258.5000    -9.4600    64.4550     9.8180     8.3880     8.2740    23.7880     2.4740 
  258.6250    -9.4320    62.6050     9.9850     8.4930     8.5340    23.7860     2.4700 
  258.7500    -9.4590    61.5000    10.1340     8.6000     8.6530    23.7880     2.4630 
  258.8750    -9.4680    62.0370    10.2820     8.7110     8.5790    23.7870     2.4550 
  259.0000    -9.4540    62.4550    10.4220     8.8190     8.3070    23.7790     2.4500 
  259.1250    -9.4730    60.5000    10.5280     8.9010     7.9980    23.7570     2.4470 
  259.2500    -9.4940    57.9560    10.5430     8.9150     7.7370    23.7360     2.4470 
  259.3750    -9.5330    57.4760    10.4550     8.8460     7.5070    23.7150     2.4470 
  259.5000    -9.5910    60.5550    10.2760     8.7040     7.2650    23.6840     2.4460 
  259.6250    -9.6360    65.5710    10.0460     8.5180     6.9810    23.6590     2.4460 
  259.7500    -9.6490    67.3580     9.8180     8.3250     6.7170    23.6490     2.4500 
  259.8750    -9.6260    65.3110     9.6150     8.1420     6.5460    23.6390     2.4580 
  260.0000    -9.5930    62.3320     9.4230     7.9630     6.5210    23.6170     2.4670 
  260.1250    -9.5910    62.6660     9.2120     7.7680     6.6840    23.5980     2.4720 
  260.2500    -9.5690    62.6660     8.9600     7.5440     7.0170    23.6060     2.4710 
  260.3750    -9.5050    62.6660     8.6930     7.3150     7.4350    23.6250     2.4660 
  260.5000    -9.4630    62.6660     8.4620     7.1170     7.9180    23.6090     2.4620 
  260.6250    -9.4490    62.6660     8.3190     6.9860     8.4350    23.5030     2.4590 
  260.7500    -9.4170    62.6660     8.3200     6.9650     8.9340    23.3000     2.4580 
  260.8750    -9.4240    62.6660     8.4360     7.0330     9.2320    23.1660     2.4570 
  261.0000    -9.4950    62.6660     8.6240     7.1630     9.3710    23.2470     2.4550 
  261.1250    -9.5140    62.6660     8.8260     7.3160     9.6720    23.5030     2.4530 
  261.2500    -9.5380    62.6660     8.9790     7.4450     9.8360    23.6470     2.4520 
  261.3750    -9.6380    62.6660     9.0610     7.5290     9.6420    23.7020     2.4520 
  261.5000    -9.6970    62.6660     9.0800     7.5660     9.0500    23.7050     2.4520 
  261.6250    -9.7260    62.6660     9.0670     7.5700     8.3000    23.6840     2.4520 
  261.7500    -9.7650    62.6660     9.0700     7.5690     7.9690    23.6340     2.4530 
  261.8750    -9.7980    62.6660     9.1190     7.5870     7.9820    23.5950     2.4560 
  262.0000    -9.7670    62.6660     9.2130     7.6250     8.1570    23.5700     2.4590 
  262.1250    -9.7490    62.6660     9.3210     7.6720     8.3010    23.5370     2.4620 
  262.2500    -9.7180    62.6660     9.3910     7.7020     8.3260    23.4810     2.4650 
  262.3750    -9.6350    62.6660     9.3840     7.7000     8.2990    23.4670     2.4700 
  262.5000    -9.5700    62.6660     9.2950     7.6640     8.3020    23.4850     2.4760 
  262.6250    -9.4780    62.6660     9.1500     7.6060     8.3440    23.4960     2.4820 
  262.7500    -9.3880    62.6660     8.9810     7.5430     8.3970    23.4630     2.4870 
  262.8750    -9.3120    62.6660     8.8940     7.4930     8.2060    23.3910     2.4900 
  263.0000    -9.2420    62.6660     8.8630     7.4620     7.9720    23.3320     2.4880 
  263.1250    -9.1950    62.6660     8.8710     7.4530     7.7960    23.3090     2.4830 
  263.2500    -9.1720    62.6660     8.9110     7.4650     7.7400    23.3080     2.4780 
  263.3750    -9.1730    62.6660     8.9810     7.4880     7.7560    23.3050     2.4750 
  263.5000    -9.1830    62.6660     9.0760     7.5150     7.8250    23.2910     2.4740 
  263.6250    -9.2120    62.6660     9.1560     7.5380     7.8890    23.2530     2.4740 
  263.7500    -9.2400    62.6660     9.2070     7.5550     7.9340    23.1950     2.4750 
  263.8750    -9.2570    62.6660     9.2570     7.5720     7.9300    23.0600     2.4760 
  264.0000    -9.3190    62.6660     9.2900     7.5960     7.9580    22.8720     2.4770 
  264.1250    -9.3810    62.6660     9.3130     7.6280     8.0590    22.8120     2.4780 
  264.2500    -9.3990    62.6660     9.3390     7.6660     8.1870    22.8980     2.4760 
  264.3750    -9.4440    62.6660     9.3610     7.7000     8.3360    22.9610     2.4720 
  264.5000    -9.5030    62.6660     9.3780     7.7230     8.4560    22.9750     2.4670 
  264.6250    -9.5620    62.6660     9.3880     7.7350     8.6130    22.9730     2.4610 
  264.7500    -9.6100    62.6660     9.3910     7.7390     8.7550    22.9740     2.4570 
  264.8750    -9.6800    62.6660     9.3900     7.7390     8.9680    22.9730     2.4510 
  265.0000    -9.7040    62.6660     9.3870     7.7390     9.1430    22.9720     2.4440 
  265.1250    -9.6880    62.6660     9.3840     7.7390     8.7660    22.9760     2.4340 
  265.2500    -9.6970    62.6660     9.3830     7.7380     8.2340    22.9960     2.4230 
  265.3750    -9.6600    62.6660     9.3840     7.7380     7.9900    23.0230     2.4150 
  265.5000    -9.6140    62.6660     9.3830     7.7380     7.9990    23.0360     2.4130 
  265.6250    -9.5520    62.6660     9.3780     7.7390     8.0390    23.0370     2.4180 
  265.7500    -9.5180    62.6660     9.3700     7.7410     8.1130    23.0370     2.4270 
  265.8750    -9.4750    62.6660     9.3640     7.7430     7.8990    23.0370     2.4360 
  266.0000    -9.4180    62.6660     9.3610     7.7440     7.7980    23.0370     2.4420 
  266.1250    -9.3670    62.6660     9.3600     7.7440     7.9140    23.0370     2.4450 
  266.2500    -9.3500    62.6660     9.3600     7.7440     8.1920    23.0370     2.4460 
  266.3750    -9.3690    62.6660     9.3600     7.7440     8.5990    23.0340     2.4460 
