~V
VERS. 2.00: Ver 2.00
~W
STRT.M 55.0000:
STOP.M 274.0000:
STEP.M 0.1250:
NULL. -999.2500:
UWI. DF5018:
~C
DEPT.M :
SP.MV :
GR.API :
CALI.CM :
RXO.OHMM :
RI. :
RML.OHMM :
DEN.GM/CC :
~A
# ...
  235.0000   -14.0830   102.9980    24.6650     8.8200     7.7480     8.7630     2.3690 
  235.1250   -14.1120   106.3440    24.6650     8.5170     7.9690     9.1800     2.3680 
  235.2500   -14.1800   109.2060    24.6620     8.9720     8.2830     9.7720     2.3730 
  235.3750   -14.2630   108.2650    24.6490    10.5430     8.5230    10.2860     2.3840 
  235.5000   -14.3880   105.4150    24.6130    12.0810     8.4740    10.3380     2.3960 
  235.6250   -14.4840   105.9550    24.5620    11.2960     8.0420     9.6660     2.4040 
  235.7500   -14.6900   107.7950    24.5170     9.3030     7.5810     8.8210     2.4110 
  235.8750   -14.9510   105.3280    24.4930     8.0730     7.4950     8.4870     2.4180 
  236.0000   -15.2540    96.6960    24.4880     8.4530     8.2790     9.3480     2.4260 
  236.1250   -15.5670    85.2210    24.4750    13.7470    11.3080    12.6930     2.4260 
  236.2500   -15.9370    74.8790    24.4660    34.8390    18.2300    19.7250     2.4150 
  236.3750   -16.3580    68.2920    24.4610    82.5560    31.5050    32.7980     2.3870 
  236.5000   -16.8640    65.8980    24.4570   135.1210    52.6840    54.4110     2.3370 
  236.6250   -17.3550    65.4030    24.4650   154.8160    76.1220    80.3080     2.2710 
  236.7500   -17.8160    64.6990    24.5190   138.2920    87.4330    92.2790     2.2170 
  236.8750   -18.2580    64.9210    24.6460   105.1750    83.2140    85.7870     2.1900 
  237.0000   -18.6460    66.0190    24.7610    70.0560    72.2540    73.2260     2.1870 
  237.1250   -19.0120    66.8470    24.8060    57.4690    63.3480    64.4290     2.2010 
  237.2500   -19.2860    67.7060    24.8090    55.6090    58.4600    60.1940     2.2140 
  237.3750   -19.5650    67.7350    24.7980    56.5540    57.3170    60.0040     2.2190 
  237.5000   -19.7560    66.6490    24.7630    57.8090    59.4060    63.2720     2.2130 
  237.6250   -20.0030    66.6100    24.7440    66.8970    63.9930    69.1380     2.2040 
  237.7500   -20.2740    67.1840    24.7380    83.3070    68.8780    75.0540     2.2060 
  237.8750   -20.5500    66.7550    24.7380    93.2550    72.4450    78.9840     2.2180 
  238.0000   -20.8230    65.5890    24.7380    86.6460    74.1090    80.2220     2.2330 
  238.1250   -21.0700    66.1980    24.7380    69.2680    74.7560    80.0380     2.2420 
  238.2500   -21.3300    67.7560    24.7430    62.3870    76.3310    80.9620     2.2440 
  238.3750   -21.5160    67.9020    24.7660    72.9520    79.8820    84.3130     2.2410 
  238.5000   -21.7200    65.9130    24.8190    97.2700    85.2710    90.0980     2.2350 
  238.6250   -21.8620    64.5930    24.8530   115.9870    90.7940    96.4690     2.2290 
  238.7500   -22.0010    64.8810    24.8650   114.4440    93.7820    99.8730     2.2310 
  238.8750   -22.1390    65.5160    24.8530    95.6780    92.5620    98.0240     2.2380 
  239.0000   -22.3240    65.1660    24.8130    76.8900    87.4240    91.5810     2.2470 
  239.1250   -22.5070    66.6820    24.7460    72.1470    80.3140    83.4390     2.2540 
  239.2500   -22.7050    70.8220    24.6950    73.3280    73.5840    76.1590     2.2590 
  239.3750   -22.9080    73.1530    24.6650    68.7410    68.1710    70.4670     2.2640 
  239.5000   -23.1720    69.8640    24.6280    60.7560    64.5690    66.6870     2.2640 
  239.6250   -23.4810    63.8900    24.5640    55.6170    63.4660    65.4940     2.2560 
  239.7500   -23.7570    63.2820    24.5380    56.3730    64.6860    66.7700     2.2490 
  239.8750   -24.0520    67.6870    24.6300    62.3320    68.2690    70.6260     2.2510 
  240.0000   -24.3670    69.3100    24.7730    76.6930    73.9360    76.8140     2.2570 
  240.1250   -24.7590    63.8360    24.8460    96.6160    80.6390    84.1950     2.2550 
  240.2500   -25.1050    60.8070    24.8640   110.4950    86.2990    90.2800     2.2430 
  240.3750   -25.4970    63.0340    24.8520   111.6190    89.3790    93.1580     2.2280 
  240.5000   -25.7760    65.6330    24.8150   103.4960    89.2670    92.2020     2.2190 
  240.6250   -25.9210    64.9480    24.7560    95.1950    86.3290    88.1840     2.2240 
  240.7500   -26.0270    64.4820    24.7140    90.9190    82.5200    83.4970     2.2350 
  240.8750   -26.0630    64.5770    24.6860    89.4500    79.0100    79.3880     2.2450 
  241.0000   -26.0450    64.3740    24.6780    89.0350    76.4630    76.4630     2.2540 
  241.1250   -25.8600    65.0030    24.6770    91.1970    75.3860    75.2050     2.2700 
  241.2500   -25.7030    65.7550    24.6800    92.3910    75.5040    75.2830     2.2820 
  241.3750   -25.4870    64.9900    24.6810    90.4390    76.3880    75.9840     2.2790 
  241.5000   -25.2700    63.6040    24.6810    88.7300    76.6310    76.3250     2.2660 
  241.6250   -25.0630    65.5060    24.6790    92.3700    74.0520    74.4030     2.2630 
  241.7500   -24.8040    68.2880    24.6730    94.1050    68.5840    69.8880     2.2740 
  241.8750   -24.5440    69.5730    24.6650    86.2070    61.6990    63.8020     2.2870 
  242.0000   -24.2700    70.4360    24.6580    69.4540    55.4680    57.9300     2.2900 
  242.1250   -24.0620    71.0470    24.6550    55.9910    51.6950    54.0760     2.2830 
  242.2500   -23.7910    70.4920    24.6560    52.6290    50.2620    52.3750     2.2710 
  242.3750   -23.5840    69.8460    24.6570    59.0560    50.5920    52.3800     2.2580 
  242.5000   -23.4040    70.7060    24.6570    68.8430    51.6190    53.1330     2.2480 
  242.6250   -23.2850    72.3270    24.6550    70.3820    51.8020    53.2580     2.2450 
  242.7500   -23.1570    71.4820    24.6310    64.6690    50.4640    52.1220     2.2460 
  242.8750   -23.0100    68.7160    24.5600    57.1290    47.9960    50.0260     2.2490 
  243.0000   -22.8300    67.4820    24.4480    53.7100    45.4590    47.8610     2.2530 
  243.1250   -22.6980    68.8670    24.3960    55.2960    44.2140    46.9170     2.2600 
  243.2500   -22.5740    71.6350    24.3810    58.0580    44.8540    47.8900     2.2680 
  243.3750   -22.3770    72.5310    24.3810    60.8490    47.8420    51.3940     2.2700 
  243.5000   -22.1900    70.0120    24.3810    66.7490    53.5970    57.9910     2.2660 
  243.6250   -22.0160    67.1320    24.3830    80.9410    62.8980    68.4640     2.2620 
  243.7500   -21.8970    66.6140    24.4060   105.0160    74.5620    81.1370     2.2700 
  243.8750   -21.7370    69.3240    24.4870   134.0090    85.7300    92.8030     2.2980 
  244.0000   -21.5680    74.1050    24.6380   151.6570    90.7240    98.2730     2.3490 
  244.1250   -21.3520    78.0430    24.7480   142.2990    82.7050    91.1510     2.4050 
  244.2500   -21.1950    80.6770    24.7860   111.2730    67.0360    75.3690     2.4310 
  244.3750   -20.9930    82.6510    24.7780    77.1760    50.8500    57.6360     2.4170 
  244.5000   -20.7560    86.1200    24.7470    52.1390    38.3230    43.2140     2.3830 
  244.6250   -20.5310    89.6810    24.7250    37.0920    30.8970    34.5020     2.3630 
  244.7500   -20.3540    90.0920    24.7100    29.6290    27.0900    29.9350     2.3630 
  244.8750   -20.2870    88.3580    24.7060    28.6670    26.1410    28.5530     2.3720 
  245.0000   -20.2990    86.2040    24.7050    31.8960    27.3770    29.5870     2.3820 
  245.1250   -20.3760    84.2890    24.7060    36.8040    30.1110    32.3650     2.3880 
  245.2500   -20.4480    81.5390    24.7050    40.8830    32.8370    35.2970     2.3880 
  245.3750   -20.6020    77.8170    24.7020    43.3700    34.3030    37.0290     2.3780 
  245.5000   -20.7740    75.9800    24.6890    42.3850    33.9200    36.8580     2.3580 
  245.6250   -20.9390    77.7510    24.6800    37.6450    32.2350    35.2450     2.3440 
  245.7500   -21.0580    79.8070    24.6750    34.0150    30.7110    33.6860     2.3530 
  245.8750   -21.1450    80.3940    24.6730    32.4920    30.0960    32.9720     2.3820 
  246.0000   -21.2080    81.3340    24.6720    32.9050    30.7190    33.4750     2.4120 
  246.1250   -21.2660    83.5580    24.6700    35.5790    32.8700    35.5140     2.4260 
