~V
VERS. 2.00: Ver 2.00
~W
STRT.M 50.0000:
STOP.M 260.0000:
STEP.M 0.1250:
NULL. -999.2500:
UWI. DF5023:
~C
DEPT.M :
GR.API :
RML.OHMM :
RI. :
RXO.OHMM :
CALI.CM :
DEN.GM/CC :
SP.MV :
~A
# ...
   61.2500    69.0890     6.1820     4.5430     8.3170    22.7250     2.1380   -26.3100 
   61.3750    73.0850     6.4430     5.5590     8.5290    22.7270     2.1600   -30.0190 
   61.5000    75.1380     6.5450     6.4210     8.8400    22.7120     2.1940   -32.4440 
   61.6250    72.5780     6.6170     7.0650     9.2530    22.6650     2.2250   -33.8600 
   61.7500    68.3840     6.7110     7.5270     9.8600    22.5860     2.2410   -34.7810 
   61.8750    66.3400     6.7820     7.8060    10.6770    22.5360     2.2380   -35.3180 
   62.0000    67.6050     6.7800     7.9020    11.4330    22.5240     2.2210   -35.7580 
   62.1250    69.2840     6.7040     7.8360    11.6310    22.5240     2.2000   -36.1390 
   62.2500    68.5760     6.6330     7.7100    11.2630    22.5230     2.1840   -36.5610 
   62.3750    66.2590     6.6340     7.5900    10.9270    22.5210     2.1740   -36.9950 
   62.5000    65.1270     6.7600     7.5240    10.8800    22.6080     2.1650   -37.4490 
   62.6250    66.8860     7.0410     7.5450    11.0360    22.6070     2.1570   -37.8650 
   62.7500    68.0650     7.4110     7.6190    11.2150    22.6080     2.1490   -38.2540 
   62.8750    67.0540     7.8080     7.7160    11.3890    22.6060     2.1450   -38.5880 
   63.0000    65.3750     8.1630     7.8070    11.5820    22.5990     2.1480   -38.8950 
   63.1250    66.5840     8.3670     7.8530    11.6510    22.5960     2.1660   -39.0810 
   63.2500    69.9870     8.3990     7.8370    11.4820    22.6080     2.1960   -39.2520 
   63.3750    72.0690     8.2890     7.7600    11.2580    22.6340     2.2310   -39.3640 
   63.5000    70.6280     8.1040     7.6370    11.0200    22.6710     2.2590   -39.4930 
   63.6250    68.7350     7.9220     7.4890    10.7080    22.7160     2.2610   -39.6150 
   63.7500    70.1920     7.7880     7.3540    10.4380    22.7620     2.2420   -39.7440 
   63.8750    75.1880     7.7040     7.2520    10.5200    22.8040     2.2120   -39.9720 
   64.0000    78.4700     7.6560     7.1920    10.8070    22.8280     2.1850   -40.2260 
   64.1250    74.6490     7.6400     7.1880    11.0620    22.8280     2.1720   -40.6790 
   64.2500    68.9220     7.6270     7.2160    11.2520    22.8000     2.1680   -41.1020 
   64.3750    66.6780     7.6000     7.2560    11.4480    22.7450     2.1670   -41.6340 
   64.5000    68.4740     7.5610     7.2880    11.5770    22.6630     2.1630   -42.1480 
   64.6250    69.1050     7.5290     7.2970    11.5920    22.5540     2.1540   -42.7360 
   64.7500    68.2950     7.5090     7.2780    11.6640    22.4300     2.1420   -43.3260 
   64.8750    69.1490     7.5230     7.2380    11.7880    22.3030     2.1270   -43.9400 
   65.0000    71.5060     7.6020     7.1930    11.8550    22.1850     2.1150   -44.5710 
   65.1250    71.6490     7.7620     7.1630    12.0620    22.0910     2.1090   -45.2090 
   65.2500    70.1310     7.9680     7.1570    12.1370    22.0200     2.1110   -45.9080 
   65.3750    69.5800     8.1990     7.1800    12.2150    21.9790     2.1200   -46.5890 
   65.5000    69.3600     8.4330     7.2290    12.4420    21.9640     2.1340   -47.3180 
   65.6250    67.2900     8.6300     7.2940    12.8890    21.9760     2.1440   -48.0720 
   65.7500    64.6400     8.7680     7.3560    13.3960    22.0010     2.1470   -48.8440 
   65.8750    63.0120     8.8240     7.4030    13.6850    22.0330     2.1440   -49.5840 
   66.0000    63.0350     8.7790     7.4240    13.7750    22.0710     2.1390   -50.2480 
   66.1250    64.8290     8.6540     7.4150    13.7560    22.1130     2.1360   -50.7690 
   66.2500    66.6640     8.5210     7.3880    13.6780    22.1550     2.1370   -51.2000 
   66.3750    65.0270     8.4070     7.3510    13.3260    22.1980     2.1420   -51.4970 
   66.5000    59.0280     8.3220     7.3110    12.6080    22.2410     2.1470   -51.7370 
   66.6250    54.3050     8.2700     7.2730    11.8390    22.2820     2.1490   -51.8040 
   66.7500    55.5600     8.2270     7.2350    11.4740    22.3190     2.1470   -51.8160 
   66.8750    59.9500     8.1630     7.1910    11.6220    22.3510     2.1400   -51.7050 
   67.0000    62.3720     8.0640     7.1420    11.8370    22.3740     2.1310   -51.6090 
   67.1250    59.5870     7.9540     7.0940    11.8300    22.3890     2.1210   -51.5320 
   67.2500    56.6950     7.8710     7.0640    11.4590    22.3980     2.1160   -51.4010 
   67.3750    56.6900     7.8540     7.0690    10.8850    22.4000     2.1150   -51.3390 
   67.5000    58.2550     7.9240     7.1190    10.2850    22.4020     2.1210   -51.2000 
   67.6250    59.0660     8.0830     7.2170    10.5110    22.4080     2.1300   -51.1110 
   67.7500    59.3430     8.2810     7.3360    11.1260    22.4180     2.1370   -50.9650 
   67.8750    60.7650     8.4650     7.4460    11.9330    22.4320     2.1400   -50.8370 
   68.0000    63.4150     8.5800     7.5190    12.5770    22.4530     2.1400   -50.5960 
   68.1250    65.6740     8.5690     7.5190    13.2250    22.4790     2.1380   -50.3030 
   68.2500    65.0800     8.4710     7.4570    13.4890    22.5110     2.1370   -49.9820 
   68.3750    61.8490     8.3470     7.3550    13.4950    22.5470     2.1390   -49.5700 
   68.5000    60.3310     8.2570     7.2450    13.3670    22.5770     2.1410   -49.1310 
   68.6250    63.4290     8.2610     7.1670    13.1570    22.5920     2.1430   -48.6670 
   68.7500    67.4060     8.3550     7.1370    13.0870    22.5950     2.1410   -48.2330 
   68.8750    67.5810     8.5110     7.1500    13.1020    22.5180     2.1380   -47.8180 
   69.0000    64.2390     8.6660     7.1810    13.0020    22.4820     2.1340   -47.4220 
   69.1250    62.7860     8.7150     7.1850    12.7580    22.4810     2.1330   -46.8910 
   69.2500    63.8930     8.6170     7.1330    12.4700    22.4960     2.1360   -46.3510 
   69.3750    66.4180     8.3900     7.0300    12.3280    22.5120     2.1410   -45.7140 
   69.5000    68.8670     8.1330     6.9200    12.2680    22.5200     2.1450   -45.0050 
   69.6250    71.8450     8.0630     6.9110    12.1980    22.5210     2.1470   -44.1110 
   69.7500    74.0180     8.3240     7.0860    11.9580    22.5280     2.1480   -43.0940 
   69.8750    72.7590     8.9640     7.4870    11.9080    22.5570     2.1580   -41.8770 
   70.0000    68.3950     9.9070     8.0880    12.9440    22.6490     2.1860   -40.6160 
   70.1250    62.5000    10.9250     8.7780    15.3870    22.9170     2.2440   -39.2580 
   70.2500    59.3750    11.6600     9.3420    18.9480    23.3360     2.3170   -37.8180 
   70.3750    62.4320    11.8470     9.6000    23.0480    23.7400     2.3830   -36.4280 
   70.5000    71.0950    11.4000     9.4640    23.0250    23.9360     2.4200   -35.0740 
   70.6250    79.3340    10.4370     8.9490    14.6310    23.9630     2.4090   -33.9360 
   70.7500    83.1580     9.3980     8.3120     9.8400    23.9600     2.3670   -32.8620 
   70.8750    85.1640     8.5900     7.7440     7.8190    23.9570     2.3160   -32.0070 
   71.0000    88.5410     8.1620     7.3660     7.3350    23.9550     2.2710   -31.1990 
   71.1250    92.3000     8.1430     7.2400     7.6980    23.9570     2.2460   -30.5910 
   71.2500    95.0460     8.3320     7.2770     8.1610    23.9600     2.2420   -30.0940 
   71.3750    97.8310     8.5490     7.3800     8.4800    23.9630     2.2580   -29.6880 
   71.5000    99.4080     8.6310     7.4460     9.2110    23.9660     2.2860   -29.3370 
   71.6250    99.6820     8.4740     7.3810     9.7880    23.9590     2.3110   -29.0040 
   71.7500   100.6590     8.1870     7.2160     8.6230    23.9380     2.3220   -28.7660 
   71.8750   103.4250     7.8950     7.0130     7.1290    23.9090     2.3180   -28.5920 
   72.0000   106.4730     7.7070     6.8430     6.4890    23.8790     2.3020   -28.5250 
   72.1250   106.9920     7.6940     6.7650     6.5610    23.7950     2.2840   -28.6080 
   72.2500   104.2650     7.8000     6.7640     6.7880    23.6630     2.2680   -28.7540 
   72.3750    98.4060     7.9650     6.8120     7.0810    23.5490     2.2550   -28.9370 
