~V
VERS. 2.00: Ver 2.00
~W
STRT.M 50.0000:
STOP.M 258.0000:
STEP.M 0.1250:
NULL. -999.2500:
UWI. DF5038:
~C
DEPT.M :
GR.API :
CALI.CM :
RXO.OHMM :
RI. :
RML.OHMM :
DEN.GM/CC :
SP.MV :
~A
   50.0000  -999.2500  -999.2500  -999.2500  -999.2500  -999.2500     2.1510  -999.2500 
   50.1250  -999.2500  -999.2500  -999.2500  -999.2500  -999.2500     2.1280  -999.2500 
   50.2500  -999.2500  -999.2500  -999.2500  -999.2500  -999.2500     2.1230  -999.2500 
   50.3750  -999.2500  -999.2500  -999.2500  -999.2500  -999.2500     2.0990  -999.2500 
   50.5000  -999.2500  -999.2500  -999.2500  -999.2500  -999.2500     2.0480  -999.2500 
   50.6250  -999.2500  -999.2500  -999.2500  -999.2500  -999.2500     2.0040  -999.2500 
   50.7500  -999.2500  -999.2500  -999.2500  -999.2500  -999.2500     1.9800  -999.2500 
   50.8750  -999.2500  -999.2500  -999.2500  -999.2500  -999.2500     1.9660  -999.2500 
   51.0000  -999.2500  -999.2500  -999.2500  -999.2500  -999.2500     1.9580  -999.2500 
   51.1250  -999.2500  -999.2500  -999.2500  -999.2500  -999.2500     1.9650  -999.2500 
   51.2500  -999.2500  -999.2500  -999.2500  -999.2500  -999.2500     1.9920  -999.2500 
   51.3750  -999.2500  -999.2500  -999.2500  -999.2500  -999.2500     2.0300  -999.2500 
   51.5000  -999.2500  -999.2500  -999.2500  -999.2500  -999.2500     2.0630  -999.2500 
   51.6250  -999.2500  -999.2500  -999.2500  -999.2500  -999.2500     2.0770  -999.2500 
   51.7500  -999.2500  -999.2500  -999.2500  -999.2500  -999.2500     2.0810  -999.2500 
   51.8750  -999.2500  -999.2500  -999.2500  -999.2500  -999.2500     2.0850  -999.2500 
   52.0000  -999.2500  -999.2500  -999.2500  -999.2500  -999.2500     2.0950    83.9670 
   52.1250  -999.2500  -999.2500  -999.2500  -999.2500  -999.2500     2.1140    83.9670 
   52.2500  -999.2500  -999.2500  -999.2500  -999.2500  -999.2500     2.1320    84.0090 
   52.3750  -999.2500  -999.2500  -999.2500  -999.2500  -999.2500     2.1440    84.1890 
   52.5000  -999.2500  -999.2500  -999.2500  -999.2500  -999.2500     2.1490    84.4610 
   52.6250  -999.2500  -999.2500  -999.2500  -999.2500  -999.2500     2.1510    84.9210 
   52.7500  -999.2500  -999.2500  -999.2500  -999.2500  -999.2500     2.1450    85.4460 
   52.8750  -999.2500  -999.2500  -999.2500  -999.2500  -999.2500     2.1280    85.8380 
   53.0000  -999.2500  -999.2500  -999.2500  -999.2500  -999.2500     2.1040    86.1500 
   53.1250  -999.2500  -999.2500  -999.2500  -999.2500  -999.2500     2.0810    86.6140 
   53.2500    48.7280    25.9730     0.3900     0.3360     0.3500     2.0630    87.0500 
   53.3750    48.7280    25.9730     0.3900     0.3360     0.3500     2.0600    87.3810 
   53.5000    49.0750    25.9730     0.3980     0.3340     0.3330     2.0750    87.6140 
   53.6250    48.3200    25.9730     0.3570     0.3310     0.3210     2.0980    87.5410 
   53.7500    47.4060    25.9730     0.3050     0.3280     0.3170     2.1060    87.3370 
   53.8750    46.3130    25.9730     0.2730     0.3260     0.3160     2.0900    87.0000 
   54.0000    44.8300    25.9730     0.2640     0.3230     0.3160     2.0610    86.5590 
   54.1250    44.1120    25.9730     0.2640     0.3200     0.3160     2.0400    85.9340 
   54.2500    43.6910    25.9730     0.2680     0.3180     0.3160     2.0330    85.2020 
   54.3750    43.4350    25.9730     0.2770     0.3180     0.3160     2.0370    84.4510 
   54.5000    44.0800    25.9730     0.2850     0.3200     0.3160     2.0440    83.6370 
   54.6250    44.9460    25.9730     0.2880     0.3220     0.3160     2.0510    82.9370 
   54.7500    44.6350    25.9730     0.2900     0.3250     0.3160     2.0530    82.2650 
   54.8750    44.0670    25.9720     0.2950     0.3280     0.3160     2.0510    81.6650 
   55.0000    44.0580    25.9700     0.2990     0.3290     0.3160     2.0490    81.0140 
   55.1250    44.2040    25.9700     0.3030     0.3260     0.3160     2.0510    80.4380 
   55.2500    44.1290    25.9710     0.3100     0.3230     0.3160     2.0520    79.8430 
   55.3750    44.5200    25.9730     0.3180     0.3230     0.3160     2.0530    79.2480 
   55.5000    45.8130    25.9730     0.3250     0.3260     0.3160     2.0640    78.6660 
   55.6250    48.3020    25.9730     0.3370     0.3320     0.3160     2.0880    77.8830 
   55.7500    49.7740    25.9730     0.3510     0.3380     0.3160     2.1080    77.0550 
   55.8750    48.1260    25.9730     0.3590     0.3410     0.3160     2.1090    76.3640 
   56.0000    46.3540    25.9720     0.3600     0.3410     0.3160     2.0960    75.7010 
   56.1250    47.1130    25.9690     0.3580     0.3390     0.3160     2.0850    74.9400 
   56.2500    47.9830    25.9660     0.3620     0.3370     0.3160     2.0800    74.1940 
   56.3750    47.6510    25.9650     0.3710     0.3350     0.3160     2.0730    73.4030 
   56.5000    46.7340    25.9670     0.3810     0.3360     0.3160     2.0580    72.6450 
   56.6250    46.4090    25.9690     0.3920     0.3410     0.3160     2.0580    71.9600 
   56.7500    47.2410    25.9700     0.4000     0.3460     0.3160     2.0940    71.1530 
   56.8750    49.8900    25.9700     0.4030     0.3520     0.3160     2.1550    70.2370 
   57.0000    52.6120    25.9710     0.4090     0.3560     0.3160     2.1960    69.2840 
   57.1250    51.1050    25.9720     0.4140     0.3590     0.3160     2.1710    68.2300 
   57.2500    46.5830    25.9710     0.4160     0.3620     0.3160     2.1110    67.1400 
   57.3750    42.4250    25.9670     0.4140     0.3640     0.3160     2.0640    65.9720 
   57.5000    41.3700    25.9650     0.4150     0.3630     0.3160     2.0560    64.7450 
   57.6250    43.3200    25.9670     0.4200     0.3630     0.3160     2.0830    63.6030 
   57.7500    44.7000    25.9690     0.4270     0.3650     0.3160     2.1070    62.5740 
   57.8750    44.9520    25.9670     0.4340     0.3710     0.3160     2.1090    61.5310 
   58.0000    44.9460    25.9640     0.4370     0.3800     0.3160     2.0940    60.5360 
   58.1250    45.8500    25.9650     0.4400     0.3880     0.3160     2.0800    59.7480 
   58.2500    46.3770    25.9680     0.4390     0.3950     0.3160     2.0700    58.9110 
   58.3750    45.8600    25.9690     0.4380     0.4020     0.3160     2.0610    58.1560 
   58.5000    45.3400    25.9700     0.4420     0.4090     0.3160     2.0500    57.4560 
   58.6250    45.7530    25.9710     0.4500     0.4150     0.3160     2.0490    56.6280 
   58.7500    45.8950    25.9720     0.4550     0.4200     0.3160     2.0590    55.8060 
   58.8750    45.3110    25.9730     0.4580     0.4250     0.3160     2.0750    54.9610 
   59.0000    44.3650    25.9730     0.4690     0.4310     0.3160     2.0950    54.0460 
   59.1250    43.8980    25.9730     0.4920     0.4400     0.3160     2.1160    52.9170 
   59.2500    44.1600    25.9730     0.5200     0.4470     0.3160     2.1270    51.7520 
   59.3750    44.8710    25.9730     0.5360     0.4460     0.3160     2.1190    50.4680 
   59.5000    44.9200    25.9720     0.5240     0.4390     0.3160     2.0980    49.1720 
   59.6250    45.9200    25.9690     0.4910     0.4270     0.3160     2.0730    47.9120 
   59.7500    50.3700    25.9660     0.4620     0.4140     0.3160     2.0490    46.4730 
   59.8750    55.4660    25.9660     0.4450     0.4020     0.3160     2.0300    44.8960 
   60.0000    56.0650    25.9700     0.4400     0.3910     0.3160     2.0210    43.2000 
   60.1250    51.8550    25.9720     0.4260     0.3750     0.3160     2.0230    41.3230 
   60.2500    48.1610    25.9710     0.3960     0.3510     0.3160     2.0290    39.3050 
   60.3750    47.0100    25.9850     0.3550     0.3220     0.3160     2.0320    37.2100 
   60.5000    47.2570    25.9700     0.3200     0.2930     0.3160     2.0370    34.9160 
   60.6250    48.2670    25.6600     0.3170     0.2720     0.3160     2.0480    32.3150 
   60.7500    48.6330    25.0370     0.3450     0.2610     0.3160     2.0530    29.4840 
   60.8750    48.1300    24.3820     0.3950     0.2580     0.3160     2.0520    26.3150 
   61.0000    47.6610    24.0070     0.4770     0.2570     0.3160     2.0770    22.6680 
   61.1250    50.4460    23.9560     0.8100     0.2660     0.3160     2.1490    18.2390 
