~V
VERS. 2.00: Ver 2.00
~W
STRT.M 55.0000:
STOP.M 277.0000:
STEP.M 0.1250:
NULL. -999.2500:
UWI. DF5040:
~C
DEPT.M :
GR.API :
CALI.CM :
RXO.OHMM :
RI. :
RML.OHMM :
DEN.GM/CC :
SP.MV :
~A
# ...
  122.5000    97.3840    24.1450     4.8060     4.7510     5.0120     2.3050   -11.0360 
  122.6250    94.8070    24.1480     4.9300     4.6650     4.9790     2.2820   -10.9810 
  122.7500    93.9030    24.2050     4.9930     4.6610     5.0200     2.2640   -10.9620 
  122.8750    93.4340    24.2700     5.0280     4.6960     5.0860     2.2630   -10.9610 
  123.0000    93.2220    24.3420     5.1160     4.7320     5.1420     2.2770   -10.9600 
  123.1250    94.1480    24.3930     5.2140     4.7370     5.1530     2.2870   -10.9550 
  123.2500    96.8160    24.4250     5.2150     4.7020     5.1250     2.2830   -10.9570 
  123.3750   101.2270    24.4130     5.1670     4.6290     5.0590     2.2740   -10.9760 
  123.5000   105.4470    24.3830     5.1450     4.5270     4.9600     2.2710   -11.0180 
  123.6250   106.1640    24.3670     5.0870     4.4160     4.8530     2.2710   -11.0820 
  123.7500   103.4570    24.3720     4.9590     4.3290     4.7750     2.2740   -11.1500 
  123.8750    99.7440    24.3890     4.8220     4.2940     4.7550     2.2800   -11.2120 
  124.0000    97.7630    24.3970     4.7470     4.3300     4.8020     2.2870   -11.2680 
  124.1250    97.9450    24.3700     4.7640     4.4460     4.9200     2.2860   -11.3250 
  124.2500    96.7230    24.2770     4.9320     4.6040     5.0700     2.2840   -11.3880 
  124.3750    91.7460    24.1100     5.4140     4.7650     5.2080     2.2920   -11.4560 
  124.5000    85.2180    23.8990     6.2040     4.8820     5.2920     2.3140   -11.5190 
  124.6250    84.3530    23.8390     6.7240     4.9040     5.2800     2.3340   -11.5590 
  124.7500    91.1950    23.9040     6.4520     4.8340     5.1900     2.3350   -11.5740 
  124.8750   102.3910    24.0040     5.6880     4.6850     5.0530     2.3190   -11.5730 
  125.0000   112.7930    24.0450     5.0440     4.4920     4.9050     2.3050   -11.5770 
  125.1250   118.2680    24.0410     4.7390     4.3070     4.7770     2.3120   -11.6220 
  125.2500   119.2250    24.0330     4.5580     4.1650     4.6880     2.3300   -11.7210 
  125.3750   117.4220    24.0230     4.4640     4.0810     4.6490     2.3460   -11.8790 
  125.5000   114.6250    24.0270     4.4860     4.0600     4.6660     2.3560   -12.0880 
  125.6250   110.5750    24.0330     4.6310     4.1060     4.7410     2.3630   -12.3450 
  125.7500   104.9730    24.0590     4.9170     4.2050     4.8640     2.3660   -12.6410 
  125.8750    98.8930    24.1100     5.2400     4.3600     5.0460     2.3600   -12.9810 
  126.0000    93.2010    24.1500     5.4240     4.5720     5.2910     2.3390   -13.3690 
  126.1250    87.4710    24.1300     5.4060     4.8410     5.6000     2.3070   -13.7960 
  126.2500    82.0550    24.0350     5.5150     5.1400     5.9310     2.2840   -14.2250 
  126.3750    78.5590    23.8590     5.8300     5.4430     6.2450     2.2750   -14.6200 
  126.5000    77.5660    23.6780     6.3270     5.7110     6.5000     2.2680   -14.9520 
  126.6250    77.1180    23.4930     6.8360     5.8800     6.6310     2.2390   -15.1910 
  126.7500    75.2440    23.3290     7.2510     5.9360     6.6300     2.2030   -15.3540 
  126.8750    72.3990    23.1630     7.4540     5.8870     6.5190     2.1830   -15.4550 
  127.0000    70.4070    23.1210     7.4840     5.7880     6.3660     2.1850   -15.5060 
  127.1250    70.9100    23.2330     7.5100     5.7500     6.3260     2.1980   -15.5090 
  127.2500    73.1410    23.2900     7.5780     5.9080     6.5450     2.2110   -15.4770 
  127.3750    75.6390    23.2330     7.6770     6.3990     7.1580     2.2330   -15.4170 
  127.5000    76.4860    23.1780     8.3770     7.3520     8.2590     2.2790   -15.3450 
  127.6250    74.2400    23.2330    11.5210     8.9140     9.9490     2.3620   -15.2900 
  127.7500    70.8890    23.4410    17.8510    10.8950    11.9750     2.4690   -15.2790 
  127.8750    68.1800    23.7680    26.2370    12.9700    13.9470     2.5750   -15.3300 
  128.0000    66.6790    24.0750    34.3070    14.6200    15.2970     2.6450   -15.4520 
  128.1250    67.2400    24.2140    38.4810    15.1180    15.2920     2.6510   -15.6540 
  128.2500    69.6540    24.1950    37.1970    14.4360    14.0950     2.6110   -15.9110 
  128.3750    72.2450    24.0160    30.4830    12.8590    12.1790     2.5340   -16.2040 
  128.5000    73.3740    23.7390    21.3420    10.9100    10.1690     2.4300   -16.5130 
  128.6250    73.9800    23.5090    14.3990     9.1470     8.6130     2.3230   -16.8180 
  128.7500    75.3560    23.3870    10.4000     7.8150     7.5890     2.2440   -17.1010 
  128.8750    76.1680    23.3150     8.6380     6.9380     7.0250     2.2030   -17.3470 
  129.0000    74.8510    23.2580     7.9760     6.4430     6.7900     2.1910   -17.5390 
  129.1250    72.4190    23.2030     7.7610     6.2570     6.7720     2.1890   -17.6510 
  129.2500    71.5280    23.1650     7.6480     6.2340     6.8340     2.1830   -17.6890 
  129.3750    72.6530    23.2010     7.5950     6.3030     6.9190     2.1720   -17.6640 
  129.5000    74.3500    23.3110     7.5710     6.4140     6.9990     2.1630   -17.5980 
  129.6250    74.7870    23.3660     7.5400     6.5400     7.0770     2.1640   -17.5160 
  129.7500    74.3220    23.3590     7.5240     6.6770     7.1680     2.1690   -17.4410 
  129.8750    73.8840    23.3080     7.6070     6.8270     7.2790     2.1730   -17.3780 
  130.0000    73.6520    23.2360     7.8740     6.9840     7.3960     2.1790   -17.3300 
  130.1250    72.4440    23.1140     8.2790     7.1230     7.4900     2.1810   -17.3070 
  130.2500    69.8700    22.9620     8.6170     7.2210     7.5430     2.1740   -17.3100 
  130.3750    67.4350    22.8440     8.6720     7.2750     7.5510     2.1610   -17.3380 
  130.5000    67.0500    22.8060     8.4170     7.2950     7.5260     2.1520   -17.3750 
  130.6250    68.9920    22.8360     8.0900     7.3030     7.4930     2.1540   -17.3950 
  130.7500    70.8570    22.9060     7.9940     7.3250     7.4810     2.1570   -17.3750 
  130.8750    71.2140    22.9920     8.1180     7.3570     7.4910     2.1570   -17.3060 
  131.0000    70.0990    23.0800     8.3350     7.3780     7.5010     2.1600   -17.1850 
  131.1250    68.4120    23.1520     8.5580     7.3270     7.4360     2.1720   -17.0020 
  131.2500    67.6980    23.2530     8.7990     7.1500     7.2400     2.1840   -16.7670 
  131.3750    69.1520    23.3530     8.9710     6.8150     6.8910     2.1890   -16.4870 
  131.5000    73.0480    23.4140     8.8360     6.3430     6.4230     2.1890   -16.1850 
  131.6250    77.8960    23.4610     8.1390     5.8090     5.9260     2.1990   -15.9020 
  131.7500    81.8330    23.5600     7.0020     5.3230     5.5050     2.2240   -15.6740 
  131.8750    84.7460    23.7590     5.8100     4.9680     5.2380     2.2590   -15.5240 
  132.0000    86.8990    24.0350     4.9680     4.7960     5.1660     2.2910   -15.4570 
  132.1250    87.3940    24.1610     4.8490     4.8580     5.3170     2.3150   -15.4790 
  132.2500    85.4000    24.0360     5.6450     5.0980     5.6210     2.3340   -15.5720 
  132.3750    81.3520    23.7710     6.9840     5.4640     6.0260     2.3460   -15.7340 
  132.5000    76.7570    23.6190     7.9880     5.8870     6.4630     2.3430   -15.9660 
  132.6250    73.7950    23.6700     8.0510     6.2790     6.8420     2.3130   -16.2680 
  132.7500    72.8470    23.7410     7.9130     6.5870     7.1150     2.2720   -16.6020 
  132.8750    72.3250    23.7500     8.1140     6.7890     7.2670     2.2400   -16.9360 
  133.0000    70.6330    23.6640     8.5860     6.8870     7.3180     2.2300   -17.2370 
  133.1250    68.6680    23.5130     9.1680     6.8940     7.2970     2.2390   -17.4830 
  133.2500    68.3510    23.4380     9.3680     6.8570     7.2490     2.2510   -17.6880 
  133.3750    69.3140    23.4310     9.0720     6.8010     7.1850     2.2540   -17.8710 
  133.5000    70.1150    23.4680     8.5440     6.7360     7.1140     2.2430   -18.0460 
  133.6250    70.6460    23.5140     8.1430     6.6710     7.0510     2.2230   -18.2220 
