~V
VERS. 2.00: Ver 2.00
~W
STRT.M 57.0000:
STOP.M 276.0000:
STEP.M 0.1250:
NULL. -999.2500:
UWI. DF5005:
~C
DEPT.M :
GR.API :
RML.OHMM :
RI. :
RXO.OHMM :
CALI.CM :
DEN.GM/CC :
SP.MV :
~A
# ...
  248.2500    77.9720    83.4560    74.9620    78.1120    24.0870     2.3370   -11.5650 
  248.3750    80.3600    90.3210    82.0360    87.0980    24.0210     2.3980   -11.5090 
  248.5000    79.4370    95.1410    87.9800    90.8270    24.1200     2.4540   -11.3900 
  248.6250    77.2980    97.5570    91.3340    92.8130    24.1890     2.4970   -11.3400 
  248.7500    75.8630    97.6680    91.9740    93.5110    24.1990     2.5270   -11.4230 
  248.8750    75.8350    96.4470    91.1920    88.3600    24.2360     2.5470   -11.5420 
  249.0000    78.7510    96.2180    91.0920    80.0810    24.3250     2.5590   -11.7430 
  249.1250    82.2510    97.8300    92.5650    74.7720    24.4190     2.5630   -12.1140 
  249.2500    83.0230   101.0160    95.4950    78.7140    24.4480     2.5630   -12.4960 
  249.3750    82.6490   104.4740    98.8170    93.0710    24.3930     2.5580   -12.7720 
  249.5000    85.8720   106.4340   100.9190   100.9070    24.2880     2.5470   -13.0600 
  249.6250    89.8150   105.8650   100.7850    96.1700    24.2400     2.5180   -13.2980 
  249.7500    88.7090   102.8310    98.3010    89.9990    24.2360     2.4670   -13.4350 
  249.8750    82.6730    98.5250    94.2870    82.8700    24.2600     2.4010   -13.5160 
  250.0000    77.7750    94.7960    90.4120    75.8800    24.3170     2.3380   -13.5750 
  250.1250    77.1970    92.4350    87.5460    73.6350    24.2960     2.2870   -13.5520 
  250.2500    79.7040    91.3800    85.8800    76.8520    24.1110     2.2530   -13.4580 
  250.3750    83.1210    90.9900    85.0880    79.6010    23.9880     2.2370   -13.3910 
  250.5000    86.0010    90.4700    84.4630    77.9910    23.9540     2.2370   -13.3230 
  250.6250    87.0330    89.7820    83.8890    76.3580    23.9850     2.2540   -13.1830 
  250.7500    86.8800    89.6710    83.8980    80.8060    24.1340     2.2820   -12.9630 
  250.8750    85.3970    92.4620    86.4480    85.4310    24.1500     2.3130   -12.7400 
  251.0000    83.5430    99.9600    93.3090    82.2870    24.1010     2.3390   -12.3980 
  251.1250    82.3390   112.7870   105.4890    76.5790    24.0380     2.3640   -11.9460 
  251.2500    83.6860   128.8920   121.6240    80.7340    23.8930     2.3990   -11.5150 
  251.3750    86.9370   141.5210   135.9810   106.6900    23.8320     2.4560   -11.0420 
  251.5000    87.3530   143.1100   140.9940   142.9030    23.8810     2.5230   -10.4740 
  251.6250    83.0490   129.0020   131.3310   181.1650    23.9850     2.5800    -9.9380 
  251.7500    75.2940   101.1410   106.9590   197.2920    24.0580     2.6060    -9.4390 
  251.8750    65.0920    69.7050    75.2990   159.5900    24.1020     2.5930    -8.9000 
  252.0000    54.3150    44.8750    48.1550    98.9850    24.1430     2.5540    -8.4550 
  252.1250    45.1180    28.4250    29.5480    57.0770    24.1620     2.5000    -8.0930 
  252.2500    40.1900    18.4600    18.4880    28.2320    24.1550     2.4410    -7.7160 
  252.3750    42.1760    13.2750    12.9360    14.5850    24.1100     2.3870    -7.4140 
  252.5000    48.4230    10.3200     9.9650     8.9330    24.0730     2.3440    -7.1880 
  252.6250    53.9670     8.7820     8.5250     7.5460    24.0600     2.3160    -6.9480 
  252.7500    54.8180     8.4990     8.0190     7.4430    24.0580     2.3040    -6.8000 
  252.8750    52.3640     8.7710     8.1150     7.4550    24.0580     2.3060    -6.7860 
  253.0000    51.6540     9.1230     8.4190     7.4890    24.0580     2.3150    -6.7380 
  253.1250    52.4770     9.3810     8.7280     7.5440    24.0580     2.3250    -6.6950 
  253.2500    53.0020     9.4880     8.9190     7.5850    24.0580     2.3330    -6.7190 
  253.3750    53.8220     9.4160     8.9320     7.5010    24.0580     2.3350    -6.7290 
  253.5000    55.1120     9.2870     8.8230     7.4030    24.0580     2.3360    -6.7640 
  253.6250    55.9270     9.1510     8.6450     7.3660    24.0580     2.3380    -6.9000 
  253.7500    55.9990     8.9700     8.4440     7.3180    24.0580     2.3420    -7.0230 
  253.8750    55.9670     8.8190     8.2580     7.3250    24.0580     2.3460    -7.0990 
  254.0000    56.0190     8.6900     8.0960     7.3320    24.0580     2.3480    -7.2120 
  254.1250    56.1150     8.5890     7.9570     7.3190    24.0570     2.3480    -7.2880 
  254.2500    55.5450     8.5030     7.8320     7.2640    24.0460     2.3480    -7.3450 
  254.3750    53.8270     8.3870     7.7210     7.2000    24.0170     2.3480    -7.4550 
  254.5000    53.6300     8.2520     7.6220     7.1590    23.9810     2.3490    -7.5310 
  254.6250    55.6580     8.1460     7.5390     7.2180    23.9560     2.3470    -7.5700 
  254.7500    58.0810     8.0980     7.4800     7.3750    23.9520     2.3420    -7.6190 
  254.8750    58.4270     8.1340     7.4590     7.6490    23.9540     2.3360    -7.6580 
  255.0000    55.8790     8.2130     7.4750     7.9170    23.9490     2.3320    -7.7430 
  255.1250    51.0370     8.3220     7.5210     8.0380    23.9400     2.3320    -7.9200 
  255.2500    48.3910     8.4070     7.5840     8.1300    23.9400     2.3340    -8.1000 
  255.3750    52.3430     8.4410     7.6420     8.2840    23.9410     2.3390    -8.2550 
  255.5000    55.9710     8.4210     7.6780     8.3420    23.9360     2.3450    -8.4170 
  255.6250    54.7160     8.3850     7.6820     8.4060    23.9330     2.3510    -8.5190 
  255.7500    50.8580     8.3560     7.6570     8.6180    23.9410     2.3540    -8.5990 
  255.8750    50.1490     8.3170     7.6130     8.7840    23.9580     2.3520    -8.6950 
  256.0000    52.0850     8.2710     7.5710     8.6250    23.9790     2.3490    -8.6960 
  256.1250    54.8580     8.2420     7.5440     8.2030    23.9880     2.3470    -8.6650 
  256.2500    57.5800     8.2500     7.5360     7.9460    23.9900     2.3500    -8.6410 
  256.3750    58.4840     8.2760     7.5420     7.8750    23.9860     2.3580    -8.5920 
  256.5000    57.9290     8.2890     7.5480     7.8760    23.9710     2.3670    -8.6000 
  256.6250    56.9690     8.2930     7.5470     7.8680    23.9440     2.3750    -8.6730 
  256.7500    54.9260     8.3380     7.5430     7.8960    23.9290     2.3770    -8.7190 
  256.8750    52.5090     8.3790     7.5490     7.8930    23.9370     2.3750    -8.7750 
  257.0000    51.4500     8.4150     7.5750     7.9400    23.9600     2.3710    -8.8740 
  257.1250    52.9870     8.4630     7.6210     7.9950    23.9800     2.3660    -8.9320 
  257.2500    55.1300     8.5280     7.6780     8.0450    23.9890     2.3620    -8.9740 
  257.3750    54.0470     8.5890     7.7220     8.1310    23.9880     2.3570    -9.0040 
  257.5000    52.3220     8.6200     7.7380     8.4040    23.9880     2.3550    -9.0100 
  257.6250    51.4990     8.6040     7.7160     8.8580    23.9970     2.3580    -9.0070 
  257.7500    50.7080     8.5410     7.6630     9.5980    24.0230     2.3670    -8.9790 
  257.8750    48.4510     8.4570     7.5960     9.7910    24.0240     2.3810    -8.9480 
  258.0000    47.5530     8.4020     7.5460     9.4070    23.9960     2.3930    -8.9240 
  258.1250    49.1530     8.4170     7.5340     9.0450    23.9560     2.3990    -8.9170 
  258.2500    50.9610     8.5100     7.5680     8.8190    23.9360     2.3970    -8.9720 
  258.3750    52.2230     8.6520     7.6350     8.8940    23.9280     2.3920    -9.0660 
  258.5000    53.5840     8.7740     7.7010     8.9140    23.9230     2.3870    -9.0840 
  258.6250    54.2320     8.8320     7.7420     8.8490    23.9180     2.3830    -9.0650 
  258.7500    54.5080     8.8270     7.7510     8.8270    23.9100     2.3780    -9.0930 
  258.8750    55.2760     8.7990     7.7390     8.9800    23.8950     2.3720    -9.0950 
  259.0000    56.5820     8.7990     7.7310     9.2470    23.8780     2.3670    -9.1470 
  259.1250    57.2960     8.8400     7.7410     9.5260    23.8620     2.3640    -9.2310 
  259.2500    56.4790     8.9120     7.7720     9.8360    23.8570     2.3670    -9.2620 
  259.3750    54.1720     8.9900     7.8190     9.7940    23.8540     2.3740    -9.3200 
