~V
VERS. 2.00: Ver 2.00
~W
STRT.M 55.0000:
STOP.M 261.0000:
STEP.M 0.1250:
NULL. -999.2500:
UWI. DF5033:
~C
DEPT.M :
SP.MV :
GR.API :
CALI.CM :
RXO.OHMM :
RI. :
RML.OHMM :
DEN.GM/CC :
~A
# ...
  111.2500   -13.7920    99.8890    26.2780     4.8190     4.4620     5.2190     2.3300 
  111.3750   -13.5710   105.7260    26.2860     4.6290     4.2180     4.8030     2.3430 
  111.5000   -13.4460   107.4240    26.2730     4.4260     4.0420     4.5480     2.3460 
  111.6250   -13.4710   103.8190    26.2220     4.2850     4.0080     4.5620     2.3420 
  111.7500   -13.5960    96.5070    26.1320     4.2870     4.1200     4.8250     2.3340 
  111.8750   -13.7750    88.5550    26.0110     4.5420     4.3650     5.2960     2.3280 
  112.0000   -13.9670    84.0430    25.8920     5.0950     4.6960     5.8730     2.3230 
  112.1250   -14.1580    83.8210    25.8280     5.6560     5.0290     6.3720     2.3100 
  112.2500   -14.3390    82.6600    25.8280     5.8050     5.2710     6.6460     2.2960 
  112.3750   -14.5030    80.0920    25.8640     5.5670     5.3670     6.6440     2.2870 
  112.5000   -14.6380    79.2550    25.8850     5.3630     5.3130     6.4190     2.2810 
  112.6250   -14.7150    80.3160    25.8400     5.5050     5.1550     6.0950     2.2770 
  112.7500   -14.7960    80.5630    25.7470     5.6380     4.9930     5.8450     2.2880 
  112.8750   -14.9010    80.0230    25.6430     5.4670     4.8960     5.7690     2.3200 
  113.0000   -15.0390    79.0980    25.5620     5.1570     4.8990     5.8890     2.3550 
  113.1250   -15.2070    76.3780    25.5220     5.2170     5.0280     6.1960     2.3640 
  113.2500   -15.3910    73.2570    25.5050     5.6900     5.2560     6.6170     2.3460 
  113.3750   -15.5920    72.9640    25.4990     6.2290     5.5690     7.1080     2.3230 
  113.5000   -15.8080    76.2850    25.4960     6.5610     5.9420     7.6150     2.3160 
  113.6250   -16.0660    80.7150    25.4950     7.0310     6.3440     8.0770     2.3350 
  113.7500   -16.3260    81.7680    25.4940     8.0070     6.7520     8.4940     2.3590 
  113.8750   -16.5710    80.0170    25.4940     8.9640     7.1620     8.9020     2.3660 
  114.0000   -16.7850    76.8950    25.4940     9.0470     7.5700     9.3800     2.3420 
  114.1250   -16.9330    72.6430    25.4940     8.3390     7.9640    10.0040     2.2970 
  114.2500   -16.9920    68.2330    25.4940     7.9950     8.2910    10.6320     2.2570 
  114.3750   -16.9470    65.4430    25.4950     8.1850     8.4350    10.9710     2.2340 
  114.5000   -16.8070    66.2470    25.4970     8.3710     8.2580    10.7080     2.2300 
  114.6250   -16.5640    70.3010    25.5040     8.0810     7.6540     9.6540     2.2380 
  114.7500   -16.2620    76.2460    25.5140     7.3690     6.8230     8.2590     2.2510 
  114.8750   -15.9570    83.4610    25.5240     6.3810     5.9960     6.9860     2.2710 
  115.0000   -15.6750    87.7500    25.5300     5.4870     5.3930     6.1980     2.2950 
  115.1250   -15.4360    83.0490    25.5360     5.2930     5.2530     6.2170     2.3040 
  115.2500   -15.2350    73.0450    25.5590     5.9570     5.6260     7.0360     2.2900 
  115.3750   -15.0860    64.0980    25.6160     7.7160     6.5920     8.7270     2.2700 
  115.5000   -14.9920    59.4790    25.7150    11.1320     8.1980    11.3040     2.2730 
  115.6250   -14.9590    58.3380    25.8450    16.7210    10.4240    14.6040     2.3240 
  115.7500   -14.9710    59.7410    25.9720    22.2690    12.7780    17.7930     2.4020 
  115.8750   -14.9980    63.6850    26.0770    25.6700    14.7150    20.0210     2.4780 
  116.0000   -15.0520    67.3430    26.1650    27.1800    15.7890    20.7850     2.5290 
  116.1250   -15.1520    67.0600    26.2600    28.5600    15.7250    20.0000     2.5570 
  116.2500   -15.3080    65.9380    26.3480    28.6100    14.9000    18.3930     2.5680 
  116.3750   -15.4860    67.6890    26.3830    24.9040    13.6220    16.4250     2.5470 
  116.5000   -15.6370    71.2710    26.3140    18.1760    12.1870    14.4670     2.4810 
  116.6250   -15.6980    71.1940    26.1210    12.5240    10.8630    12.8360     2.3870 
  116.7500   -15.6410    67.0090    25.8940     9.6900     9.7620    11.5780     2.3030 
  116.8750   -15.4600    62.2060    25.7270     8.7430     8.8920    10.6420     2.2460 
  117.0000   -15.1590    62.5140    25.6870     8.4040     8.2100     9.9130     2.2190 
  117.1250   -14.7530    70.9560    25.7960     7.8950     7.6640     9.2680     2.2270 
  117.2500   -14.2980    78.9730    25.9670     7.2490     7.1820     8.6350     2.2600 
  117.3750   -13.8500    81.3120    26.1340     6.7610     6.7560     8.0520     2.2980 
  117.5000   -13.4590    81.0820    26.2500     6.5320     6.3990     7.5810     2.3170 
  117.6250   -13.2190    83.8490    26.2910     6.3830     6.1360     7.2580     2.3120 
  117.7500   -13.1390    86.2710    26.2820     6.1520     5.9360     7.0070     2.3000 
  117.8750   -13.2120    85.6360    26.2380     5.9190     5.7760     6.7740     2.2920 
  118.0000   -13.4160    84.4180    26.1670     5.7720     5.6430     6.5460     2.2950 
  118.1250   -13.7360    84.4070    26.0700     5.6970     5.5630     6.3900     2.3070 
  118.2500   -14.0930    83.5050    25.9590     5.6650     5.5580     6.3670     2.3120 
  118.3750   -14.4320    80.9430    25.8500     5.7360     5.6460     6.5110     2.3000 
  118.5000   -14.7140    78.1700    25.7630     5.9770     5.8240     6.8070     2.2650 
  118.6250   -14.8570    76.8780    25.7450     6.3590     6.0550     7.1840     2.2210 
  118.7500   -14.8720    77.7190    25.8380     6.7010     6.2470     7.4770     2.1850 
  118.8750   -14.7820    81.5510    26.0650     6.8720     6.3170     7.5430     2.1680 
  119.0000   -14.6200    87.2320    26.3810     6.8090     6.2120     7.3090     2.1740 
  119.1250   -14.4450    91.5100    26.6390     6.4920     5.9240     6.8030     2.2130 
  119.2500   -14.3220    92.0830    26.7060     6.0130     5.5690     6.2330     2.2800 
  119.3750   -14.2840    88.7980    26.5480     5.4700     5.2330     5.7410     2.3470 
  119.5000   -14.3390    84.5970    26.2410     5.0240     4.9790     5.4070     2.3780 
  119.6250   -14.5020    83.4660    25.9340     4.9010     4.8430     5.2660     2.3520 
  119.7500   -14.7360    83.9590    25.7310     5.0590     4.7980     5.2530     2.3100 
  119.8750   -14.9980    83.8230    25.6410     5.2910     4.8210     5.3280     2.2770 
  120.0000   -15.2480    83.2920    25.6200     5.3620     4.8890     5.4500     2.2550 
  120.1250   -15.4060    82.5240    25.6260     5.2310     4.9770     5.5750     2.2520 
  120.2500   -15.4550    81.1400    25.6530     5.1710     5.0480     5.6490     2.2780 
  120.3750   -15.4020    81.7920    25.7230     5.3220     5.0730     5.6260     2.3320 
  120.5000   -15.2740    85.8950    25.8610     5.5210     5.0260     5.4760     2.3900 
  120.6250   -15.1210    87.8080    26.0700     5.3980     4.8990     5.2050     2.4150 
  120.7500   -14.9920    85.0240    26.2880     5.0220     4.7390     4.9120     2.4030 
  120.8750   -14.9170    83.0570    26.4390     4.6890     4.5940     4.6790     2.3700 
  121.0000   -14.9070    84.6290    26.4630     4.5710     4.5000     4.5570     2.3380 
  121.1250   -14.9820    84.9930    26.3270     4.6300     4.4880     4.5810     2.3190 
  121.2500   -15.1220    82.7440    26.1130     4.7480     4.5510     4.7160     2.3120 
  121.3750   -15.2970    80.8030    25.9080     4.9210     4.6770     4.9370     2.3130 
  121.5000   -15.4790    81.6820    25.7830     5.1750     4.8500     5.2220     2.3170 
  121.6250   -15.6250    82.3340    25.7910     5.5650     5.0450     5.5400     2.3120 
  121.7500   -15.7160    80.7040    25.8860     6.0370     5.2160     5.8230     2.2850 
  121.8750   -15.7460    79.1590    26.0160     6.3860     5.3220     5.9990     2.2420 
  122.0000   -15.7430    79.1280    26.1450     6.3750     5.3270     6.0100     2.2080 
  122.1250   -15.7510    80.8870    26.2990     5.9740     5.2210     5.8390     2.2100 
  122.2500   -15.8080    83.2370    26.5500     5.5480     5.0710     5.6090     2.2290 
  122.3750   -15.9280    85.5830    26.9200     5.3320     4.9590     5.4560     2.2410 
