~V
VERS. 2.00: Ver 2.00
~W
STRT.M 60.0000:
STOP.M 273.0000:
STEP.M 0.1250:
NULL. -999.2500:
UWI. DF5003:
~C
DEPT.M :
GR.API :
CALI.CM :
RXO.OHMM :
RI. :
RML.OHMM :
DEN.GM/CC :
SP.MV :
~A
# ...
  262.5000    63.5690    23.3530     6.9700     7.3130     7.9660     2.3220   -34.3980 
  262.6250    63.5690    23.3400     7.0850     7.3370     7.9700     2.3150   -34.4540 
  262.7500    63.5690    23.3290     7.0210     7.3390     7.9530     2.3180   -34.5080 
  262.8750    63.5690    23.3300     6.7270     7.3130     7.9160     2.3270   -34.5470 
  263.0000    63.5690    23.3280     6.4920     7.2640     7.8650     2.3340   -34.6050 
  263.1250    63.5690    23.2610     6.8480     7.2000     7.8150     2.3350   -34.7670 
  263.2500    63.5690    23.1240     7.3430     7.1340     7.7800     2.3280   -34.8310 
  263.3750    63.5690    22.9810     7.2680     7.0700     7.7770     2.3210   -35.0090 
  263.5000    63.5690    22.9000     6.8880     7.0140     7.8160     2.3180   -35.2580 
  263.6250    63.5690    22.8870     6.9010     6.9850     7.8900     2.3230   -35.3940 
  263.7500    63.5690    22.8860     7.1400     6.9980     7.9700     2.3310   -35.4440 
  263.8750    63.5690    22.8870     7.4720     7.0650     8.0430     2.3410   -35.5360 
  264.0000    63.5690    22.8820     7.8740     7.1840     8.1180     2.3490   -35.7400 
  264.1250    63.5690    22.8610     8.1700     7.3360     8.2190     2.3520   -35.8710 
  264.2500    63.5690    22.8310     8.2070     7.4850     8.3540     2.3500   -35.9290 
  264.3750    63.5690    22.7570     8.0540     7.6090     8.5140     2.3400   -35.9090 
  264.5000    63.5690    22.5100     7.9780     7.6930     8.6710     2.3230   -35.8500 
  264.6250    63.5690    21.8720     8.4370     7.7320     8.7890     2.3040   -35.8040 
  264.7500    63.5690    21.0340     9.1840     7.7460     8.8520     2.2900   -35.6790 
  264.8750    63.5690    20.3100     9.5250     7.7500     8.8570     2.2850   -35.3980 
  265.0000    63.5690    19.8760     9.4710     7.7590     8.8220     2.2870   -34.9900 
  265.1250    63.5690    19.6870     8.9490     7.7870     8.8010     2.2970   -34.5210 
  265.2500    63.5690    19.6010     8.5950     7.8370     8.8430     2.3130   -34.0930 
  265.3750    63.5690    19.6310     8.3000     7.9110     8.9580     2.3320   -33.7190 
  265.5000    63.5690    19.7650     8.5330     8.0020     9.1200     2.3490   -33.3430 
  265.6250    63.5690    19.9110     9.1590     8.0980     9.2720     2.3580   -32.9830 
  265.7500    63.5690    19.9960     9.2690     8.1790     9.3710     2.3620   -32.6350 
  265.8750    63.5690    20.0200     9.0270     8.2240     9.4010     2.3610   -32.3330 
  266.0000    63.5690    20.0190     9.1480     8.2210     9.3660     2.3590   -32.0920 
  266.1250    63.5690    20.0180     9.4050     8.1630     9.2670     2.3570   -31.7290 
  266.2500    63.5690    20.0180     8.9180     8.0760     9.1320     2.3550   -31.3970 
  266.3750    63.5690    20.0160     7.7430     7.9880     8.9920     2.3500   -30.9590 
  266.5000    63.5690    20.0150     6.6100     7.9170     8.8810     2.3410   -30.5060 
  266.6250    63.5690    20.0150     6.3730     7.8790     8.8260     2.3290   -30.0000 
  266.7500    63.5690    20.0170     6.6430     7.8660     8.8060     2.3140   -29.5480 
  266.8750    63.5690    20.0040     6.9660     7.8640     8.8000     2.2990   -29.1610 
  267.0000    63.5690    19.9670     7.1870     7.8630     8.7930     2.2870   -28.6940 
  267.1250    63.5690    19.9180     7.5980     7.8550     8.7820     2.2780   -28.3270 
  267.2500    63.5690    19.8930     7.8970     7.8450     8.7750     2.2730   -27.9470 
  267.3750    63.5690    19.8830     8.1050     7.8390     8.7740     2.2680   -27.5950 
  267.5000    63.5690    19.7900     8.0970     7.8410     8.7810     2.2640   -27.2730 
  267.6250    63.5690    19.5200     7.3410     7.8510     8.7930     2.2610   -27.1370 
  267.7500    63.5690    19.1940     6.1650     7.8600     8.8030     2.2570   -27.0320 
  267.8750    63.5690    18.9550     5.4100     7.8630     8.8040     2.2520   -27.0230 
  268.0000    63.5690    18.8520     5.2440     7.8630     8.7920     2.2490   -27.0720 
  268.1250    63.5690    18.8370     5.2740     7.8630     8.7720     2.2490   -27.0960 
  268.2500    63.5690    18.8400     5.3000     7.8630     8.7720     2.2520   -27.3310 
  268.3750    63.5690    18.8450     5.3920     7.8630     8.7720     2.2560   -27.7210 
  268.5000    63.5690    18.8440     5.6270     7.8630     8.7720     2.2590   -28.1270 
  268.6250    63.5690    18.8460     5.8830     7.8630     8.7720     2.2600   -28.5040 
  268.7500    63.5690    18.8400     6.3310     7.8630     8.7720     2.2610   -28.9260 
  268.8750    63.5690    18.7670     6.9140     7.8630     8.7720     2.2610   -29.2800 
  269.0000    63.5690    18.6000     7.6430     7.8630     8.7720     2.2580   -29.6340 
  269.1250    63.5690    18.3970     7.9720     7.8630     8.7720     2.2530   -29.9880 
  269.2500    63.5690    18.2390     7.5720     7.8630     8.7720     2.2500   -29.9880 
  269.3750    63.5690    18.1340     7.1790     7.8630     8.7720     2.2480  -999.2500 
  269.5000    63.5690    17.9860     7.5350     7.8630     8.7720     2.2480  -999.2500 
  269.6250    63.5690    17.5890     7.8300     7.8630     8.7720     2.2480  -999.2500 
  269.7500    63.5690    16.9790     7.5400     7.8630     8.7720     2.2450  -999.2500 
  269.8750    63.5690    16.3540     7.1050     7.8630     8.7720     2.2410  -999.2500 
  270.0000    63.5690    15.8980     6.8100     7.8630     8.7720     2.2370  -999.2500 
  270.1250    63.5690    15.6390     6.9350     7.8630     8.7720     2.2350  -999.2500 
  270.2500    63.5690    15.4790     7.1050     7.8630     8.7720     2.2320  -999.2500 
  270.3750    63.5690    15.3850     7.2930     7.8630     8.7720     2.2260  -999.2500 
  270.5000    63.5690    15.3000     7.2460     7.8630     8.7720     2.2100  -999.2500 
  270.6250    63.5690    15.1850     6.8500     7.8630     8.7720     2.1820  -999.2500 
  270.7500    63.5690    15.0670     6.6620     7.8630     8.7720     2.1440  -999.2500 
  270.8750    63.5690    14.9520     6.6830     7.8630     8.7720     2.1040  -999.2500 
  271.0000    63.5690    14.7970     6.7070     7.8630     8.7720     2.0680  -999.2500 
  271.1250    63.5690    14.4860     6.7860     7.8630     8.7720     2.0400  -999.2500 
  271.2500    63.5690    14.0680     6.9230     7.8630     8.7720     2.0220  -999.2500 
  271.3750    63.5690    13.7040     7.0060     7.8630     8.7720     2.0120  -999.2500 
  271.5000    63.5690    13.5260     7.0210     7.8630     8.7720     2.0080  -999.2500 
  271.6250    63.5690    13.5120     7.0210     7.8630     8.7720     2.0090  -999.2500 
  271.7500    63.5690    13.5210     7.0200     7.8630     8.7720     2.0100  -999.2500 
  271.8750    63.5690    13.5210     7.0180     7.8630     8.7720     2.0110  -999.2500 
  272.0000    63.5690    13.5210     7.0170     7.8630     8.7720     2.0130  -999.2500 
  272.1250    63.5690    13.5210     7.0140     7.8630     8.7720     2.0140  -999.2500 
  272.2500    63.5690    13.5210     7.0130     7.8630     8.7720     2.0130  -999.2500 
  272.3750    63.5690    13.5210     7.0160     7.8630     8.7720     2.0110  -999.2500 
  272.5000    63.5690    13.5200     7.0180     7.8630     8.7720     2.0090  -999.2500 
  272.6250    63.5690    13.5170     7.0180     7.8630     8.7720     2.0070  -999.2500 
  272.7500    63.5690    13.5140     7.0170     7.8630     8.7720     2.0060  -999.2500 
  272.8750    63.5690    13.5130     7.0180     7.8630     8.7720  -999.2500  -999.2500 
  273.0000    63.5690    13.5120     7.0200     7.8630     8.7720  -999.2500  -999.2500 
