~V
VERS. 2.00: Ver 2.00
~W
STRT.M 64.0000:
STOP.M 271.0000:
STEP.M 0.1250:
NULL. -999.2500:
UWI. DF5037:
~C
DEPT.M :
SP.MV :
GR.API :
RML.OHMM :
RI. :
RXO.OHMM :
CALI.CM :
DEN.GM/CC :
~A
# ...
   86.5000   -27.7380    73.2560     9.7440     7.8810    10.5360    21.4360     2.2270 
   86.6250   -27.6400    74.4320     9.7060     7.9270    10.6690    21.4530     2.2220 
   86.7500   -27.5040    72.4010     9.5220     7.8880    10.1090    21.4050     2.2140 
   86.8750   -27.2940    69.2880     9.2420     7.7820     9.3900    21.3820     2.2060 
   87.0000   -26.9840    69.1590     8.9020     7.6240     8.9930    21.3760     2.2010 
   87.1250   -26.6070    72.5450     8.5240     7.4270     8.7380    21.3760     2.2010 
   87.2500   -26.1940    75.8110     8.1140     7.1910     8.3900    21.3780     2.2100 
   87.3750   -25.7630    80.4520     7.6870     6.9280     7.9620    21.4000     2.2230 
   87.5000   -25.2910    88.8540     7.2610     6.6470     7.4470    21.4810     2.2380 
   87.6250   -24.7130    97.2650     6.8660     6.3640     6.8590    21.6640     2.2500 
   87.7500   -24.0930    97.9250     6.5360     6.1000     6.3480    21.9330     2.2560 
   87.8750   -23.4970    96.3850     6.2590     5.8590     5.9620    22.2610     2.2560 
   88.0000   -22.9700    98.1540     6.0110     5.6360     5.7100    22.5460     2.2550 
   88.1250   -22.4890   103.6240     5.7620     5.4210     5.5480    22.6940     2.2570 
   88.2500   -22.0630   107.4010     5.4920     5.2060     5.3490    22.7440     2.2660 
   88.3750   -21.6950   107.7980     5.2150     4.9900     5.1310    22.7600     2.2800 
   88.5000   -21.3680   104.7600     4.9570     4.7850     4.8800    22.7450     2.2940 
   88.6250   -21.1200   102.5840     4.7470     4.6030     4.6220    22.7200     2.2990 
   88.7500   -20.9780   106.8890     4.6100     4.4650     4.5170    22.7090     2.2930 
   88.8750   -20.8990   114.1760     4.5260     4.3630     4.4900    22.6940     2.2860 
   89.0000   -20.8440   117.7710     4.4660     4.2860     4.4870    22.6690     2.2850 
   89.1250   -20.8010   116.0640     4.4020     4.2140     4.4650    22.6540     2.2970 
   89.2500   -20.7740   113.0790     4.3160     4.1340     4.4860    22.6830     2.3210 
   89.3750   -20.8030   111.6400     4.2370     4.0570     4.4520    22.7550     2.3440 
   89.5000   -20.9140   111.2320     4.2170     4.0130     4.4000    22.8130     2.3550 
   89.6250   -21.1280   112.5630     4.3050     4.0370     4.3800    22.8070     2.3500 
   89.7500   -21.4180   116.6390     4.5320     4.1630     4.4770    22.6890     2.3310 
   89.8750   -21.7130   119.6640     4.8180     4.3530     4.7370    22.4790     2.3080 
   90.0000   -21.9590   118.1910     5.0740     4.5550     5.0800    22.2140     2.2880 
   90.1250   -22.1820   112.4490     5.2190     4.7090     5.3470    22.0430     2.2750 
   90.2500   -22.4140   108.6270     5.2200     4.7700     5.4320    22.1290     2.2730 
   90.3750   -22.6120   109.8120     5.1850     4.7850     5.3810    22.3280     2.2760 
   90.5000   -22.8230   113.9020     5.2380     4.8240     5.3200    22.4280     2.2780 
   90.6250   -22.9800   117.9750     5.4680     4.9550     5.4090    22.2900     2.2720 
   90.7500   -23.0300   112.9490     5.8990     5.2190     5.8770    21.9250     2.2550 
   90.8750   -23.0310    98.7970     6.3890     5.5450     6.5440    21.6000     2.2330 
   91.0000   -23.0050    83.1210     6.7900     5.8420     7.1040    21.4910     2.2140 
   91.1250   -22.9660    77.0620     6.9910     6.0270     7.3110    21.5320     2.2050 
   91.2500   -22.8560    87.3200     6.9410     6.0390     7.1010    21.6920     2.2170 
   91.3750   -22.6900   100.0190     6.7770     5.9440     6.7110    21.9670     2.2450 
   91.5000   -22.4380   105.5710     6.6080     5.8080     6.2980    22.2730     2.2830 
   91.6250   -22.1220   102.8230     6.4890     5.6780     6.0650    22.4790     2.3170 
   91.7500   -21.8190    96.6820     6.3820     5.5550     6.1200    22.5030     2.3320 
   91.8750   -21.5620    95.3310     6.1980     5.3960     6.1500    22.4480     2.3300 
   92.0000   -21.3470    97.9490     5.8940     5.1730     5.8660    22.4110     2.3180 
   92.1250   -21.1490   104.7370     5.4900     4.8900     5.4900    22.4350     2.3090 
   92.2500   -21.0330   113.4500     5.0830     4.5910     5.0300    22.5350     2.3100 
   92.3750   -20.9650   117.8840     4.7850     4.3490     4.6840    22.6320     2.3180 
   92.5000   -20.9300   115.6330     4.6680     4.2190     4.5190    22.6720     2.3250 
   92.6250   -20.9340   109.8060     4.7580     4.2330     4.6170    22.6410     2.3240 
   92.7500   -21.0080   107.1060     5.0680     4.4180     4.8680    22.5360     2.3100 
   92.8750   -21.1370   106.3700     5.5080     4.7230     5.1520    22.4070     2.2930 
   93.0000   -21.3220   104.1120     5.9980     5.0980     5.4150    22.2170     2.2800 
   93.1250   -21.4940   101.1350     6.4410     5.4750     5.6110    22.0110     2.2810 
   93.2500   -21.5860    99.2480     6.7100     5.7530     5.8330    21.8970     2.2990 
   93.3750   -21.6760    97.2610     6.7680     5.8840     5.9910    21.8880     2.3240 
   93.5000   -21.7970    93.6200     6.6220     5.8520     6.0050    21.9200     2.3420 
   93.6250   -21.9010    89.9460     6.3420     5.6910     5.9160    21.9630     2.3460 
   93.7500   -21.8790    91.0390     6.0370     5.4660     5.8150    22.1100     2.3360 
   93.8750   -21.7680    96.2320     5.8020     5.2550     5.6820    22.3450     2.3210 
   94.0000   -21.6310   103.3760     5.6680     5.0900     5.6730    22.4430     2.3050 
   94.1250   -21.5200   109.3750     5.6310     4.9780     5.9120    22.3270     2.2910 
   94.2500   -21.4630   109.2670     5.7040     4.9370     6.2330    22.1530     2.2780 
   94.3750   -21.4370   102.1200     5.9060     4.9870     6.3040    22.2040     2.2680 
   94.5000   -21.3830    91.4620     6.2820     5.1660     6.0590    22.3750     2.2700 
   94.6250   -21.3110    87.1890     6.8260     5.4880     6.0770    22.4920     2.2920 
   94.7500   -21.2550    93.5990     7.4310     5.9070     6.7590    22.5230     2.3410 
   94.8750   -21.2060    97.3380     7.8840     6.2810     7.8250    22.5060     2.4000 
   95.0000   -21.1570    92.7830     8.0090     6.4810     8.6990    22.4500     2.4470 
   95.1250   -21.1260    86.6390     7.7360     6.4250     8.6550    22.3900     2.4590 
   95.2500   -21.1270    85.8480     7.1220     6.1010     7.6260    22.3390     2.4280 
   95.3750   -21.1100    90.8180     6.4450     5.6780     6.3450    22.2500     2.3790 
   95.5000   -21.0970    97.8910     5.8890     5.2880     5.6210    22.1360     2.3320 
   95.6250   -21.0930   102.1280     5.5390     5.0180     5.4020    22.0800     2.3020 
   95.7500   -21.0910   101.6260     5.4100     4.9050     5.2990    22.1670     2.2920 
   95.8750   -21.0830   104.5780     5.3910     4.8850     5.1040    22.3550     2.2940 
   96.0000   -21.0570   111.9580     5.3980     4.9000     4.9570    22.5070     2.3040 
   96.1250   -21.0060   113.5060     5.3610     4.8980     4.9430    22.5640     2.3150 
   96.2500   -20.8640   106.5920     5.2200     4.8260     4.9750    22.5650     2.3210 
   96.3750   -20.7270   102.5460     4.9790     4.6750     4.8940    22.5650     2.3170 
   96.5000   -20.6190   102.3100     4.6620     4.4500     4.6850    22.5650     2.3040 
   96.6250   -20.5400   103.5810     4.3150     4.1730     4.3910    22.5650     2.2860 
   96.7500   -20.5400   106.4240     4.0160     3.8890     4.1940    22.5560     2.2720 
   96.8750   -20.6100   110.4450     3.8510     3.6660     4.0860    22.5150     2.2660 
   97.0000   -20.7620   113.3110     3.9220     3.5800     4.1030    22.4360     2.2710 
   97.1250   -21.0020   111.9290     4.3330     3.7150     4.2850    22.3830     2.2860 
   97.2500   -21.3940   102.7870     5.2010     4.1750     4.9960    22.3690     2.3140 
   97.3750   -21.8530    90.8930     6.3760     4.8890     6.6130    22.3680     2.3500 
   97.5000   -22.3660    82.7260     7.6320     5.7360     8.8510    22.3360     2.3850 
   97.6250   -22.9780    81.1150     8.6510     6.5190    11.1550    22.1470     2.4060 
