~V
VERS. 2.00: Ver 2.00
~W
STRT.M 60.0000:
STOP.M 256.0000:
STEP.M 0.1250:
NULL. -999.2500:
UWI. DF5048:
~C
DEPT.M :
GR.API :
CALI.CM :
RXO.OHMM :
RI. :
RML.OHMM :
DEN.GM/CC :
SP.MV :
~A
   60.0000    49.9150    25.5810     0.7160     0.1740     0.0250     2.0640    32.5920 
   60.1250    49.9440    25.5130     0.7570     0.1430     0.0320     2.0300    27.9300 
   60.2500    49.9270    25.4570     0.8000     0.1200     0.0380     2.0390    22.9020 
   60.3750    49.8870    25.4590     0.8440     0.1130     0.0470     2.0860    17.5360 
   60.5000    49.8440    25.4540     0.9460     0.1290     0.0670     2.1420    11.8830 
   60.6250    50.5680    25.1090     2.0090     0.2080     0.1320     2.1790     6.1870 
   60.7500    52.1360    24.4140     3.8470     0.4020     0.3020     2.2020     0.7750 
   60.8750    55.4750    23.6960     5.4720     0.8030     0.6790     2.2100    -4.2940 
   61.0000    61.4220    23.2680     6.3630     1.5250     1.3620     2.2180    -8.9610 
   61.1250    66.8690    23.1520     7.9350     2.6650     2.3680     2.2420   -12.9700 
   61.2500    69.6110    23.2100    11.1780     3.9350     3.3960     2.2730   -16.2990 
   61.3750    69.6440    23.5160    12.2710     4.9790     4.1480     2.2970   -18.8370 
   61.5000    69.8230    24.0180     9.6910     5.5700     4.5010     2.3040   -20.6670 
   61.6250    74.0870    24.4870     6.3080     5.6630     4.4980     2.2920   -21.8330 
   61.7500    81.6790    24.7880     5.8090     5.4990     4.3450     2.2750   -22.7990 
   61.8750    90.1280    24.9630     5.6370     5.2420     4.1550     2.2610   -23.5440 
   62.0000    97.0450    25.1210     5.4230     5.0220     4.0130     2.2520   -24.1380 
   62.1250   101.7550    25.2920     5.3050     4.9300     3.9830     2.2450   -24.7370 
   62.2500   104.5300    25.4070     5.2590     4.9520     4.0540     2.2370   -25.3520 
   62.3750   105.0580    25.4300     5.2380     5.0650     4.2150     2.2270   -25.9250 
   62.5000   103.5530    25.3530     5.2100     5.2520     4.4460     2.2180   -26.3950 
   62.6250   100.9610    25.1340     5.3260     5.4900     4.7120     2.2110   -26.7880 
   62.7500    98.3880    24.8210     5.5990     5.7110     4.9460     2.2070   -27.1360 
   62.8750    96.5360    24.5410     5.9210     5.8400     5.0830     2.2060   -27.5750 
   63.0000    95.6490    24.4080     6.1480     5.8140     5.0700     2.2120   -27.9930 
   63.1250    95.5540    24.4460     6.0090     5.5870     4.8890     2.2280   -28.1840 
   63.2500    96.1920    24.6010     5.7750     5.2570     4.6530     2.2460   -28.2860 
   63.3750    98.0100    24.8010     5.6000     4.9600     4.5080     2.2630   -28.5070 
   63.5000   100.3390    24.9080     5.4490     4.8770     4.6260     2.2760   -28.8470 
   63.6250   101.0540    24.7850     5.8040     5.3020     5.2600     2.2950   -29.2820 
   63.7500    98.0850    24.5380     7.4730     6.3550     6.4820     2.3320   -29.6830 
   63.8750    90.1830    24.3840    14.3310     8.1220     8.3390     2.3810   -30.1160 
   64.0000    79.0320    24.5220    29.7190    10.4220    10.6140     2.4210   -30.5550 
   64.1250    69.6610    24.9280    42.7470    12.2740    12.2190     2.4130   -31.0290 
   64.2500    64.4710    25.1510    35.3550    12.5440    12.0360     2.3570   -31.5980 
   64.3750    64.9450    24.9450    18.8410    11.1900    10.2910     2.2750   -32.0430 
   64.5000    69.9650    24.4600     9.3800     9.1770     8.2140     2.1960   -32.2510 
   64.6250    74.5030    24.0800     7.0700     7.5100     6.7880     2.1450   -32.4960 
   64.7500    74.7160    23.9160     6.7310     6.4420     6.0330     2.1190   -32.7630 
   64.8750    73.4480    23.8590     6.7590     5.9240     5.7860     2.1100   -32.8610 
   65.0000    74.7150    23.7980     6.8650     5.8150     5.8520     2.1090   -32.9700 
   65.1250    76.7750    23.7240     7.0030     5.9680     6.0430     2.1080   -33.0670 
   65.2500    77.3650    23.6780     7.0650     6.1740     6.1900     2.1050   -33.0500 
   65.3750    77.0800    23.6830     7.0810     6.3340     6.2290     2.1010   -32.9510 
   65.5000    77.1750    23.7100     7.0430     6.4070     6.1550     2.0970   -32.9890 
   65.6250    77.7350    23.7170     6.9100     6.3760     5.9940     2.0990   -32.9630 
   65.7500    78.7130    23.7090     6.7070     6.2890     5.8180     2.1070   -32.9460 
   65.8750    79.9180    23.6940     6.5340     6.1900     5.6820     2.1220   -32.9570 
   66.0000    79.0480    23.6730     6.3850     6.1230     5.6260     2.1370   -32.9460 
   66.1250    76.6020    23.6480     6.0630     6.1260     5.6810     2.1450   -33.0090 
   66.2500    76.2130    23.6310     5.8940     6.1810     5.8130     2.1470   -33.0280 
   66.3750    76.7450    23.6300     6.0130     6.2580     5.9790     2.1510   -33.1170 
   66.5000    77.8840    23.6700     6.2500     6.3250     6.1310     2.1600   -33.1960 
   66.6250    81.8540    23.8580     6.3550     6.3500     6.2120     2.1750   -33.2830 
   66.7500    88.3070    24.2460     6.1200     6.3260     6.2140     2.1890   -33.4010 
   66.8750    93.7380    24.6920     5.8160     6.2440     6.1360     2.1980   -33.5040 
   67.0000    95.9430    24.9440     5.7840     6.0880     5.9880     2.2010   -33.6050 
   67.1250    97.1040    24.9300     5.7860     5.8370     5.7680     2.2090   -33.6690 
   67.2500    98.8540    24.9300     5.5880     5.5210     5.5060     2.2270   -33.7940 
   67.3750   102.2400    25.0350     5.2140     5.1840     5.2400     2.2520   -33.9420 
   67.5000   106.3500    25.1240     4.8660     4.8840     5.0230     2.2770   -34.1300 
   67.6250   108.2690    25.0880     4.7440     4.6910     4.9280     2.2900   -34.3580 
   67.7500   108.0950    24.9940     5.0160     4.6260     4.9800     2.2890   -34.5900 
   67.8750   107.1880    24.8700     5.9840     4.7240     5.2400     2.2820   -34.8900 
   68.0000   104.9280    24.6880     6.6890     5.0490     5.8130     2.2850   -35.1910 
   68.1250   100.6930    24.4890     6.8680     5.7760     6.9220     2.3110   -35.6060 
   68.2500    94.0630    24.4220     6.7920     6.9520     8.5430     2.3530   -35.9200 
   68.3750    86.8760    24.5530     7.9760     8.5580    10.5130     2.3970   -36.2390 
   68.5000    81.5790    24.8210    16.2710    10.3410    12.3800     2.4240   -36.5450 
   68.6250    78.6970    25.0610    24.3230    11.5380    13.2270     2.4100   -36.8440 
   68.7500    74.8090    25.0640    22.2850    11.5810    12.7350     2.3620   -37.1150 
   68.8750    70.4940    24.7000    12.8730    10.5560    11.2270     2.2970   -37.3320 
   69.0000    69.1830    24.1030     7.6370     9.0740     9.4460     2.2350   -37.5090 
   69.1250    71.5610    23.6930     7.1190     7.7930     8.1040     2.1910   -37.5810 
   69.2500    73.2640    23.6010     6.9840     6.9410     7.3350     2.1670   -37.7070 
   69.3750    74.7070    23.6560     6.8060     6.5160     7.0560     2.1560   -37.7830 
   69.5000    76.3090    23.6900     6.6230     6.4250     7.1050     2.1530   -37.8260 
   69.6250    77.5040    23.6740     6.6010     6.5660     7.3330     2.1510   -37.7540 
   69.7500    77.2020    23.6610     6.8250     6.7920     7.5970     2.1490   -37.6920 
   69.8750    74.6320    23.7210     7.2800     7.0380     7.8380     2.1450   -37.6250 
   70.0000    70.9340    23.8930     7.7190     7.2510     8.0120     2.1400   -37.5700 
   70.1250    68.4940    24.1110     7.8300     7.3640     8.0600     2.1320   -37.4890 
   70.2500    68.5740    24.2600     7.6900     7.3670     7.9990     2.1260   -37.3900 
   70.3750    70.5340    24.2920     7.4710     7.2800     7.8760     2.1220   -37.2770 
   70.5000    71.3300    24.2270     7.4190     7.1510     7.7540     2.1210   -37.1550 
   70.6250    69.3070    24.1280     7.4710     7.0400     7.7010     2.1220   -37.1000 
   70.7500    67.8840    24.0640     7.4090     6.9740     7.7180     2.1210   -36.9810 
   70.8750    68.5760    24.0480     7.3130     6.9510     7.7780     2.1170   -36.8670 
   71.0000    69.8480    24.0470     7.2340     6.9480     7.8440     2.1090   -36.7280 
   71.1250    69.5320    24.0160     7.0910     6.9370     7.8790     2.1000   -36.6500 
