~V
VERS. 2.00: Ver 2.00
~W
STRT.M 55.0000:
STOP.M 268.0000:
STEP.M 0.1250:
NULL. -999.2500:
UWI. DF5025:
~C
DEPT.M :
SP.MV :
GR.API :
CALI.CM :
RXO.OHMM :
RI. :
RML.OHMM :
DEN.GM/CC :
~A
# ...
  122.5000   -15.3700    59.4130    25.1820    13.8910     9.9350    14.0190     2.3340 
  122.6250   -15.9510    58.3310    25.3470    10.9250    10.1020    14.0460     2.2270 
  122.7500   -16.4490    60.6530    24.9940     9.4080     9.8610    13.5480     2.1780 
  122.8750   -16.8310    67.8430    24.4550     9.1990     9.4730    12.8750     2.1940 
  123.0000   -17.1000    74.5400    24.1070     9.4510     9.1500    12.2760     2.2520 
  123.1250   -17.2380    75.7800    23.9030     9.6080     9.0260    11.8590     2.3070 
  123.2500   -17.2960    74.4710    23.7460     9.6720     9.0710    11.5870     2.3200 
  123.3750   -17.3120    73.7940    23.6630     9.7530     9.2320    11.4470     2.2840 
  123.5000   -17.3050    74.5120    23.5620     9.8630     9.4280    11.4320     2.2260 
  123.6250   -17.2850    74.1460    23.5270     9.9240     9.5470    11.5040     2.1890 
  123.7500   -17.2450    72.6330    23.5670     9.9070     9.5280    11.5520     2.1830 
  123.8750   -17.1760    72.0680    23.6200     9.8000     9.3650    11.4740     2.1930 
  124.0000   -17.0610    72.5540    23.6530     9.5360     9.1060    11.1770     2.1970 
  124.1250   -16.8830    72.5160    23.6770     9.0270     8.8170    10.5510     2.1930 
  124.2500   -16.6560    71.2050    23.7040     8.4390     8.5360     9.7040     2.1890 
  124.3750   -16.3770    71.6810    23.7210     7.9650     8.2560     8.8340     2.1870 
  124.5000   -16.0660    74.8190    23.7920     7.6390     7.9650     8.1900     2.1830 
  124.6250   -15.7530    78.0920    24.0380     7.2580     7.6850     7.9840     2.1810 
  124.7500   -15.4880    80.5540    24.3060     6.7240     7.4640     8.0770     2.1850 
  124.8750   -15.2970    82.0930    24.4270     6.2310     7.3430     8.2760     2.1900 
  125.0000   -15.1820    81.9950    24.4090     6.0970     7.3230     8.4090     2.1840 
  125.1250   -15.1600    78.6540    24.3830     6.5170     7.3720     8.4020     2.1770 
  125.2500   -15.1970    75.6020    24.3730     7.0850     7.4300     8.3380     2.1920 
  125.3750   -15.2990    75.8510    24.3330     7.3390     7.4800     8.2890     2.2330 
  125.5000   -15.4560    77.4760    24.2940     7.1020     7.5200     8.2940     2.2750 
  125.6250   -15.6610    76.3360    24.3310     6.7650     7.5600     8.3760     2.2840 
  125.7500   -15.8720    72.7330    24.4760     6.8680     7.6050     8.5210     2.2640 
  125.8750   -16.0740    71.0010    24.5730     7.3690     7.6640     8.6960     2.2360 
  126.0000   -16.2590    73.1260    24.4170     7.7910     7.7500     8.8440     2.2170 
  126.1250   -16.4280    74.3970    24.1470     7.7180     7.8620     8.8690     2.2160 
  126.2500   -16.5810    73.4540    24.2430     7.4540     7.9640     8.7270     2.2210 
  126.3750   -16.6860    72.3980    24.8040     7.3490     8.0010     8.4060     2.2190 
  126.5000   -16.7150    71.8100    25.6040     7.4600     7.8240     7.9900     2.2030 
  126.6250   -16.6210    70.8850    26.2090     7.4970     7.3040     7.6070     2.1860 
  126.7500   -16.4190    71.4900    26.1280     7.2390     6.6750     7.2620     2.1840 
  126.8750   -16.1290    74.1370    25.3870     6.7650     6.1680     6.8950     2.2000 
  127.0000   -15.7670    76.2720    24.6020     6.3460     5.8470     6.5120     2.2300 
  127.1250   -15.3330    76.3900    24.4390     6.2080     5.6350     6.2150     2.2650 
  127.2500   -14.8640    76.9400    24.5870     6.1450     5.4860     6.0280     2.2950 
  127.3750   -14.3930    79.1000    24.6620     5.9260     5.4000     5.9170     2.3230 
  127.5000   -13.9570    81.1520    24.6880     5.5620     5.3320     5.8300     2.3550 
  127.6250   -13.5870    81.5390    24.7560     5.2740     5.2330     5.7020     2.3890 
  127.7500   -13.2720    82.5830    24.8390     5.0990     5.0870     5.5150     2.4110 
  127.8750   -13.0140    85.6170    24.8710     4.9120     4.9170     5.2960     2.4100 
  128.0000   -12.8040    88.1740    24.8530     4.6710     4.7590     5.0920     2.3930 
  128.1250   -12.6550    87.9300    24.8470     4.5050     4.6550     4.9600     2.3680 
  128.2500   -12.5330    86.3910    24.8760     4.5030     4.6140     4.9070     2.3470 
  128.3750   -12.4300    84.9810    24.9160     4.6180     4.6340     4.9330     2.3370 
  128.5000   -12.3390    84.8500    24.9570     4.7340     4.7020     5.0200     2.3390 
  128.6250   -12.2860    87.5450    25.0110     4.7800     4.7900     5.1330     2.3410 
  128.7500   -12.2940    90.0460    25.0630     4.8370     4.8590     5.2220     2.3310 
  128.8750   -12.3400    91.3700    25.1460     4.9870     4.8900     5.2610     2.3190 
  129.0000   -12.4500    92.4080    25.2660     5.2010     4.8840     5.2540     2.3170 
  129.1250   -12.6560    90.4160    25.4990     5.3250     4.8730     5.2390     2.3200 
  129.2500   -12.9750    84.9080    25.7650     5.3290     4.9000     5.2750     2.3160 
  129.3750   -13.3900    78.5090    25.7620     5.3520     5.0020     5.4060     2.3060 
  129.5000   -13.8800    74.6350    25.3240     5.5870     5.2060     5.6680     2.2980 
  129.6250   -14.3910    74.3450    24.8630     6.1960     5.5720     6.1390     2.2960 
  129.7500   -14.8620    75.7510    24.7470     7.0980     6.1320     6.8580     2.2950 
  129.8750   -15.2880    75.7750    24.7880     8.3220     6.9420     7.8990     2.2980 
  130.0000   -15.6560    72.2850    24.6870    10.2410     8.0410     9.3130     2.3110 
  130.1250   -15.9550    68.4970    24.4800    14.1410     9.4350    11.1050     2.3440 
  130.2500   -16.1970    67.8880    24.4410    20.2710    10.8800    12.9630     2.3920 
  130.3750   -16.4120    69.6750    24.6080    27.1400    12.0610    14.4810     2.4480 
  130.5000   -16.6260    70.4930    24.7380    31.5540    12.6520    15.2410     2.4860 
  130.6250   -16.8830    69.8680    24.6020    30.0570    12.4000    14.9170     2.4710 
  130.7500   -17.2040    68.8930    24.3780    24.5610    11.6190    13.9140     2.4120 
  130.8750   -17.5700    66.6840    24.2990    18.2330    10.6360    12.6490     2.3330 
  131.0000   -17.9750    63.6180    24.3220    13.6090     9.7350    11.4910     2.2620 
  131.1250   -18.3870    62.5620    24.2940    11.6590     9.1330    10.7170     2.2170 
  131.2500   -18.7670    64.5430    24.3010    11.1260     8.8260    10.3230     2.1970 
  131.3750   -19.0860    66.8290    24.4110    11.1270     8.7800    10.2620     2.1910 
  131.5000   -19.3290    67.9710    24.6950    11.1680     8.9180    10.4400     2.1870 
  131.6250   -19.4650    67.6610    25.1320    11.1150     9.1360    10.7200     2.1790 
  131.7500   -19.5040    64.8330    25.5300    11.0330     9.3060    10.9400     2.1750 
  131.8750   -19.4780    60.7440    25.8990    10.9420     9.3630    11.0130     2.1800 
  132.0000   -19.3930    57.8350    26.1050    10.8140     9.2890    10.9170     2.1910 
  132.1250   -19.2490    59.5820    25.7860    10.6350     9.1040    10.6800     2.2020 
  132.2500   -19.0790    64.2750    25.2180    10.4840     8.8960    10.4120     2.2070 
  132.3750   -18.9090    69.2990    24.9210    10.4390     8.7270    10.1950     2.2000 
  132.5000   -18.7650    72.0870    25.0450    10.5150     8.6430    10.0870     2.1850 
  132.6250   -18.6740    71.2280    25.2940    10.6500     8.6750    10.1280     2.1710 
  132.7500   -18.6520    70.3970    25.4160    10.7890     8.7910    10.2770     2.1570 
  132.8750   -18.6930    69.9240    25.2860    10.9480     8.9610    10.4960     2.1400 
  133.0000   -18.7950    68.1090    24.8090    11.1240     9.1480    10.7360     2.1190 
  133.1250   -18.9650    65.5480    24.4270    11.2120     9.3030    10.9360     2.1110 
  133.2500   -19.1470    64.3620    24.5620    11.1830     9.4030    11.0640     2.1300 
  133.3750   -19.3040    64.6040    24.8570    11.1330     9.4510    11.1260     2.1660 
  133.5000   -19.3930    64.5600    24.9430    11.1800     9.4770    11.1590     2.2020 
  133.6250   -19.3390    66.2860    24.9810    11.3240     9.5160    11.2100     2.2180 
