~V
VERS. 2.00: Ver 2.00
~W
STRT.M 65.0000:
STOP.M 272.0000:
STEP.M 0.1250:
NULL. -999.2500:
UWI. DF5002:
~C
DEPT.M :
DEN.GM/CC :
GR.API :
CALI.CM :
RXO.OHMM :
RI. :
RML.OHMM :
SP.MV :
~A
# ...
  177.5000     2.1940    60.6910    24.6020   245.8890   293.7500   288.2870   -35.6610 
  177.6250     2.1860    63.4330    24.5330   228.8750   276.3850   273.6520   -35.5520 
  177.7500     2.1910    64.4230    24.4930   202.4750   250.8960   250.8720   -35.3890 
  177.8750     2.2070    66.1430    24.4910   171.9340   221.8230   223.7770   -35.1670 
  178.0000     2.2260    69.8810    24.5220   141.4740   192.2440   195.5160   -34.9590 
  178.1250     2.2420    73.1790    24.5380   124.4350   164.1240   168.1160   -34.6940 
  178.2500     2.2590    76.4080    24.5480   113.1420   138.7700   142.7590   -34.3030 
  178.3750     2.2760    79.3730    24.5680   101.5820   117.6950   120.9080   -33.8720 
  178.5000     2.2920    80.8490    24.6180    86.6670   102.0410   104.1080   -33.4220 
  178.6250     2.3060    79.4520    24.6690    74.1780    93.1920    94.3700   -32.9860 
  178.7500     2.3200    74.5200    24.6930    70.0450    89.9820    90.7710   -32.5470 
  178.8750     2.3300    68.0890    24.7020    78.0330    92.0830    92.9310   -32.0800 
  179.0000     2.3260    63.8330    24.7170    95.0370    99.0010   100.1460   -31.5430 
  179.1250     2.2980    65.7600    24.7460   114.0790   110.0660   111.6290   -30.9300 
  179.2500     2.2640    69.7700    24.7590   125.8030   122.2170   124.7370   -30.3630 
  179.3750     2.2440    70.8670    24.7620   131.0030   132.6540   137.5020   -29.8780 
  179.5000     2.2410    69.8480    24.7610   133.3460   139.0620   147.8680   -29.3780 
  179.6250     2.2430    68.7540    24.7600   133.9830   139.1610   152.4590   -28.7370 
  179.7500     2.2430    69.6470    24.7580   133.7660   133.9670   150.3510   -28.0170 
  179.8750     2.2420    71.8260    24.7440   131.8020   125.0800   142.2010   -27.2880 
  180.0000     2.2420    72.9140    24.7120   119.3910   114.8470   130.7180   -26.6140 
  180.1250     2.2510    70.2520    24.6950    93.0110   105.2960   119.2280   -25.9890 
  180.2500     2.2670    66.7000    24.6820    70.8490    96.7230   109.1300   -25.2660 
  180.3750     2.2780    66.9600    24.6550    69.5550    88.4300    99.7930   -24.4700 
  180.5000     2.2720    71.3070    24.6050    84.2880    79.2960    89.7550   -23.6920 
  180.6250     2.2590    74.7080    24.5630    86.2260    67.9990    77.3590   -23.0080 
  180.7500     2.2600    75.7430    24.5470    72.5690    55.3250    63.4270   -22.3530 
  180.8750     2.2790    75.9650    24.5410    53.8130    43.1580    50.1000   -21.6490 
  181.0000     2.3050    78.8520    24.5240    40.4340    33.4090    39.5180   -20.8930 
  181.1250     2.3360    84.3480    24.4720    32.8800    27.5170    33.2000   -20.1890 
  181.2500     2.3710    87.2090    24.4190    25.3570    24.8560    30.3670   -19.6480 
  181.3750     2.3980    84.7090    24.4290    22.1750    25.1610    30.7560   -19.1800 
  181.5000     2.3950    78.9240    24.5070    30.5770    28.2620    34.3240   -18.7270 
  181.6250     2.3540    74.8520    24.5530    48.1390    34.3460    41.5460   -18.2950 
  181.7500     2.3080    73.0170    24.5330    57.2930    42.0970    51.0070   -17.9100 
  181.8750     2.2840    73.4850    24.4760    54.1290    49.3900    60.2360   -17.6290 
  182.0000     2.2840    75.3010    24.4170    50.8060    53.0970    65.4440   -17.4770 
  182.1250     2.2930    74.6630    24.3930    55.6860    50.3740    62.7440   -17.3910 
  182.2500     2.2950    72.7950    24.4010    56.7650    43.7830    54.8170   -17.3060 
  182.3750     2.2920    73.8420    24.4440    50.6950    36.1120    45.2220   -17.2390 
  182.5000     2.2950    78.4090    24.4960    40.2670    29.4080    36.7960   -17.2570 
  182.6250     2.3100    81.5360    24.5420    30.9520    25.1130    31.3600   -17.4170 
  182.7500     2.3310    82.3630    24.5190    26.1320    23.2380    28.7350   -17.7170 
  182.8750     2.3450    82.8590    24.4380    25.2570    23.7850    28.8480   -18.1190 
  183.0000     2.3420    82.5780    24.3490    29.0690    26.6110    31.6290   -18.5010 
  183.1250     2.3200    80.0990    24.2140    39.7200    31.5860    37.2130   -18.9190 
  183.2500     2.2930    76.1300    24.0530    52.9930    37.3910    44.2020   -19.4040 
  183.3750     2.2750    73.5120    23.9350    60.6480    42.6800    50.9340   -19.9530 
  183.5000     2.2680    73.7320    23.8920    56.7020    46.5420    56.0430   -20.4900 
  183.6250     2.2690    77.2410    23.9000    45.9060    49.4790    59.7890   -20.9310 
  183.7500     2.2720    81.3790    23.9140    44.5150    53.3750    64.3360   -21.3230 
  183.8750     2.2740    83.1440    23.9180    54.1120    59.5550    71.2240   -21.7050 
  184.0000     2.2730    80.6780    23.9130    72.7560    68.4160    80.7360   -22.1000 
  184.1250     2.2660    75.7260    23.9300    92.2870    77.8380    90.1500   -22.4570 
  184.2500     2.2550    74.1000    23.9780   103.8890    82.2570    94.0430   -22.7620 
  184.3750     2.2460    74.7810    24.0700   102.8970    78.2810    89.4660   -23.0260 
  184.5000     2.2450    75.2300    24.1770    92.1740    68.6440    78.9020   -23.3390 
  184.6250     2.2540    75.3480    24.2560    73.3430    59.8130    68.5580   -23.7200 
  184.7500     2.2590    73.3720    24.3130    55.0270    55.4240    62.8290   -24.1440 
  184.8750     2.2570    68.2750    24.3750    53.4310    56.6650    63.6340   -24.5680 
  185.0000     2.2510    62.0230    24.4280    82.1820    64.2270    72.0760   -25.0400 
  185.1250     2.2470    60.0080    24.4850   139.1000    80.1400    89.9480   -25.5880 
  185.2500     2.2450    63.4130    24.5600   166.2640   103.4310   114.6150   -26.1960 
  185.3750     2.2410    67.7640    24.6000   157.5620   131.6660   142.2450   -26.8690 
  185.5000     2.2370    68.2540    24.6090   148.0890   159.0650   167.6660   -27.5410 
  185.6250     2.2350    62.6930    24.6090   165.6240   179.7590   187.4260   -28.2410 
  185.7500     2.2310    56.7740    24.6090   194.8480   196.8510   204.3990   -28.8990 
  185.8750     2.2220    54.1230    24.6090   217.3710   213.4690   220.2370   -29.5510 
  186.0000     2.2090    54.2770    24.6020   225.5640   227.9260   233.0350   -30.1520 
  186.1250     2.2000    56.8610    24.5700   232.1700   233.4090   237.0820   -30.6880 
  186.2500     2.1970    59.6680    24.5140   235.9110   228.5220   231.5390   -31.1400 
  186.3750     2.1980    62.1840    24.4770   224.4730   215.6750   218.4230   -31.5610 
  186.5000     2.2010    65.3260    24.4860   196.0960   199.5230   201.8680   -31.9940 
  186.6250     2.2050    68.0020    24.5570   169.4360   184.7750   186.4730   -32.4260 
  186.7500     2.2060    68.4060    24.6110   154.0810   173.6050   174.6980   -32.7780 
  186.8750     2.2040    67.5150    24.6570   149.4560   166.5000   167.2090   -33.0760 
  187.0000     2.2010    67.1800    24.6890   150.1350   162.9200   163.5170   -33.3360 
  187.1250     2.2020    68.6290    24.7190   156.2020   161.5290   162.3140   -33.6260 
  187.2500     2.2020    70.1250    24.7480   161.7630   159.8200   161.1030   -33.8640 
  187.3750     2.1980    69.8120    24.7610   162.8840   156.2740   158.3970   -33.9970 
  187.5000     2.1970    68.2080    24.7630   158.9790   150.6600   153.7970   -34.0260 
  187.6250     2.2060    68.2040    24.7630   151.5630   144.2480   148.2210   -33.9830 
  187.7500     2.2140    69.3380    24.7630   139.5590   139.0190   143.5580   -33.9770 
  187.8750     2.2140    68.7410    24.7630   128.4630   136.0410   140.9660   -33.9250 
  188.0000     2.2100    66.3090    24.7630   125.7290   135.3960   140.6270   -33.8000 
  188.1250     2.2100    63.8850    24.7630   134.0770   135.7520   141.2480   -33.4970 
  188.2500     2.2100    63.3840    24.7620   143.5020   134.1530   140.0430   -33.1600 
  188.3750     2.2050    64.1690    24.7560   146.9380   128.2200   134.8200   -32.8270 
  188.5000     2.1970    65.3210    24.7380   139.2070   117.4580   124.9120   -32.5010 
  188.6250     2.1950    66.6580    24.7070   120.1880   104.0370   111.8010   -32.0970 
