~V
VERS. 2.00: Ver 2.00
~W
STRT.M 50.0000:
STOP.M 277.0000:
STEP.M 0.1250:
NULL. -999.2500:
UWI. DF5031:
~C
DEPT.M :
DEN.GM/CC :
GR.API :
CALI.CM :
RXO.OHMM :
RI. :
RML.OHMM :
SP.MV :
~A
# ...
  263.7500     2.4720    76.4480    24.1290    19.3190    13.1540    15.3850   -12.8650 
  263.8750     2.4690    77.1650    24.1810    20.1970    13.2390    15.4590   -12.9720 
  264.0000     2.4660    79.5710    24.3380    23.5900    13.1970    15.3540   -13.0720 
  264.1250     2.4540    82.0790    24.5180    27.0720    12.9510    14.9840   -13.1650 
  264.2500     2.4400    81.6310    24.4380    25.6840    12.5810    14.4690   -13.2520 
  264.3750     2.4340    79.6750    24.2590    21.1120    12.1810    13.9490   -13.3390 
  264.5000     2.4360    79.8870    24.1700    18.3290    11.8480    13.5540   -13.4990 
  264.6250     2.4490    81.0610    24.1860    18.2670    11.6690    13.3740   -13.7170 
  264.7500     2.4760    80.2030    24.2280    19.1090    11.6160    13.3290   -13.9510 
  264.8750     2.5090    78.3230    24.2680    19.4530    11.6490    13.3430   -14.1430 
  265.0000     2.5300    75.7420    24.2580    19.2860    11.7330    13.3650   -14.2430 
  265.1250     2.5270    72.1130    24.2420    19.6300    11.8540    13.3950   -14.2620 
  265.2500     2.5190    70.7740    24.2270    19.8590    11.9830    13.4540   -14.2500 
  265.3750     2.5200    73.5510    24.2100    18.1410    12.1040    13.5510   -14.1460 
  265.5000     2.5180    77.8240    24.1830    15.7160    12.2080    13.6670   -13.8710 
  265.6250     2.4940    78.5740    24.1780    15.4250    12.2790    13.7590   -13.5040 
  265.7500     2.4640    78.5740    24.1850    16.8770    12.3190    13.8150   -13.1330 
  265.8750     2.4500    78.5740    24.1870    17.9010    12.3380    13.8540   -12.7760 
  266.0000     2.4570    78.5740    24.1780    18.0090    12.3570    13.8980   -12.4140 
  266.1250     2.4700    78.5740    24.1730    18.7660    12.4100    13.9910   -12.0150 
  266.2500     2.4770    78.5740    24.1710    19.9390    12.5280    14.1540   -11.6450 
  266.3750     2.4850    78.5740    24.1690    20.6460    12.7270    14.3840   -11.4120 
  266.5000     2.5000    78.5740    24.1610    20.0060    12.9920    14.6510   -11.3220 
  266.6250     2.5130    78.5740    24.1660    18.8920    13.2930    14.9230   -11.2610 
  266.7500     2.5150    78.5740    24.2070    18.2880    13.6060    15.1940   -11.2120 
  266.8750     2.5120    78.5740    24.2500    17.5440    13.9280    15.4730   -11.2040 
  267.0000     2.5150    78.5740    24.2650    16.2210    14.2580    15.7670   -11.2610 
  267.1250     2.5210    78.5740    24.2340    15.3370    14.5850    16.0610   -11.3370 
  267.2500     2.5170    78.5740    24.2200    14.3520    14.8740    16.3110   -11.3520 
  267.3750     2.5010    78.5740    24.2170    13.4960    15.0970    16.4820   -11.2580 
  267.5000     2.4790    78.5740    24.2190    13.2120    15.2390    16.5670   -11.0410 
  267.6250     2.4660    78.5740    24.2200    13.5680    15.3080    16.6030   -10.7210 
  267.7500     2.4620    78.5740    24.2200    14.1280    15.3550    16.6480   -10.3730 
  267.8750     2.4650    78.5740    24.2200    14.9690    15.3900    16.7060   -10.0160 
  268.0000     2.4700    78.5740    24.2200    16.1830    15.3950    16.7280    -9.6440 
  268.1250     2.4800    78.5740    24.2240    17.6450    15.3060    16.6110    -9.3090 
  268.2500     2.4970    78.5740    24.2270    19.1330    15.1180    16.3460    -9.0280 
  268.3750     2.5170    78.5740    24.2250    20.3900    14.8600    15.9830    -8.8070 
  268.5000     2.5280    78.5740    24.2200    20.7770    14.6080    15.6420    -8.6380 
  268.6250     2.5170    78.5740    24.2120    20.0980    14.4960    15.5130    -8.5780 
  268.7500     2.4960    78.5740    24.2030    19.8330    14.6010    15.6660    -8.5520 
  268.8750     2.4800    78.5740    24.2050    19.9650    14.9470    16.0990    -8.5170 
  269.0000     2.4830    78.5740    24.2300    19.8310    15.4930    16.7250    -8.4790 
  269.1250     2.5030    78.5740    24.2870    19.4260    16.1160    17.3580    -8.4520 
  269.2500     2.5180    78.5740    24.3420    18.9190    16.6510    17.8300    -8.4330 
  269.3750     2.5200    78.5740    24.3760    18.4940    17.0170    18.1030    -8.4100 
  269.5000     2.5170    78.5740    24.3180    18.4680    17.2050    18.2280    -8.4360 
  269.6250     2.5180    78.5740    24.2640    19.0800    17.2440    18.2660    -8.5420 
  269.7500     2.5170    78.5740    24.2380    19.7860    17.2170    18.2570    -8.6710 
  269.8750     2.5060    78.5740    24.2360    20.1200    17.1760    18.2050    -8.8100 
  270.0000     2.4890    78.5740    24.2360    19.7310    17.1560    18.1290    -8.9610 
  270.1250     2.4800    78.5740    24.2340    18.7860    17.1700    18.0650    -9.1270 
  270.2500     2.4830    78.5740    24.2310    17.8850    17.1890    18.0390    -9.3390 
  270.3750     2.4940    78.5740    24.2320    17.4690    17.1880    18.0420    -9.6150 
  270.5000     2.5050    78.5740    24.2330    17.7390    17.1600    18.0530    -9.9120 
  270.6250     2.5080    78.5740    24.2340    18.6920    17.1250    18.0620   -10.2070 
  270.7500     2.5060    78.5740    24.2330    19.5000    17.1050    18.0630   -10.5290 
  270.8750     2.5030    78.5740    24.2340    19.8270    17.0950    18.0580   -10.7910 
  271.0000     2.4970    78.5740    24.2330    19.5210    17.0880    18.0550   -10.8820 
  271.1250     2.4800    78.5740    24.2300    18.7360    17.0960    18.0590   -10.9050 
  271.2500     2.4610    78.5740    24.2300    17.8140    17.1320    18.0640   -10.9220 
  271.3750     2.4570    78.5740    24.2310    16.9720    17.2020    18.0550   -10.9070 
  271.5000     2.4730    78.5740    24.2320    16.4570    17.2920    18.0270   -10.8340 
  271.6250     2.4930    78.5740    24.2300    16.6840    17.3560    17.9950   -10.6120 
  271.7500     2.5070    78.5740    24.2300    17.5810    17.3560    17.9950   -10.2970 
  271.8750     2.5140    78.5740    24.2260    18.8860    17.3560    17.9950   -10.0500 
  272.0000     2.5160    78.5740    24.2230    20.0750    17.3560    17.9950    -9.9130 
  272.1250     2.5150    78.5740    24.2270    20.5050    17.3560    17.9950    -9.7020 
  272.2500     2.5140    78.5740    24.2350    19.2110    17.3560    17.9950    -9.3850 
  272.3750     2.5160    78.5740    24.2370    16.4230    17.3560    17.9950    -9.0080 
  272.5000     2.5220    78.5740    24.2330    14.2340    17.3560    17.9950    -8.6620 
  272.6250     2.5230    78.5740    24.2530    13.9910    17.3560    17.9950    -8.4670 
  272.7500     2.5120    78.5740    24.3580    14.5600    17.3560    17.9950    -8.3360 
  272.8750     2.4940    78.5740    24.5820    14.9680    17.3560    17.9950    -8.1680 
  273.0000     2.4790    78.5740    24.7520    16.1310    17.3560    17.9950    -8.0460 
  273.1250     2.4750    78.5740    24.8260    17.6350    17.3560    17.9950    -8.0920 
  273.2500     2.4770    78.5740    24.7640    18.1360    17.3560    17.9950    -8.2290 
  273.3750     2.4790    78.5740    24.5980    17.6180    17.3560    17.9950    -8.3340 
  273.5000     2.4790    78.5740    24.2380    16.6270    17.3560    17.9950    -8.4000 
  273.6250     2.4810    78.5740    24.1720    14.9370    17.3560    17.9950    -8.3630 
  273.7500     2.4900    78.5740    24.3020    13.4620    17.3560    17.9950    -8.2810 
  273.8750     2.5090    78.5740    24.4250    12.8600    17.3560    17.9950    -8.2080 
  274.0000     2.5270    78.5740    24.4450    12.7900    17.3560    17.9950    -8.1190 
  274.1250     2.4940    78.5740    24.4960    13.8860    17.3560    17.9950    -7.9590 
  274.2500     2.3400    78.5740    24.3390    13.5380    17.3560    17.9950    -7.7620 
  274.3750     2.1270    78.5740    23.4140    10.7440    17.3560    17.9950    -7.6520 
  274.5000     1.9630    78.5740    21.3060     7.5800    17.3560    17.9950    -7.5340 
  274.6250     1.9100    78.5740    19.1590     5.9580    17.3560    17.9950    -7.3790 
  274.7500     1.9360    78.5740    18.3020     5.6210    17.3560    17.9950    -7.2650 
  274.8750     1.9620    78.5740    18.1520     5.6000    17.3560    17.9950    -7.2380 
