~V
VERS. 2.00: Ver 2.00
~W
STRT.M 61.0000:
STOP.M 236.0000:
STEP.M 0.1250:
NULL. -999.2500:
UWI. DF5057:
~C
DEPT.M :
GR.API :
RML.OHMM :
RI. :
RXO.OHMM :
CALI.CM :
DEN.GM/CC :
SP.MV :
~A
# ...
  207.2500    92.1610     8.9510     9.4710     9.3340    25.1380     2.4620    -6.0070 
  207.3750    96.4810     9.4940     9.9970     8.9370    25.1680     2.4370    -6.3090 
  207.5000    98.6630    10.0330    10.6350     9.3300    25.1920     2.4200    -6.6710 
  207.6250   101.3630    10.3110    11.0500    10.1730    25.2150     2.4060    -6.9710 
  207.7500   108.7720    10.3050    11.1330    10.4750    25.2000     2.3920    -7.1300 
  207.8750   116.5540    10.0650    10.9110    10.3690    25.1820     2.3790    -7.1850 
  208.0000   117.5680     9.7020    10.5040    10.1880    25.1650     2.3730    -7.2270 
  208.1250   111.6840     9.4390    10.1330     9.8610    25.1340     2.3770    -7.3590 
  208.2500   107.9040     9.5300    10.0470     9.7530    25.0630     2.3860    -7.5940 
  208.3750   107.3780    10.2180    10.4420    10.2120    24.9600     2.3950    -7.9530 
  208.5000   104.4540    11.7280    11.4900    11.4270    24.8350     2.4000    -8.4180 
  208.6250    97.5470    14.4050    13.5050    13.6960    24.7920     2.3990    -8.9940 
  208.7500    92.1500    18.0510    16.4200    19.1880    24.7790     2.3910    -9.6440 
  208.8750    90.0910    22.3440    20.0730    24.9050    24.7700     2.3760   -10.3590 
  209.0000    89.7420    26.7340    24.0240    28.3760    24.7480     2.3540   -11.0820 
  209.1250    88.7730    30.4460    27.5110    33.3140    24.7260     2.3300   -11.7560 
  209.2500    87.2750    33.2010    30.1120    36.4840    24.7230     2.3100   -12.3560 
  209.3750    85.3370    35.1120    31.8450    36.2040    24.7150     2.2970   -12.8570 
  209.5000    81.9100    36.5680    33.0370    34.1230    24.7040     2.2940   -13.2750 
  209.6250    78.7160    38.0090    34.0720    34.6310    24.7040     2.3030   -13.5920 
  209.7500    77.4090    39.7010    35.2330    37.2820    24.7040     2.3180   -13.8340 
  209.8750    77.3320    41.6630    36.5970    40.4980    24.7030     2.3350   -14.0070 
  210.0000    77.3820    43.6200    38.0090    43.2830    24.6980     2.3490   -14.1340 
  210.1250    75.7310    44.8470    38.9400    44.2460    24.7050     2.3510   -14.2030 
  210.2500    74.3030    44.9880    39.0610    43.9150    24.7250     2.3430   -14.2120 
  210.3750    74.6710    44.1490    38.4120    43.8670    24.7460     2.3280   -14.1860 
  210.5000    75.9220    42.8470    37.3690    42.4540    24.7570     2.3140   -14.1230 
  210.6250    76.8960    41.9240    36.5680    37.8260    24.7550     2.3080   -14.0470 
  210.7500    76.9950    41.9720    36.5040    34.8870    24.7540     2.3090   -13.9830 
  210.8750    76.5420    43.2250    37.4140    37.4010    24.7540     2.3130   -13.9440 
  211.0000    76.1110    45.6270    39.3230    41.9770    24.7560     2.3150   -13.9280 
  211.1250    76.1170    49.0750    42.2390    45.8900    24.7690     2.3120   -13.9580 
  211.2500    76.2580    53.0900    45.7920    50.0720    24.7920     2.3070   -14.0280 
  211.3750    76.1850    57.3980    49.7360    53.5110    24.8140     2.3020   -14.1160 
  211.5000    75.2610    61.8490    53.8880    52.7640    24.8260     2.2980   -14.2090 
  211.6250    73.8830    66.1960    57.9940    58.3440    24.8260     2.2950   -14.2650 
  211.7500    71.5660    69.7070    61.4040    66.5390    24.8210     2.2930   -14.2920 
  211.8750    68.2740    71.3440    63.2010    74.5330    24.7940     2.2920   -14.2370 
  212.0000    67.3390    70.4300    62.7410    77.1760    24.7410     2.2900   -14.1000 
  212.1250    71.8380    67.0640    59.9960    70.4270    24.7030     2.2850   -13.8740 
  212.2500    78.1290    62.9360    56.3930    60.0920    24.6900     2.2770   -13.6160 
  212.3750    81.0430    59.1630    52.9200    51.3980    24.6840     2.2660   -13.3150 
  212.5000    79.4310    56.3830    50.1990    48.9510    24.6720     2.2550   -12.9890 
  212.6250    77.3870    54.9420    48.6190    52.5640    24.6570     2.2520   -12.6580 
  212.7500    77.3690    54.6360    48.0760    55.6390    24.6640     2.2590   -12.2960 
  212.8750    78.2270    55.6330    48.7250    54.5970    24.6780     2.2740   -11.9590 
  213.0000    77.6240    58.3220    50.8860    50.8980    24.6860     2.2880   -11.6830 
  213.1250    74.4590    63.3470    55.1460    52.7360    24.6870     2.2910   -11.4750 
  213.2500    72.5830    69.7760    60.7650    65.7340    24.6900     2.2840   -11.2740 
  213.3750    73.1450    75.8160    66.3020    81.2360    24.6960     2.2710   -11.0590 
  213.5000    73.4440    78.8540    69.6170    90.9740    24.7090     2.2600   -10.8240 
  213.6250    73.7430    76.0050    68.1530    90.1320    24.7140     2.2610   -10.5500 
  213.7500    75.4080    68.9660    62.8840    74.2450    24.7070     2.2780   -10.2140 
  213.8750    77.5650    60.3580    55.7580    54.2210    24.6910     2.3120    -9.8000 
  214.0000    78.2990    52.4950    48.8210    43.6500    24.6780     2.3520    -9.3060 
  214.1250    75.1960    46.7530    43.4860    45.1200    24.6680     2.3840    -8.7250 
  214.2500    72.2520    42.7340    39.6330    40.9810    24.6690     2.3970    -8.1030 
  214.3750    72.5080    39.9150    36.9010    32.1590    24.6660     2.3940    -7.4820 
  214.5000    76.4830    37.6550    34.7780    27.1290    24.6770     2.3820    -6.8260 
  214.6250    79.4780    35.3090    32.7070    30.6030    24.7090     2.3730    -6.1650 
  214.7500    78.4420    32.6380    30.4010    32.6480    24.7110     2.3700    -5.5460 
  214.8750    76.4700    29.8360    27.9840    29.8230    24.7060     2.3740    -4.9830 
  215.0000    75.7110    27.2830    25.7660    26.0340    24.7140     2.3870    -4.4610 
  215.1250    75.7400    25.4430    24.1320    22.1370    24.7300     2.4120    -3.9770 
  215.2500    75.1250    24.3720    23.1360    18.7860    24.7280     2.4400    -3.5530 
  215.3750    73.0690    24.0100    22.7520    17.3800    24.6540     2.4560    -3.1810 
  215.5000    69.9410    24.0910    22.8020    18.7350    24.4890     2.4510    -2.8910 
  215.6250    67.3230    24.1820    22.9540    21.6460    24.3180     2.4180    -2.6610 
  215.7500    66.8180    23.9800    22.8970    21.7690    24.1280     2.3770    -2.4900 
  215.8750    67.8330    23.4500    22.5500    21.0560    23.9990     2.3400    -2.3370 
  216.0000    69.4270    22.7000    21.9730    19.9080    23.9240     2.3180    -2.2040 
  216.1250    71.0630    21.9010    21.2930    17.7310    23.8890     2.3080    -2.0840 
  216.2500    73.0880    21.1970    20.6590    17.4000    23.8400     2.3030    -1.9230 
  216.3750    74.6750    20.6210    20.1190    18.1370    23.7530     2.2970    -1.7290 
  216.5000    74.1260    20.1450    19.6640    18.0820    23.7100     2.2900    -1.5110 
  216.6250    70.7040    19.7610    19.2870    17.0640    23.9870     2.2860    -1.2860 
  216.7500    69.0240    19.4610    18.9750    17.5720    24.5760     2.2860    -1.0560 
  216.8750    72.1700    19.2340    18.7170    17.7120    25.1180     2.2900    -0.8680 
  217.0000    77.3520    19.0750    18.5090    17.5120    25.3590     2.2940    -0.7260 
  217.1250    77.3190    18.9980    18.3690    17.3780    25.3730     2.2960    -0.6190 
  217.2500    72.8870    18.9610    18.2640    18.0120    25.3650     2.2950    -0.5630 
  217.3750    69.6830    18.8920    18.1350    17.3560    25.3580     2.2910    -0.5720 
  217.5000    70.3200    18.7180    17.9130    16.7470    25.3530     2.2840    -0.6170 
  217.6250    72.1180    18.3860    17.5540    16.9370    25.3510     2.2810    -0.7420 
  217.7500    72.6190    18.0080    17.1540    17.3080    25.3520     2.2860    -0.8840 
  217.8750    72.5390    17.7920    16.8870    16.8370    25.3540     2.3020    -1.0260 
  218.0000    72.8320    18.0100    16.9740    16.6650    25.3480     2.3250    -1.1270 
  218.1250    73.6270    19.0310    17.7250    17.1770    25.3390     2.3460    -1.2620 
  218.2500    74.8460    20.8270    19.1570    18.9780    25.3600     2.3560    -1.4280 
  218.3750    75.3080    23.2800    21.2260    22.8390    25.4420     2.3530    -1.6070 
