~V
VERS. 2.00: Ver 2.00
~W
STRT.M 55.0000:
STOP.M 271.0000:
STEP.M 0.1250:
NULL. -999.2500:
UWI. DF5016:
~C
DEPT.M :
SP.MV :
GR.API :
CALI.CM :
RXO.OHMM :
RI. :
RML.OHMM :
DEN.GM/CC :
~A
# ...
   77.5000   -20.2860    77.9900    21.6180     8.6880     7.1830     7.7610     2.1230 
   77.6250   -19.7010    79.0640    21.6630     8.4670     6.9140     7.4950     2.1220 
   77.7500   -19.0750    83.0570    21.7160     8.2110     6.6060     7.1900     2.1230 
   77.8750   -18.4150    88.6340    21.8170     7.9450     6.2750     6.8620     2.1330 
   78.0000   -17.7440    94.7790    21.9930     7.5840     5.9500     6.5410     2.1540 
   78.1250   -17.0890    99.8970    22.3070     7.0560     5.7040     6.2970     2.1810 
   78.2500   -16.4610   102.1280    22.7550     6.5930     5.5670     6.1610     2.2020 
   78.3750   -15.8610   100.8770    23.0970     6.3970     5.5630     6.1580     2.2130 
   78.5000   -15.2950    97.8080    23.2390     6.3330     5.6830     6.2760     2.2200 
   78.6250   -14.7860    95.5620    23.3000     6.3950     5.8840     6.4750     2.2320 
   78.7500   -14.3360    94.8410    23.2880     6.7250     6.0960     6.6850     2.2580 
   78.8750   -13.9430    95.9100    23.2620     7.3260     6.2650     6.8530     2.3020 
   79.0000   -13.6010    99.4150    23.3440     7.8270     6.3350     6.9220     2.3610 
   79.1250   -13.3140   104.8500    23.6070     7.8300     6.2550     6.8420     2.4090 
   79.2500   -13.0780   109.6500    23.8490     7.4740     6.0550     6.6450     2.4130 
   79.3750   -12.8930   112.4670    24.0170     6.7160     5.7880     6.3800     2.3740 
   79.5000   -12.7580   113.8190    24.1140     5.7260     5.5090     6.1040     2.3240 
   79.6250   -12.6840   114.7800    24.1290     5.0940     5.2640     5.8610     2.3000 
   79.7500   -12.6740   115.7680    24.1200     4.7930     5.0700     5.6690     2.2990 
   79.8750   -12.7390   116.6140    24.1080     4.6770     4.9220     5.5220     2.3100 
   80.0000   -12.8790   117.8670    24.0890     4.6070     4.8190     5.4210     2.3190 
   80.1250   -13.1040   119.8510    24.1050     4.5220     4.7780     5.3800     2.3160 
   80.2500   -13.3980   120.6960    24.1430     4.5790     4.7710     5.3730     2.3030 
   80.3750   -13.7650   118.5730    24.1600     4.8070     4.7800     5.3820     2.2890 
   80.5000   -14.2050   114.4240    24.2020     5.1680     4.7990     5.4010     2.2850 
   80.6250   -14.7290   110.9220    24.2200     5.5960     4.8290     5.4310     2.2920 
   80.7500   -15.3300   108.6210    24.2450     5.7430     4.8980     5.4990     2.2930 
   80.8750   -16.0180   106.5090    24.2470     5.6510     5.0260     5.6260     2.2800 
   81.0000   -16.7980   103.9760    24.2210     5.6040     5.2300     5.8280     2.2560 
   81.1250   -17.6800   100.8970    24.1800     5.7850     5.5630     6.1570     2.2290 
   81.2500   -18.6350    97.5150    24.0410     6.2800     6.0180     6.6080     2.2090 
   81.3750   -19.6520    94.5780    23.8010     7.1300     6.5950     7.1790     2.2070 
   81.5000   -20.7250    93.2470    23.5400     8.5970     7.2510     7.8280     2.2320 
   81.6250   -21.8410    93.9210    23.2130    10.8070     7.8730     8.4440     2.2820 
   81.7500   -22.9540    95.0960    22.8930    12.6610     8.3720     8.9380     2.3180 
   81.8750   -24.0250    95.6940    22.5390    12.8970     8.6780     9.2410     2.3140 
   82.0000   -25.0220    95.2020    22.2210    11.6060     8.7730     9.3350     2.2730 
   82.1250   -25.9160    93.3840    22.0530    10.2880     8.6710     9.2340     2.2260 
   82.2500   -26.7160    90.9600    21.9920     9.5500     8.4510     9.0160     2.1970 
   82.3750   -27.4190    88.7160    21.9490     9.1560     8.1790     8.7470     2.1810 
   82.5000   -28.0180    86.9340    21.8880     8.8600     7.9260     8.4960     2.1700 
   82.6250   -28.4910    86.0640    21.8540     8.6970     7.7390     8.3120     2.1610 
   82.7500   -28.8630    86.3560    21.8610     8.6720     7.6340     8.2080     2.1580 
   82.8750   -29.1470    86.4810    21.9170     8.8090     7.6010     8.1750     2.1630 
   83.0000   -29.3590    84.0990    22.0090     9.1260     7.6260     8.2000     2.1710 
   83.1250   -29.5020    78.6700    22.0380     9.6690     7.7130     8.2850     2.1700 
   83.2500   -29.5920    73.6800    22.0370    10.1880     7.8280     8.4000     2.1590 
   83.3750   -29.6310    70.7500    22.0590    10.4130     7.9520     8.5230     2.1470 
   83.5000   -29.6230    69.2640    22.0690    10.3170     8.0620     8.6320     2.1400 
   83.6250   -29.5780    68.6450    22.0540    10.1120     8.1280     8.6970     2.1390 
   83.7500   -29.5130    68.7770    22.0550     9.9860     8.1760     8.7440     2.1390 
   83.8750   -29.4260    69.2290    22.0580     9.9300     8.2170     8.7850     2.1420 
   84.0000   -29.3070    69.4080    22.0660     9.8680     8.2480     8.8150     2.1480 
   84.1250   -29.1420    69.2320    22.0780     9.8550     8.2510     8.8190     2.1590 
   84.2500   -28.9420    69.0970    22.0750     9.8720     8.1970     8.7650     2.1650 
   84.3750   -28.7260    69.4720    22.0740     9.8940     8.0870     8.6560     2.1610 
   84.5000   -28.5070    71.2410    22.0900     9.8510     7.9420     8.5130     2.1500 
   84.6250   -28.2880    74.6700    22.0880     9.5770     7.7880     8.3600     2.1400 
   84.7500   -28.0680    78.3800    22.0740     9.1170     7.6670     8.2400     2.1440 
   84.8750   -27.8530    81.5690    22.0780     8.6220     7.5960     8.1700     2.1590 
   85.0000   -27.6550    83.6210    22.0890     8.3280     7.5940     8.1680     2.1730 
   85.1250   -27.4930    82.6930    22.0780     8.4560     7.6870     8.2600     2.1710 
   85.2500   -27.3510    79.0820    22.0820     8.7560     7.8210     8.3930     2.1590 
   85.3750   -27.2100    75.5620    22.0810     9.1070     7.9450     8.5160     2.1460 
   85.5000   -27.0520    74.7440    22.0590     9.4790     8.0010     8.5710     2.1400 
   85.6250   -26.8600    75.5710    22.1390     9.7090     7.9260     8.4970     2.1410 
   85.7500   -26.6360    74.5910    22.3270     9.8300     7.7630     8.3360     2.1400 
   85.8750   -26.3740    71.8790    22.6450     9.7850     7.5510     8.1260     2.1270 
   86.0000   -26.0670    70.3910    22.8820     9.5130     7.3300     7.9070     2.1030 
   86.1250   -25.7050    72.6080    22.7170     9.2170     7.1550     7.7340     2.0910 
   86.2500   -25.3030    76.1720    22.3660     8.9480     7.0680     7.6480     2.1110 
   86.3750   -24.8660    78.8470    22.0940     8.7110     7.1000     7.6790     2.1580 
   86.5000   -24.4020    79.8080    21.9110     8.5290     7.2570     7.8340     2.2090 
   86.6250   -23.9210    79.1840    21.8240     8.5310     7.5010     8.0760     2.2340 
   86.7500   -23.4430    78.1580    21.7940     8.6790     7.7330     8.3060     2.2260 
   86.8750   -22.9750    77.5180    21.7960     8.7900     7.8620     8.4340     2.1910 
   87.0000   -22.5150    77.6420    21.7860     8.8960     7.8110     8.3830     2.1470 
   87.1250   -22.0600    79.6810    21.8000     9.0900     7.5040     8.0790     2.1170 
   87.2500   -21.6230    85.2670    21.8320     9.0460     6.9960     7.5760     2.1100 
   87.3750   -21.2370    94.1160    21.9700     8.4510     6.3660     6.9530     2.1270 
   87.5000   -20.9450   102.5890    22.2860     7.2220     5.7330     6.3250     2.1630 
   87.6250   -20.8030   106.3990    22.8010     5.8340     5.2360     5.8340     2.2090 
   87.7500   -20.8050   106.9260    23.3430     4.9160     4.9480     5.5490     2.2390 
   87.8750   -20.9540   106.3070    23.7730     4.6080     4.9000     5.5010     2.2380 
   88.0000   -21.2560   104.7300    23.8130     4.7860     5.0830     5.6830     2.2180 
   88.1250   -21.7380   100.8960    23.3370     5.4520     5.4650     6.0600     2.2050 
   88.2500   -22.3590    96.3880    22.7400     6.3070     5.9190     6.5100     2.2000 
   88.3750   -23.0740    93.5280    22.2280     7.1420     6.3480     6.9350     2.1910 
   88.5000   -23.8220    92.7410    21.8500     7.8330     6.6710     7.2540     2.1720 
   88.6250   -24.5270    91.3970    21.6500     8.3700     6.8520     7.4330     2.1580 
