~V
VERS. 2.00: Ver 2.00
~W
STRT.M 59.0000:
STOP.M 253.0000:
STEP.M 0.1250:
NULL. -999.2500:
UWI. DF5043:
~C
DEPT.M :
SP.MV :
GR.API :
CALI.CM :
RXO.OHMM :
RI. :
RML.OHMM :
DEN.GM/CC :
~A
# ...
  160.2500   -33.4650    74.9360    23.6600    75.5060    60.3150    64.0280     2.2680 
  160.3750   -33.5470    77.2180    23.8640    57.9940    61.5810    65.6370     2.2860 
  160.5000   -33.6280    77.0100    24.0810    52.4350    64.5310    69.0910     2.2880 
  160.6250   -33.7280    75.3950    24.1810    59.4680    69.7580    74.9880     2.2900 
  160.7500   -33.8610    74.0880    24.2120    71.8530    77.7350    83.7650     2.2990 
  160.8750   -34.0270    73.8610    24.2690    81.7340    88.9380    95.8960     2.2930 
  161.0000   -34.1960    74.6570    24.2990    94.3870   102.0300   110.0360     2.2630 
  161.1250   -34.3590    77.1640    24.3130   120.2030   115.2860   124.4470     2.2310 
  161.2500   -34.5250    81.2160    24.3020   157.9970   126.4370   136.6120     2.2160 
  161.3750   -34.7400    83.8000    24.2740   185.9440   132.4320   142.8370     2.2130 
  161.5000   -35.0230    82.3770    24.2870   193.9170   132.9050   142.5760     2.2070 
  161.6250   -35.3720    78.0500    24.3170   187.8600   128.2710   136.4680     2.2040 
  161.7500   -35.7610    74.5810    24.3250   174.4930   120.1130   126.6810     2.2160 
  161.8750   -36.1660    75.0620    24.3320   152.1210   110.9650   116.4650     2.2380 
  162.0000   -36.5870    77.0130    24.3190   127.4150   103.5110   108.5800     2.2480 
  162.1250   -37.0460    77.8520    24.2590   106.6800    99.1710   104.2300     2.2430 
  162.2500   -37.5590    77.6610    24.1750    95.8330    98.4790   103.7050     2.2340 
  162.3750   -38.1200    77.6310    24.1350    97.5650   101.7630   107.2800     2.2320 
  162.5000   -38.6880    77.3760    24.0790   106.4170   107.8170   113.7870     2.2300 
  162.6250   -39.2400    76.1680    23.8900   119.7250   115.9500   122.6180     2.2220 
  162.7500   -39.7800    74.1250    23.5210   139.0360   125.4960   133.1810     2.2100 
  162.8750   -40.3320    71.7960    23.2070   164.0380   135.9230   144.9820     2.2040 
  163.0000   -40.9000    70.2170    23.1510   181.7750   146.6980   157.3090     2.2040 
  163.1250   -41.4550    70.2280    23.4160   183.8830   157.8180   170.1120     2.2070 
  163.2500   -41.9510    70.4070    23.7250   174.7120   169.4180   183.5600     2.2050 
  163.3750   -42.3360    68.4490    23.9620   176.7420   181.3320   197.5600     2.1920 
  163.5000   -42.6280    66.6460    24.1660   200.4160   192.9680   211.4110     2.1730 
  163.6250   -42.8440    67.9020    24.3130   242.1570   203.7880   224.4340     2.1610 
  163.7500   -42.9900    71.0890    24.3650   280.1090   213.2530   235.9410     2.1630 
  163.8750   -43.0250    71.0420    24.3580   284.9010   220.5390   244.9260     2.1790 
  164.0000   -42.9340    67.8270    24.3470   266.4710   225.7600   251.3520     2.1980 
  164.1250   -42.7150    65.3640    24.3450   242.3820   228.9880   255.1900     2.2130 
  164.2500   -42.3970    66.1450    24.3360   229.4470   230.4780   256.7170     2.2230 
  164.3750   -42.0180    68.8390    24.3180   232.5300   230.3980   256.2220     2.2280 
  164.5000   -41.6130    70.3170    24.3320   241.0140   229.1760   254.3150     2.2270 
  164.6250   -41.1770    69.4040    24.3520   246.7320   226.6590   250.8780     2.2190 
  164.7500   -40.7010    66.3120    24.3450   246.3290   222.8710   245.9330     2.2070 
  164.8750   -40.2060    63.2920    24.3440   238.0260   218.3880   240.1810     2.1990 
  165.0000   -39.7440    63.1270    24.3250   220.8100   214.5190   235.1580     2.1990 
  165.1250   -39.3570    65.7040    24.3140   202.5380   212.4780   232.1890     2.2010 
  165.2500   -39.0550    68.5850    24.3310   196.6350   213.3060   232.2690     2.1980 
  165.3750   -38.8200    70.5860    24.3420   207.8000   217.3860   235.7690     2.1890 
  165.5000   -38.6170    73.7840    24.3540   219.4080   222.2410   240.0260     2.1830 
  165.6250   -38.4500    78.7520    24.3830   224.5060   224.9660   241.7770     2.1830 
  165.7500   -38.3410    83.1230    24.4210   232.2220   223.0090   238.0300     2.1910 
  165.8750   -38.3140    83.6730    24.4830   255.8060   213.8850   226.0000     2.1970 
  166.0000   -38.3330    81.2680    24.5180   285.4160   199.2150   208.0540     2.1990 
  166.1250   -38.3610    77.9360    24.4760   293.4820   181.4160   187.4610     2.1980 
  166.2500   -38.3830    75.9590    24.4050   256.7860   163.6830   168.0020     2.1990 
  166.3750   -38.4230    76.3830    24.3850   186.2840   149.4660   153.1430     2.2010 
  166.5000   -38.5130    76.9410    24.3980   135.6720   139.7390   143.0790     2.2030 
  166.6250   -38.6590    75.8240    24.3910   122.9670   134.3260   137.2630     2.2070 
  166.7500   -38.8370    73.1430    24.3410   131.2080   131.6580   134.0630     2.2160 
  166.8750   -39.0160    70.0470    24.2750   143.2670   129.1230   130.8750     2.2230 
  167.0000   -39.1880    68.0400    24.2820   156.5670   124.7610   125.7430     2.2240 
  167.1250   -39.3760    68.0940    24.3140   163.2430   118.0310   118.2060     2.2200 
  167.2500   -39.6010    69.6140    24.3370   154.5240   109.3630   108.9120     2.2160 
  167.3750   -39.8560    69.8990    24.3400   139.0460   100.2440    99.4920     2.2160 
  167.5000   -40.0950    68.9920    24.3190   122.1270    92.6180    91.8450     2.2220 
  167.6250   -40.2810    69.2550    24.2450    99.9550    87.6600    87.0470     2.2270 
  167.7500   -40.4030    71.7710    24.1440    77.4650    85.8630    85.4600     2.2230 
  167.8750   -40.4690    74.8930    24.0580    73.2680    87.5160    87.2850     2.2170 
  168.0000   -40.5060    77.6060    23.9780    85.8740    91.1390    91.1080     2.2200 
  168.1250   -40.5090    79.9420    23.9390   100.9650    95.5150    95.7710     2.2330 
  168.2500   -40.4600    80.6970    23.9730   107.8510    99.5790   100.2220     2.2460 
  168.3750   -40.3390    78.0630    23.9790   106.3270   102.4020   103.4940     2.2460 
  168.5000   -40.1820    74.3370    23.9230   102.0580   103.8400   105.4220     2.2330 
  168.6250   -40.0380    73.7760    23.8380    99.8160   104.2200   106.3810     2.2160 
  168.7500   -39.9490    80.2730    23.7720   101.5770   104.4410   107.3730     2.2120 
  168.8750   -39.9400    89.9770    23.7320   101.1990   105.8250   109.8830     2.2230 
  169.0000   -39.9800    93.1580    23.6960    97.5480   108.8640   114.3490     2.2300 
  169.1250   -40.0460    88.8200    23.6340    95.3600   113.6620   120.8690     2.2260 
  169.2500   -40.1290    82.9740    23.5560    99.3950   120.0550   129.2560     2.2180 
  169.3750   -40.2450    78.6310    23.5190   108.4170   127.9410   139.3970     2.2130 
  169.5000   -40.4050    72.6300    23.5590   116.1680   136.7070   150.5220     2.2110 
  169.6250   -40.6120    66.9770    23.6510   119.2590   145.6450   161.7840     2.2080 
  169.7500   -40.8530    65.5840    23.7390   117.6190   153.5730   171.8770     2.2040 
  169.8750   -41.1080    67.4230    23.7760   113.3620   158.9200   178.9950     2.1950 
  170.0000   -41.3540    68.1400    23.7860   109.0180   161.5760   182.9380     2.1860 
  170.1250   -41.5800    67.9980    23.7750   106.6130   161.6110   183.6980     2.1850 
  170.2500   -41.7810    69.5400    23.7520   107.5510   159.2290   181.4440     2.1940 
  170.3750   -41.9510    73.5400    23.7110   108.3420   154.5620   176.2880     2.2040 
  170.5000   -42.0900    76.4930    23.7020   106.5590   148.7530   169.6030     2.2110 
  170.6250   -42.1930    76.4540    23.7390   104.1200   142.8050   162.4990     2.2170 
  170.7500   -42.2550    74.2970    23.7990   110.9150   137.4720   155.8150     2.2170 
  170.8750   -42.2740    72.1100    23.8260   131.9580   132.8820   149.7240     2.2080 
  171.0000   -42.2690    70.4470    23.8380   150.3940   128.4620   143.7470     2.1960 
  171.1250   -42.2500    69.1800    23.8680   148.0530   123.8490   137.5500     2.1930 
  171.2500   -42.2200    68.3150    23.9400   129.7610   118.4880   130.5320     2.1980 
  171.3750   -42.1740    68.2400    24.0470   128.8100   111.4860   121.7440     2.2010 
