~V
VERS. 2.00: Ver 2.00
~W
STRT.M 60.0000:
STOP.M 259.0000:
STEP.M 0.1250:
NULL. -999.2500:
UWI. DF5006:
~C
DEPT.M :
SP.MV :
GR.API :
RML.OHMM :
RI. :
RXO.OHMM :
CALI.CM :
DEN.GM/CC :
~A
# ...
  116.2500   -14.1110    96.3810     7.2040     6.2800     6.6340    23.7600     2.2740 
  116.3750   -14.2640    95.6390     7.3480     6.3660     6.8070    23.6350     2.2740 
  116.5000   -14.4390    99.4860     7.5270     6.4850     6.9920    23.4690     2.2730 
  116.6250   -14.6120   104.2010     7.6800     6.6040     7.1060    23.3220     2.2720 
  116.7500   -14.7980   104.5190     7.7130     6.6680     7.0430    23.2450     2.2690 
  116.8750   -14.9540   101.5150     7.6020     6.6490     7.0540    23.1950     2.2660 
  117.0000   -15.0410    99.2400     7.3710     6.5450     7.1560    23.1540     2.2650 
  117.1250   -15.0510   100.7340     7.1120     6.3960     7.1780    23.1540     2.2680 
  117.2500   -15.0340   103.6660     6.9650     6.2820     7.0540    23.3110     2.2820 
  117.3750   -15.0270   103.8610     6.9950     6.2590     6.8770    23.5680     2.3020 
  117.5000   -15.0790   100.9540     7.2010     6.3440     6.8030    23.7170     2.3170 
  117.6250   -15.2160    96.3210     7.5250     6.5110     6.9570    23.6840     2.3180 
  117.7500   -15.4110    90.8110     7.8660     6.6990     7.4010    23.5840     2.2960 
  117.8750   -15.6340    86.7550     8.1360     6.8390     7.7120    23.5510     2.2640 
  118.0000   -15.8660    86.3170     8.3100     6.9100     7.8840    23.5200     2.2310 
  118.1250   -16.0460    87.5050     8.4120     6.9320     8.0440    23.4790     2.2100 
  118.2500   -16.0800    88.0550     8.4870     6.9690     8.1170    23.4910     2.2090 
  118.3750   -15.9420    88.7740     8.5630     7.0540     8.3250    23.5980     2.2300 
  118.5000   -15.6770    90.9390     8.6140     7.1650     8.8340    23.7900     2.2710 
  118.6250   -15.3320    92.3500     8.5860     7.2400     9.4140    23.9560     2.3200 
  118.7500   -14.9520    94.7290     8.4070     7.1940    10.3520    24.0150     2.3560 
  118.8750   -14.6330    99.5070     8.1140     7.0330    10.5630    24.0510     2.3640 
  119.0000   -14.4100   101.8330     7.7780     6.8100     9.1650    24.0330     2.3410 
  119.1250   -14.3250    98.5460     7.4950     6.6050     7.4920    23.8860     2.3000 
  119.2500   -14.3630    94.9460     7.3540     6.4990     7.0770    23.6450     2.2640 
  119.3750   -14.4440    94.6610     7.3280     6.4860     7.2780    23.4390     2.2430 
  119.5000   -14.4840    94.9170     7.3580     6.5300     7.4100    23.3180     2.2380 
  119.6250   -14.4160    95.8230     7.3780     6.5830     7.2720    23.3640     2.2430 
  119.7500   -14.3230   100.8270     7.3430     6.5960     6.8660    23.6150     2.2540 
  119.8750   -14.1420   105.2960     7.2750     6.5610     6.6390    23.8250     2.2630 
  120.0000   -13.8780   105.7510     7.1870     6.4800     6.6070    23.8910     2.2710 
  120.1250   -13.4950   105.1730     7.0700     6.3520     6.5790    23.9240     2.2790 
  120.2500   -13.1500   108.1610     6.8990     6.1720     6.3950    24.0270     2.2910 
  120.3750   -12.9090   112.6550     6.6980     5.9770     6.2050    24.1390     2.3040 
  120.5000   -12.8370   114.9580     6.5260     5.8130     6.0540    24.2160     2.3180 
  120.6250   -12.9030   113.9880     6.4520     5.7300     6.0090    24.2630     2.3270 
  120.7500   -13.0480   111.3870     6.5350     5.7720     6.0740    24.2700     2.3290 
  120.8750   -13.2690   110.0590     6.7240     5.8970     6.3650    24.1670     2.3220 
  121.0000   -13.5220   107.2890     6.9590     6.0580     6.8590    23.9410     2.3090 
  121.1250   -13.8240   101.6600     7.1930     6.2080     7.3440    23.7490     2.2940 
  121.2500   -14.0990    96.0170     7.4200     6.3350     7.5340    23.7180     2.2830 
  121.3750   -14.3740    93.3280     7.6820     6.4870     7.5330    23.7920     2.2790 
  121.5000   -14.6440    91.1140     8.0230     6.7280     7.7810    23.8750     2.2830 
  121.6250   -14.9410    86.7980     8.4600     7.0910     8.7560    23.9280     2.2970 
  121.7500   -15.2330    82.3390     8.9440     7.5540    10.1770    23.9660     2.3160 
  121.8750   -15.5120    78.8990     9.3500     7.9960    11.4760    23.9770     2.3290 
  122.0000   -15.8370    76.1260     9.5570     8.2990    12.0310    23.8910     2.3250 
  122.1250   -16.1680    74.3040     9.4830     8.3710    10.7960    23.7440     2.3010 
  122.2500   -16.5100    75.5560     9.1070     8.1560     9.3720    23.6260     2.2650 
  122.3750   -16.7110    78.6330     8.5940     7.7630     8.8120    23.5810     2.2330 
  122.5000   -16.7110    82.2630     8.0570     7.2820     8.6810    23.6060     2.2160 
  122.6250   -16.4980    86.4620     7.5620     6.7920     8.2850    23.7250     2.2160 
  122.7500   -16.1620    91.0110     7.1410     6.3650     7.5520    23.8570     2.2230 
  122.8750   -15.7620    93.3050     6.7710     6.0360     7.1630    23.8610     2.2260 
  123.0000   -15.2800    91.7120     6.5210     5.8690     7.3780    23.7720     2.2230 
  123.1250   -14.6970    89.2890     6.6090     5.9730     7.9040    23.6650     2.2190 
  123.2500   -14.0170    88.4790     7.4160     6.6030     8.7630    23.6750     2.2320 
  123.3750   -13.3580    86.9220     9.1520     7.8150    10.1240    23.8460     2.2730 
  123.5000   -12.8130    82.6930    11.6960     9.5570    12.2380    24.0510     2.3440 
  123.6250   -12.3900    77.3520    14.5340    11.5230    14.9410    24.1570     2.4310 
  123.7500   -12.0330    74.7880    16.6250    13.0020    17.5890    24.1770     2.5080 
  123.8750   -11.6940    75.4460    16.6500    13.3880    18.1880    24.1880     2.5510 
  124.0000   -11.4060    78.6920    15.1440    12.4680    16.3510    24.2070     2.5540 
  124.1250   -11.2240    85.6140    12.7100    10.6100    12.9940    24.2050     2.5220 
  124.2500   -11.1910    93.8300    10.3650     8.5980     9.6720    24.1620     2.4690 
  124.3750   -11.2790    96.1630     8.7190     7.0310     7.4840    24.0630     2.4100 
  124.5000   -11.4550    91.8800     7.8800     6.0730     6.6670    23.8860     2.3570 
  124.6250   -11.6880    86.4750     7.7850     5.7390     6.7370    23.6630     2.3170 
  124.7500   -11.9550    85.9270     8.4460     6.0940     7.2920    23.5210     2.3060 
  124.8750   -12.2280    86.0120     9.6030     6.9470     8.2550    23.4710     2.3260 
  125.0000   -12.5340    82.8990    10.9870     8.1060     9.9880    23.5080     2.3760 
  125.1250   -12.8720    77.1320    12.2050     9.2620    12.1990    23.6460     2.4370 
  125.2500   -13.2740    71.8300    12.6980     9.9580    13.9810    23.6940     2.4760 
  125.3750   -13.7570    69.1860    12.3740    10.0210    14.1590    23.5970     2.4750 
  125.5000   -14.2780    70.3930    11.4580     9.5310    12.0490    23.4070     2.4370 
  125.6250   -14.8860    74.8830    10.4310     8.8070     9.1210    23.2590     2.3820 
  125.7500   -15.5530    77.4480     9.8730     8.2820     8.3250    23.1210     2.3300 
  125.8750   -16.3020    74.2010     9.9380     8.1610     8.5210    22.9600     2.2890 
  126.0000   -17.0420    70.2370    10.5710     8.4770     9.1620    22.8300     2.2590 
  126.1250   -17.7980    71.0630    11.5760     9.1540     9.9320    22.8020     2.2400 
  126.2500   -18.4910    72.1890    12.6700    10.0470    10.6920    22.9050     2.2330 
  126.3750   -19.1040    67.6470    13.5800    10.9180    11.4680    23.0400     2.2320 
  126.5000   -19.6440    59.5900    14.1810    11.6170    12.2580    23.1400     2.2320 
  126.6250   -20.0870    54.1970    14.4530    12.0550    12.8830    23.1810     2.2280 
  126.7500   -20.4040    55.4730    14.4340    12.1780    13.0330    23.1880     2.2180 
  126.8750   -20.6270    60.7700    14.2840    12.1000    12.9250    23.1880     2.2060 
  127.0000   -20.7900    65.4780    14.0920    11.9150    12.7260    23.1830     2.1980 
  127.1250   -20.8920    65.0820    13.9130    11.7060    12.5330    23.1640     2.1970 
  127.2500   -20.9290    62.2920    13.7880    11.5360    12.3740    23.1240     2.2010 
  127.3750   -20.9530    61.0710    13.7260    11.4170    12.3170    23.0950     2.2060 
