~V
VERS. 2.00: Ver 2.00
~W
STRT.M 58.0000:
STOP.M 276.0000:
STEP.M 0.1250:
NULL. -999.2500:
UWI. DF5012:
~C
DEPT.M :
SP.MV :
GR.API :
CALI.CM :
RXO.OHMM :
RI. :
RML.OHMM :
DEN.GM/CC :
~A
# ...
  181.7500   -43.2760    73.5530    25.0470    89.7080    78.8750    85.7560     2.2370 
  181.8750   -43.3540    73.7580    25.1380    88.0550    79.0870    85.7140     2.2410 
  182.0000   -43.4630    73.1530    25.4010    86.7450    78.9830    85.5430     2.2470 
  182.1250   -43.5420    71.6830    25.5820    86.6650    78.8460    85.5430     2.2500 
  182.2500   -43.6120    70.5620    25.6190    86.2640    78.7820    85.7120     2.2520 
  182.3750   -43.6590    71.8060    25.6090    85.8070    78.7380    85.9200     2.2530 
  182.5000   -43.6880    76.3240    25.6090    85.6570    78.6150    86.0350     2.2570 
  182.6250   -43.6730    81.1610    25.6090    85.4120    78.3570    86.0450     2.2620 
  182.7500   -43.6880    81.6230    25.6090    85.0850    78.1330    86.2140     2.2670 
  182.8750   -43.6900    77.9650    25.6090    84.4990    78.2680    86.9510     2.2700 
  183.0000   -43.6940    73.9900    25.6090    83.9320    79.1810    88.6980     2.2700 
  183.1250   -43.7060    73.2340    25.6090    84.0530    81.4450    91.9630     2.2700 
  183.2500   -43.7340    75.1870    25.6090    85.9210    84.9510    96.4400     2.2700 
  183.3750   -43.7430    77.0500    25.6090    92.6680    89.4590   101.7080     2.2710 
  183.5000   -43.7490    74.9090    25.6120   105.4200    94.4860   107.1410     2.2700 
  183.6250   -43.7400    69.9320    25.6170   111.9990    99.3050   111.8800     2.2680 
  183.7500   -43.7430    69.1550    25.6200   112.5200   103.3190   115.4120     2.2640 
  183.8750   -43.7690    72.7250    25.6190   113.6680   106.1130   117.3560     2.2600 
  184.0000   -43.8100    76.0280    25.6150   119.5840   107.3670   117.4460     2.2570 
  184.1250   -43.8350    76.2070    25.6290   124.0480   106.6400   115.3180     2.2580 
  184.2500   -43.8440    75.6800    25.6000   124.8240   104.3800   111.5380     2.2590 
  184.3750   -43.8570    75.8360    25.3910   117.5550   100.7050   106.2200     2.2610 
  184.5000   -43.8960    75.7170    24.9930   105.0110    95.3630    99.1330     2.2640 
  184.6250   -43.9290    74.1430    24.7280    96.4410    87.8790    90.0310     2.2680 
  184.7500   -43.9630    72.7840    24.8380    94.6270    79.2630    80.2120     2.2700 
  184.8750   -43.9780    72.3900    25.1670    91.3770    70.8210    71.1630     2.2690 
  185.0000   -43.9930    73.0540    25.4140    71.8290    63.8940    64.2550     2.2650 
  185.1250   -44.0310    74.1230    25.4610    51.9950    59.9730    60.9360     2.2620 
  185.2500   -44.0600    74.3740    25.4490    51.2210    59.0240    60.8630     2.2610 
  185.3750   -44.1030    73.4960    25.4470    61.4460    60.8710    63.6540     2.2630 
  185.5000   -44.1210    71.7090    25.4470    69.7500    65.0460    68.6620     2.2660 
  185.6250   -44.1980    70.5970    25.4470    75.7960    71.0080    75.1920     2.2670 
  185.7500   -44.3130    71.2530    25.4470    81.5010    77.5480    82.1600     2.2650 
  185.8750   -44.4380    73.5480    25.4470    84.3280    84.0640    89.1980     2.2620 
  186.0000   -44.5670    75.0490    25.4470    89.8640    90.5090    96.4810     2.2570 
  186.1250   -44.6950    74.3590    25.4470    96.5220    97.4150   104.7200     2.2510 
  186.2500   -44.8440    72.2100    25.4470   110.5300   105.1950   114.2870     2.2450 
  186.3750   -44.9480    70.1720    25.4470   124.7970   114.2610   125.6380     2.2390 
  186.5000   -45.0300    70.1150    25.4470   134.5220   125.2360   139.4750     2.2330 
  186.6250   -45.0290    73.3960    25.4470   141.8190   139.5180   157.3960     2.2280 
  186.7500   -44.9510    74.9730    25.4470   158.3820   157.2940   179.4810     2.2240 
  186.8750   -44.8550    71.0350    25.4470   183.4010   178.1090   205.0970     2.2180 
  187.0000   -44.7190    63.8670    25.4470   209.5050   199.9230   231.7050     2.2090 
  187.1250   -44.5360    59.4540    25.4470   240.4800   217.7510   253.0270     2.1970 
  187.2500   -44.3320    59.0070    25.4470   255.1070   227.0920   263.4530     2.1870 
  187.3750   -44.0950    61.2810    25.4440   242.9820   225.2200   259.8840     2.1840 
  187.5000   -43.8530    63.2130    25.4560   224.4220   213.2110   244.4430     2.1880 
  187.6250   -43.6040    63.0580    25.5080   223.1910   196.2300   224.4390     2.1960 
  187.7500   -43.3830    63.3160    25.5760   218.7380   181.8070   208.6140     2.2030 
  187.8750   -43.2030    64.0190    25.6230   179.9450   173.9870   201.0460     2.2070 
  188.0000   -43.0360    63.3010    25.6350   161.8490   174.9500   203.4330     2.2070 
  188.1250   -42.9200    63.3230    25.6320   191.3470   186.7130   216.9940     2.2060 
  188.2500   -42.8620    66.8690    25.6320   241.3610   205.3020   236.6760     2.2050 
  188.3750   -42.8450    70.6810    25.6300   249.8520   225.1720   255.7980     2.2050 
  188.5000   -42.9140    69.1770    25.6260   228.7550   238.5110   265.4830     2.2030 
  188.6250   -42.9530    63.6330    25.6210   214.0470   236.2930   256.7600     2.1990 
  188.7500   -43.0290    61.6470    25.6170   212.4760   221.5150   235.6190     2.1940 
  188.8750   -43.0830    64.3580    25.6140   204.3870   200.3930   210.1160     2.1920 
  189.0000   -43.1580    66.2610    25.6120   183.9660   178.8740   186.2350     2.1960 
  189.1250   -43.1880    63.9860    25.6110   161.6540   160.3370   166.6620     2.2050 
  189.2500   -43.1850    62.8870    25.6090   144.8690   144.8840   150.7960     2.2160 
  189.3750   -43.2090    64.7390    25.6090   132.8490   132.7130   138.7600     2.2240 
  189.5000   -43.1700    66.2560    25.6090   117.6330   124.3030   131.0940     2.2290 
  189.6250   -43.2660    64.8590    25.6090   109.3950   121.2820   129.5820     2.2320 
  189.7500   -43.2700    64.0000    25.6090   115.7190   123.8390   134.2410     2.2360 
  189.8750   -43.3020    65.6330    25.6090   125.8240   132.7560   145.7300     2.2390 
  190.0000   -43.3040    67.4310    25.6080   145.9790   148.5700   164.4170     2.2390 
  190.1250   -43.3330    66.8840    25.6120   182.1190   171.6420   190.4570     2.2320 
  190.2500   -43.2980    65.1650    25.6270   207.7380   197.7770   219.2340     2.2210 
  190.3750   -43.2580    63.0320    25.6470   231.5900   221.9410   244.9440     2.2080 
  190.5000   -43.2000    60.8380    25.6610   268.2760   238.8890   261.4650     2.1940 
  190.6250   -43.1300    60.1090    25.6640   297.3890   244.0810   263.6700     2.1810 
  190.7500   -43.0390    60.7240    25.6630   291.8860   239.7320   254.7150     2.1660 
  190.8750   -42.8920    60.5260    25.6620   268.5480   227.2390   236.6070     2.1560 
  191.0000   -42.7490    57.8710    25.6690   225.0710   207.9350   211.3390     2.1580 
  191.1250   -42.5720    56.4960    25.6530   180.0870   183.4280   181.7130     2.1800 
  191.2500   -42.4320    58.8870    25.5600   151.3320   157.9750   152.7620     2.2170 
  191.3750   -42.3190    64.5600    25.4040   119.1020   134.6820   127.6320     2.2580 
  191.5000   -42.2120    71.6770    25.2860    92.0930   115.5150   107.7790     2.2880 
  191.6250   -42.0960    76.2050    25.3190    79.2750   101.5920    93.7650     2.2930 
  191.7500   -41.9770    77.0960    25.4480    76.5320    91.3470    83.6230     2.2860 
  191.8750   -41.8630    76.6410    25.5800    71.6400    83.9520    76.4260     2.2790 
  192.0000   -41.6940    76.7290    25.6620    65.2850    78.8290    71.5340     2.2790 
  192.1250   -41.5210    77.1900    25.6800    59.1180    75.9140    68.8870     2.2850 
  192.2500   -41.2940    76.5940    25.6760    56.3090    74.7930    68.1040     2.2900 
  192.3750   -41.0620    74.5210    25.6720    55.8010    75.5700    69.2570     2.2870 
  192.5000   -40.8210    71.9230    25.6700    58.8840    78.2270    72.2630     2.2750 
  192.6250   -40.5700    72.0720    25.6710    66.1820    82.6180    76.9820     2.2610 
  192.7500   -40.3550    74.1100    25.6710    71.5130    87.8940    82.6610     2.2490 
  192.8750   -40.1530    75.5140    25.6710    75.8130    93.5580    88.9590     2.2440 
