~V
VERS. 2.00: Ver 2.00
~W
STRT.M 55.0000:
STOP.M 271.0000:
STEP.M 0.1250:
NULL. -999.2500:
UWI. DF5009:
~C
DEPT.M :
GR.API :
CALI.CM :
RXO.OHMM :
RI. :
RML.OHMM :
DEN.GM/CC :
SP.MV :
~A
# ...
  145.0000   104.6390    25.0190     4.5700     4.3600     4.3870     2.3300   -13.3220 
  145.1250    98.0220    25.0290     4.6670     4.3840     4.4350     2.3150   -13.4670 
  145.2500    94.0730    25.0330     4.8360     4.3820     4.4550     2.2970   -13.5110 
  145.3750    94.0990    25.0030     4.8500     4.3340     4.4210     2.2840   -13.6560 
  145.5000    98.0650    24.9290     4.6630     4.2300     4.3280     2.2800   -13.8100 
  145.6250   104.2700    24.8370     4.4160     4.0850     4.2030     2.2820   -13.9690 
  145.7500   107.1470    24.7450     4.3480     3.9520     4.1060     2.2840   -14.1460 
  145.8750   107.0560    24.5550     4.3910     3.8750     4.0900     2.2810   -14.3140 
  146.0000   108.7210    24.1700     4.3950     3.8890     4.1950     2.2680   -14.5970 
  146.1250   113.9230    23.7730     4.4900     4.0350     4.4770     2.2480   -14.7120 
  146.2500   113.4340    23.6680     4.7880     4.3100     4.9300     2.2260   -14.8660 
  146.3750   104.8040    23.8180     5.2580     4.7250     5.5580     2.2040   -15.1750 
  146.5000    94.2060    23.9980     5.7750     5.2840     6.3500     2.1840   -15.4570 
  146.6250    87.2930    24.1160     6.3530     5.9900     7.2820     2.1690   -15.5950 
  146.7500    84.0620    24.2510     7.2930     6.7610     8.2340     2.1590   -15.6530 
  146.8750    82.7230    24.3660     8.1300     7.4920     9.0700     2.1530   -15.7930 
  147.0000    83.7310    24.3890     8.5780     8.0630     9.6540     2.1530   -15.8660 
  147.1250    84.8140    24.3040     8.7370     8.3340     9.8460     2.1560   -15.9300 
  147.2500    83.8270    24.1520     8.5590     8.3460     9.7410     2.1560   -16.0490 
  147.3750    83.3590    23.9620     8.0790     8.1770     9.4590     2.1500   -16.0350 
  147.5000    83.1050    23.7600     7.8400     7.9410     9.1480     2.1410   -16.0370 
  147.6250    82.3070    23.5680     7.9100     7.7550     8.9550     2.1300   -15.9940 
  147.7500    83.0310    23.3880     7.9020     7.6740     8.9320     2.1230   -15.9150 
  147.8750    86.0020    23.2380     7.8150     7.7310     9.1030     2.1210   -15.8260 
  148.0000    87.9450    23.1290     7.7870     7.9420     9.4610     2.1240   -15.6160 
  148.1250    85.5770    23.0660     7.8240     8.3000     9.9420     2.1330   -15.4860 
  148.2500    84.1910    23.0790     8.0440     8.6810    10.3520     2.1470   -15.3140 
  148.3750    86.2410    23.2270     8.5840     8.9330    10.4940     2.1640   -15.0870 
  148.5000    88.9000    23.5520     9.2800     8.8990    10.2140     2.1860   -14.7800 
  148.6250    87.1400    24.0320     9.3080     8.4440     9.4320     2.2120   -14.5240 
  148.7500    85.8470    24.5250     8.0920     7.7260     8.4080     2.2360   -14.3810 
  148.8750    88.5020    24.9070     6.6010     6.9350     7.3990     2.2550   -14.1690 
  149.0000    93.7630    25.1090     5.8740     6.2470     6.6080     2.2640   -14.0360 
  149.1250    97.3960    25.1520     5.6830     5.8000     6.1780     2.2630   -13.9050 
  149.2500    98.6300    25.1430     5.6050     5.5720     6.0260     2.2580   -13.8440 
  149.3750    98.9290    25.1180     5.6600     5.5200     6.0600     2.2540   -13.8380 
  149.5000    97.5580    25.0720     5.8220     5.5700     6.1670     2.2530   -13.8100 
  149.6250    95.3410    24.9770     5.8550     5.6470     6.2440     2.2550   -13.8700 
  149.7500    95.3430    24.8420     5.7500     5.6980     6.2580     2.2560   -13.8680 
  149.8750    96.9410    24.6770     5.6530     5.7110     6.2150     2.2550   -13.9350 
  150.0000    98.3570    24.5060     5.5860     5.6840     6.1330     2.2480   -13.9750 
  150.1250    96.9980    24.3830     5.6070     5.6320     6.0540     2.2420   -13.9950 
  150.2500    93.3100    24.3340     5.8660     5.6000     6.0460     2.2390   -13.9200 
  150.3750    88.7190    24.3480     6.0160     5.6450     6.1960     2.2380   -13.9050 
  150.5000    84.4770    24.3980     5.9210     5.8370     6.6180     2.2350   -13.9390 
  150.6250    84.8620    24.4660     6.4210     6.3070     7.4870     2.2240   -13.8180 
  150.7500    90.0780    24.5300     7.5010     7.0500     8.7030     2.2070   -13.7070 
  150.8750    93.9880    24.5750     8.5240     7.9570     9.9830     2.1900   -13.5820 
  151.0000    90.8910    24.6010     9.2850     8.7160    10.8220     2.1820   -13.5050 
  151.1250    83.5620    24.6170    10.5500     8.7950    10.5740     2.1930   -13.3830 
  151.2500    81.7090    24.6370    11.3950     8.2390     9.5250     2.2260   -13.2800 
  151.3750    85.0780    24.6790    10.0650     7.4610     8.3730     2.2800   -13.1210 
  151.5000    87.8510    24.7490     7.4910     6.9530     7.8440     2.3520   -13.1330 
  151.6250    85.6570    24.8240     7.2580     7.1630     8.5510     2.4290   -13.1900 
  151.7500    81.2110    24.8920    11.2700     8.1640    10.3540     2.4850   -13.2220 
  151.8750    76.9660    24.9560    18.4620     9.9900    12.9810     2.4980   -13.2490 
  152.0000    73.2860    24.9990    25.0670    12.4580    15.8310     2.4650   -13.3280 
  152.1250    69.7010    24.9920    25.5260    14.8390    17.7580     2.4080   -13.3990 
  152.2500    68.2080    24.9660    21.1650    16.1650    18.1140     2.3590   -13.4170 
  152.3750    70.8890    24.9460    16.5670    16.0460    16.9440     2.3270   -13.5400 
  152.5000    75.6280    24.9510    14.7660    14.7550    14.8220     2.3140   -13.5240 
  152.6250    78.0370    25.0140    14.3170    12.7960    12.3740     2.3110   -13.4960 
  152.7500    79.5880    25.1180    12.8270    10.7270    10.0490     2.3070   -13.4600 
  152.8750    84.0900    25.1990     9.5380     8.8150     8.0540     2.2970   -13.4500 
  153.0000    92.3510    25.2050     6.1730     7.2480     6.5280     2.2830   -13.4020 
  153.1250    98.2010    25.1640     5.4260     6.1840     5.5860     2.2690   -13.3930 
  153.2500    98.5370    25.1380     5.2420     5.5210     5.0550     2.2610   -13.4290 
  153.3750    96.3490    25.1370     5.2750     5.1810     4.8240     2.2600   -13.3420 
  153.5000    94.5360    25.1510     5.2270     5.1040     4.8300     2.2680   -13.3890 
  153.6250    93.4220    25.1710     5.3050     5.3180     5.1120     2.2830   -13.4350 
  153.7500    92.0040    25.1950     5.4450     5.7830     5.6380     2.3030   -13.4660 
  153.8750    92.1740    25.2090     5.9450     6.4620     6.3610     2.3210   -13.4320 
  154.0000    92.6720    25.1960     8.5050     7.2550     7.1640     2.3320   -13.4140 
  154.1250    87.2930    25.1660    11.7960     7.9820     7.8510     2.3360   -13.3940 
  154.2500    79.5800    25.1530    11.9010     8.5010     8.3010     2.3410   -13.3350 
  154.3750    76.3140    25.1600     9.0690     8.7580     8.4960     2.3500   -13.4030 
  154.5000    79.4300    25.1720     7.5570     8.7900     8.5040     2.3640   -13.3710 
  154.6250    82.5380    25.1720     9.5430     8.6570     8.4090     2.3670   -13.3290 
  154.7500    83.7540    25.1640    13.4640     8.4700     8.3090     2.3460   -13.2890 
  154.8750    86.5660    25.1540    13.6100     8.3130     8.2840     2.3020   -13.3270 
  155.0000    90.4830    25.1480     9.4940     8.2830     8.4540     2.2500   -13.3590 
  155.1250    90.6920    25.1540     7.6680     8.5610     9.0680     2.2090   -13.3270 
  155.2500    88.2950    25.1580     8.9800     9.2680    10.2680     2.1800   -13.4320 
  155.3750    85.7810    25.1630    10.5590    10.5730    12.1920     2.1610   -13.4460 
  155.5000    83.5770    25.1630    13.0890    12.5880    14.8440     2.1480   -13.4380 
  155.6250    79.9480    25.1170    15.4330    15.3230    18.0720     2.1410   -13.4600 
  155.7500    76.6290    25.0480    17.5340    18.3300    21.3850     2.1390   -13.4810 
  155.8750    75.8470    25.0100    19.5220    21.1760    24.3410     2.1410   -13.4930 
  156.0000    76.9130    25.0300    21.7020    23.3770    26.4500     2.1470   -13.4380 
  156.1250    78.7160    25.0490    21.2520    24.2980    27.0710     2.1650   -13.5120 
