~V
VERS. 2.00: Ver 2.00
~W
STRT.M 60.0000:
STOP.M 248.0000:
STEP.M 0.1250:
NULL. -999.2500:
UWI. DF5054:
~C
DEPT.M :
SP.MV :
GR.API :
CALI.CM :
RXO.OHMM :
RI. :
RML.OHMM :
DEN.GM/CC :
~A
# ...
  206.2500   -36.6600    68.4030    23.5610   142.2670   237.3080   267.2780     2.1120 
  206.3750   -36.2820    66.7980    23.4590   122.2290   235.9970   264.8010     2.1350 
  206.5000   -35.9140    65.8240    23.2290   112.6160   231.3070   258.5350     2.1530 
  206.6250   -35.5420    67.3050    22.9720   111.9170   224.7850   250.4860     2.1650 
  206.7500   -35.1650    69.2830    22.9020   117.0990   218.1090   242.3500     2.1760 
  206.8750   -34.7830    69.2100    23.0500   125.4250   211.7330   234.4910     2.1790 
  207.0000   -34.3990    66.4380    23.2660   135.3540   205.4150   226.6340     2.1730 
  207.1250   -34.0050    63.2370    23.3980   147.0680   198.3590   217.8910     2.1660 
  207.2500   -33.5950    62.1770    23.5160   157.6990   190.2800   207.9910     2.1680 
  207.3750   -33.1660    63.1860    23.7010   163.6330   181.2630   197.1140     2.1690 
  207.5000   -32.7180    65.2380    23.9220   165.0040   171.7360   185.8460     2.1600 
  207.6250   -32.2590    67.5590    23.9890   161.3360   162.5810   175.3520     2.1550 
  207.7500   -31.7990    69.6840    23.9090   149.7390   154.7310   166.6490     2.1780 
  207.8750   -31.3420    70.5210    23.8250   130.8210   148.8940   160.3700     2.2240 
  208.0000   -30.8840    69.1250    23.8980   116.8870   145.4150   156.5800     2.2600 
  208.1250   -30.4270    66.3090    24.0770   124.4760   144.3790   155.0280     2.2510 
  208.2500   -29.9890    64.8740    24.2380   141.6800   144.4800   154.2560     2.2150 
  208.3750   -29.5950    65.4060    24.3090   154.1780   144.5170   153.0490     2.1890 
  208.5000   -29.2600    66.1340    24.3290   158.6730   143.3820   150.3700     2.1910 
  208.6250   -28.9950    65.1260    24.3370   161.0390   139.8880   145.1690     2.2110 
  208.7500   -28.7780    63.6900    24.3450   161.6940   134.0480   137.7030     2.2250 
  208.8750   -28.6020    63.6000    24.3550   156.2170   126.1030   128.4230     2.2240 
  209.0000   -28.4690    65.0180    24.3640   143.6890   116.6500   118.0720     2.2100 
  209.1250   -28.3840    66.4530    24.3650   129.1360   106.2450   107.2710     2.1910 
  209.2500   -28.3200    67.2480    24.3540   117.0670    95.6650    96.5830     2.1800 
  209.3750   -28.2560    68.3030    24.3360   107.1800    85.5460    86.4440     2.1810 
  209.5000   -28.1720    70.1540    24.3290    97.3460    76.5030    77.3350     2.1880 
  209.6250   -28.0580    71.5340    24.3280    85.9910    69.2670    69.9700     2.1940 
  209.7500   -27.9190    71.6550    24.3250    75.4550    63.8900    64.4480     2.2050 
  209.8750   -27.7610    71.9400    24.3150    66.6630    60.5170    60.9510     2.2220 
  210.0000   -27.5790    75.1090    24.2930    59.7160    59.1040    59.4510     2.2350 
  210.1250   -27.3510    83.5390    24.2670    58.8660    59.6040    59.8740     2.2320 
  210.2500   -27.0850    91.8010    24.2660    64.8670    61.1770    61.3330     2.2140 
  210.3750   -26.7950    92.7440    24.2700    73.3500    63.1200    63.1140     2.1960 
  210.5000   -26.4880    84.7010    24.2630    79.3580    64.6540    64.4630     2.1880 
  210.6250   -26.1640    75.1880    24.2530    81.2560    64.8300    64.4850     2.1910 
  210.7500   -25.8370    71.2300    24.2220    81.3470    63.4540    63.0340     2.1940 
  210.8750   -25.5220    71.5910    24.1320    78.9690    60.6510    60.2410     2.1980 
  211.0000   -25.2340    72.6620    24.0370    73.7850    56.9260    56.5830     2.2030 
  211.1250   -25.0010    73.1790    24.0030    66.9340    53.0080    52.7660     2.2090 
  211.2500   -24.8290    74.3120    24.0370    59.9050    49.5500    49.4320     2.2090 
  211.3750   -24.7300    77.0550    24.0740    53.0150    46.8920    46.9320     2.2090 
  211.5000   -24.7120    81.0730    24.1240    47.1440    45.2040    45.4480     2.2140 
  211.6250   -24.7840    81.9240    24.0900    45.0560    44.6860    45.1940     2.2250 
  211.7500   -24.9230    77.0980    23.9840    48.5180    45.1230    45.9360     2.2330 
  211.8750   -25.1190    69.2780    23.8160    57.1250    46.4550    47.5900     2.2310 
  212.0000   -25.3630    63.7220    23.6750    66.2660    48.5960    50.0690     2.2180 
  212.1250   -25.6460    63.1790    23.6230    66.5590    51.5300    53.3680     2.2010 
  212.2500   -25.9390    64.4810    23.6090    60.4650    54.9460    57.1820     2.1860 
  212.3750   -26.2170    66.3420    23.6090    55.3900    58.6150    61.2680     2.1740 
  212.5000   -26.4690    69.0260    23.6160    56.1060    62.2380    65.3200     2.1630 
  212.6250   -26.6910    71.9440    23.6580    63.4070    65.4060    68.9400     2.1540 
  212.7500   -26.8910    73.6480    23.7330    71.6330    67.9000    71.9150     2.1480 
  212.8750   -27.0660    73.7730    23.7850    76.6130    69.5690    74.0790     2.1460 
  213.0000   -27.2150    73.2520    23.7580    77.6570    70.3840    75.3630     2.1540 
  213.1250   -27.3340    72.7920    23.6390    76.9540    70.3240    75.6780     2.1710 
  213.2500   -27.4310    71.5810    23.4940    76.1530    69.7250    75.3520     2.1890 
  213.3750   -27.5160    69.6550    23.3740    76.5310    68.8380    74.6580     2.1960 
  213.5000   -27.5990    68.8590    23.3180    78.0350    67.9820    73.9790     2.1910 
  213.6250   -27.6850    70.9210    23.3160    78.9130    67.6580    73.8930     2.1830 
  213.7500   -27.7760    73.4430    23.3350    76.7790    68.1760    74.7440     2.1830 
  213.8750   -27.8710    73.3510    23.3800    72.0270    69.7260    76.6800     2.1880 
  214.0000   -27.9760    70.0840    23.4420    68.4760    72.2520    79.5670     2.1890 
  214.1250   -28.1010    66.6030    23.5210    72.1350    75.4190    82.9430     2.1860 
  214.2500   -28.2480    65.7280    23.6310    82.6820    78.3760    85.8890     2.1910 
  214.3750   -28.4070    67.2710    23.7640    96.0100    80.3310    87.5540     2.2060 
  214.5000   -28.5600    69.2080    23.9090   106.5490    80.6510    87.2980     2.2220 
  214.6250   -28.6780    69.2870    23.9910   106.4080    78.8090    84.6330     2.2270 
  214.7500   -28.7490    68.1170    24.0290    97.2380    75.5100    80.4670     2.2260 
  214.8750   -28.7630    67.8250    24.0390    85.6030    71.5370    75.7270     2.2250 
  215.0000   -28.7140    69.4850    24.0400    77.3990    67.7290    71.3610     2.2270 
  215.1250   -28.5760    70.7650    24.0290    73.0250    64.8660    68.2060     2.2230 
  215.2500   -28.3510    69.7800    24.0130    68.7300    63.0040    66.2510     2.2140 
  215.3750   -28.0360    67.8740    24.0070    63.9950    62.0050    65.3010     2.2100 
  215.5000   -27.6440    66.6420    24.0130    61.1920    61.5520    64.9810     2.2250 
  215.6250   -27.1870    66.0710    24.0100    62.7610    61.2240    64.8030     2.2630 
  215.7500   -26.6870    66.4250    23.9570    67.0240    60.7220    64.4210     2.3050 
  215.8750   -26.1540    68.5060    23.8890    69.3570    60.0500    63.8360     2.3360 
  216.0000   -25.6000    71.1920    23.9180    66.7610    59.3970    63.2640     2.3480 
  216.1250   -25.0420    71.9060    24.0870    62.3670    59.1280    63.1320     2.3350 
  216.2500   -24.5030    72.2520    24.2480    60.3810    59.5240    63.7590     2.3060 
  216.3750   -23.9990    74.9050    24.3060    60.9820    60.8320    65.4150     2.2720 
  216.5000   -23.5410    78.3160    24.2790    64.6380    63.1690    68.1890     2.2440 
  216.6250   -23.1450    76.9520    24.2130    75.4680    66.5560    72.0670     2.2320 
  216.7500   -22.8120    72.0360    24.1820    89.5040    70.4900    76.4730     2.2280 
  216.8750   -22.5440    68.4420    24.1690    97.7630    74.5610    80.9880     2.2230 
  217.0000   -22.3430    67.9690    24.1530    96.8930    78.3770    85.1980     2.2110 
  217.1250   -22.2250    67.4420    24.1430    95.5950    81.4900    88.6270     2.1970 
  217.2500   -22.1760    65.7040    24.1890    99.3680    83.7230    91.0610     2.1960 
  217.3750   -22.1830    65.7360    24.2210   104.5360    84.8870    92.2910     2.2100 
