~V
VERS. 2.00: Ver 2.00
~W
STRT.M 64.0000:
STOP.M 271.0000:
STEP.M 0.1250:
NULL. -999.2500:
UWI. DF5037:
~C
DEPT.M :
SP.MV :
GR.API :
RML.OHMM :
RI. :
RXO.OHMM :
CALI.CM :
DEN.GM/CC :
~A
# ...
  165.2500   -22.7850    68.0080   264.0880   245.8620   121.5930    23.0080     2.2400 
  165.3750   -22.6990    65.2060   259.0410   241.2550   126.7960    23.0280     2.2420 
  165.5000   -22.6360    64.3750   254.9600   237.7820   129.2680    23.0660     2.2410 
  165.6250   -22.6030    61.1960   252.3060   235.8630   132.3370    23.1110     2.2380 
  165.7500   -22.6100    55.5640   251.9720   236.3870   137.4870    23.1220     2.2360 
  165.8750   -22.6330    52.3290   253.6820   239.1480   142.0820    23.1080     2.2340 
  166.0000   -22.6600    53.3930   256.6040   243.5020   146.5490    23.1000     2.2300 
  166.1250   -22.6690    54.7050   258.9030   247.8430   150.8130    23.1220     2.2210 
  166.2500   -22.6190    54.0220   256.8270   248.7120   155.4780    23.1650     2.2050 
  166.3750   -22.5300    51.7410   247.6330   243.1540   157.6660    23.1550     2.1870 
  166.5000   -22.4370    49.4460   229.1350   228.7390   158.3030    23.1160     2.1700 
  166.6250   -22.3610    48.4670   201.4870   204.8930   153.8210    23.1150     2.1600 
  166.7500   -22.3200    54.2830   168.0810   173.7120   144.4300    23.2130     2.1640 
  166.8750   -22.3150    62.9810   136.6170   142.4250   126.9730    23.3740     2.1820 
  167.0000   -22.3190    66.3870   112.0750   116.3770    99.1480    23.4940     2.2110 
  167.1250   -22.3410    64.6120    97.1570    98.6550    70.0140    23.5180     2.2450 
  167.2500   -22.3790    65.8040    91.8240    91.0820    57.3080    23.4530     2.2720 
  167.3750   -22.3890    70.5340    92.0160    90.5920    58.7110    23.3220     2.2850 
  167.5000   -22.3540    72.7980    94.7880    95.0260    63.8600    23.1550     2.2850 
  167.6250   -22.2480    71.6410   100.1860   102.0620    69.2270    22.9870     2.2760 
  167.7500   -22.0990    73.6750   107.1140   109.2800    73.5720    22.8570     2.2640 
  167.8750   -21.9510    76.9820   112.6640   114.9940    76.7560    22.8100     2.2550 
  168.0000   -21.8020    78.5060   116.7920   118.9010    77.2330    22.7830     2.2500 
  168.1250   -21.6780    76.5410   120.2750   121.6490    77.7750    22.7420     2.2500 
  168.2500   -21.6380    75.2350   124.4130   124.4480    80.7970    22.7790     2.2550 
  168.3750   -21.6380    75.8540   130.1850   128.4060    79.9040    22.9660     2.2630 
  168.5000   -21.6330    74.8070   138.3410   134.3090    76.5220    23.2010     2.2710 
  168.6250   -21.5970    69.5720   149.3230   142.6690    75.2790    23.3310     2.2760 
  168.7500   -21.5230    63.6850   163.1160   153.7250    78.7670    23.3650     2.2760 
  168.8750   -21.4010    58.9100   177.4450   165.7490    82.1300    23.3660     2.2710 
  169.0000   -21.2550    55.7730   189.3510   176.3620    84.5480    23.3120     2.2620 
  169.1250   -21.0820    54.7190   195.5690   182.6990    84.0800    23.2140     2.2500 
  169.2500   -20.8770    56.9520   192.7930   181.5800    77.1610    23.0620     2.2370 
  169.3750   -20.6540    59.9810   183.4510   174.5050    69.7910    22.9530     2.2270 
  169.5000   -20.4360    63.9330   170.7730   163.9090    68.1700    22.9890     2.2210 
  169.6250   -20.2440    69.5130   158.2110   152.7450    73.1920    23.1820     2.2210 
  169.7500   -20.0850    71.4630   148.5040   143.6320    80.7310    23.3290     2.2240 
  169.8750   -19.9440    67.0140   141.6420   136.9580    87.1020    23.3530     2.2270 
  170.0000   -19.8030    61.7100   136.9840   132.3070    89.8510    23.2940     2.2290 
  170.1250   -19.6630    62.9580   133.6410   128.9380    89.0000    23.2310     2.2280 
  170.2500   -19.4760    67.3970   130.7690   126.0710    86.6570    23.1940     2.2260 
  170.3750   -19.3140    65.2870   127.8430   123.1230    85.3800    23.1350     2.2250 
  170.5000   -19.2060    61.8880   125.1460   120.2580    84.7800    23.0310     2.2260 
  170.6250   -19.1600    64.9540   123.5600   118.2270    83.2940    22.9560     2.2320 
  170.7500   -19.1980    68.0240   125.0140   118.7490    80.5780    22.9430     2.2390 
  170.8750   -19.3000    64.8150   130.6590   122.9550    80.0200    23.0090     2.2440 
  171.0000   -19.4560    62.6950   141.4370   131.8090    87.3570    23.1630     2.2450 
  171.1250   -19.6470    65.2970   157.3190   145.4320   103.6350    23.2930     2.2440 
  171.2500   -19.8460    65.4740   177.1370   162.9510   119.0900    23.3790     2.2420 
  171.3750   -20.0180    60.6790   196.9950   180.8690   133.1870    23.4930     2.2410 
  171.5000   -20.1210    57.1050   213.3180   195.9200   149.1120    23.6380     2.2400 
  171.6250   -20.1330    57.5800   223.2260   205.3430   158.9200    23.7250     2.2370 
  171.7500   -20.0870    60.3320   224.8470   207.1090   155.5500    23.7550     2.2340 
  171.8750   -20.0220    64.7110   221.5770   204.0010   144.2860    23.7770     2.2340 
  172.0000   -19.9530    64.1520   216.6930   198.8700   134.4730    23.7820     2.2360 
  172.1250   -19.8870    56.9090   213.2410   194.5600   130.5310    23.7330     2.2410 
  172.2500   -19.8830    57.4330   213.6050   193.5090   134.4450    23.5970     2.2460 
  172.3750   -19.9100    67.1890   216.7840   195.1960   140.7540    23.4650     2.2490 
  172.5000   -19.9560    75.0650   220.6660   197.9570   144.6770    23.4860     2.2500 
  172.6250   -20.0190    71.6840   222.5690   199.4970   145.6520    23.5670     2.2480 
  172.7500   -20.0280    66.2810   219.4840   197.1690   147.0350    23.6230     2.2440 
  172.8750   -19.9760    68.3000   211.8440   191.0230   148.9760    23.6590     2.2400 
  173.0000   -19.8780    75.7380   201.6610   182.4950   146.1040    23.6870     2.2400 
  173.1250   -19.7370    80.7700   192.6050   174.5360   135.3580    23.7130     2.2470 
  173.2500   -19.5530    77.8790   190.6960   172.3120   127.3780    23.7240     2.2600 
  173.3750   -19.3510    73.5850   198.7230   178.6760   126.3290    23.7260     2.2770 
  173.5000   -19.1680    73.4550   216.7200   194.2020   131.1020    23.7260     2.2910 
  173.6250   -19.0020    77.4150   240.0420   215.3420   140.2700    23.7140     2.2960 
  173.7500   -18.8570    77.5190   256.6140   231.8540   150.1230    23.6760     2.2860 
  173.8750   -18.7210    70.6990   254.6240   232.7100   152.4260    23.6230     2.2660 
  174.0000   -18.5710    64.5960   228.1000   211.7310   138.4470    23.6000     2.2420 
  174.1250   -18.4020    65.8720   181.7390   171.8010   112.5780    23.5990     2.2220 
  174.2500   -18.1590    68.4250   131.6200   125.9750    86.5770    23.6770     2.2150 
  174.3750   -17.8640    67.2620    92.6040    88.7290    60.7210    23.8240     2.2210 
  174.5000   -17.5330    68.4130    67.8840    64.2140    41.1080    23.8950     2.2380 
  174.6250   -17.1980    74.9740    55.4560    51.1550    30.5480    23.8350     2.2600 
  174.7500   -16.9170    80.3670    53.5370    47.8960    29.5650    23.7890     2.2780 
  174.8750   -16.7060    84.6850    58.1380    50.7130    34.9810    23.8580     2.2870 
  175.0000   -16.5400    89.4000    67.4240    58.0910    44.4680    23.9750     2.2890 
  175.1250   -16.4090    88.4040    79.3010    68.2560    55.7740    24.0500     2.2850 
  175.2500   -16.3400    79.0790    90.2080    78.3020    65.1390    24.0670     2.2760 
  175.3750   -16.3310    72.9500    96.7110    84.9280    69.7850    24.0690     2.2660 
  175.5000   -16.3650    75.7270    96.4520    85.9930    69.8780    24.0690     2.2570 
  175.6250   -16.4010    83.6530    89.6480    81.1680    67.2370    24.0690     2.2530 
  175.7500   -16.4140    88.5830    78.0580    72.1500    61.5880    24.0650     2.2600 
  175.8750   -16.3940    87.8300    67.1550    63.1620    52.9470    24.0500     2.2820 
  176.0000   -16.3640    83.0600    60.8610    56.8520    43.3530    24.0250     2.3130 
  176.1250   -16.3500    75.9720    60.3640    54.6770    36.3260    23.9960     2.3430 
  176.2500   -16.3750    70.8610    65.5650    57.5610    40.2820    23.9490     2.3540 
  176.3750   -16.4340    71.6610    73.9620    63.6640    51.3650    23.8930     2.3410 
