~V
VERS. 2.00: Ver 2.00
~W
STRT.M 59.0000:
STOP.M 264.0000:
STEP.M 0.1250:
NULL. -999.2500:
UWI. DF5022:
~C
DEPT.M :
GR.API :
CALI.CM :
RXO.OHMM :
RI. :
RML.OHMM :
SP.MV :
DEN.GM/CC :
~A
# ...
  160.2500    51.9250    23.8990    11.3080    13.1910    13.6350   -29.2460     2.5440 
  160.3750    49.1530    23.8120    10.5550    12.8420    13.2280   -29.3940     2.5410 
  160.5000    49.9030    23.7790    10.5760    12.8550    13.2560   -29.5180     2.5420 
  160.6250    54.8350    23.7000    11.9910    13.2350    13.6950   -29.5180     2.5350 
  160.7500    59.7510    23.6050    13.0650    13.7710    14.2730   -29.6730     2.5220 
  160.8750    63.1860    23.5490    13.1730    14.2840    14.7840   -29.8790     2.5110 
  161.0000    64.6660    23.5400    12.7370    14.6500    15.1060   -29.9810     2.5090 
  161.1250    64.3020    23.5440    12.5310    14.8190    15.2270   -30.1770     2.5180 
  161.2500    63.5330    23.5440    12.5770    14.9060    15.3030   -30.3200     2.5280 
  161.3750    63.8540    23.5410    13.0720    15.0160    15.4450   -30.4080     2.5290 
  161.5000    64.3740    23.5420    13.6910    15.2020    15.6830   -30.6710     2.5150 
  161.6250    63.0530    23.6310    14.1370    15.4170    15.9370   -30.9830     2.4990 
  161.7500    60.4660    23.8760    14.6950    15.5530    16.0880   -31.0920     2.4880 
  161.8750    57.9080    24.2200    15.8780    15.5920    16.1280   -31.2270     2.4770 
  162.0000    57.5840    24.4490    16.1970    15.6530    16.2080   -31.6100     2.4560 
  162.1250    59.4020    24.3340    15.1580    16.0610    16.7610   -31.8360     2.4290 
  162.2500    61.9470    24.0210    13.9600    17.0720    18.1170   -32.0920     2.4090 
  162.3750    65.5110    23.7160    14.4180    18.8820    20.4850   -32.5310     2.3950 
  162.5000    68.8470    23.5350    18.3380    21.5510    23.8380   -32.8120     2.3730 
  162.6250    68.1330    23.4810    24.8590    24.9530    27.8080   -33.0700     2.3400 
  162.7500    63.5230    23.4720    30.0330    28.3540    31.4390   -33.5590     2.3100 
  162.8750    59.5740    23.4760    30.7460    30.9900    33.8910   -34.0170     2.2940 
  163.0000    58.8290    23.4750    28.9130    32.2660    34.6890   -34.2090     2.2890 
  163.1250    59.3050    23.4740    28.6290    31.8740    33.7790   -34.5630     2.2880 
  163.2500    60.4450    23.4890    30.7290    30.5000    32.0070   -34.9260     2.2900 
  163.3750    63.4790    23.5630    31.1110    28.6270    29.8820   -35.0960     2.2980 
  163.5000    67.8400    23.7280    27.1410    26.6650    27.7930   -35.3920     2.3100 
  163.6250    70.6320    23.9560    22.8750    25.0870    26.2470   -35.7730     2.3190 
  163.7500    70.4290    24.1510    22.4200    24.2260    25.6000   -35.9560     2.3210 
  163.8750    68.1370    24.2390    23.6460    24.3530    26.1750   -36.0850     2.3190 
  164.0000    67.0270    24.1820    24.7310    25.7120    28.2360   -36.4410     2.3180 
  164.1250    69.2090    23.9920    29.2070    28.8500    32.3200   -36.6720     2.3190 
  164.2500    70.7830    23.7930    38.1470    33.7390    38.2510   -36.8740     2.3130 
  164.3750    68.8010    23.6770    46.4470    40.4130    45.9660   -37.2560     2.2980 
  164.5000    65.7820    23.6580    51.5150    48.6940    55.2370   -37.4970     2.2800 
  164.6250    65.4210    23.6990    62.1630    58.1330    65.5380   -37.6480     2.2720 
  164.7500    64.9570    23.7590    78.1570    67.3960    75.4700   -37.9820     2.2690 
  164.8750    62.5520    23.8220    83.7900    75.2290    83.6920   -38.3480     2.2630 
  165.0000    60.3610    23.8700    75.0460    80.6460    89.1780   -38.4910     2.2560 
  165.1250    59.9470    23.8840    68.9440    82.7920    91.1030   -38.7790     2.2560 
  165.2500    60.1510    23.8630    65.8300    82.5690    90.5510   -39.1070     2.2630 
  165.3750    59.8860    23.8040    58.0890    80.9220    88.5530   -39.2470     2.2700 
  165.5000    59.2410    23.7180    49.0260    78.8080    86.0550   -39.4610     2.2690 
  165.6250    58.6140    23.6540    44.8610    76.9550    83.7130   -39.7810     2.2640 
  165.7500    58.8200    23.6300    42.3060    75.5710    81.7740   -39.9120     2.2620 
  165.8750    60.1440    23.6280    41.6430    74.6400    80.2860   -40.0250     2.2640 
  166.0000    61.2950    23.6300    39.7270    74.1050    79.2470   -40.3640     2.2650 
  166.1250    60.6410    23.6290    37.5070    74.1120    78.8440   -40.5190     2.2640 
  166.2500    59.2380    23.6300    36.8020    74.8210    79.2380   -40.6050     2.2620 
  166.3750    58.3040    23.6270    36.7950    76.5170    80.7410   -40.8550     2.2610 
  166.5000    58.7420    23.6240    34.5900    79.3750    83.5440   -41.0160     2.2620 
  166.6250    59.7560    23.6880    36.8690    83.0900    87.2310   -41.0580     2.2630 
  166.7500    61.4050    23.8970    48.4580    86.1210    90.0030   -41.2540     2.2610 
  166.8750    62.6400    24.2130    68.1180    86.9150    90.1320   -41.4510     2.2540 
  167.0000    62.2090    24.4870    85.6570    84.8160    87.0850   -41.4920     2.2470 
  167.1250    60.3590    24.5860    86.1600    80.6720    82.2390   -41.6250     2.2510 
  167.2500    59.8450    24.5920    69.3570    77.1070    78.6370   -41.6870     2.2600 
  167.3750    60.9370    24.5860    53.9810    76.0960    78.3240   -41.6360     2.2660 
  167.5000    62.1960    24.5860    65.4810    78.8190    82.2720   -41.7610     2.2640 
  167.6250    61.4730    24.5860   101.2600    85.8800    90.7770   -41.8510     2.2580 
  167.7500    60.0510    24.5860   126.5580    95.3350   101.5830   -41.8000     2.2540 
  167.8750    58.8660    24.5860   129.8460   105.2440   112.5710   -41.8550     2.2550 
  168.0000    58.6130    24.5860   125.0220   113.8100   121.9020   -41.8400     2.2580 
  168.1250    58.7210    24.5880   121.8780   120.4820   129.2370   -41.8370     2.2540 
  168.2500    58.8980    24.5960   127.0580   127.4220   137.0870   -42.0200     2.2430 
  168.3750    61.3480    24.5550   126.2890   136.9170   147.8610   -42.0150     2.2260 
  168.5000    64.7760    24.3280   100.2250   150.4570   162.9720   -41.9010     2.2090 
  168.6250    63.3080    23.8640    59.6990   168.8490   183.0680   -42.0410     2.1980 
  168.7500    59.4840    23.4900    36.6950   189.7400   205.5700   -42.0500     2.1930 
  168.8750    57.8310    23.4520    35.6150   209.8360   226.7670   -41.9130     2.1870 
  169.0000    58.3230    23.7560    53.1710   224.3340   240.9950   -42.0170     2.1810 
  169.1250    57.0030    24.1710    99.5210   225.8160   239.3760   -42.0270     2.1830 
  169.2500    54.7760    24.4650   165.6220   213.4530   221.5320   -41.8610     2.1920 
  169.3750    53.7600    24.5890   201.6260   189.1880   191.0850   -41.9240     2.2040 
  169.5000    54.0790    24.5950   178.5830   158.3680   155.6240   -41.9920     2.2150 
  169.6250    56.2880    24.5850   121.3480   128.3290   123.9970   -41.7850     2.2250 
  169.7500    58.4460    24.5860    87.1780   104.1500   100.1470   -41.7270     2.2360 
  169.8750    59.2960    24.5860    72.6730    87.6850    84.8790   -41.8610     2.2500 
  170.0000    60.2710    24.5860    65.9520    79.1030    77.6590   -41.7670     2.2600 
  170.1250    62.4410    24.5860    69.3330    78.9070    78.5820   -41.6800     2.2610 
  170.2500    63.8230    24.5870    88.7080    84.9470    85.3480   -41.8160     2.2530 
  170.3750    63.6650    24.5880   114.9600    96.0790    96.7920   -41.7770     2.2440 
  170.5000    62.7280    24.5820   139.8880   110.5190   111.2560   -41.7000     2.2420 
  170.6250    60.3520    24.5610   147.5770   125.2920   126.0360   -41.9090     2.2400 
  170.7500    58.4830    24.5380   154.4170   137.3220   138.2780   -41.9530     2.2330 
  170.8750    59.2280    24.5380   163.2770   145.1860   146.5610   -41.8410     2.2230 
  171.0000    61.9000    24.5470   174.7310   148.8640   150.7360   -41.9440     2.2180 
  171.1250    63.5490    24.4460   178.3160   148.6350   150.9260   -41.9210     2.2200 
  171.2500    63.3910    24.2250   173.7320   146.0220   148.6790   -41.7640     2.2260 
  171.3750    62.0640    24.0030   166.8020   141.9180   144.9860   -41.8170     2.2350 
