~V
VERS. 2.00: Ver 2.00
~W
STRT.M 65.0000:
STOP.M 258.0000:
STEP.M 0.1250:
NULL. -999.2500:
UWI. DF5030:
~C
DEPT.M :
SP.MV :
GR.API :
RML.OHMM :
RI. :
RXO.OHMM :
CALI.CM :
DEN.GM/CC :
~A
# ...
  188.7500   -22.0150    51.2150   167.4490   156.7250   163.4730    24.2890     2.2580 
  188.8750   -22.2460    49.8790   177.0520   167.1940   171.8680    24.2900     2.2630 
  189.0000   -22.5070    48.9060   181.6240   173.4450   189.6310    24.2980     2.2600 
  189.1250   -22.7080    45.9210   178.1740   171.8460   214.9930    24.3220     2.2500 
  189.2500   -22.8390    45.4870   164.9910   160.6620   238.5570    24.3550     2.2350 
  189.3750   -23.0030    51.0810   145.0500   140.7180   219.7020    24.3690     2.2240 
  189.5000   -23.2150    56.9400   123.8190   118.3950   149.8430    24.3380     2.2230 
  189.6250   -23.4310    58.9510   103.7630    98.2440    92.5790    24.2980     2.2310 
  189.7500   -23.5960    58.1070    88.0080    83.0400    72.5570    24.2800     2.2470 
  189.8750   -23.6650    58.4180    79.9410    74.7250    66.9910    24.2800     2.2630 
  190.0000   -23.7150    60.6580    78.0420    72.2320    66.0210    24.2800     2.2750 
  190.1250   -23.8390    61.4860    81.8370    75.3030    68.7120    24.2810     2.2840 
  190.2500   -24.0290    59.6100    90.6890    83.5440    76.9160    24.2910     2.2860 
  190.3750   -24.1930    58.6820   103.6610    96.4420    92.8700    24.3240     2.2800 
  190.5000   -24.2920    61.4960   117.4060   110.8980   110.9830    24.3700     2.2690 
  190.6250   -24.3680    63.5590   128.6810   123.7590   126.6220    24.3950     2.2550 
  190.7500   -24.4870    59.8010   134.4860   131.8020   129.7990    24.3970     2.2440 
  190.8750   -24.6700    55.0660   132.3070   131.8950   119.1410    24.3850     2.2380 
  191.0000   -24.8350    55.9990   124.7200   125.9080   108.8440    24.3780     2.2360 
  191.1250   -24.9310    60.3220   114.4520   116.2340   102.9640    24.3730     2.2380 
  191.2500   -25.0060    61.8660   103.9780   105.3780    95.8290    24.3540     2.2420 
  191.3750   -25.1940    62.3930    95.0610    95.2810    85.5840    24.3370     2.2480 
  191.5000   -25.4730    66.1190    88.0780    86.7070    77.0010    24.3140     2.2570 
  191.6250   -25.7570    71.1530    83.3650    80.1600    70.2430    24.2920     2.2660 
  191.7500   -26.0130    71.4180    81.6210    76.3670    65.0780    24.2770     2.2760 
  191.8750   -26.2970    63.8050    85.7650    77.6860    63.2470    24.2370     2.2820 
  192.0000   -26.6450    58.1240    97.5890    86.7150    66.2340    24.1180     2.2820 
  192.1250   -27.0750    58.6460   122.1060   108.5910    81.9400    23.9390     2.2740 
  192.2500   -27.5080    58.9650   163.7700   149.5860   118.9180    23.8060     2.2570 
  192.3750   -27.7920    51.0950   232.8100   218.0130   173.4690    23.7420     2.2330 
  192.5000   -27.9170    41.4640   320.8640   306.2990   235.4940    23.6850     2.2100 
  192.6250   -27.9510    38.3560   417.3210   401.7840   284.6590    23.6530     2.1920 
  192.7500   -27.9110    42.3050   509.4820   485.7810   296.0320    23.6770     2.1810 
  192.8750   -27.7190    48.1060   566.8920   535.1470   303.2750    23.7510     2.1800 
  193.0000   -27.3590    52.4680   586.3910   551.4830   323.3820    23.8190     2.1820 
  193.1250   -26.7750    52.2900   576.9310   543.3250   349.0910    23.8110     2.1840 
  193.2500   -26.0130    48.0360   546.8900   517.8340   368.2140    23.6960     2.1840 
  193.3750   -25.1770    44.3170   494.4910   473.0820   371.5160    23.4920     2.1840 
  193.5000   -24.3130    44.7760   425.3330   412.5700   342.8700    23.3230     2.1860 
  193.6250   -23.3990    47.6600   348.8240   343.0810   291.4480    23.2610     2.1930 
  193.7500   -22.3690    47.8040   277.7400   275.4910   230.5060    23.2590     2.2050 
  193.8750   -21.2170    45.7420   224.2060   221.8500   179.0200    23.2750     2.2190 
  194.0000   -20.0560    46.4680   187.2220   183.5560   142.0520    23.2980     2.2310 
  194.1250   -19.0050    50.0490   163.7480   158.8090   122.2090    23.3100     2.2380 
  194.2500   -18.0790    53.0450   149.7010   143.9830   115.6570    23.3120     2.2430 
  194.3750   -17.2000    53.9060   141.6650   135.6640   118.5720    23.3050     2.2490 
  194.5000   -16.3630    55.5040   135.6500   129.5380   122.8030    23.2850     2.2570 
  194.6250   -15.5910    57.5210   130.1870   123.9580   123.7690    23.2640     2.2680 
  194.7500   -14.9600    57.1030   124.8430   118.3830   118.8590    23.2520     2.2790 
  194.8750   -14.5200    55.5890   119.8650   113.0160   110.6340    23.2390     2.2880 
  195.0000   -14.1660    55.4520   115.3560   108.0690    98.7360    23.2260     2.2940 
  195.1250   -13.7980    56.7820   111.2330   103.5390    88.6610    23.2440     2.2950 
  195.2500   -13.3730    56.9500   107.5380    99.4690    88.8100    23.3210     2.2920 
  195.3750   -12.9550    57.3040   105.1380    96.6060   101.1590    23.5250     2.2830 
  195.5000   -12.5950    60.7720   105.0710    95.8800   127.6880    23.7950     2.2710 
  195.6250   -12.2890    65.1840   108.2410    98.1930   157.3220    24.0250     2.2570 
  195.7500   -11.9810    66.3600   114.7510   103.7840   179.7600    24.1460     2.2450 
  195.8750   -11.5860    60.6740   123.7880   112.1290   191.7040    24.2180     2.2340 
  196.0000   -11.1180    51.4960   132.8640   120.9330   184.5540    24.2720     2.2260 
  196.1250   -10.6350    45.5140   139.7610   128.1050   167.1830    24.3410     2.2210 
  196.2500   -10.1930    46.6390   142.2790   131.6100   147.1470    24.4300     2.2220 
  196.3750    -9.7440    51.6630   137.5740   128.5840   130.5150    24.4170     2.2410 
  196.5000    -9.1950    54.5710   125.2090   118.4370   123.8210    24.2500     2.2870 
  196.6250    -8.5310    53.1800   105.1230   100.6580   127.5820    24.0240     2.3600 
  196.7500    -7.8430    48.9950    79.1450    76.8230   127.8930    23.8810     2.4490 
  196.8750    -7.2190    46.0240    53.8460    52.0760   110.8440    23.8480     2.5240 
  197.0000    -6.6440    47.5210    34.3280    32.2340    77.8160    23.8610     2.5570 
  197.1250    -6.0780    52.1030    20.9800    19.0560    38.7780    23.9570     2.5420 
  197.2500    -5.5050    54.4710    12.7950    11.4770    15.0460    24.1330     2.4980 
  197.3750    -5.0060    53.5530     8.9420     7.9090     7.8900    24.1790     2.4580 
  197.5000    -4.6390    53.2020     7.0470     6.1550     6.2360    23.9940     2.4450 
  197.6250    -4.3990    53.6840     6.2590     5.4260     5.8260    23.7780     2.4570 
  197.7500    -4.1870    54.0300     6.1040     5.2830     5.5150    23.7080     2.4820 
  197.8750    -3.9630    53.5060     6.3060     5.4670     5.4000    23.7260     2.4930 
  198.0000    -3.7720    52.3760     6.5890     5.7260     5.3860    23.6810     2.4840 
  198.1250    -3.6450    49.2690     6.8460     5.9600     5.3880    23.5440     2.4600 
  198.2500    -3.5830    46.6970     7.0090     6.1230     5.3900    23.3660     2.4360 
  198.3750    -3.5510    47.1360     7.0440     6.1850     5.4440    23.3100     2.4250 
  198.5000    -3.4970    48.2610     6.9540     6.1630     5.4950    23.3370     2.4250 
  198.6250    -3.4160    45.9580     6.7780     6.0760     5.5150    23.3910     2.4290 
  198.7500    -3.3810    41.6370     6.6010     5.9510     5.5540    23.4220     2.4300 
  198.8750    -3.4420    40.7100     6.4930     5.8360     5.6140    23.4310     2.4240 
  199.0000    -3.5920    41.6230     6.4880     5.7730     5.7870    23.4330     2.4140 
  199.1250    -3.7830    40.6720     6.5840     5.7870     6.0970    23.4320     2.4050 
  199.2500    -3.9670    38.3900     6.7490     5.8800     6.4960    23.4240     2.3970 
  199.3750    -4.1410    44.1290     6.9110     6.0330     6.8530    23.3820     2.3940 
  199.5000    -4.3730    57.3510     7.0910     6.1990     7.1220    23.3110     2.3990 
  199.6250    -4.6920    72.3810     7.2680     6.3540     7.3220    23.2620     2.4130 
  199.7500    -5.0410    86.9570     7.4400     6.4930     7.5390    23.2680     2.4310 
  199.8750    -5.3600   101.0380     7.6460     6.6450     7.7920    23.4060     2.4420 
