~V
VERS. 2.00: Ver 2.00
~W
STRT.M 50.0000:
STOP.M 245.0000:
STEP.M 0.1250:
NULL. -999.2500:
UWI. DF5062:
~C
DEPT.M :
DEN.GM/CC :
GR.API :
RML.OHMM :
RI. :
RXO.OHMM :
CALI.CM :
SP.MV :
~A
# ...
   95.0000     2.1820    70.8350    10.5460     8.0460     9.4530    22.7240   -40.5490 
   95.1250     2.1710    66.7090    10.5210     8.0110     9.3620    22.6500   -40.2950 
   95.2500     2.1670    64.4820    10.4910     7.9740     9.3060    22.5510   -40.0330 
   95.3750     2.1700    65.0710    10.4340     7.9280     9.2250    22.4850   -39.8070 
   95.5000     2.1790    65.3550    10.3260     7.8640     9.1620    22.4530   -39.5510 
   95.6250     2.1900    65.4680    10.1500     7.7750     9.1140    22.4470   -39.2710 
   95.7500     2.1980    66.4680     9.9500     7.6810     9.0520    22.4450   -38.9650 
   95.8750     2.2020    67.0270     9.7840     7.6140     9.0430    22.4450   -38.6400 
   96.0000     2.2030    65.6140     9.7240     7.6100     9.0440    22.4420   -38.3210 
   96.1250     2.2030    65.0380     9.8560     7.7190     9.0250    22.4210   -37.9380 
   96.2500     2.2020    67.4930    10.1410     7.9240     9.0940    22.3880   -37.4940 
   96.3750     2.2020    70.0450    10.4820     8.1780     9.2830    22.3750   -37.1500 
   96.5000     2.2030    70.5100    10.7270     8.3940     9.5260    22.4030   -36.7610 
   96.6250     2.2040    69.8760    10.6540     8.4230     9.6820    22.4400   -36.3040 
   96.7500     2.2070    70.2140    10.2220     8.2040     9.7170    22.4970   -35.8700 
   96.8750     2.2150    70.9310     9.4860     7.7490     9.5390    22.6290   -35.2900 
   97.0000     2.2310    72.5650     8.6120     7.1520     9.0110    22.8670   -34.7010 
   97.1250     2.2540    77.9110     7.8480     6.5800     7.9390    23.2720   -34.2040 
   97.2500     2.2780    83.9390     7.3530     6.1630     6.7840    23.6750   -33.5940 
   97.3750     2.2990    85.7060     7.1710     5.9510     6.1780    23.8870   -32.9920 
   97.5000     2.3160    82.4880     7.2510     5.9270     6.2310    23.8770   -32.5530 
   97.6250     2.3290    79.6350     7.4630     6.0140     6.4970    23.7870   -32.0950 
   97.7500     2.3400    78.8770     7.6140     6.0800     6.6040    23.7200   -31.7570 
   97.8750     2.3440    79.6190     7.6030     6.0400     6.4990    23.6470   -31.5540 
   98.0000     2.3350    81.7420     7.4160     5.8710     6.3590    23.7080   -31.3900 
   98.1250     2.3060    82.4560     7.1400     5.6200     6.0880    24.2070   -31.3090 
   98.2500     2.2600    80.7210     6.9260     5.4050     5.7250    24.9330   -31.3600 
   98.3750     2.2060    79.5790     6.8550     5.3040     5.7520    25.4210   -31.5180 
   98.5000     2.1600    80.8830     6.9620     5.3610     6.2160    25.5230   -31.7080 
   98.6250     2.1410    81.8220     7.3060     5.6470     7.2390    24.7990   -32.0620 
   98.7500     2.1540    80.3900     7.9010     6.1690     8.6640    23.7410   -32.3850 
   98.8750     2.1950    78.4400     8.7830     6.9450     9.4220    23.2710   -32.8690 
   99.0000     2.2500    77.6510     9.9140     7.9380     9.4240    23.5290   -33.3770 
   99.1250     2.2960    76.4980    11.1060     9.0080    10.0740    23.9980   -33.8850 
   99.2500     2.3160    72.4460    12.0240     9.8960    12.2930    24.1570   -34.5210 
   99.3750     2.3040    66.9290    12.3950    10.3800    16.4090    23.7690   -35.0480 
   99.5000     2.2680    63.4350    12.1290    10.3470    17.0360    23.1040   -35.5960 
   99.6250     2.2220    63.8210    11.3760     9.8390    12.8770    22.7100   -36.0660 
   99.7500     2.1850    63.5390    10.6040     9.2030    10.0580    22.5790   -36.5660 
   99.8750     2.1610    62.9650    10.0880     8.6720     9.4430    22.5420   -37.0500 
  100.0000     2.1520    65.4360     9.9250     8.3690     9.5800    22.4930   -37.4140 
  100.1250     2.1520    70.0150    10.0830     8.3270     9.7680    22.4570   -37.7610 
  100.2500     2.1550    71.3230    10.3560     8.4220     9.8740    22.4200   -38.0430 
  100.3750     2.1570    69.9360    10.6180     8.5660     9.8610    22.3860   -38.2120 
  100.5000     2.1580    70.7130    10.7940     8.7010     9.8940    22.3710   -38.3210 
  100.6250     2.1590    72.8830    10.8290     8.7770     9.9890    22.3730   -38.3790 
  100.7500     2.1610    70.7890    10.7420     8.7810    10.0630    22.3760   -38.2990 
  100.8750     2.1650    66.0090    10.5460     8.6980    10.0490    22.3770   -38.1210 
  101.0000     2.1700    65.2810    10.2760     8.5310     9.9390    22.3850   -37.9390 
  101.1250     2.1760    69.9780    10.0070     8.3110     9.7600    22.4180   -37.7440 
  101.2500     2.1830    72.9940     9.8680     8.1410     9.5890    22.4980   -37.4330 
  101.3750     2.1920    71.6890     9.9840     8.1330     9.6380    22.6320   -37.1470 
  101.5000     2.2050    68.4930    10.4250     8.3710    10.3040    22.8050   -36.8650 
  101.6250     2.2260    67.1280    11.1670     8.8840    12.2440    23.0910   -36.5370 
  101.7500     2.2500    68.2180    11.9430     9.4910    15.3730    23.4680   -36.3220 
  101.8750     2.2680    70.0390    12.4920     9.9910    20.4710    23.7830   -36.0670 
  102.0000     2.2730    71.1290    12.6060    10.1900    26.7750    23.8050   -35.9100 
  102.1250     2.2540    69.6030    12.1760     9.9430    21.7450    23.3220   -35.7940 
  102.2500     2.2220    67.5850    11.4830     9.4250    13.1490    22.7120   -35.7300 
  102.3750     2.1860    66.0710    10.8000     8.8370     9.5090    22.3620   -35.7940 
  102.5000     2.1580    63.5000    10.3390     8.3640     8.7830    22.2540   -35.8120 
  102.6250     2.1440    60.7400    10.2220     8.1410     8.9650    22.2410   -35.9590 
  102.7500     2.1400    60.8460    10.3230     8.1190     9.2470    22.2340   -36.0470 
  102.8750     2.1420    64.2610    10.5030     8.2150     9.4620    22.2100   -36.1480 
  103.0000     2.1440    68.3460    10.6250     8.3300     9.5740    22.1550   -36.2730 
  103.1250     2.1440    69.9420    10.5800     8.3610     9.3900    22.1440   -36.3200 
  103.2500     2.1390    71.2640    10.3940     8.2850     9.0770    22.1860   -36.4010 
  103.3750     2.1330    73.6760    10.1310     8.1240     8.6720    22.2410   -36.4560 
  103.5000     2.1270    76.2840     9.8790     7.9300     8.3120    22.2460   -36.4590 
  103.6250     2.1270    76.0730     9.7450     7.7930     8.1680    22.2270   -36.4300 
  103.7500     2.1330    73.4480     9.7530     7.7790     8.4120    22.2490   -36.5110 
  103.8750     2.1430    72.2050     9.8810     7.9340     8.9590    22.3040   -36.5320 
  104.0000     2.1540    73.3380    10.0710     8.2680     9.4750    22.3440   -36.5050 
  104.1250     2.1620    73.7070    10.2450     8.7400     9.6850    22.3580   -36.4780 
  104.2500     2.1670    71.0690    10.3590     9.1720     9.6550    22.3630   -36.3950 
  104.3750     2.1700    68.1330    10.4150     9.4100     9.4080    22.3570   -36.2790 
  104.5000     2.1700    67.6480    10.4250     9.3630     9.0160    22.3260   -36.1360 
  104.6250     2.1670    69.4700    10.3710     9.0390     8.7130    22.2830   -35.9420 
  104.7500     2.1660    71.1030    10.2140     8.6120     8.5020    22.2910   -35.5830 
  104.8750     2.1680    71.5070     9.9000     8.1610     8.2470    22.3280   -35.3210 
  105.0000     2.1780    71.5070     9.4030     7.6910     7.9280    22.3750   -35.0220 
  105.1250     2.1920    72.1510     8.7550     7.1810     7.5690    22.4360   -34.7000 
  105.2500     2.2070    75.3860     8.1240     6.6820     7.2220    22.5450   -34.4240 
  105.3750     2.2140    80.2150     7.6830     6.3050     6.9200    22.8120   -34.0500 
  105.5000     2.2120    82.5720     7.5830     6.1620     6.6250    23.2000   -33.7800 
  105.6250     2.2040    81.4480     7.9660     6.3770     6.4250    23.3360   -33.5050 
  105.7500     2.1980    78.7090     8.6680     6.8700     6.7280    23.1190   -33.3370 
  105.8750     2.2050    74.6430     9.4570     7.5050     7.3900    22.8870   -33.1790 
  106.0000     2.2240    69.6330    10.0310     8.0680     7.8160    22.7820   -32.9160 
  106.1250     2.2490    68.1640    10.0290     8.2600     7.8690    22.7220   -32.6580 
