~V
VERS. 2.00: Ver 2.00
~W
STRT.M 58.0000:
STOP.M 261.0000:
STEP.M 0.1250:
NULL. -999.2500:
UWI. DF5035:
~C
DEPT.M :
DEN.GM/CC :
GR.API :
CALI.CM :
RXO.OHMM :
RI. :
RML.OHMM :
SP.MV :
~A
# ...
  215.5000     2.1360    66.8430    25.5830    63.8940    67.3880    73.0090   -42.8890 
  215.6250     2.1510    68.2540    25.6120    62.2480    67.4340    72.7710   -42.8810 
  215.7500     2.1620    71.0970    25.7070    60.0740    66.3200    71.4820   -42.8680 
  215.8750     2.1660    71.5030    25.8360    57.1830    64.7790    69.9670   -42.7350 
  216.0000     2.1660    68.5580    25.9330    53.2180    63.3840    68.7870   -42.7310 
  216.1250     2.1650    66.3120    25.9430    52.0330    62.4030    68.1540   -42.6710 
  216.2500     2.1670    67.9490    25.8930    54.1880    61.6830    67.7790   -42.5410 
  216.3750     2.1690    71.2280    25.8190    56.3500    61.0310    67.3750   -42.4530 
  216.5000     2.1710    72.6570    25.7530    55.6400    60.3500    66.8100   -42.4070 
  216.6250     2.1730    71.9970    25.7230    52.0730    59.8380    66.3080   -42.3740 
  216.7500     2.1750    71.1550    25.7150    50.8420    59.8860    66.3470   -42.3310 
  216.8750     2.1770    72.1000    25.7140    51.7540    60.9240    67.3950   -42.2840 
  217.0000     2.1720    74.1170    25.7150    54.5340    63.2740    69.8050   -42.2790 
  217.1250     2.1550    74.6280    25.7160    57.7590    67.3300    74.1010   -42.3400 
  217.2500     2.1410    73.6170    25.7120    60.8970    72.9100    80.1120   -42.2730 
  217.3750     2.1460    72.0220    25.7210    65.4280    79.6640    87.1950   -42.3430 
  217.5000     2.1770    70.5790    25.7780    76.0130    85.4150    92.4530   -42.4740 
  217.6250     2.2410    70.6210    25.8460    79.1300    82.8130    87.5680   -42.3510 
  217.7500     2.3270    70.6600    25.7790    72.8980    68.4270    70.2070   -42.3830 
  217.8750     2.4090    69.6340    25.5400    64.4240    47.1940    46.8230   -42.5430 
  218.0000     2.4510    68.6490    25.2380    50.5050    28.1080    26.8200   -42.5170 
  218.1250     2.4310    69.4090    25.0020    24.2500    16.5090    15.2360   -42.6330 
  218.2500     2.3860    70.4060    24.7880     7.8590    10.1230     9.2090   -42.9350 
  218.3750     2.3440    71.3690    24.4830     4.0000     6.9140     6.4470   -43.1000 
  218.5000     2.3190    73.9540    24.0470     4.2860     5.4280     5.3930   -43.3280 
  218.6250     2.3220    76.9790    23.6160     4.6240     5.0240     5.3410   -43.7540 
  218.7500     2.3410    79.7790    23.4110     4.7470     5.2080     5.7740   -44.0570 
  218.8750     2.3670    84.4550    23.4750     5.0940     5.7690     6.4590   -44.3560 
  219.0000     2.3880    89.9760    23.6560     5.6260     6.4760     7.1510   -44.8110 
  219.1250     2.3990    92.1000    23.7720     5.6790     7.0800     7.6080   -45.0870 
  219.2500     2.4020    93.4700    23.8090     5.5940     7.4820     7.8230   -45.3440 
  219.3750     2.4020    98.5150    23.8160     5.5690     7.6860     7.8650   -45.6840 
  219.5000     2.4000   107.8590    23.8420     5.7150     7.7450     7.8160   -45.8230 
  219.6250     2.3920   118.8860    23.9410     6.0230     7.7150     7.7480   -45.9680 
  219.7500     2.3800   127.4960    24.0970     6.4950     7.6500     7.7050   -46.1920 
  219.8750     2.3680   130.4590    24.2700     6.7840     7.5590     7.6950   -46.2330 
  220.0000     2.3590   127.6330    24.4130     6.8240     7.4500     7.7130   -46.2440 
  220.1250     2.3550   122.9030    24.4810     6.9760     7.3400     7.7530   -46.3020 
  220.2500     2.3570   121.1850    24.4640     7.0410     7.2480     7.8010   -46.1980 
  220.3750     2.3630   121.5060    24.3850     7.0140     7.1760     7.8390   -46.1500 
  220.5000     2.3680   121.6110    24.3630     6.9710     7.1110     7.8430   -46.2080 
  220.6250     2.3620   120.5440    24.5980     6.9340     7.0220     7.7780   -46.0670 
  220.7500     2.3470   119.6980    25.0150     6.8690     6.8960     7.6590   -45.9390 
  220.8750     2.3280   117.7510    25.4060     6.7100     6.7530     7.5220   -45.9710 
  221.0000     2.3130   113.1220    25.6140     6.5370     6.6380     7.4180   -45.8480 
  221.1250     2.3070   107.6800    25.6370     6.4500     6.6130     7.4010   -45.7650 
  221.2500     2.3060   105.7900    25.5790     6.5400     6.6840     7.4620   -45.7350 
  221.3750     2.3070   108.7220    25.4680     6.8400     6.8360     7.5810   -45.4850 
  221.5000     2.3080   113.5760    25.3490     7.3950     7.0480     7.7510   -45.2320 
  221.6250     2.3030   116.5170    25.2830     7.6310     7.3200     7.9960   -45.0040 
  221.7500     2.2910   115.9400    25.1890     7.5180     7.6490     8.3200   -44.5880 
  221.8750     2.2770   113.3070    24.9610     7.4500     8.0200     8.6960   -44.0890 
  222.0000     2.2680   111.4230    24.6400     7.9100     8.3860     9.0510   -43.6700 
  222.1250     2.2760   109.8270    24.4080     9.3420     8.6280     9.2460   -43.0580 
  222.2500     2.2950   108.8200    24.3230    10.1970     8.6690     9.2250   -42.4900 
  222.3750     2.3130   108.7700    24.2820     9.0510     8.4840     9.0070   -42.0350 
  222.5000     2.3200   111.3810    24.1210     6.9670     8.1310     8.6870   -41.4800 
  222.6250     2.3130   115.6990    23.7890     6.6130     7.7180     8.3940   -41.0800 
  222.7500     2.3070   117.8980    23.4900     6.8650     7.3440     8.1830   -40.9310 
  222.8750     2.3100   118.7320    23.4490     7.1800     7.0350     8.0430   -40.7400 
  223.0000     2.3190   117.9550    23.7820     7.1470     6.8000     7.9810   -40.6320 
  223.1250     2.3230   114.8020    24.3560     7.1970     6.7330     8.1830   -40.7570 
  223.2500     2.3120   110.4050    24.8170     7.7110     6.9940     9.0070   -40.8360 
  223.3750     2.2860   105.0040    25.0130     8.1450     7.9130    11.1240   -41.0480 
  223.5000     2.2530    99.3630    25.0150     9.1690    10.1470    15.5650   -41.4560 
  223.6250     2.2230    92.3800    24.9940    26.1110    15.7170    24.6240   -41.7590 
  223.7500     2.1990    84.2860    24.9970    58.8880    26.6900    39.7090   -41.9800 
  223.8750     2.1800    75.3100    24.9900    91.9400    45.5580    62.5650   -42.4030 
  224.0000     2.1650    67.7120    24.9530   113.5060    72.6680    93.0670   -42.8280 
  224.1250     2.1590    64.4400    24.8900   122.5690   101.3290   124.0570   -43.1510 
  224.2500     2.1630    63.6160    24.8760   133.8310   120.3190   143.0620   -43.6060 
  224.3750     2.1730    63.9400    24.9830   141.7620   126.6880   147.0360   -43.9280 
  224.5000     2.1850    64.7820    25.2050   138.6430   124.8770   142.7180   -44.1090 
  224.6250     2.1960    65.0970    25.4260   124.8880   120.2780   137.2040   -44.4310 
  224.7500     2.2050    64.3050    25.5460   120.1590   115.8990   132.7590   -44.7950 
  224.8750     2.2140    63.9090    25.5790   112.4690   112.1290   129.0250   -44.9360 
  225.0000     2.2190    64.3810    25.5860   104.9310   108.7250   125.2750   -45.0550 
  225.1250     2.2160    64.2840    25.6070   103.6990   105.1940   120.8130   -45.3150 
  225.2500     2.2120    62.5540    25.6280    98.1340   101.4030   115.8660   -45.3960 
  225.3750     2.2130    59.5910    25.6380    86.3270    97.7690   111.2000   -45.5360 
  225.5000     2.2220    58.9720    25.6250    76.0280    94.9980   107.7410   -45.7680 
  225.6250     2.2350    62.2770    25.4880    71.9440    93.9580   106.4520   -45.7760 
  225.7500     2.2420    65.3180    25.2340    71.2580    94.5240   107.0460   -45.7350 
  225.8750     2.2380    65.6840    25.0200    74.9080    96.3870   109.0810   -45.9130 
  226.0000     2.2260    64.8640    24.9690    78.6860    98.9680   111.8350   -46.0000 
  226.1250     2.2160    64.5440    25.0040    80.3380   101.4750   114.3720   -46.0240 
  226.2500     2.2120    63.5510    24.9190    78.5300   103.3690   116.1320   -46.1400 
  226.3750     2.2120    61.4850    24.6920    73.3180   104.6310   117.1560   -46.1460 
  226.5000     2.2120    59.8970    24.4440    67.6530   105.6610   117.9340   -46.1650 
  226.6250     2.2120    60.4160    24.3460    63.9680   107.2700   119.3680   -46.2350 
