~V
VERS. 2.00: Ver 2.00
~W
STRT.M 61.0000:
STOP.M 236.0000:
STEP.M 0.1250:
NULL. -999.2500:
UWI. DF5057:
~C
DEPT.M :
GR.API :
RML.OHMM :
RI. :
RXO.OHMM :
CALI.CM :
DEN.GM/CC :
SP.MV :
~A
# ...
  162.2500    69.7740    95.4680    92.9550    99.2330    25.4200     2.2230   -13.1210 
  162.3750    70.8410   102.0850    99.7510   101.2650    25.4600     2.2210   -13.2870 
  162.5000    72.3220   105.2820   103.3360   100.3100    25.5180     2.2200   -13.4590 
  162.6250    72.9420   104.5390   102.9670    96.1020    25.5610     2.2210   -13.5020 
  162.7500    74.4320   101.7880   100.3660    93.3490    25.5690     2.2230   -13.4760 
  162.8750    77.0150    98.4480    96.9050    93.2140    25.5870     2.2270   -13.4200 
  163.0000    76.9930    95.6790    93.7890    88.2870    25.5680     2.2310   -13.3210 
  163.1250    72.2300    94.7110    92.3150    77.9780    25.5600     2.2300   -13.1820 
  163.2500    68.7660    95.7690    92.8590    79.2230    25.5290     2.2260   -13.0090 
  163.3750    69.3780    98.7290    95.4120    88.3820    25.5530     2.2190   -12.7580 
  163.5000    71.9680   103.0180    99.4990    97.7750    25.6250     2.2120   -12.4730 
  163.6250    73.0760   107.5620   104.1890   103.8990    25.7000     2.2100   -12.1530 
  163.7500    72.2040   111.0530   108.1560   109.7510    25.7270     2.2120   -11.8430 
  163.8750    71.0390   112.7030   110.5530   112.8760    25.7440     2.2170   -11.6460 
  164.0000    72.6340   112.3650   111.1060   113.4390    25.7440     2.2190   -11.5050 
  164.1250    77.4960   110.3300   109.9530   111.8630    25.7470     2.2190   -11.3820 
  164.2500    79.7650   107.6080   108.0040   107.1000    25.7260     2.2160   -11.2990 
  164.3750    76.6700   104.7890   105.8040   103.8280    25.7080     2.2120   -11.2760 
  164.5000    71.2250   102.2990   103.7720   102.0990    25.6840     2.2070   -11.3160 
  164.6250    69.7710   100.5430   102.3230   100.0130    25.6360     2.2050   -11.4370 
  164.7500    70.9990    99.5860   101.5880    97.9730    25.5920     2.2050   -11.6030 
  164.8750    71.8610    99.4620   101.6260    96.1520    25.5730     2.2100   -11.7090 
  165.0000    72.5900   100.0920   102.3710    94.6160    25.5720     2.2190   -11.7920 
  165.1250    73.8600   101.3710   103.7020    95.4400    25.5920     2.2300   -11.9520 
  165.2500    73.4400   102.9410   105.2630    99.9490    25.6240     2.2370   -12.0670 
  165.3750    70.3190   104.5650   106.8060   105.3780    25.6590     2.2360   -12.1430 
  165.5000    66.1670   106.1040   108.1660   105.4660    25.6750     2.2290   -12.2670 
  165.6250    65.7570   107.7840   109.4580   102.4200    25.6580     2.2170   -12.4150 
  165.7500    68.8150   110.2890   111.3020   103.9930    25.6360     2.2070   -12.5650 
  165.8750    71.4420   114.6080   114.6240   107.6680    25.6020     2.2040   -12.7760 
  166.0000    71.8350   121.8560   120.5180   108.2310    25.5370     2.2050   -12.9550 
  166.1250    71.2750   133.7340   130.6550   107.1400    25.3550     2.2090   -13.0630 
  166.2500    71.0410   149.9220   144.8220   115.5440    25.1090     2.2110   -13.2610 
  166.3750    69.2570   169.6160   162.3190   142.0040    24.9940     2.2090   -13.4460 
  166.5000    66.3370   190.6690   181.2460   166.6940    25.1330     2.2050   -13.5220 
  166.6250    66.0860   208.8290   197.9610   184.4420    25.3330     2.2000   -13.6250 
  166.7500    67.5450   221.1300   209.8260   194.6180    25.4540     2.1980   -13.6930 
  166.8750    68.3630   227.0570   216.2270   198.9740    25.4870     2.1990   -13.6290 
  167.0000    68.5030   228.4970   218.5700   217.1880    25.4750     2.2010   -13.5730 
  167.1250    67.9690   227.9360   218.9840   223.7490    25.4590     2.2040   -13.5570 
  167.2500    66.3960   226.6170   218.8840   215.5590    25.4520     2.2070   -13.4410 
  167.3750    64.4980   222.6260   216.9380   203.1490    25.4540     2.2090   -13.2390 
  167.5000    64.0490   211.5470   209.4180   198.3770    25.4560     2.2090   -13.0230 
  167.6250    64.6770   186.9120   189.8220   192.9210    25.4430     2.2090   -12.7710 
  167.7500    64.3270   152.6690   159.7530   174.9950    25.4020     2.2100   -12.4760 
  167.8750    64.6890   116.7280   125.3070   124.5700    25.3460     2.2140   -12.1900 
  168.0000    67.8880    86.7470    94.3870    67.5140    25.2960     2.2220   -11.9120 
  168.1250    71.4470    67.6900    73.5120    38.4320    25.2940     2.2360   -11.5660 
  168.2500    74.7340    57.3150    61.6280    29.4210    25.2940     2.2540   -11.2940 
  168.3750    78.2540    53.8200    57.0820    28.4130    25.2920     2.2690   -11.1800 
  168.5000    78.3620    55.2800    57.8750    34.3150    25.2730     2.2750   -11.1160 
  168.6250    71.3400    59.5960    61.9100    53.7330    25.2370     2.2720   -11.0590 
  168.7500    65.5020    63.4680    65.7770    75.5470    25.2320     2.2700   -11.0470 
  168.8750    66.7270    64.9400    67.3820    76.6100    25.2350     2.2790   -11.0740 
  169.0000    70.4790    63.8380    66.3460    58.3210    25.2100     2.3010   -11.1270 
  169.1250    68.8330    62.0550    64.2810    45.2470    25.1510     2.3240   -11.2230 
  169.2500    64.4620    62.1640    63.7180    43.6420    25.1180     2.3320   -11.2740 
  169.3750    61.5880    65.5000    66.0930    50.8130    25.0910     2.3210   -11.2680 
  169.5000    61.8080    72.2670    71.7690    65.0590    25.0100     2.2940   -11.2710 
  169.6250    66.4430    81.6320    80.0220    75.8950    24.9400     2.2640   -11.2610 
  169.7500    71.4380    90.7740    88.1380    81.3350    24.9150     2.2390   -11.2560 
  169.8750    72.3640    97.1090    93.6900    87.3970    24.9040     2.2220   -11.2910 
  170.0000    68.6980    99.0010    95.1450    89.6900    24.8650     2.2130   -11.2940 
  170.1250    66.2830    96.3480    92.3190    86.6470    24.7690     2.2140   -11.2620 
  170.2500    67.6070    91.7920    87.6240    83.3470    24.7290     2.2220   -11.2560 
  170.3750    69.0120    86.7860    82.4630    81.1700    24.8360     2.2340   -11.2680 
  170.5000    68.7180    82.2060    77.7090    73.8900    24.9870     2.2450   -11.2530 
  170.6250    68.2910    78.8750    74.1760    68.6710    25.0730     2.2520   -11.1600 
  170.7500    68.3570    76.7950    71.9260    66.0440    25.0740     2.2610   -11.0760 
  170.8750    67.2090    75.4770    70.5860    62.9070    25.0740     2.2760   -10.9570 
  171.0000    64.6610    73.8900    69.2470    62.6090    25.1150     2.2970   -10.7490 
  171.1250    63.6450    70.5820    66.5550    73.0940    25.0970     2.3130   -10.5380 
  171.2500    64.1250    65.5550    62.3070    74.6520    25.0450     2.3130   -10.2830 
  171.3750    65.2250    59.5440    57.0040    67.7920    25.0850     2.2970    -9.9720 
  171.5000    65.7260    53.3010    51.2160    54.7330    25.1420     2.2860    -9.6550 
  171.6250    64.3130    47.0170    44.9970    41.7350    25.0260     2.3150    -9.3590 
  171.7500    62.2620    40.4910    38.2760    33.1420    24.8370     2.3870    -8.9940 
  171.8750    61.4680    33.7100    31.2350    29.9080    24.7170     2.4820    -8.6160 
  172.0000    61.7420    24.9860    24.5060    22.9350    24.7400     2.5660    -8.2980 
  172.1250    61.8470    19.6060    19.0930    13.2850    24.9180     2.6070    -7.9460 
  172.2500    60.9620    15.5380    15.1500     8.9450    25.0770     2.6100    -7.5990 
  172.3750    58.4240    12.8110    12.5370     8.1880    25.1580     2.5910    -7.2660 
  172.5000    54.0620    11.2580    10.9880     9.2460    25.2090     2.5660    -6.9230 
  172.6250    51.3340    10.7380    10.3430    11.2850    25.2960     2.5460    -6.6100 
  172.7500    51.8530    10.7680    10.2060    11.3970    25.3560     2.5300    -6.3880 
  172.8750    53.5150    11.0760    10.3630    10.0870    25.3740     2.5170    -6.1960 
  173.0000    54.4000    11.4690    10.6410     8.7720    25.3860     2.5060    -5.9960 
  173.1250    54.6500    11.8240    10.9210     9.0820    25.4330     2.4980    -5.8750 
  173.2500    54.7380    12.1030    11.1480     9.4990    25.5180     2.4920    -5.7840 
  173.3750    55.0780    12.3210    11.3200     9.3740    25.5620     2.4860    -5.6790 
