~V
VERS. 2.00: Ver 2.00
~W
STRT.M 55.0000:
STOP.M 263.0000:
STEP.M 0.1250:
NULL. -999.2500:
UWI. DF5056:
~C
DEPT.M :
GR.API :
CALI.CM :
RXO.OHMM :
RI. :
RML.OHMM :
DEN.GM/CC :
SP.MV :
~A
# ...
  257.5000    61.6580    24.3890     9.0760    15.7530    17.3660     2.4840   -20.4470 
  257.6250    61.6580    24.4100     9.3060    15.7510    17.3460     2.4810   -20.5070 
  257.7500    61.6580    24.4200     9.6940    15.7510    17.3260     2.4730   -20.6330 
  257.8750    61.6580    24.4210    10.1530    15.7540    17.3080     2.4610   -20.6500 
  258.0000    61.6580    24.4200    11.0790    15.7580    17.2950     2.4470   -20.6360 
  258.1250    61.6580    24.4210     9.9610    15.7580    17.2950     2.4410   -20.6010 
  258.2500    61.6580    24.4170     8.3380    15.7580    17.2950     2.4440   -20.6240 
  258.3750    61.6580    24.4080     8.2110    15.7580    17.2950     2.4500   -20.7520 
  258.5000    61.6580    24.4070    10.7420    15.7580    17.2950     2.4530   -20.8010 
  258.6250    61.6580    24.4240    12.7720    15.7580    17.2950     2.4470   -20.7280 
  258.7500    61.6580    24.4530    15.6230    15.7580    17.2950     2.4390   -20.6120 
  258.8750    61.6580    24.4960    22.1280    15.7580    17.2950     2.4370   -20.5330 
  259.0000    61.6580    24.5480    25.3780    15.7580    17.2950     2.4440   -20.4660 
  259.1250    61.6580    24.5830    27.6740    15.7580    17.2950     2.4630   -20.5250 
  259.2500    61.6580    24.5770    27.9660    15.7580    17.2950     2.4860   -20.6730 
  259.3750    61.6580    24.5290    26.1060    15.7580    17.2950     2.5110   -20.7110 
  259.5000    61.6580    24.4630    19.2150    15.7580    17.2950     2.5340   -20.7700 
  259.6250    61.6580    24.4020    13.5670    15.7580    17.2950     2.5490   -20.8860 
  259.7500    61.6580    24.3310    12.3810    15.7580    17.2950     2.5540   -20.9780 
  259.8750    61.6580    24.2220    12.0180    15.7580    17.2950     2.5500   -21.0240 
  260.0000    61.6580    24.0760    11.0370    15.7580    17.2950     2.5400   -21.0270 
  260.1250    61.6580    23.9720     9.7830    15.7580    17.2950     2.5110   -21.0270 
  260.2500    61.6580    23.9480     8.8780    15.7580    17.2950     2.4320  -999.2500 
  260.3750    61.6580    23.3290     7.7720    15.7580    17.2950     2.3030  -999.2500 
  260.5000    61.6580    21.5100     6.5500    15.7580    17.2950     2.1720  -999.2500 
  260.6250    61.6580    19.1950     5.8630    15.7580    17.2950     2.0940  -999.2500 
  260.7500    61.6580    17.8540     5.7540    15.7580    17.2950     2.0700  -999.2500 
  260.8750    61.6580    17.6280     5.7370    15.7580    17.2950     2.0770  -999.2500 
  261.0000    61.6580    17.7260     5.7360    15.7580    17.2950     2.0940  -999.2500 
  261.1250    61.6580    17.7080     5.7330    15.7580    17.2950     2.1030  -999.2500 
  261.2500    61.6580    17.7080     5.7350    15.7580    17.2950     2.1040  -999.2500 
  261.3750    61.6580    17.7080     5.7390    15.7580    17.2950     2.1050  -999.2500 
  261.5000    61.6580    17.7080     5.7420    15.7580    17.2950     2.1090  -999.2500 
  261.6250    61.6580    17.7080     5.7400    15.7580    17.2950     2.1170  -999.2500 
  261.7500    61.6580    17.7080     5.7390    15.7580    17.2950     2.1260  -999.2500 
  261.8750    61.6580    17.7080     5.7380    15.7580    17.2950     2.1310  -999.2500 
  262.0000    61.6580    17.7080     5.7370    15.7580    17.2950     2.1320  -999.2500 
  262.1250    61.6580    17.7080     5.7380    15.7580    17.2950     2.1290  -999.2500 
  262.2500    61.6580    17.7080     5.7370    15.7580    17.2950  -999.2500  -999.2500 
  262.3750    61.6580    17.7080     5.7370    15.7580    17.2950  -999.2500  -999.2500 
  262.5000    61.6580    17.7080     5.7360    15.7580    17.2950  -999.2500  -999.2500 
  262.6250    61.6580    17.7080     5.7350    15.7580    17.2950  -999.2500  -999.2500 
  262.7500    61.6580    17.7080     5.7340    15.7580    17.2950  -999.2500  -999.2500 
  262.8750    61.6580    17.7080     5.7350    15.7580    17.2950  -999.2500  -999.2500 
  263.0000    61.6580    17.7080     5.7350    15.7580    17.2950  -999.2500  -999.2500 
