~V
VERS. 2.00: Ver 2.00
~W
STRT.M 55.0000:
STOP.M 247.0000:
STEP.M 0.1250:
NULL. -999.2500:
UWI. DF5063:
~C
DEPT.M :
SP.MV :
GR.API :
RML.OHMM :
RI. :
RXO.OHMM :
CALI.CM :
DEN.GM/CC :
~A
# ...
  156.2500   -15.1140    74.5610    68.4240    60.1710    65.5240    24.2730     2.2510 
  156.3750   -15.1380    72.5640    70.3740    62.1550    64.8050    24.2160     2.2510 
  156.5000   -15.1240    71.2800    72.7890    64.4610    63.1750    24.1160     2.2520 
  156.6250   -15.1090    71.7240    76.6070    68.0410    67.7270    23.9680     2.2560 
  156.7500   -15.0930    74.7280    81.9030    73.1200    72.0860    23.8590     2.2590 
  156.8750   -15.0320    77.5060    88.3180    79.5650    74.3270    23.8180     2.2600 
  157.0000   -14.9260    77.0780    94.6060    86.4180    74.5840    23.8150     2.2570 
  157.1250   -14.8270    74.8080    97.6050    90.9070    74.3620    23.8010     2.2510 
  157.2500   -14.7550    74.5400    94.6600    90.1870    76.2670    23.7500     2.2470 
  157.3750   -14.7240    76.3460    84.3050    82.3110    80.1570    23.6830     2.2480 
  157.5000   -14.6590    76.5190    67.8600    67.8000    77.1670    23.6110     2.2580 
  157.6250   -14.5050    75.6390    49.8810    50.4990    51.6690    23.5400     2.2860 
  157.7500   -14.3550    76.9330    35.1830    35.7830    27.0620    23.4620     2.3250 
  157.8750   -14.2250    82.0910    25.2080    25.5960    15.1360    23.3920     2.3650 
  158.0000   -14.1050    88.7230    19.5690    19.6660    11.1770    23.3290     2.3940 
  158.1250   -13.9700    92.2950    17.8040    17.3890    11.8760    23.2880     2.4020 
  158.2500   -13.8520    94.3430    18.6460    17.5010    14.3040    23.2870     2.3930 
  158.3750   -13.7600    94.7070    21.8150    19.8410    18.0120    23.3300     2.3700 
  158.5000   -13.7430    91.7960    27.1240    24.4200    23.0050    23.3710     2.3430 
  158.6250   -13.8350    85.4390    34.3300    31.2940    30.0410    23.3890     2.3220 
  158.7500   -13.9110    78.9850    42.0560    39.1690    38.3070    23.4420     2.3080 
  158.8750   -13.9700    74.9230    48.8370    46.5430    44.7370    23.5640     2.2970 
  159.0000   -14.0580    71.6250    53.1570    51.7180    51.8110    23.7310     2.2890 
  159.1250   -14.1770    70.4200    53.5580    52.9220    56.0890    23.8340     2.2880 
  159.2500   -14.2870    73.0560    51.2580    51.1020    59.7370    23.8610     2.2950 
  159.3750   -14.3500    77.7660    48.0070    47.8680    51.3920    23.8450     2.3050 
  159.5000   -14.3860    81.0850    45.7310    45.1070    36.8350    23.7770     2.3130 
  159.6250   -14.4300    81.4600    46.3610    44.7210    31.9330    23.6460     2.3130 
  159.7500   -14.4950    81.4860    50.0680    47.1220    39.1300    23.5750     2.3030 
  159.8750   -14.5810    81.1810    56.6360    52.3550    51.0060    23.5610     2.2860 
  160.0000   -14.6390    78.3550    65.3150    59.9780    57.8410    23.5720     2.2710 
  160.1250   -14.7070    73.4500    74.8300    69.0970    57.0170    23.5540     2.2630 
  160.2500   -14.8330    71.4690    83.2860    77.8430    53.3800    23.5240     2.2580 
  160.3750   -15.0420    73.3720    89.0510    84.4920    50.1690    23.5140     2.2540 
  160.5000   -15.3020    75.7470    90.7130    87.4150    50.5940    23.5190     2.2510 
  160.6250   -15.5510    75.5010    86.4130    84.4600    51.7530    23.5320     2.2490 
  160.7500   -15.7560    73.1570    77.0720    76.2280    49.7930    23.5510     2.2530 
  160.8750   -15.9410    70.8590    64.2850    64.1050    44.2490    23.5670     2.2650 
  161.0000   -16.1490    71.1330    50.9060    50.9270    35.0360    23.5790     2.2840 
  161.1250   -16.3170    75.4880    40.6100    40.4170    24.5300    23.5920     2.3060 
  161.2500   -16.4130    80.6370    34.8100    33.9930    18.2950    23.6440     2.3210 
  161.3750   -16.4260    82.5340    34.1040    32.1130    18.1230    23.7120     2.3210 
  161.5000   -16.3410    80.8800    38.6860    35.0270    22.4020    23.7440     2.3030 
  161.6250   -16.2570    78.0260    48.8920    43.5440    35.0870    23.7300     2.2750 
  161.7500   -16.2790    75.1610    62.1020    55.7660    52.3460    23.7470     2.2520 
  161.8750   -16.3370    71.5840    75.2710    69.1210    62.0600    23.7690     2.2430 
  162.0000   -16.3270    68.3770    84.6810    79.8960    63.0760    23.7740     2.2460 
  162.1250   -16.2910    69.2730    86.3440    83.4980    65.7700    23.8100     2.2540 
  162.2500   -16.2380    72.5500    82.1020    80.7210    73.9770    23.8850     2.2660 
  162.3750   -16.1900    74.6750    75.4270    74.5170    73.7380    23.9440     2.2790 
  162.5000   -16.1840    74.5060    69.7970    68.3780    62.4990    23.9290     2.2870 
  162.6250   -16.1120    74.4440    67.6750    65.0390    50.9360    23.8900     2.2840 
  162.7500   -15.9960    74.2560    68.8430    64.6930    52.4210    23.8970     2.2750 
  162.8750   -15.9150    72.0980    72.8150    67.0160    59.0950    23.9280     2.2660 
  163.0000   -15.9100    69.2170    78.8340    71.3820    64.5710    23.9480     2.2620 
  163.1250   -15.9600    67.0590    86.1840    77.2160    71.9250    23.9400     2.2570 
  163.2500   -16.0600    67.4380    94.1620    83.8040    71.2930    23.9330     2.2510 
  163.3750   -16.2430    70.1000   103.0280    91.2410    70.5810    23.9040     2.2430 
  163.5000   -16.5050    73.8760   113.6060   100.0690    70.9420    23.8390     2.2340 
  163.6250   -16.8410    74.1400   127.1780   111.1650    75.5680    23.7830     2.2260 
  163.7500   -17.1710    69.9480   143.0740   123.9140    87.2080    23.7440     2.2200 
  163.8750   -17.4350    65.4620   159.6970   137.0220   107.8250    23.7140     2.2180 
  164.0000   -17.6460    63.4130   174.5290   148.5420   120.3880    23.6580     2.2200 
  164.1250   -17.8290    65.3430   184.0700   155.8060   111.5880    23.6030     2.2240 
  164.2500   -17.9750    68.9220   188.0840   158.7100   105.3720    23.5700     2.2280 
  164.3750   -18.0380    70.0020   187.8030   158.2070   105.4540    23.5450     2.2310 
  164.5000   -18.0160    69.1320   185.4800   156.0790   104.9140    23.5130     2.2340 
  164.6250   -17.9660    70.7240   183.2730   154.2030   104.3080    23.5000     2.2360 
  164.7500   -17.9300    75.4550   182.2600   153.5980   106.1310    23.5150     2.2350 
  164.8750   -17.9100    76.1670   183.0800   154.8380   118.8970    23.5310     2.2310 
  165.0000   -17.9060    69.1910   186.6850   158.7000   125.1760    23.5170     2.2290 
  165.1250   -17.9010    62.7430   194.6740   166.8020   109.3270    23.5430     2.2290 
  165.2500   -17.8550    61.7280   205.5960   178.4050    93.8270    23.6470     2.2300 
  165.3750   -17.7630    63.2160   215.8210   190.9890   102.0600    23.8420     2.2290 
  165.5000   -17.6330    63.4550   219.4160   199.6140   131.8600    24.1060     2.2220 
  165.6250   -17.4430    63.0180   207.6720   195.9680   168.3800    24.3400     2.2140 
  165.7500   -17.1920    64.2620   180.9720   178.0910   168.1880    24.5030     2.2110 
  165.8750   -16.9000    65.5480   144.1110   147.9060   121.8080    24.5620     2.2200 
  166.0000   -16.5460    66.5730   105.5970   111.9210    75.2070    24.5630     2.2330 
  166.1250   -16.1190    68.6540    74.5560    79.7220    52.4710    24.5740     2.2340 
  166.2500   -15.7020    71.6200    52.6990    56.1190    37.0450    24.5650     2.2220 
  166.3750   -15.3150    74.5650    38.8800    41.1010    21.6420    24.5370     2.2120 
  166.5000   -14.9940    76.3650    30.8660    32.4470    13.9120    24.5320     2.2220 
  166.6250   -14.7870    75.2520    26.7980    28.0600    14.7510    24.6180     2.2530 
  166.7500   -14.6760    73.0210    24.3290    25.4080    20.0320    24.5650     2.2790 
  166.8750   -14.6420    72.5300    22.5810    23.5700    21.9990    24.3830     2.2880 
  167.0000   -14.6800    76.1130    21.2830    22.1990    14.9830    24.1690     2.2850 
  167.1250   -14.8130    81.6620    20.9230    21.5820    12.1990    23.9410     2.2800 
  167.2500   -15.0320    84.4970    22.1630    22.2150    13.4250    23.9130     2.2770 
  167.3750   -15.3170    83.0700    25.8410    24.8690    18.8590    24.0700     2.2730 
