~V
VERS. 2.00: Ver 2.00
~W
STRT.M 55.0000:
STOP.M 278.0000:
STEP.M 0.1250:
NULL. -999.2500:
UWI. DF5019:
~C
DEPT.M :
DEN.GM/CC :
GR.API :
CALI.CM :
RXO.OHMM :
RI. :
RML.OHMM :
SP.MV :
~A
# ...
  212.5000     2.2320    61.3610    25.2440   115.2940   155.8520   167.9810   -22.9480 
  212.6250     2.2110    62.7890    25.0920   120.1920   168.7720   183.7490   -23.3160 
  212.7500     2.1790    64.8440    24.7800   126.7150   176.8480   193.4090   -23.5800 
  212.8750     2.1620    68.4120    24.4690   125.3210   178.3610   194.0980   -23.8200 
  213.0000     2.1660    72.7370    24.2300   116.6530   173.7810   186.2380   -24.0280 
  213.1250     2.1730    75.5620    24.1240   122.9140   165.3100   172.9560   -24.1560 
  213.2500     2.1710    76.5660    24.1610   133.4660   156.1640   159.2590   -24.1740 
  213.3750     2.1630    74.7350    24.3490   128.9460   146.3730   147.3650   -24.0970 
  213.5000     2.1550    70.3600    24.5830   110.4940   134.7260   137.2460   -23.9790 
  213.6250     2.1480    67.3210    24.8390   102.7290   121.8550   126.3410   -23.8800 
  213.7500     2.1450    67.9680    24.9670   100.0010   109.0270   115.4850   -23.7560 
  213.8750     2.1520    70.3760    24.9930    91.0410    98.3300   106.6480   -23.5870 
  214.0000     2.1740    72.1410    24.9180    76.4140    91.7460   101.8060   -23.4000 
  214.1250     2.1960    71.9540    24.7960    69.7960    91.5540   103.1560   -23.2850 
  214.2500     2.2070    69.4320    24.8590    75.8250    96.8220   110.0060   -23.1950 
  214.3750     2.2080    66.3210    24.8390    90.3800   106.5420   121.3060   -23.1690 
  214.5000     2.2060    66.1360    24.7830   108.6570   118.6660   134.3260   -23.1620 
  214.6250     2.2080    68.8490    24.8730   121.8190   128.5640   143.2400   -23.0870 
  214.7500     2.2110    71.4700    24.9460   124.5410   131.3760   143.8030   -23.0460 
  214.8750     2.2140    73.3750    24.9230   116.8570   125.3790   135.5970   -22.9360 
  215.0000     2.2140    73.8770    24.8200   102.8410   113.0790   122.1410   -22.8260 
  215.1250     2.2080    73.3050    24.6190    86.1140    98.8980   108.5030   -22.6020 
  215.2500     2.1950    72.7920    24.5180    72.9530    86.7620    97.8160   -22.4300 
  215.3750     2.1820    71.4990    24.4810    66.6270    78.5650    90.8570   -22.1700 
  215.5000     2.1800    70.0190    24.5060    65.5700    74.7230    87.3540   -21.9170 
  215.6250     2.1890    71.1100    24.5490    67.1210    74.4340    86.5920   -21.7020 
  215.7500     2.2060    72.9500    24.5640    69.7230    75.0620    86.6760   -21.4600 
  215.8750     2.2250    72.8850    24.5820    72.2560    75.1110    86.5330   -21.2540 
  216.0000     2.2410    72.2400    24.5860    73.7040    74.0360    85.8590   -20.9840 
  216.1250     2.2460    73.2810    24.4620    71.1260    71.9460    85.2510   -20.7840 
  216.2500     2.2350    73.0540    24.3630    64.9780    69.6760    85.4400   -20.4990 
  216.3750     2.2130    69.6150    24.3130    60.2460    68.0160    86.0610   -20.2780 
  216.5000     2.1930    66.7140    24.3170    63.0680    66.8870    85.3220   -20.1120 
  216.6250     2.1860    69.0310    24.3470    70.7280    64.3460    80.1100   -19.9240 
  216.7500     2.1950    74.6980    24.2320    68.3180    59.2140    70.9140   -19.7850 
  216.8750     2.2160    79.5680    24.1870    55.2640    52.3280    60.4250   -19.6370 
  217.0000     2.2340    80.5870    24.2080    40.7120    45.8840    51.8800   -19.5870 
  217.1250     2.2380    79.8860    24.2400    30.3680    42.6730    48.1090   -19.5440 
  217.2500     2.2240    80.3190    24.3640    26.9060    43.6650    49.3830   -19.6330 
  217.3750     2.2010    80.8960    24.5220    30.7080    49.6460    56.7010   -19.7260 
  217.5000     2.1830    79.1820    24.5430    42.7710    61.1900    71.8750   -19.8130 
  217.6250     2.1800    73.7220    24.4740    65.4720    80.3440    98.4060   -19.9260 
  217.7500     2.1890    68.0020    24.4850   100.9690   106.2050   133.1120   -20.1060 
  217.8750     2.2010    65.8190    24.6870   150.7390   135.4130   168.8150   -20.3360 
  218.0000     2.2020    67.5770    25.0780   205.5020   160.3870   194.9440   -20.5690 
  218.1250     2.1890    66.8540    25.0840   237.5300   170.9580   201.2190   -20.8360 
  218.2500     2.1730    63.2860    24.9390   235.1080   168.3100   192.1890   -21.0720 
  218.3750     2.1710    62.2800    24.8760   206.5330   157.0640   174.2900   -21.3550 
  218.5000     2.2060    64.3930    24.7710   167.7240   142.5650   154.0010   -21.5880 
  218.6250     2.2610    64.7320    24.5210   133.7660   129.9020   136.8390   -21.8940 
  218.7500     2.3060    64.5200    24.3630   113.1230   121.2690   125.1850   -22.1090 
  218.8750     2.3140    66.3710    24.5050   107.1470   117.2850   119.6700   -22.3380 
  219.0000     2.2880    68.2280    25.0070   108.5460   117.9390   119.6790   -22.5820 
  219.1250     2.2590    67.0380    25.2320   119.6740   122.9260   124.2760   -22.8020 
  219.2500     2.2420    65.0150    25.0620   129.6750   129.0010   130.2600   -23.0240 
  219.3750     2.2260    64.4480    24.6290   137.8760   132.5120   134.8440   -23.1460 
  219.5000     2.2020    66.2860    24.3570   138.5120   130.8590   135.8310   -23.3200 
  219.6250     2.1790    69.6810    24.2580   132.8690   124.5980   132.2900   -23.4180 
  219.7500     2.1670    70.4930    24.2820   123.9790   117.9630   126.9200   -23.5430 
  219.8750     2.1690    68.5140    24.4530   117.1170   113.4690   122.3220   -23.6450 
  220.0000     2.1760    68.0450    24.8540   115.3710   112.1660   120.5280   -23.6860 
  220.1250     2.1760    71.2680    25.0610   118.8790   114.1480   122.8110   -23.7370 
  220.2500     2.1630    73.7340    25.1610   128.2730   117.7460   127.4660   -23.6980 
  220.3750     2.1460    73.5960    25.1940   144.5530   121.1360   132.3600   -23.7060 
  220.5000     2.1430    73.0000    25.1200   159.6040   122.2370   134.9620   -23.6440 
  220.6250     2.1520    72.0650    25.1310   158.6770   118.9070   132.3100   -23.6180 
  220.7500     2.1590    67.8090    25.2250   144.2270   111.9290   124.8100   -23.5370 
  220.8750     2.1570    62.7000    25.1870   126.4510   102.9910   113.9920   -23.4290 
  221.0000     2.1520    62.6260    24.9770   110.3630    94.0010   102.2010   -23.3140 
  221.1250     2.1570    68.0930    24.8360    97.6670    86.2990    92.0310   -23.1970 
  221.2500     2.1700    70.8260    24.9400    87.8310    79.9620    84.5280   -23.1500 
  221.3750     2.1790    69.2310    25.1350    79.0180    75.0750    79.8060   -23.1160 
  221.5000     2.1710    67.1860    25.2910    71.9910    71.8400    77.3350   -23.1370 
  221.6250     2.1530    68.4550    25.3760    70.9960    70.3730    76.3020   -23.1040 
  221.7500     2.1440    70.0160    25.3710    74.7850    69.8220    75.5460   -23.1680 
  221.8750     2.1530    69.7700    25.4000    79.0350    69.5750    74.6130   -23.2140 
  222.0000     2.1730    68.7030    25.4320    78.4690    69.5060    73.5910   -23.3260 
  222.1250     2.1900    69.0400    25.4130    72.0890    70.2130    73.3840   -23.4650 
  222.2500     2.2030    71.1290    25.3360    67.3990    72.3540    74.8490   -23.6280 
  222.3750     2.2200    72.0520    25.1490    67.8930    76.5880    78.5670   -23.8370 
  222.5000     2.2360    69.5180    24.7800    74.7970    83.0750    84.7160   -24.0340 
  222.6250     2.2370    65.9210    24.4440    98.8500    91.6690    93.1880   -24.3220 
  222.7500     2.2180    65.1660    24.3720   125.2430   100.6570   102.2700   -24.5010 
  222.8750     2.1860    67.6190    24.4840   128.6570   107.9320   110.1940   -24.7340 
  223.0000     2.1550    70.0340    24.9820   110.5010   111.6490   115.2840   -24.9550 
  223.1250     2.1340    69.0990    25.1260   104.7640   110.7960   115.6410   -25.1760 
  223.2500     2.1210    64.7490    25.1810   113.0780   107.3250   111.9800   -25.4160 
  223.3750     2.1150    61.3860    25.1590   116.7690   102.0770   105.4650   -25.6090 
  223.5000     2.1170    62.8170    25.1180   103.8860    95.2860    97.6350   -25.8150 
  223.6250     2.1280    66.8770    25.0490    85.1510    88.5630    89.6980   -25.9130 
