~V
VERS. 2.00: Ver 2.00
~W
STRT.M 55.0000:
STOP.M 274.0000:
STEP.M 0.1250:
NULL. -999.2500:
UWI. DF5018:
~C
DEPT.M :
SP.MV :
GR.API :
CALI.CM :
RXO.OHMM :
RI. :
RML.OHMM :
DEN.GM/CC :
~A
# ...
   66.2500   -29.3050    67.9240    23.6410    55.1880    12.8490    13.9000     2.6210 
   66.3750   -29.2720    64.0600    23.7620    52.0010    13.0200    13.4010     2.5610 
   66.5000   -29.2110    63.2090    23.6990    33.4300    11.8890    11.6730     2.4420 
   66.6250   -29.2410    65.7620    23.4100    18.5780    10.2060     9.8150     2.3280 
   66.7500   -29.2720    68.2930    23.1140    12.3750     8.7960     8.4200     2.2590 
   66.8750   -29.3620    69.9940    22.9610    10.4600     7.8960     7.4810     2.2350 
   67.0000   -29.4370    72.4850    22.9230    10.0250     7.4940     6.8730     2.2400 
   67.1250   -29.6550    75.7120    22.9230     9.9100     7.4840     6.4950     2.2460 
   67.2500   -29.8120    76.9380    22.9240     9.7860     7.6110     6.2860     2.2300 
   67.3750   -29.9460    75.0790    22.9290     9.6810     7.7410     6.2550     2.1970 
   67.5000   -30.1560    71.2870    22.9460     9.6260     7.8130     6.4170     2.1720 
   67.6250   -30.3070    69.5300    22.9770     9.6020     7.8150     6.6670     2.1740 
   67.7500   -30.5190    70.2520    23.0140     9.5790     7.7650     6.8170     2.1870 
   67.8750   -30.7180    71.1590    23.0760     9.5580     7.6690     6.8500     2.1930 
   68.0000   -30.9490    71.5730    23.1400     9.5340     7.5390     6.7920     2.1930 
   68.1250   -31.1640    72.3060    23.1880     9.4050     7.4030     6.8050     2.1900 
   68.2500   -31.4430    72.5810    23.2030     9.1090     7.3010     7.0190     2.1830 
   68.3750   -31.8230    71.2540    23.2070     8.8950     7.2560     7.4070     2.1730 
   68.5000   -32.1690    68.6320    23.2070     9.0070     7.2600     7.8440     2.1640 
   68.6250   -32.6070    66.4510    23.2070     9.4380     7.2970     8.1040     2.1610 
   68.7500   -32.9960    65.5630    23.2070     9.8130     7.3390     8.1320     2.1610 
   68.8750   -33.3940    66.6950    23.2120    10.0770     7.3560     7.9810     2.1610 
   69.0000   -33.7860    68.4030    23.2260    10.1960     7.3330     7.7780     2.1600 
   69.1250   -34.1000    68.4140    23.2510    10.1440     7.2700     7.7150     2.1560 
   69.2500   -34.4080    67.8740    23.2660    10.0790     7.2060     7.7660     2.1530 
   69.3750   -34.6250    68.6350    23.2710    10.0750     7.1630     7.9310     2.1520 
   69.5000   -34.8530    70.1870    23.2720    10.0980     7.1460     8.2600     2.1540 
   69.6250   -34.9450    70.0530    23.2730    10.0550     7.1450     8.7420     2.1560 
   69.7500   -35.0550    67.9430    23.2870    10.0710     7.1470     9.2280     2.1520 
   69.8750   -35.1140    65.7320    23.3240    10.1350     7.1450     9.5740     2.1440 
   70.0000   -35.1400    65.2130    23.3690    10.1660     7.1460     9.6740     2.1340 
   70.1250   -35.1660    66.0710    23.3930    10.1480     7.1470     9.5370     2.1210 
   70.2500   -35.1800    66.7290    23.3980    10.2030     7.1160     9.4260     2.1030 
   70.3750   -35.2120    66.1240    23.3970    10.3230     7.0350     9.5180     2.0920 
   70.5000   -35.1580    64.6650    23.4040    10.3490     6.9240     9.7800     2.1000 
   70.6250   -35.2220    63.4600    23.4080    10.2420     6.8390     9.9580     2.1250 
   70.7500   -35.2470    63.8930    23.4100    10.1230     6.8010     9.8540     2.1480 
   70.8750   -35.3170    66.9850    23.4130    10.1210     6.8020     9.4730     2.1550 
   71.0000   -35.4450    70.7990    23.4120    10.2450     6.8260     9.0010     2.1480 
   71.1250   -35.5490    72.0290    23.4130    10.3300     6.8570     8.7330     2.1310 
   71.2500   -35.7010    70.2510    23.4120    10.3020     6.8860     8.7210     2.1150 
   71.3750   -35.8490    66.4580    23.4120    10.2270     6.9180     8.8490     2.1060 
   71.5000   -36.0550    63.1960    23.4120    10.2340     6.9510     8.9800     2.1110 
   71.6250   -36.2440    62.6460    23.4120    10.2940     6.9690     9.0230     2.1260 
   71.7500   -36.4210    64.4250    23.4120    10.3170     6.9720     8.9430     2.1360 
   71.8750   -36.5700    66.3160    23.4120    10.3300     6.9620     8.7100     2.1360 
   72.0000   -36.6040    66.5660    23.4140    10.3570     6.9360     8.3470     2.1290 
   72.1250   -36.7030    65.4870    23.4130    10.3110     6.8940     7.9820     2.1220 
   72.2500   -36.6740    64.6230    23.4110    10.1480     6.8690     7.7970     2.1190 
   72.3750   -36.5720    63.8920    23.4090     9.9730     6.8870     7.8630     2.1200 
   72.5000   -36.4520    63.0240    23.4090     9.9020     6.9420     8.1310     2.1240 
   72.6250   -36.2040    63.7830    23.4090    10.0480     7.0020     8.4150     2.1290 
   72.7500   -35.9270    65.8170    23.4090    10.3100     7.0600     8.5130     2.1330 
   72.8750   -35.5400    67.4490    23.4090    10.5100     7.1280     8.4290     2.1390 
   73.0000   -35.1710    67.0030    23.4090    10.5040     7.2190     8.3460     2.1420 
   73.1250   -34.6370    64.3490    23.4100    10.3520     7.3210     8.5250     2.1340 
   73.2500   -34.0330    62.9420    23.4120    10.2040     7.3700     8.9250     2.1230 
   73.3750   -33.3920    66.2870    23.4110    10.1070     7.2850     9.2460     2.1230 
   73.5000   -32.6510    74.3880    23.4100    10.0150     7.0070     9.1700     2.1440 
   73.6250   -31.9280    82.6640    23.4100     9.6620     6.5080     8.5250     2.1830 
   73.7500   -31.1840    90.4060    23.4120     8.8740     5.8980     7.6870     2.2260 
   73.8750   -30.5270   100.1980    23.4110     7.8620     5.2710     6.9830     2.2610 
   74.0000   -29.8760   109.4330    23.4100     7.0930     4.7430     6.5200     2.2760 
   74.1250   -29.4430   109.6210    23.4090     6.7960     4.4650     6.2660     2.2700 
   74.2500   -29.1800   102.7640    23.4100     6.7000     4.4580     6.1620     2.2570 
   74.3750   -29.0370    94.6570    23.3940     6.7790     4.7290     6.2850     2.2390 
   74.5000   -29.0950    87.7690    23.3140     7.2180     5.2550     6.7020     2.2100 
   74.6250   -29.2150    82.3660    23.1300     8.2430     5.9810     7.3410     2.1780 
   74.7500   -29.4460    78.3950    22.9840     9.3850     6.7220     7.9810     2.1560 
   74.8750   -29.7080    76.8160    22.9290    10.0860     7.3210     8.4830     2.1460 
   75.0000   -29.9980    76.3630    22.9230    10.1750     7.6980     8.8090     2.1410 
   75.1250   -30.1960    76.3330    22.9230     9.9350     7.8490     8.9770     2.1390 
   75.2500   -30.3180    77.9400    22.9230     9.7810     7.9100     9.0190     2.1380 
   75.3750   -30.4030    80.1610    22.9230     9.6690     7.9440     8.9720     2.1310 
   75.5000   -30.3270    81.3260    22.9230     9.5470     7.9490     8.8800     2.1150 
   75.6250   -30.2460    81.3240    22.9230     9.4400     7.8390     8.7990     2.0970 
   75.7500   -30.0430    83.3200    22.9240     9.3690     7.5640     8.6640     2.0870 
   75.8750   -29.8090    88.3090    22.9380     9.2220     7.1170     8.2780     2.0880 
   76.0000   -29.5280    94.5020    22.9880     8.7450     6.5410     7.5400     2.1060 
   76.1250   -29.2430   100.1280    23.0950     7.7250     5.9310     6.6070     2.1450 
   76.2500   -29.0190   103.3700    23.1970     6.7510     5.4260     5.8140     2.1910 
   76.3750   -28.8400   102.4380    23.2520     6.3420     5.1190     5.4380     2.2220 
   76.5000   -28.8450    97.3960    23.2590     6.4730     5.0680     5.6590     2.2220 
   76.6250   -28.8800    89.6980    23.2070     6.9300     5.3300     6.6120     2.1940 
   76.7500   -29.0610    80.7280    23.1060     7.6210     5.8170     7.9940     2.1650 
   76.8750   -29.2840    72.5150    23.0090     8.4220     6.4440     9.4710     2.1480 
   77.0000   -29.6010    68.5680    22.9450     8.9650     7.0760    10.5970     2.1420 
   77.1250   -29.9080    69.7120    22.9280     9.1440     7.4910    10.8750     2.1400 
   77.2500   -30.1500    71.2710    22.9230     9.1540     7.5900    10.4490     2.1370 
   77.3750   -30.3790    71.6760    22.9230     9.1260     7.4150     9.6670     2.1320 
