~V
VERS. 2.00: Ver 2.00
~W
STRT.M 55.0000:
STOP.M 271.0000:
STEP.M 0.1250:
NULL. -999.2500:
UWI. DF5032:
~C
DEPT.M :
SP.MV :
GR.API :
CALI.CM :
RXO.OHMM :
RI. :
RML.OHMM :
DEN.GM/CC :
~A
# ...
   77.5000   -27.1030    73.1860    21.3430     9.2050     8.5760     8.9690     2.1430 
   77.6250   -26.9400    74.7120    21.3030     9.2870     8.5430     8.9360     2.1330 
   77.7500   -26.7720    75.1810    21.2630     9.4560     8.5610     8.9540     2.1310 
   77.8750   -26.6050    75.9760    21.2570     9.7230     8.6120     9.0040     2.1410 
   78.0000   -26.4430    77.9190    21.2510    10.0130     8.6680     9.0570     2.1550 
   78.1250   -26.2930    79.4420    21.2700    10.1600     8.6900     9.0790     2.1590 
   78.2500   -26.1510    79.2960    21.3050    10.0830     8.6620     9.0530     2.1510 
   78.3750   -26.0170    77.8550    21.3300     9.8230     8.5860     8.9780     2.1370 
   78.5000   -25.8890    76.2200    21.3410     9.5030     8.4800     8.8760     2.1280 
   78.6250   -25.7660    75.6140    21.3520     9.2810     8.3900     8.7880     2.1290 
   78.7500   -25.6430    76.2130    21.4200     9.1980     8.3430     8.7430     2.1320 
   78.8750   -25.5110    76.8150    21.5940     9.3180     8.3530     8.7530     2.1310 
   79.0000   -25.3620    76.0720    21.8210     9.6800     8.4210     8.8190     2.1280 
   79.1250   -25.1840    73.9450    22.0370    10.1640     8.5380     8.9320     2.1340 
   79.2500   -24.9760    71.8270    22.1260    10.4010     8.6620     9.0520     2.1510 
   79.3750   -24.7360    70.2090    22.0200    10.1710     8.7610     9.1480     2.1720 
   79.5000   -24.4670    68.6780    21.7620     9.6200     8.8140     9.1990     2.1820 
   79.6250   -24.1720    67.6060    21.5530     9.2020     8.8100     9.1960     2.1660 
   79.7500   -23.8630    67.9190    21.5020     9.0940     8.7690     9.1560     2.1410 
   79.8750   -23.5490    69.7390    21.5520     9.1140     8.6910     9.0810     2.1270 
   80.0000   -23.2340    72.2740    21.5970     9.0650     8.5720     8.9650     2.1270 
   80.1250   -22.9270    74.8930    21.6810     8.9330     8.3960     8.7940     2.1260 
   80.2500   -22.6360    77.6290    21.7770     8.8600     8.1600     8.5650     2.1120 
   80.3750   -22.3680    80.2520    21.8500     8.8510     7.8550     8.2690     2.1010 
   80.5000   -22.1310    82.8920    21.9380     8.6890     7.4880     7.9140     2.1180 
   80.6250   -21.9390    87.2280    22.1690     8.0590     7.0860     7.5230     2.1800 
   80.7500   -21.7950    92.8070    22.5690     7.2000     6.6990     7.1480     2.2560 
   80.8750   -21.7070    96.6510    23.0510     6.5250     6.3720     6.8300     2.3080 
   81.0000   -21.6820    96.8980    23.4440     6.1840     6.1510     6.6170     2.3090 
   81.1250   -21.7260    95.0880    23.4760     6.1100     6.1040     6.5710     2.2720 
   81.2500   -21.8100    92.8170    23.2640     6.2380     6.2320     6.6950     2.2360 
   81.3750   -21.9150    89.3540    22.9230     6.5850     6.5490     7.0200     2.2140 
   81.5000   -22.0130    86.0340    22.5500     7.0930     7.0550     7.5710     2.1990 
   81.6250   -22.0700    86.4520    22.2430     7.6470     7.7260     8.3530     2.1840 
   81.7500   -22.0610    88.9070    21.9920     8.1160     8.4160     9.0990     2.1720 
   81.8750   -21.9660    90.3040    21.8300     8.4500     8.9670     9.6190     2.1730 
   82.0000   -21.7710    90.2020    21.7970     8.7570     9.2240     9.7520     2.2010 
   82.1250   -21.4650    90.8380    21.9390     9.4280     9.0230     9.3580     2.2600 
   82.2500   -21.0850    93.9360    22.2710    10.5020     8.4550     8.5900     2.3240 
   82.3750   -20.6630    99.1380    22.7340    11.2330     7.6480     7.6150     2.3650 
   82.5000   -20.2340   103.8340    23.1510    10.3570     6.7680     6.6370     2.3660 
   82.6250   -19.8430   105.1480    23.2640     7.9340     6.0090     5.8910     2.3390 
   82.7500   -19.5130   104.7680    23.2040     6.0210     5.5020     5.4750     2.3140 
   82.8750   -19.2600   104.8510    23.0480     5.3860     5.3210     5.4280     2.3060 
   83.0000   -19.0880   105.2590    22.8440     5.6360     5.4920     5.7520     2.3110 
   83.1250   -19.0010   103.7510    22.6960     6.1550     6.0670     6.4740     2.3250 
   83.2500   -18.9620    99.1510    22.6360     7.1610     6.9280     7.4110     2.3520 
   83.3750   -18.9430    91.6170    22.6330     9.4190     7.9170     8.3600     2.3910 
   83.5000   -18.9150    83.5180    22.6610    13.0720     8.7980     9.0710     2.4200 
   83.6250   -18.8510    79.6390    22.6370    15.6660     9.2120     9.2210     2.4030 
   83.7500   -18.7480    81.3470    22.4640    15.0220     9.0510     8.8100     2.3540 
   83.8750   -18.6120    87.4520    22.2530    12.0550     8.3560     7.9500     2.3110 
   84.0000   -18.4560    95.9610    22.3250     9.1000     7.3330     6.8820     2.3030 
   84.1250   -18.3020   104.6500    22.8700     7.1120     6.2630     5.8970     2.3280 
   84.2500   -18.1780   110.7950    23.5830     5.6770     5.3640     5.1590     2.3540 
   84.3750   -18.1090   113.0980    24.1350     4.6980     4.7190     4.6980     2.3690 
   84.5000   -18.1170   112.4370    24.2950     4.2200     4.3340     4.4750     2.3740 
   84.6250   -18.2370   111.5930    24.2740     4.1230     4.1990     4.4490     2.3760 
   84.7500   -18.4570   111.9120    24.2860     4.1450     4.2230     4.5420     2.3720 
   84.8750   -18.7750   112.1160    24.2510     4.2110     4.3620     4.7390     2.3590 
   85.0000   -19.1790   110.0260    24.0060     4.3260     4.5800     5.0250     2.3370 
   85.1250   -19.6650   104.5480    23.6010     4.5430     4.8390     5.3620     2.3170 
   85.2500   -20.2020    98.9870    23.2360     4.8290     5.0900     5.7030     2.3010 
   85.3750   -20.7740    95.3650    22.9640     5.1690     5.3040     6.0030     2.2840 
   85.5000   -21.3630    92.8180    22.7260     5.6220     5.4610     6.2260     2.2690 
   85.6250   -21.9440    90.6870    22.4890     6.2800     5.5460     6.3370     2.2600 
   85.7500   -22.4980    90.5430    22.2480     6.9500     5.5930     6.3840     2.2550 
   85.8750   -23.0120    92.9250    22.0680     7.2160     5.6610     6.4640     2.2480 
   86.0000   -23.4760    95.1170    21.9800     6.9710     5.8500     6.7230     2.2350 
   86.1250   -23.8790    92.9440    21.9430     6.8490     6.3320     7.3780     2.2150 
   86.2500   -24.2280    86.5620    21.9110     7.4630     7.1740     8.4540     2.2040 
   86.3750   -24.5230    78.1140    21.9330     8.9890     8.3930     9.9060     2.2260 
   86.5000   -24.7630    70.2510    22.1160    12.1430     9.9130    11.5750     2.2930 
   86.6250   -24.9440    65.5160    22.5430    20.6580    11.4800    13.0920     2.3930 
   86.7500   -25.0810    63.4700    23.0720    35.8360    12.6710    14.0350     2.4810 
   86.8750   -25.1810    63.0070    23.4580    51.9030    13.1430    14.1000     2.5220 
   87.0000   -25.2500    63.1700    23.5390    57.3360    12.7880    13.2990     2.4990 
   87.1250   -25.2860    64.1660    23.3740    44.5570    11.7620    11.9760     2.4130 
   87.2500   -25.2950    66.5150    23.1790    27.2550    10.5740    10.6950     2.3080 
   87.3750   -25.2770    70.1110    23.1080    15.4120     9.5220     9.7360     2.2200 
   87.5000   -25.2320    73.7590    23.1870    10.7480     8.7580     9.1850     2.1700 
   87.6250   -25.1590    75.3720    23.2630    10.0060     8.3630     9.0370     2.1590 
   87.7500   -25.0640    74.5500    23.1770     9.9220     8.2270     9.1070     2.1550 
   87.8750   -24.9520    72.3730    22.9490     9.9230     8.2570     9.2700     2.1420 
   88.0000   -24.8290    70.5440    22.6830     9.9470     8.3440     9.4080     2.1270 
   88.1250   -24.7100    70.1040    22.5010     9.9580     8.3910     9.4190     2.1280 
   88.2500   -24.6080    69.9170    22.3730     9.8510     8.3790     9.3330     2.1490 
   88.3750   -24.5360    69.3270    22.3340     9.5880     8.3260     9.1990     2.1750 
   88.5000   -24.5000    68.8230    22.3750     9.2610     8.2650     9.0680     2.1840 
   88.6250   -24.5100    69.7630    22.4560     9.0530     8.2320     8.9930     2.1680 
