~V
VERS. 2.00: Ver 2.00
~W
STRT.M 55.0000:
STOP.M 270.0000:
STEP.M 0.1250:
NULL. -999.2500:
UWI. DF5017:
~C
DEPT.M :
SP.MV :
GR.API :
CALI.CM :
RXO.OHMM :
RI. :
RML.OHMM :
DEN.GM/CC :
~A
# ...
  246.2500    -7.8630    53.1710    23.9280    40.3060    13.6300    15.6780     2.3910 
  246.3750    -7.3950    58.9270    23.6800    19.8430     9.5530    10.7820     2.3620 
  246.5000    -6.9540    61.9290    23.4070     9.8850     7.1880     7.9450     2.3660 
  246.6250    -6.5670    64.9390    23.3400     8.1660     6.0500     6.5300     2.3790 
  246.7500    -6.2280    68.2890    23.4380     7.7840     5.5260     5.8360     2.3860 
  246.8750    -5.9220    69.8390    23.7500     7.2680     5.3630     5.5860     2.3900 
  247.0000    -5.6430    68.8600    24.0080     6.4600     5.3780     5.5880     2.3920 
  247.1250    -5.4270    66.8050    24.1120     6.1880     5.4440     5.7060     2.3890 
  247.2500    -5.2490    66.0610    24.1270     6.4020     5.4830     5.8140     2.3770 
  247.3750    -5.0750    66.2900    24.1370     6.7430     5.4820     5.8520     2.3610 
  247.5000    -4.8860    65.3520    24.1440     6.8180     5.4490     5.7950     2.3530 
  247.6250    -4.7440    62.5050    24.1440     6.5280     5.3950     5.6510     2.3620 
  247.7500    -4.6480    60.1610    24.1430     6.0630     5.3480     5.4910     2.3810 
  247.8750    -4.5660    59.6280    24.1430     5.6680     5.3410     5.3600     2.3980 
  248.0000    -4.5020    59.4580    24.1410     5.4950     5.2980     5.3780     2.3990 
  248.1250    -4.4290    58.5740    24.1210     5.5450     5.2940     5.4840     2.3830 
  248.2500    -4.3800    59.6780    24.0820     5.6340     5.3190     5.6220     2.3680 
  248.3750    -4.4000    62.9170    24.0560     5.6130     5.3500     5.7670     2.3660 
  248.5000    -4.4770    65.7750    24.0620     5.4980     5.3730     5.9010     2.3720 
  248.6250    -4.5840    65.8040    24.0870     5.4850     5.3780     6.0100     2.3750 
  248.7500    -4.6970    65.9840    24.1190     5.5530     5.3640     6.0940     2.3750 
  248.8750    -4.8140    67.7820    24.1440     5.5450     5.3320     6.1580     2.3800 
  249.0000    -4.9530    68.1550    24.1460     5.4090     5.2920     6.2160     2.3880 
  249.1250    -5.0980    66.6490    24.1340     5.2950     5.2630     6.2940     2.3850 
  249.2500    -5.2400    67.8400    24.1240     5.3370     5.2670     6.4100     2.3690 
  249.3750    -5.3680    71.2250    24.1090     5.5470     5.3200     6.5730     2.3510 
  249.5000    -5.5080    73.0880    24.0810     5.9190     5.4210     6.7780     2.3450 
  249.6250    -5.6240    72.2300    23.9870     6.5090     5.5590     6.9930     2.3540 
  249.7500    -5.7550    72.4730    23.9220     7.1430     5.6940     7.1750     2.3700 
  249.8750    -5.9090    72.6680    23.8780     7.5290     5.7960     7.2880     2.3890 
  250.0000    -6.0390    71.7570    23.8570     7.6350     5.8410     7.3120     2.4050 
  250.1250    -6.2070    70.5430    23.8350     7.5050     5.8140     7.2460     2.4170 
  250.2500    -6.3740    69.6170    23.8010     7.3520     5.7420     7.1430     2.4260 
  250.3750    -6.5380    69.1620    23.7690     7.2030     5.6540     7.0430     2.4280 
  250.5000    -6.6730    68.5910    23.7530     7.2090     5.5800     6.9710     2.4290 
  250.6250    -6.7820    66.4760    23.7570     7.3860     5.5460     6.9510     2.4320 
  250.7500    -6.8560    63.6000    23.7600     7.6070     5.5510     6.9770     2.4350 
  250.8750    -6.9130    63.3510    23.7620     7.7880     5.5880     7.0320     2.4310 
  251.0000    -6.9840    66.7160    23.7620     8.0080     5.6330     7.0880     2.4230 
  251.1250    -7.0120    69.2380    23.7620     8.3460     5.6390     7.0960     2.4150 
  251.2500    -7.0240    69.2200    23.7620     8.6570     5.5790     7.0280     2.4090 
  251.3750    -7.0180    69.1840    23.7620     8.5760     5.4480     6.8900     2.4020 
  251.5000    -6.9910    70.5050    23.7620     7.9900     5.2780     6.7230     2.3910 
  251.6250    -6.9560    70.8470    23.7650     7.0410     5.1300     6.6000     2.3790 
  251.7500    -6.8930    70.7780    23.7710     6.4580     5.0540     6.5630     2.3700 
  251.8750    -6.8210    70.8590    23.7720     6.3830     5.0680     6.6220     2.3720 
  252.0000    -6.7340    70.7210    23.7530     6.8230     5.1580     6.7550     2.3830 
  252.1250    -6.6430    70.4860    23.7440     7.7950     5.2900     6.9190     2.3960 
  252.2500    -6.5360    69.4690    23.7420     8.9210     5.4090     7.0630     2.4050 
  252.3750    -6.4160    67.7990    23.7460     9.4620     5.4870     7.1550     2.4070 
  252.5000    -6.2650    67.1310    23.7430     9.0710     5.5140     7.1880     2.4020 
  252.6250    -6.0910    69.9800    23.7250     8.3360     5.5000     7.1660     2.3950 
  252.7500    -5.9200    71.9970    23.6930     7.6600     5.4690     7.1200     2.3920 
  252.8750    -5.7310    70.2440    23.6760     6.8900     5.4380     7.0760     2.3940 
  253.0000    -5.5330    67.2050    23.6730     6.2520     5.4220     7.0570     2.3950 
  253.1250    -5.3680    67.0380    23.6720     6.1210     5.4320     7.0760     2.3920 
  253.2500    -5.2430    69.1900    23.6720     6.1950     5.4610     7.1140     2.3860 
  253.3750    -5.1590    71.5450    23.6730     6.1810     5.4970     7.1510     2.3780 
  253.5000    -5.1300    72.3810    23.6730     5.9990     5.5180     7.1600     2.3700 
  253.6250    -5.0970    70.8670    23.6830     5.7410     5.5030     7.1240     2.3640 
  253.7500    -5.0510    69.2800    23.6930     5.5840     5.4640     7.0670     2.3600 
  253.8750    -5.0000    67.9890    23.6930     5.5640     5.4240     7.0160     2.3580 
  254.0000    -4.9530    66.5410    23.6690     5.5750     5.4020     6.9970     2.3550 
  254.1250    -4.8940    65.2880    23.6570     5.5840     5.4070     7.0270     2.3510 
  254.2500    -4.8310    65.5020    23.6550     5.7210     5.4270     7.0910     2.3490 
  254.3750    -4.7600    66.9510    23.6570     6.0620     5.4520     7.1690     2.3540 
  254.5000    -4.7030    68.8420    23.6570     6.4650     5.4750     7.2420     2.3640 
  254.6250    -4.7210    69.7880    23.6570     6.6210     5.5020     7.3070     2.3730 
  254.7500    -4.8070    69.0260    23.6570     6.5690     5.5420     7.3790     2.3790 
  254.8750    -4.9650    68.0400    23.6570     6.5570     5.6070     7.4730     2.3830 
  255.0000    -5.1850    68.8020    23.6570     6.8190     5.7030     7.5990     2.3870 
  255.1250    -5.4400    70.4750    23.6560     7.1390     5.8350     7.7510     2.3890 
  255.2500    -5.7130    70.7690    23.6530     7.2870     5.9820     7.8970     2.3850 
  255.3750    -6.0080    69.6930    23.6510     7.5520     6.1210     8.0130     2.3760 
  255.5000    -6.3200    69.0610    23.6510     8.1010     6.2290     8.0860     2.3710 
  255.6250    -6.6150    68.9820    23.6520     8.6910     6.2860     8.1100     2.3720 
  255.7500    -6.9050    69.8910    23.6440     8.9330     6.3010     8.1120     2.3730 
  255.8750    -7.1900    72.0620    23.6270     8.9770     6.2910     8.1190     2.3680 
  256.0000    -7.4720    75.2910    23.6120     8.8270     6.2820     8.1570     2.3620 
  256.1250    -7.7550    77.1770    23.6060     8.5190     6.3090     8.2440     2.3650 
  256.2500    -7.9820    76.8360    23.6050     8.5290     6.3830     8.3600     2.3740 
  256.3750    -8.1540    75.1320    23.6050     8.9930     6.5000     8.4830     2.3860 
  256.5000    -8.2840    74.2490    23.6080     9.3940     6.6440     8.5980     2.3990 
  256.6250    -8.4030    75.1050    23.6110     9.3690     6.7920     8.6960     2.4090 
  256.7500    -8.5160    75.2520    23.6150     9.1790     6.9270     8.7890     2.4170 
  256.8750    -8.6280    74.4440    23.6170     9.2040     7.0420     8.8820     2.4270 
  257.0000    -8.7230    74.3620    23.6180     9.5380     7.1390     8.9770     2.4390 
  257.1250    -8.7760    74.6180    23.6190     9.8190     7.2150     9.0610     2.4390 
  257.2500    -8.8420    75.1000    23.6180     9.8380     7.2760     9.1280     2.4220 
  257.3750    -8.9300    75.9120    23.6170     9.6650     7.3310     9.1710     2.4050 
