~V
VERS. 2.00: Ver 2.00
~W
STRT.M 72.0000:
STOP.M 259.0000:
STEP.M 0.1250:
NULL. -999.2500:
UWI. DF5020:
~C
DEPT.M :
DEN.GM/CC :
GR.API :
RML.OHMM :
RI. :
RXO.OHMM :
CALI.CM :
SP.MV :
~A
# ...
  117.0000     2.2610    96.5480     6.8320     5.5150     5.4930    24.2460   -29.3820 
  117.1250     2.2620    96.2660     6.8360     5.5910     5.5510    24.2500   -29.2820 
  117.2500     2.2710    97.4960     6.6170     5.5350     5.8600    24.3390   -29.1840 
  117.3750     2.2870    99.6010     6.2880     5.3830     6.1840    24.4770   -29.1270 
  117.5000     2.3030   103.3650     6.0160     5.2230     6.1030    24.6210   -29.0590 
  117.6250     2.3130   106.3280     5.9980     5.1790     5.7870    24.6740   -28.9990 
  117.7500     2.3170   104.5730     6.2560     5.3000     5.9270    24.6740   -28.9700 
  117.8750     2.3240    98.9500     6.7210     5.5730     6.4260    24.6300   -28.9320 
  118.0000     2.3420    94.7480     7.2370     5.9210     7.2220    24.5420   -28.9670 
  118.1250     2.3740    94.0090     7.5730     6.2090     8.5000    24.5030   -29.0710 
  118.2500     2.4040    93.2710     7.6280     6.3390    10.1550    24.5080   -29.3150 
  118.3750     2.4130    92.7310     7.4320     6.2920    11.1100    24.5470   -29.5410 
  118.5000     2.3920    93.1030     7.1300     6.1240     8.6570    24.5370   -29.8090 
  118.6250     2.3450    90.7090     6.9060     5.9370     7.2380    24.3750   -30.0480 
  118.7500     2.2980    87.4040     6.8140     5.8020     6.9380    24.1260   -30.1970 
  118.8750     2.2660    87.8560     6.8090     5.7250     6.8960    23.9930   -30.3240 
  119.0000     2.2510    90.9310     6.8010     5.6750     6.9330    24.0330   -30.3830 
  119.1250     2.2470    90.1650     6.7060     5.6100     6.9830    24.2040   -30.4260 
  119.2500     2.2430    89.5780     6.5530     5.5300     6.9670    24.2670   -30.3400 
  119.3750     2.2380    94.1090     6.4410     5.4770     6.8910    24.1000   -30.2600 
  119.5000     2.2330   100.0360     6.4880     5.5140     6.8130    23.9520   -30.1150 
  119.6250     2.2360   100.7660     6.7880     5.7040     6.4240    24.0050   -29.9880 
  119.7500     2.2500    98.5030     7.2330     5.9930     6.3280    24.0450   -29.8710 
  119.8750     2.2740    96.5310     7.6640     6.2950     6.8320    23.9550   -29.7530 
  120.0000     2.3050    94.7570     7.8990     6.5000     7.9940    23.9100   -29.6390 
  120.1250     2.3300    93.4090     7.7690     6.4890     9.2080    24.0070   -29.5260 
  120.2500     2.3380    95.2150     7.3930     6.3040     8.9950    24.1440   -29.4220 
  120.3750     2.3270    97.6440     6.9650     6.0410     7.1190    24.2510   -29.3360 
  120.5000     2.3040    96.8960     6.6830     5.8230     5.9590    24.2150   -29.2660 
  120.6250     2.2840    95.5460     6.6760     5.7570     5.8980    24.0290   -29.2170 
  120.7500     2.2730    95.7370     6.8460     5.8140     5.9140    23.8270   -29.1440 
  120.8750     2.2700    97.5850     7.0580     5.9270     5.9660    23.6470   -29.0480 
  121.0000     2.2690    97.9680     7.1770     6.0080     6.0480    23.5570   -28.8880 
  121.1250     2.2660    95.9110     7.0950     5.9770     6.4140    23.7990   -28.7230 
  121.2500     2.2630    93.8760     6.8750     5.8540     6.2800    24.1920   -28.5550 
  121.3750     2.2660    95.0170     6.6030     5.6860     6.2170    24.4600   -28.4100 
  121.5000     2.2790   100.5310     6.3590     5.5220     6.2820    24.5150   -28.2650 
  121.6250     2.3020   103.9400     6.2040     5.4040     6.2620    24.5200   -28.1390 
  121.7500     2.3250   103.6840     6.1280     5.3370     6.6290    24.5610   -28.0910 
  121.8750     2.3390   104.0890     6.1160     5.3120     7.6280    24.6110   -28.0620 
  122.0000     2.3370   104.0000     6.1580     5.3250     6.9880    24.6110   -28.1620 
  122.1250     2.3180    99.8670     6.2750     5.3860     6.3750    24.6290   -28.2330 
  122.2500     2.2960    94.2130     6.4750     5.5000     6.1630    24.6610   -28.3720 
  122.3750     2.2760    91.2880     6.7520     5.6680     6.3450    24.6380   -28.4840 
  122.5000     2.2620    90.9390     7.0550     5.8650     6.6850    24.5040   -28.6440 
  122.6250     2.2520    89.3260     7.2660     6.0280     6.9750    24.2410   -28.6730 
  122.7500     2.2430    87.2820     7.2880     6.0920     7.3240    23.9910   -28.6380 
  122.8750     2.2390    87.8770     7.0830     6.0200     7.8950    23.8380   -28.5840 
  123.0000     2.2450    90.9730     6.7030     5.8230     8.1250    23.8530   -28.4910 
  123.1250     2.2610    96.1250     6.2930     5.5690     7.6720    24.0420   -28.4090 
  123.2500     2.2800   100.3820     6.0200     5.3700     6.8300    24.3540   -28.3230 
  123.3750     2.2900   101.5560     5.9740     5.3010     6.1310    24.6170   -28.2290 
  123.5000     2.2860    99.8400     6.1640     5.3950     5.9310    24.6900   -28.1250 
  123.6250     2.2710    95.7610     6.5290     5.6470     5.9400    24.5770   -28.0790 
  123.7500     2.2570    89.9770     6.8960     5.9490     6.0900    24.3160   -28.0520 
  123.8750     2.2520    83.1970     7.1360     6.2090     6.4470    24.0300   -27.9970 
  124.0000     2.2600    81.0900     7.1730     6.3500     6.8100    23.9390   -27.9420 
  124.1250     2.2760    89.5520     6.9950     6.3230     6.7220    24.1220   -27.8670 
  124.2500     2.2940    98.2540     6.7270     6.1840     6.3440    24.3950   -27.8230 
  124.3750     2.3130   101.0680     6.4530     5.9870     6.0700    24.5810   -27.7920 
  124.5000     2.3320   101.0470     6.2150     5.7750     6.0630    24.6880   -27.7890 
  124.6250     2.3520   103.6680     6.0060     5.5630     6.0330    24.7500   -27.7890 
  124.7500     2.3680   106.1340     5.7870     5.3480     5.7410    24.7800   -27.8290 
  124.8750     2.3750   105.1570     5.5350     5.1210     5.1370    24.7870   -27.9690 
  125.0000     2.3740   100.3220     5.2450     4.8860     4.6880    24.7720   -28.0940 
  125.1250     2.3660    93.7650     4.9650     4.6660     4.7650    24.7600   -28.3350 
  125.2500     2.3560    89.9570     4.7520     4.4950     4.8840    24.7790   -28.5120 
  125.3750     2.3400    89.7170     4.6280     4.4290     5.1400    24.8120   -28.7350 
  125.5000     2.3200    90.5890     4.7750     4.5570     5.6110    24.7380   -28.9000 
  125.6250     2.3030    88.1900     5.3060     5.1420     6.3920    24.4840   -29.1490 
  125.7500     2.3060    83.0820     6.6810     6.4090     8.1210    24.2920   -29.3550 
  125.8750     2.3410    77.1390     9.0020     8.5880    10.9430    24.3540   -29.5560 
  126.0000     2.4120    72.2870    12.1530    11.6910    15.1780    24.5870   -29.7670 
  126.1250     2.5030    70.0600    16.2680    15.2980    21.8750    24.7570   -29.9700 
  126.2500     2.5770    68.7740    18.9700    18.3470    29.8120    24.7480   -30.1820 
  126.3750     2.6060    66.7980    19.9450    19.8760    38.1720    24.6450   -30.3800 
  126.5000     2.5780    63.8060    18.8310    19.4010    45.5520    24.4960   -30.5420 
  126.6250     2.5020    62.7580    16.2940    17.2170    42.7410    24.2480   -30.6960 
  126.7500     2.4130    64.5770    13.8910    14.7450    23.7940    23.9690   -30.8870 
  126.8750     2.3350    66.7600    12.2430    12.7430    13.8720    23.8030   -31.0680 
  127.0000     2.2770    66.0410    11.4030    11.4700    11.2560    23.7490   -31.2500 
  127.1250     2.2440    63.9120    11.2310    10.9380    10.9160    23.7380   -31.4060 
  127.2500     2.2260    64.4440    11.3390    10.8090    10.7970    23.7350   -31.4970 
  127.3750     2.2160    67.8080    11.5050    10.8700    10.5310    23.7340   -31.5890 
  127.5000     2.2100    71.2700    11.5940    10.9580    10.1790    23.7330   -31.7260 
  127.6250     2.2040    70.7270    11.5610    10.9800     9.9650    23.7340   -31.8590 
  127.7500     2.2010    66.0440    11.4760    10.9520     9.8500    23.7360   -32.0100 
  127.8750     2.2010    62.3360    11.3990    10.9150     9.9060    23.7370   -32.1430 
  128.0000     2.2050    63.7050    11.3750    10.9130     9.8890    23.7390   -32.3240 
  128.1250     2.2160    68.0700    11.4450    10.9910    10.0970    23.7410   -32.3520 
