~V
VERS. 2.00: Ver 2.00
~W
STRT.M 55.0000:
STOP.M 268.0000:
STEP.M 0.1250:
NULL. -999.2500:
UWI. DF5007:
~C
DEPT.M :
SP.MV :
GR.API :
RML.OHMM :
RI. :
RXO.OHMM :
CALI.CM :
DEN.GM/CC :
~A
# ...
  133.7500   -20.8300    66.9540    10.5240    11.3930    20.8100    23.0140     2.3890 
  133.8750   -20.3670    69.7490     9.4360     9.8360    13.5250    23.0990     2.3500 
  134.0000   -20.0160    73.6630     8.6650     8.3790     7.4800    23.1590     2.3100 
  134.1250   -19.7930    77.2770     7.8070     7.2890     6.1400    23.1740     2.2910 
  134.2500   -19.6350    79.0400     7.3450     6.5630     5.7750    23.1300     2.2900 
  134.3750   -19.5490    78.7530     7.1520     6.1320     5.6840    23.0960     2.2950 
  134.5000   -19.5890    77.7030     7.0740     5.8860     5.7270    23.1720     2.2950 
  134.6250   -19.6000    78.7840     6.9290     5.6960     5.7360    23.2820     2.2800 
  134.7500   -19.6750    81.6230     6.6320     5.4480     5.6190    23.4280     2.2550 
  134.8750   -19.8180    83.8690     6.2270     5.1400     5.5510    23.6060     2.2270 
  135.0000   -19.9560    85.2000     5.8730     4.8680     5.4790    23.7530     2.2060 
  135.1250   -20.2260    86.7640     5.8420     4.8460     5.4220    23.7730     2.2030 
  135.2500   -20.5690    88.0190     6.2800     5.2190     5.4430    23.7480     2.2200 
  135.3750   -21.0460    86.1860     7.3020     6.1110     6.0600    23.7520     2.2510 
  135.5000   -21.6710    79.1880     8.9320     7.5610     7.9250    23.7840     2.2850 
  135.6250   -22.4160    70.6820    11.0550     9.4880    11.7130    23.7750     2.3090 
  135.7500   -23.2220    66.1470    13.1700    11.4630    17.5790    23.7430     2.3130 
  135.8750   -24.0780    65.5870    14.7730    13.0540    23.4260    23.6830     2.2950 
  136.0000   -24.9740    65.9130    15.4550    13.8890    23.7370    23.4720     2.2580 
  136.1250   -25.7900    66.7380    15.0450    13.7500    16.9560    23.1030     2.2140 
  136.2500   -26.5520    68.5170    14.1640    13.0770    11.8580    22.9110     2.1800 
  136.3750   -27.1580    67.0470    13.3040    12.2610    10.1320    22.9370     2.1650 
  136.5000   -27.5620    62.9200    12.7790    11.6130     9.9830    23.0440     2.1710 
  136.6250   -27.9110    62.6040    12.7080    11.3080    10.4860    23.0940     2.1890 
  136.7500   -28.1210    65.4610    12.8900    11.2450    11.3520    23.0730     2.2010 
  136.8750   -28.2220    66.9380    13.1430    11.2990    12.2090    22.9820     2.1990 
  137.0000   -28.2950    66.3590    13.3180    11.3550    11.5800    22.8120     2.1800 
  137.1250   -28.3060    67.7380    13.3020    11.3230    10.5590    22.6420     2.1500 
  137.2500   -28.2870    69.3100    13.1580    11.2100    10.1680    22.5430     2.1260 
  137.3750   -28.2620    67.5710    12.9830    11.0640    10.1120    22.4470     2.1140 
  137.5000   -28.2840    62.9210    12.8580    10.9320    10.0670    22.2670     2.1160 
  137.6250   -28.2400    62.1920    12.8280    10.8540     9.9340    22.1720     2.1270 
  137.7500   -28.1990    66.9650    12.8690    10.8280     9.8180    22.3410     2.1380 
  137.8750   -28.1530    71.9520    12.9360    10.8270     9.8050    22.6500     2.1440 
  138.0000   -28.0340    73.1250    12.9560    10.8040     9.7890    22.9690     2.1480 
  138.1250   -27.9060    72.0260    12.8390    10.6920     9.7280    23.1250     2.1540 
  138.2500   -27.6380    72.2580    12.5810    10.4820     9.6270    23.1790     2.1650 
  138.3750   -27.3970    74.2180    12.2100    10.1890     9.4880    23.1540     2.1800 
  138.5000   -27.1250    75.1480    11.7830     9.8470     9.3290    23.1280     2.1950 
  138.6250   -26.7590    74.6010    11.3940     9.5130     9.0460    23.2100     2.2010 
  138.7500   -26.5120    75.5850    11.1000     9.2370     8.4560    23.3400     2.1960 
  138.8750   -26.2970    77.0430    10.9040     9.0330     7.6890    23.3960     2.1810 
  139.0000   -26.0940    75.2280    10.7620     8.8820     7.3190    23.3810     2.1630 
  139.1250   -25.9570    71.0490    10.5980     8.7280     7.7790    23.2670     2.1510 
  139.2500   -25.8810    69.4680    10.3250     8.5030     7.9930    23.1120     2.1510 
  139.3750   -25.7450    70.5900     9.9050     8.1630     7.7590    23.0240     2.1640 
  139.5000   -25.6310    71.7770     9.3650     7.7140     7.1770    23.1320     2.1890 
  139.6250   -25.6510    73.4010     8.7830     7.2030     6.5610    23.3670     2.2210 
  139.7500   -25.5550    77.0690     8.2690     6.7150     6.2300    23.5550     2.2530 
  139.8750   -25.4820    84.0210     7.8890     6.3140     6.0080    23.6240     2.2800 
  140.0000   -25.5460    91.5710     7.6730     6.0370     5.7470    23.6520     2.3010 
  140.1250   -25.6460    92.9180     7.6440     5.9190     5.6580    23.6730     2.3140 
  140.2500   -25.8760    88.7160     7.7350     5.9160     5.7310    23.5800     2.3210 
  140.3750   -26.2160    84.2090     7.8860     5.9840     6.1080    23.4150     2.3230 
  140.5000   -26.6520    81.5240     8.0420     6.0790     6.5510    23.3290     2.3160 
  140.6250   -27.1050    79.7060     8.1590     6.1670     6.4840    23.3150     2.3000 
  140.7500   -27.6470    79.3830     8.2400     6.2430     6.1870    23.2090     2.2790 
  140.8750   -28.2020    78.7010     8.3310     6.3370     6.3170    23.0680     2.2580 
  141.0000   -28.6420    75.9070     8.5300     6.5190     6.7510    22.9810     2.2430 
  141.1250   -29.0400    73.6920     8.9850     6.9170     7.1260    22.9460     2.2420 
  141.2500   -29.3320    72.0290     9.7270     7.5660     7.4980    22.9150     2.2540 
  141.3750   -29.6050    68.8500    10.7540     8.4710     8.0620    22.9270     2.2760 
  141.5000   -29.8330    64.8910    11.9790     9.5690     9.1700    22.9690     2.3000 
  141.6250   -29.9840    65.4710    13.1740    10.6740    11.2810    22.9810     2.3040 
  141.7500   -30.1620    69.2810    14.0680    11.5480    14.7420    22.9470     2.2820 
  141.8750   -30.3270    70.9870    14.4850    12.0220    18.9890    22.8400     2.2360 
  142.0000   -30.4980    68.0460    14.3750    12.0250    18.3570    22.5610     2.1830 
  142.1250   -30.6940    63.3930    13.8260    11.5740    13.4150    21.9150     2.1410 
  142.2500   -30.8710    61.2150    13.1920    10.9490    10.6190    21.3730     2.1180 
  142.3750   -31.0210    60.9070    12.6640    10.3370     9.6810    21.5400     2.1120 
  142.5000   -31.1400    61.2000    12.3250     9.8480     9.4710    22.0900     2.1170 
  142.6250   -31.2000    63.3340    12.1940     9.5570     9.3990    22.3310     2.1260 
  142.7500   -31.1250    65.7770    12.1700     9.4130     9.3190    22.3600     2.1350 
  142.8750   -31.0000    67.4390    12.1610     9.3530     9.2180    22.3710     2.1430 
  143.0000   -30.8230    69.6610    12.1140     9.3270     9.1160    22.3920     2.1510 
  143.1250   -30.5170    72.0400    12.0720     9.3390     8.9520    22.3720     2.1580 
  143.2500   -30.2010    73.8330    12.1300     9.4260     8.8510    22.3800     2.1630 
  143.3750   -29.8480    74.1780    12.3360     9.6190     9.0460    22.4210     2.1670 
  143.5000   -29.4500    73.8890    12.6840     9.9140     9.3930    22.4130     2.1710 
  143.6250   -28.9770    73.7300    13.0860    10.2620     9.8370    22.3480     2.1780 
  143.7500   -28.4620    73.4940    13.3880    10.5500    10.4880    22.3610     2.1860 
  143.8750   -27.8730    73.7530    13.4450    10.6670    11.5750    22.5110     2.1960 
  144.0000   -27.2660    74.5140    13.1410    10.5160    13.0160    22.7310     2.2050 
  144.1250   -26.6770    76.3690    12.4130    10.0160    13.4430    23.0130     2.2140 
  144.2500   -25.9870    78.5250    11.4480     9.2870    11.1600    23.2740     2.2240 
  144.3750   -25.3250    80.0270    10.4090     8.4430     8.3790    23.4010     2.2350 
  144.5000   -24.5930    81.5150     9.4500     7.6100     7.2170    23.4350     2.2470 
  144.6250   -23.9160    83.2640     8.7310     6.9250     6.6930    23.5290     2.2600 
  144.7500   -23.3880    85.9740     8.2570     6.4240     6.1700    23.5870     2.2740 
  144.8750   -22.8420    90.3420     8.0100     6.1110     5.8680    23.5630     2.2900 
