~V
VERS. 2.00: Ver 2.00
~W
STRT.M 50.0000:
STOP.M 258.0000:
STEP.M 0.1250:
NULL. -999.2500:
UWI. DF5038:
~C
DEPT.M :
GR.API :
CALI.CM :
RXO.OHMM :
RI. :
RML.OHMM :
DEN.GM/CC :
SP.MV :
~A
# ...
  185.0000    68.3510    25.8140    31.0330    79.4080    80.0210     2.2240   -39.8570 
  185.1250    72.7930    25.8100    31.2690    73.6640    73.6160     2.2260   -39.9120 
  185.2500    73.7740    25.8080    30.6860    68.2500    67.8210     2.2300   -40.0340 
  185.3750    72.2530    25.8080    29.7100    63.4350    62.8890     2.2360   -40.1430 
  185.5000    72.4000    25.8080    28.6510    59.6790    59.2710     2.2410   -40.1140 
  185.6250    74.8790    25.8080    27.4280    57.7920    57.8400     2.2430   -40.2460 
  185.7500    75.8960    25.8080    28.2980    58.0680    58.8960     2.2440   -40.3700 
  185.8750    74.1150    25.8080    30.4900    61.0950    63.0760     2.2420   -40.5350 
  186.0000    71.5860    25.8080    32.0380    67.6500    71.2230     2.2330   -40.7540 
  186.1250    70.5240    25.8080    32.9480    79.8860    85.6300     2.2140   -40.9520 
  186.2500    68.8600    25.8080    35.3270    98.5450   106.9340     2.1920   -41.1930 
  186.3750    65.3690    25.8080    39.3720   124.0720   135.6300     2.1780   -41.4160 
  186.5000    61.0770    25.8080    43.2910   154.6080   170.0020     2.1770   -41.7480 
  186.6250    58.1080    25.8080    44.4930   183.9990   203.5600     2.1870   -41.9800 
  186.7500    57.8460    25.8080    45.1900   205.0680   227.8680     2.1960   -42.2610 
  186.8750    58.1170    25.8080    45.0790   215.3080   239.9140     2.2010   -42.4860 
  187.0000    57.4990    25.8080    43.4700   217.8440   243.5640     2.2040   -42.7060 
  187.1250    55.6920    25.8080    42.6830   217.8230   244.6840     2.2040   -42.9090 
  187.2500    55.2320    25.8080    43.4640   217.3830   244.8450     2.2010   -43.0780 
  187.3750    55.8550    25.8080    44.6660   214.6660   241.3260     2.1950   -43.2610 
  187.5000    55.8210    25.8080    45.7960   207.9210   232.3020     2.1890   -43.3830 
  187.6250    56.6260    25.8080    46.1890   197.8670   219.6500     2.1890   -43.4900 
  187.7500    60.6460    25.8080    44.9360   189.0740   209.3510     2.1870   -43.5880 
  187.8750    65.3000    25.8080    43.1180   185.5920   205.7430     2.1800   -43.6710 
  188.0000    64.7380    25.8080    42.2500   189.7330   210.6210     2.1710   -43.7430 
  188.1250    59.1970    25.8080    42.7190   201.0390   222.5050     2.1670   -43.7520 
  188.2500    56.5010    25.8080    44.8390   212.5720   233.2310     2.1700   -43.7220 
  188.3750    57.5800    25.8080    46.3640   217.0330   234.4970     2.1720   -43.6270 
  188.5000    58.7450    25.8080    46.6120   209.3120   221.4350     2.1700   -43.5050 
  188.6250    59.4920    25.8080    46.0460   189.0640   195.8610     2.1680   -43.3450 
  188.7500    62.5010    25.8080    45.1110   164.7860   168.0040     2.1710   -43.1300 
  188.8750    66.1480    25.8080    44.3930   141.8720   143.1960     2.1770   -42.8510 
  189.0000    66.9860    25.8080    44.7290   122.9640   123.4310     2.1830   -42.5110 
  189.1250    65.9570    25.8090    44.6950   109.3480   109.5410     2.1940   -42.1460 
  189.2500    65.9720    25.7990    43.7540    99.8710   100.0040     2.2140   -41.7580 
  189.3750    66.8920    25.7670    42.1700    93.9550    94.1220     2.2370   -41.3960 
  189.5000    67.4660    25.7220    41.1790    91.0380    91.2910     2.2560   -41.0040 
  189.6250    67.0780    25.6940    40.8010    91.1110    91.5220     2.2620   -40.6350 
  189.7500    65.7910    25.6870    40.3120    93.5600    94.1870     2.2540   -40.2840 
  189.8750    64.2190    25.6890    39.5090    98.1330    99.0270     2.2340   -39.9470 
  190.0000    63.5670    25.6890    39.1560   104.1890   105.4140     2.2090   -39.6930 
  190.1250    63.8780    25.6890    39.3470   110.3660   112.0310     2.1930   -39.4590 
  190.2500    63.7380    25.6890    39.5150   114.8740   117.0630     2.1890   -39.2110 
  190.3750    63.6110    25.6890    39.0070   116.4550   119.1920     2.1930   -38.9210 
  190.5000    64.4000    25.6890    37.3130   114.8050   118.0780     2.1990   -38.6440 
  190.6250    65.4380    25.6890    34.9610   110.7300   114.6110     2.2070   -38.4640 
  190.7500    66.2530    25.6890    33.1990   106.5600   111.2550     2.2150   -38.2900 
  190.8750    66.4920    25.6890    32.0760   103.8860   109.6860     2.2170   -38.1520 
  191.0000    65.9680    25.6890    31.4490   103.6730   110.8590     2.2080   -37.8570 
  191.1250    65.0490    25.6890    31.4640   106.3840   115.1450     2.1930   -37.6550 
  191.2500    64.1220    25.6890    31.7710   110.5610   120.8730     2.1840   -37.4420 
  191.3750    63.2690    25.6890    31.8900   114.6210   126.2480     2.1840   -37.2510 
  191.5000    63.5680    25.6890    31.7190   116.9730   129.4360     2.1890   -37.0580 
  191.6250    63.7610    25.6890    30.4160   116.0520   128.5420     2.1900   -36.7390 
  191.7500    62.3640    25.6890    28.1590   112.2420   124.0800     2.1850   -36.3350 
  191.8750    61.4740    25.6890    26.0720   106.3080   117.0580     2.1840   -35.9580 
  192.0000    62.7310    25.6890    24.4870    99.4740   109.0250     2.1930   -35.5140 
  192.1250    64.4670    25.6890    23.5820    93.2170   101.7350     2.2130   -35.1100 
  192.2500    63.9520    25.6890    23.0250    88.2590    95.9400     2.2350   -34.6850 
  192.3750    61.9780    25.6870    22.1700    84.5660    91.5230     2.2570   -34.2550 
  192.5000    60.9780    25.6840    21.1430    81.4590    87.6560     2.2820   -33.8250 
  192.6250    62.3000    25.7190    21.5700    77.3760    82.6010     2.3150   -33.4200 
  192.7500    63.0930    25.8330    24.4950    71.1470    75.2320     2.3400   -32.9890 
  192.8750    60.6740    26.0100    28.9260    62.5730    65.5240     2.3430   -32.6210 
  193.0000    56.9450    26.1740    30.3900    52.5700    54.5860     2.3200   -32.3000 
  193.1250    57.5700    26.2570    26.4040    42.9170    44.3350     2.2910   -31.9850 
  193.2500    61.0820    26.2950    22.1480    34.9720    36.0520     2.2820   -31.6620 
  193.3750    64.0830    26.3170    19.5100    29.2410    30.1990     2.2900   -31.3620 
  193.5000    66.1920    26.3310    18.6860    25.6750    26.7150     2.2950   -31.0550 
  193.6250    67.1030    26.3300    18.5830    24.2750    25.6520     2.2810   -30.8710 
  193.7500    65.9670    26.3290    19.0220    24.4900    26.4320     2.2570   -30.6680 
  193.8750    64.5670    26.3390    21.5670    26.1980    28.8990     2.2370   -30.4190 
  194.0000    64.6720    26.3900    26.8360    29.2380    32.8090     2.2230   -30.3230 
  194.1250    67.5840    26.5490    33.6740    33.3560    37.7650     2.2140   -30.1000 
  194.2500    69.1590    26.7620    40.4220    37.6740    42.7610     2.2070   -29.9510 
  194.3750    67.2550    26.9250    46.0180    41.4030    46.9380     2.2020   -29.7830 
  194.5000    63.3960    26.9840    49.6360    43.9070    49.6600     2.1970   -29.6890 
  194.6250    60.7930    27.0010    52.5000    44.7550    50.5510     2.1930   -29.4390 
  194.7500    60.9000    27.0450    55.5730    44.4970    50.2980     2.1870   -29.2950 
  194.8750    62.1700    27.0920    57.5760    43.6180    49.4760     2.1810   -29.0600 
  195.0000    64.0370    27.1110    57.9200    42.6360    48.6760     2.1780   -28.7920 
  195.1250    65.9200    27.1100    56.6680    42.1430    48.5760     2.2020   -28.5210 
  195.2500    65.5500    27.1150    54.3900    42.2140    49.1210     2.2690   -28.2030 
  195.3750    62.9370    27.1240    53.8520    42.2220    49.4040     2.3760   -27.8680 
  195.5000    59.5690    27.0670    56.4610    40.8760    47.8110     2.4860   -27.5230 
  195.6250    57.5140    26.8490    59.0880    36.6340    42.5610     2.5420   -27.1160 
  195.7500    56.3490    26.5790    58.9470    30.5120    35.0030     2.5410   -26.7300 
  195.8750    55.7120    26.4000    50.5950    24.1860    27.2240     2.5150   -26.3950 
  196.0000    54.4920    26.3560    32.5040    19.0220    20.9730     2.4960   -25.9070 
  196.1250    53.0000    26.3720    20.5320    15.7730    17.2510     2.4900   -25.5480 
