~V
VERS. 2.00: Ver 2.00
~W
STRT.M 65.0000:
STOP.M 258.0000:
STEP.M 0.1250:
NULL. -999.2500:
UWI. DF5030:
~C
DEPT.M :
SP.MV :
GR.API :
RML.OHMM :
RI. :
RXO.OHMM :
CALI.CM :
DEN.GM/CC :
~A
# ...
   98.7500   -21.6740    99.6030     7.0690     6.0500     7.5840    24.1000     2.4070 
   98.8750   -21.7730    97.1100     6.5420     5.6330     6.0400    24.0670     2.3660 
   99.0000   -21.9210    97.3620     6.1610     5.2850     5.6660    24.0090     2.3190 
   99.1250   -22.1150    99.2290     5.9980     5.0960     5.7850    23.9730     2.2820 
   99.2500   -22.3140    98.5570     6.0360     5.0840     5.8810    23.9770     2.2630 
   99.3750   -22.5080    98.7630     6.2190     5.2250     5.8920    24.0240     2.2610 
   99.5000   -22.7230   101.2220     6.4380     5.4190     5.8720    24.0910     2.2630 
   99.6250   -22.9610    98.7520     6.6260     5.6020     5.9770    24.1390     2.2660 
   99.7500   -23.2060    89.5480     6.7400     5.7310     6.2250    24.1410     2.2670 
   99.8750   -23.4630    87.2420     6.7440     5.7740     6.4880    24.1230     2.2660 
  100.0000   -23.7520    95.0930     6.6670     5.7410     6.5610    24.1090     2.2650 
  100.1250   -24.0360   102.2990     6.5460     5.6500     6.5340    24.0950     2.2630 
  100.2500   -24.3040    97.9480     6.4370     5.5300     6.4710    24.0570     2.2580 
  100.3750   -24.6410    84.1610     6.4370     5.4450     6.4890    23.9410     2.2470 
  100.5000   -25.0580    75.4760     6.6190     5.4690     6.6870    23.7770     2.2360 
  100.6250   -25.4880    77.2880     7.0480     5.6680     7.1190    23.5750     2.2320 
  100.7500   -25.9150    83.1150     7.7360     6.0740     7.9340    23.3760     2.2410 
  100.8750   -26.3790    84.6070     8.6160     6.6700     9.6390    23.3260     2.2670 
  101.0000   -26.8710    82.8570     9.4590     7.2990    11.6850    23.4760     2.2970 
  101.1250   -27.4080    77.7340    10.0530     7.8090    13.6360    23.7340     2.3140 
  101.2500   -28.0090    69.9380    10.2520     8.0770    14.7710    23.8630     2.3070 
  101.3750   -28.5480    63.7770    10.0220     8.0300    12.6730    23.8530     2.2750 
  101.5000   -28.9820    60.7800     9.6250     7.8120    10.4290    23.8430     2.2370 
  101.6250   -29.3580    59.6500     9.2690     7.5590     9.5190    23.8770     2.2030 
  101.7500   -29.7120    62.2300     9.0690     7.3780     9.3490    23.9040     2.1800 
  101.8750   -29.9650    72.5290     9.0360     7.3230     9.2330    23.9000     2.1710 
  102.0000   -30.1090    79.6140     9.0490     7.3410     9.0750    23.8820     2.1730 
  102.1250   -30.1740    80.2800     9.0320     7.3750     8.8790    23.8750     2.1810 
  102.2500   -30.1450    80.5700     8.9550     7.3830     8.7120    23.8850     2.1940 
  102.3750   -30.0430    83.7650     8.8310     7.3430     8.5250    23.8660     2.2030 
  102.5000   -29.9290    81.8410     8.7060     7.2780     8.3240    23.7930     2.2050 
  102.6250   -29.7960    72.4840     8.6050     7.2080     8.1440    23.6560     2.2000 
  102.7500   -29.6200    62.9970     8.5400     7.1510     7.9630    23.4840     2.1930 
  102.8750   -29.4160    59.6560     8.5050     7.1170     7.8180    23.4060     2.1890 
  103.0000   -29.2210    64.4960     8.4760     7.0940     7.7650    23.4920     2.1890 
  103.1250   -29.0300    72.9070     8.4300     7.0690     7.8070    23.6430     2.1910 
  103.2500   -28.8510    77.9380     8.3550     7.0290     7.8480    23.6340     2.1940 
  103.3750   -28.7030    79.0810     8.2510     6.9620     7.8540    23.4690     2.1940 
  103.5000   -28.5770    79.9180     8.1380     6.8770     7.6790    23.3700     2.1930 
  103.6250   -28.4640    80.4880     8.0280     6.7890     7.4690    23.4060     2.1900 
  103.7500   -28.4000    79.3430     7.9310     6.7180     7.4550    23.4990     2.1870 
  103.8750   -28.4070    77.0160     7.8580     6.6920     7.6500    23.5710     2.1830 
  104.0000   -28.4000    74.4270     7.8190     6.7200     7.8950    23.6250     2.1790 
  104.1250   -28.3640    72.1670     7.8330     6.8050     8.1280    23.6710     2.1740 
  104.2500   -28.3630    71.8270     7.9170     6.9480     8.3470    23.7250     2.1700 
  104.3750   -28.3830    71.2030     8.0770     7.1410     8.4320    23.7790     2.1690 
  104.5000   -28.3320    71.0320     8.2470     7.3410     8.4950    23.8260     2.1720 
  104.6250   -28.1950    73.0600     8.3340     7.4850     8.5330    23.8690     2.1790 
  104.7500   -27.9780    73.6990     8.2360     7.4970     8.5460    23.8850     2.1890 
  104.8750   -27.6990    72.2780     7.8530     7.2870     8.3590    23.8660     2.2040 
  105.0000   -27.3470    77.7810     7.2730     6.8910     7.8250    23.8670     2.2230 
  105.1250   -26.9300    90.6990     6.6200     6.3840     6.9550    23.9230     2.2460 
  105.2500   -26.4830   101.5500     6.0340     5.8690     5.8850    24.0460     2.2680 
  105.3750   -26.0800   105.2360     5.6350     5.4590     5.0420    24.1300     2.2840 
  105.5000   -25.7420   107.5720     5.4010     5.1780     4.8600    24.1400     2.2930 
  105.6250   -25.5260   108.1520     5.2890     5.0150     4.9830    24.0770     2.2950 
  105.7500   -25.4640   103.5330     5.2540     4.9460     5.1570    23.9950     2.2980 
  105.8750   -25.5360    99.2030     5.2810     4.9550     5.2070    23.9760     2.3030 
  106.0000   -25.7720    98.5820     5.3610     5.0120     5.2480    23.9730     2.3080 
  106.1250   -26.1820    96.4090     5.5020     5.1060     5.5610    23.9460     2.3030 
  106.2500   -26.6970    86.2440     5.7230     5.2390     6.3300    23.8590     2.2830 
  106.3750   -27.2110    74.1900     6.1380     5.4740     7.3470    23.7980     2.2460 
  106.5000   -27.7400    70.7690     6.9190     5.9320     8.1900    23.7760     2.2100 
  106.6250   -28.2610    72.2350     8.2820     6.7860     8.8920    23.7930     2.1920 
  106.7500   -28.7660    69.7430    10.3240     8.1520    11.0510    23.8410     2.2110 
  106.8750   -29.2510    63.4680    12.8610     9.9990    15.9430    23.8930     2.2770 
  107.0000   -29.7210    58.0890    15.1480    11.8470    21.8320    23.9040     2.3630 
  107.1250   -30.1630    55.8460    16.4280    13.1520    27.2180    23.8460     2.4330 
  107.2500   -30.5790    54.9860    16.1860    13.4430    27.3230    23.7310     2.4500 
  107.3750   -31.0700    56.6240    14.4080    12.5090    18.4040    23.5650     2.4040 
  107.5000   -31.6010    57.5630    12.2350    11.0740    11.5660    23.4320     2.3340 
  107.6250   -32.0910    55.7680    10.4550     9.7350     9.1630    23.3550     2.2720 
  107.7500   -32.4890    53.5850     9.3840     8.8210     8.5380    23.3280     2.2300 
  107.8750   -32.8810    52.5940     8.9910     8.4300     8.3550    23.3120     2.2100 
  108.0000   -33.2580    51.1430     8.8900     8.3350     8.1310    23.2690     2.1980 
  108.1250   -33.5250    48.8520     8.8820     8.3730     7.8700    23.1830     2.1880 
  108.2500   -33.6850    49.6710     8.8730     8.4250     7.6370    23.0740     2.1780 
  108.3750   -33.7420    58.8700     8.8490     8.4280     7.5280    22.9360     2.1690 
  108.5000   -33.6910    65.6210     8.8310     8.3930     7.4760    22.7770     2.1620 
  108.6250   -33.5630    65.1120     8.8180     8.3330     7.3910    22.6020     2.1560 
  108.7500   -33.3920    61.8450     8.7920     8.2500     7.2680    22.4830     2.1550 
  108.8750   -33.1570    61.3390     8.7180     8.1280     7.2160    22.5800     2.1590 
  109.0000   -32.8580    61.5210     8.5940     7.9670     7.2490    22.8480     2.1680 
  109.1250   -32.5500    60.3660     8.4330     7.7770     7.2880    23.2050     2.1800 
  109.2500   -32.2510    62.6360     8.2770     7.5930     7.2200    23.4730     2.1940 
  109.3750   -32.0250    70.5710     8.1980     7.4740     7.1570    23.5140     2.2050 
  109.5000   -31.9550    78.6270     8.2300     7.4490     7.3160    23.4500     2.2110 
  109.6250   -32.0130    82.6780     8.3670     7.5270     7.8080    23.4100     2.2120 
  109.7500   -32.1470    80.0740     8.5690     7.6830     8.4920    23.4770     2.2100 
  109.8750   -32.3740    70.8850     8.7610     7.8670     9.0600    23.6040     2.2070 
