~V
VERS. 2.00: Ver 2.00
~W
STRT.M 59.0000:
STOP.M 277.0000:
STEP.M 0.1250:
NULL. -999.2500:
UWI. DF5027:
~C
DEPT.M :
GR.API :
RML.OHMM :
RI. :
RXO.OHMM :
CALI.CM :
DEN.GM/CC :
SP.MV :
~A
# ...
   70.2500    93.7170     8.1140     6.4450     7.9200    24.0760     2.1970   -38.1140 
   70.3750    96.5550     7.8980     6.3760     7.1190    24.2240     2.2100   -37.5870 
   70.5000    98.4660     7.6470     6.2690     6.3280    24.4090     2.2220   -37.0030 
   70.6250   100.1370     7.4480     6.1630     6.1520    24.4940     2.2300   -36.4220 
   70.7500   100.1330     7.3310     6.0860     6.3830    24.4690     2.2380   -35.7430 
   70.8750    98.6410     7.2790     6.0390     6.7370    24.4850     2.2510   -35.1960 
   71.0000    96.8420     7.2490     6.0050     6.5560    24.6050     2.2700   -34.6840 
   71.1250    95.0550     7.1860     5.9550     6.3280    24.8010     2.2980   -34.3830 
   71.2500    95.0360     7.0680     5.8690     6.2660    24.9540     2.3220   -34.2170 
   71.3750    96.4700     6.9010     5.7430     6.3140    25.0300     2.3320   -34.1330 
   71.5000    97.0350     6.7050     5.5870     5.9590    25.0720     2.3190   -34.2140 
   71.6250    96.7390     6.5020     5.4170     5.5950    25.0910     2.2830   -34.3400 
   71.7500    97.6150     6.3110     5.2600     5.2160    25.0760     2.2450   -34.5800 
   71.8750    99.7590     6.1540     5.1360     5.0510    25.0300     2.2250   -34.8840 
   72.0000   101.1840     6.0690     5.0730     5.1710    24.9870     2.2290   -35.2210 
   72.1250   101.0820     6.1510     5.1330     5.4710    24.9630     2.2550   -35.5790 
   72.2500   100.3340     6.4680     5.3540     5.7890    24.9730     2.2800   -35.9960 
   72.3750    98.5860     7.0970     5.7860     6.3110    24.9630     2.2870   -36.5090 
   72.5000    95.0930     8.0910     6.4600     6.9410    24.8860     2.2760   -37.0760 
   72.6250    89.2070     9.5120     7.4160     7.9460    24.7020     2.2570   -37.7320 
   72.7500    81.9890    11.1920     8.5480     9.2870    24.3670     2.2450   -38.4890 
   72.8750    74.4210    12.9200     9.7310    10.9260    23.8640     2.2470   -39.1820 
   73.0000    68.8520    14.4080    10.7920    12.4220    23.2740     2.2570   -39.9880 
   73.1250    69.1850    15.2580    11.4990    13.0090    22.9430     2.2610   -40.7930 
   73.2500    71.0760    15.4170    11.7980    11.9060    22.9230     2.2490   -41.5590 
   73.3750    69.4240    14.9690    11.7110    11.0290    23.1060     2.2210   -42.2840 
   73.5000    65.7490    14.1680    11.3510    10.6170    23.3640     2.1860   -42.8440 
   73.6250    65.4750    13.3110    10.8630    10.6000    23.5430     2.1560   -43.3600 
   73.7500    68.5490    12.5980    10.3960    10.6230    23.7420     2.1380   -43.6770 
   73.8750    71.3630    12.0960    10.0120    10.5000    23.8410     2.1350   -43.9810 
   74.0000    71.9320    11.7950     9.7280    10.3530    23.8530     2.1410   -44.1690 
   74.1250    70.1700    11.6580     9.5400    10.3540    23.8420     2.1510   -44.2220 
   74.2500    65.7840    11.5980     9.4040    10.4670    23.8430     2.1590   -44.2480 
   74.3750    61.6910    11.5690     9.2990    10.5610    23.8660     2.1620   -44.1780 
   74.5000    60.9990    11.5300     9.2060    10.5860    23.9170     2.1600   -44.1620 
   74.6250    62.7320    11.4610     9.1140    10.6260    23.9400     2.1550   -44.0770 
   74.7500    62.6340    11.3650     9.0190    10.7160    23.9310     2.1480   -44.0130 
   74.8750    61.9050    11.2440     8.9160    10.6330    23.8900     2.1440   -43.9670 
   75.0000    63.0590    11.0980     8.8030    10.5970    23.8520     2.1450   -43.8760 
   75.1250    64.5480    10.9400     8.6830    10.6430    23.8490     2.1540   -43.8130 
   75.2500    65.7810    10.7820     8.5680    10.9190    23.8860     2.1650   -43.7930 
   75.3750    67.1790    10.6360     8.4640    11.5390    23.9550     2.1740   -43.8050 
   75.5000    68.5550    10.5200     8.3810    12.5110    24.0370     2.1780   -43.8270 
   75.6250    67.6140    10.4440     8.3340    13.1190    24.1310     2.1750   -43.8480 
   75.7500    65.1510    10.4050     8.3220    10.9310    24.2920     2.1710   -43.8630 
   75.8750    63.5130    10.4040     8.3500     9.9080    24.4760     2.1670   -43.8330 
   76.0000    64.3950    10.4380     8.4140    10.0110    24.5840     2.1610   -43.7350 
   76.1250    66.9110    10.4870     8.5000    10.3060    24.6160     2.1510   -43.6270 
   76.2500    67.1070    10.5190     8.5800    10.4110    24.6230     2.1380   -43.3290 
   76.3750    65.0190    10.4920     8.6250    10.3880    24.6160     2.1230   -42.9400 
   76.5000    64.0000    10.3530     8.6020    10.2410    24.5440     2.1080   -42.3920 
   76.6250    64.7570    10.0650     8.4770    10.0480    24.3390     2.0950   -41.7590 
   76.7500    65.4320     9.6890     8.2790    10.0030    24.0650     2.0880   -41.1200 
   76.8750    67.2060     9.2930     8.0410    10.0590    23.9390     2.0920   -40.3620 
   77.0000    71.7270     8.9530     7.8060     9.6120    23.9890     2.1130   -39.7310 
   77.1250    77.2800     8.7590     7.6300     8.6710    24.1260     2.1500   -39.0970 
   77.2500    79.7040     8.7140     7.5320     7.9010    24.1870     2.1890   -38.5660 
   77.3750    78.9110     8.7930     7.5070     7.7670    24.0980     2.2150   -38.1440 
   77.5000    76.2580     8.9310     7.5210     8.1340    24.0030     2.2250   -37.8030 
   77.6250    74.3490     9.0240     7.5220     8.3810    23.9690     2.2170   -37.6240 
   77.7500    75.3100     8.9990     7.4670     8.2030    23.9500     2.2050   -37.4150 
   77.8750    78.5200     8.8300     7.3410     8.0030    23.9190     2.1980   -37.2840 
   78.0000    81.3840     8.5340     7.1510     7.8200    23.9240     2.2010   -37.1920 
   78.1250    82.6070     8.1680     6.9300     7.4850    24.0270     2.2140   -37.1220 
   78.2500    83.6650     7.8400     6.7400     6.9980    24.0900     2.2300   -37.1220 
   78.3750    83.9790     7.6710     6.6550     6.7820    23.9790     2.2360   -37.1450 
   78.5000    81.2030     7.8130     6.7780     7.1850    23.7850     2.2230   -37.1250 
   78.6250    75.5390     8.5460     7.2980     8.0180    23.6540     2.1830   -37.0530 
   78.7500    70.8840     9.9290     8.2770     9.1670    23.6510     2.1360   -36.9630 
   78.8750    68.5010    11.9280     9.7170    10.5090    23.7450     2.1100   -36.8460 
   79.0000    67.6060    14.2690    11.4590    12.5350    23.8960     2.1350   -36.5940 
   79.1250    67.6850    16.2880    13.0930    16.5510    24.0990     2.2370   -36.2780 
   79.2500    65.7840    17.2980    14.1430    23.8530    24.3770     2.3860   -35.8710 
   79.3750    62.1080    16.8390    14.2490    34.6720    24.6060     2.5310   -35.3720 
   79.5000    63.0110    14.9330    13.3110    45.5710    24.6690     2.6100   -35.0190 
   79.6250    73.9480    12.1830    11.5400    49.8110    24.6540     2.5890   -34.6550 
   79.7500    85.4330     9.5930     9.6120    28.6790    24.7070     2.5170   -34.4430 
   79.8750    89.8310     7.6030     7.9220    10.3970    24.7880     2.4360   -34.3450 
   80.0000    89.3590     6.3270     6.6820     5.8470    24.8620     2.3720   -34.3360 
   80.1250    90.1810     5.7670     5.9980     5.4470    24.8890     2.3350   -34.5170 
   80.2500    93.4240     5.6510     5.7020     5.6190    24.8740     2.3140   -34.7170 
   80.3750    95.9610     5.8300     5.6910     5.7180    24.8010     2.2990   -35.0500 
   80.5000    94.2820     6.1510     5.8540     5.7090    24.6680     2.2840   -35.3120 
   80.6250    91.0830     6.4370     6.0610     5.7000    24.4860     2.2710   -35.6510 
   80.7500    92.2160     6.5810     6.1970     5.9130    24.3300     2.2680   -36.0140 
   80.8750    96.1800     6.5600     6.2180     6.2970    24.2600     2.2790   -36.3360 
   81.0000    97.1670     6.4000     6.1190     6.8530    24.3050     2.3030   -36.7710 
   81.1250    95.5740     6.1750     5.9300     6.9800    24.5110     2.3260   -37.2030 
   81.2500    95.3270     6.0090     5.7390     6.8320    24.6980     2.3340   -37.7780 
   81.3750    95.9150     5.9850     5.6170     6.1850    24.8650     2.3190   -38.4910 
