~V
VERS. 2.00: Ver 2.00
~W
STRT.M 60.0000:
STOP.M 277.0000:
STEP.M 0.1250:
NULL. -999.2500:
UWI. DF5010:
~C
DEPT.M :
GR.API :
CALI.CM :
RXO.OHMM :
RI. :
RML.OHMM :
SP.MV :
DEN.GM/CC :
~A
# ...
  127.5000    84.4050    23.1650     6.9900     5.6600     6.0870   -34.1540     2.1880 
  127.6250    88.8400    23.2100     6.6520     5.4470     5.8990   -33.7330     2.2160 
  127.7500    94.1480    23.3210     6.5130     5.3610     5.8580   -33.4340     2.2300 
  127.8750    95.1130    23.5100     6.4390     5.3810     5.9190   -33.2080     2.2270 
  128.0000    91.3520    23.7690     6.3180     5.4530     6.0000   -32.9100     2.2170 
  128.1250    88.6320    24.0660     6.3730     5.4880     5.9910   -32.6440     2.2170 
  128.2500    88.9190    24.3350     6.4070     5.4330     5.8600   -32.4150     2.2290 
  128.3750    93.1750    24.5460     5.9580     5.2990     5.6450   -32.2280     2.2450 
  128.5000   101.0750    24.6920     5.3130     5.1400     5.4300   -31.9400     2.2590 
  128.6250   106.4370    24.7650     4.9420     5.0280     5.2970   -31.7430     2.2760 
  128.7500   106.1280    24.7910     4.9180     4.9710     5.2340   -31.6010     2.3020 
  128.8750   105.6940    24.7910     5.0400     4.9430     5.1910   -31.3680     2.3360 
  129.0000   107.9080    24.7890     5.1960     4.8890     5.0950   -31.3230     2.3690 
  129.1250   109.3620    24.7900     5.2220     4.7430     4.8800   -31.3940     2.3850 
  129.2500   109.4520    24.7900     5.1250     4.5290     4.6010   -31.5280     2.3780 
  129.3750   110.6010    24.7880     4.8640     4.3090     4.3490   -31.7080     2.3570 
  129.5000   111.4030    24.7950     4.5520     4.1630     4.2140   -31.8970     2.3350 
  129.6250   108.3570    24.7930     4.4230     4.1770     4.2810   -32.2380     2.3260 
  129.7500   104.1620    24.6670     4.6120     4.3430     4.5190   -32.5680     2.3210 
  129.8750    98.7530    24.3630     5.1820     4.6320     4.8780   -33.0350     2.3120 
  130.0000    90.6180    24.0000     5.8820     4.9860     5.2850   -33.4520     2.3000 
  130.1250    81.9240    23.8020     6.2660     5.3270     5.6480   -33.7510     2.2940 
  130.2500    76.1260    23.7620     6.5370     5.5910     5.9160   -34.1170     2.2960 
  130.3750    73.1860    23.7700     6.5900     5.7460     6.0680   -34.3870     2.3030 
  130.5000    71.8870    23.7710     6.5080     5.7880     6.1100   -34.7090     2.3080 
  130.6250    73.2980    23.7700     6.4340     5.7350     6.0700   -35.0480     2.3090 
  130.7500    76.2620    23.7700     6.5510     5.7000     6.0820   -35.2670     2.3090 
  130.8750    78.6950    23.7710     6.6590     5.8260     6.3440   -35.4090     2.3190 
  131.0000    79.9010    23.7700     7.0430     6.2880     7.1160   -35.5260     2.3530 
  131.1250    80.7140    23.7680     8.2090     7.3850     8.8330   -35.6560     2.4230 
  131.2500    81.4100    23.7860    11.9590     9.1850    11.4940   -35.7760     2.5110 
  131.3750    80.7710    23.8770    18.5680    11.6030    14.7890   -35.9200     2.5870 
  131.5000    78.3960    24.0500    24.9710    14.0660    17.7290   -36.1000     2.6110 
  131.6250    74.3960    24.2240    25.3480    15.1570    18.4230   -36.2780     2.5610 
  131.7500    69.8470    24.2970    21.4920    14.4620    16.7670   -36.4900     2.4670 
  131.8750    67.1800    24.2460    15.5390    12.6600    13.9430   -36.6880     2.3640 
  132.0000    68.2310    24.1230    10.7590    10.7420    11.3400   -36.9230     2.2790 
  132.1250    69.6150    24.0130     9.2580     9.3750     9.7770   -37.1700     2.2300 
  132.2500    67.8520    23.9520     9.0550     8.5700     9.0330   -37.3380     2.2060 
  132.3750    65.5530    23.9190     8.9090     8.2220     8.8340   -37.5100     2.1930 
  132.5000    65.7270    23.8810     8.6810     8.1880     8.9220   -37.6800     2.1850 
  132.6250    67.7890    23.8400     8.5700     8.3330     9.1010   -37.6200     2.1820 
  132.7500    69.2560    23.7940     8.5820     8.4990     9.2370   -37.6370     2.1790 
  132.8750    70.7060    23.7270     8.6210     8.6160     9.2960   -37.6670     2.1730 
  133.0000    70.7770    23.6460     8.6200     8.6600     9.2810   -37.5820     2.1620 
  133.1250    66.7320    23.5860     8.6400     8.6220     9.2040   -37.5580     2.1540 
  133.2500    63.0770    23.5640     8.6590     8.5410     9.1050   -37.4880     2.1530 
  133.3750    64.0330    23.5840     8.6420     8.4480     9.0240   -37.4450     2.1570 
  133.5000    69.0430    23.6500     8.4760     8.3780     8.9960   -37.3020     2.1640 
  133.6250    72.0510    23.7680     8.3920     8.3580     9.0480   -37.2450     2.1700 
  133.7500    72.5810    23.8930     8.4610     8.3840     9.1570   -37.2340     2.1760 
  133.8750    72.7710    23.9850     8.7360     8.4390     9.2860   -37.0860     2.1840 
  134.0000    72.5720    24.0380     9.1110     8.4990     9.3940   -37.0150     2.1910 
  134.1250    70.4180    24.0700     9.2680     8.5260     9.4340   -36.8200     2.1910 
  134.2500    69.2190    24.0960     9.2550     8.5000     9.3970   -36.6700     2.1840 
  134.3750    70.9360    24.1110     9.1290     8.4100     9.2810   -36.4660     2.1770 
  134.5000    71.7890    24.1170     8.9150     8.2530     9.0920   -36.2520     2.1770 
  134.6250    69.6420    24.1230     8.7390     8.0360     8.8390   -36.1060     2.1840 
  134.7500    68.8210    24.1260     8.5820     7.7980     8.5620   -35.7490     2.1910 
  134.8750    70.6700    24.1250     8.4650     7.5710     8.2950   -35.4750     2.1980 
  135.0000    70.7500    24.1260     8.1350     7.3860     8.0790   -35.1850     2.2060 
  135.1250    68.6030    24.1360     7.9090     7.2950     7.9790   -34.8450     2.2110 
  135.2500    70.0660    24.1420     7.9390     7.2890     7.9780   -34.5410     2.2090 
  135.3750    73.6770    24.1360     7.9750     7.3140     8.0000   -34.2240     2.2050 
  135.5000    75.2070    24.1250     7.9230     7.2740     7.9240   -34.0010     2.1990 
  135.6250    75.0810    24.1170     8.0230     7.0320     7.5970   -33.6350     2.2020 
  135.7500    76.6240    24.1180     7.9330     6.5970     7.0500   -33.3490     2.2250 
  135.8750    80.0370    24.1230     6.9560     6.0430     6.3920   -33.1260     2.2640 
  136.0000    83.3890    24.1260     5.6190     5.4890     5.7730   -32.8420     2.2950 
  136.1250    87.5940    24.1190     4.9580     5.0620     5.3470   -32.7520     2.3020 
  136.2500    91.5670    24.1050     5.2770     4.7950     5.1260   -32.6080     2.3030 
  136.3750    92.9760    24.0940     5.7390     4.6960     5.0960   -32.5860     2.3080 
  136.5000    90.9170    24.0900     6.0190     4.7500     5.2220   -32.6040     2.3150 
  136.6250    87.3280    24.0960     6.1360     4.9430     5.4680   -32.6590     2.3170 
  136.7500    87.4730    24.0970     6.1990     5.2080     5.7630   -32.9130     2.3120 
  136.8750    90.7990    24.0600     6.3390     5.4960     6.0550   -33.1570     2.3030 
  137.0000    93.1350    23.9770     6.5580     5.7590     6.2920   -33.4890     2.2890 
  137.1250    90.1870    23.8980     6.7670     5.9350     6.4130   -33.7560     2.2740 
  137.2500    84.4940    23.8630     6.7690     6.0200     6.4330   -33.9920     2.2650 
  137.3750    81.0330    23.8500     6.6460     6.0430     6.4030   -34.2190     2.2630 
  137.5000    81.3560    23.8300     6.5530     6.0630     6.4000   -34.3610     2.2670 
  137.6250    83.9140    23.8090     6.5690     6.1450     6.4930   -34.5280     2.2670 
  137.7500    85.7530    23.7880     6.6670     6.2790     6.6470   -34.6390     2.2570 
  137.8750    85.4690    23.7570     6.9600     6.4070     6.7780   -34.6860     2.2360 
  138.0000    82.1160    23.7150     7.3480     6.4450     6.7830   -34.6480     2.2160 
  138.1250    79.8690    23.7050     7.3180     6.2950     6.5630   -34.6400     2.2170 
  138.2500    82.0740    23.7570     6.8960     5.9920     6.1830   -34.6140     2.2390 
  138.3750    85.0210    23.9250     6.0840     5.6090     5.7450   -34.5890     2.2670 
  138.5000    87.6490    24.2320     5.3380     5.2420     5.3590   -34.5810     2.2820 
  138.6250    89.9220    24.5630     5.2350     4.9690     5.1000   -34.5930     2.2790 
