~V
VERS. 2.00: Ver 2.00
~W
STRT.M 55.0000:
STOP.M 268.0000:
STEP.M 0.1250:
NULL. -999.2500:
UWI. DF5025:
~C
DEPT.M :
SP.MV :
GR.API :
CALI.CM :
RXO.OHMM :
RI. :
RML.OHMM :
DEN.GM/CC :
~A
# ...
  100.0000   -19.8840    67.3520    23.6200     8.4010     7.3800    10.4380     2.2670 
  100.1250   -19.2580    71.6860    23.6570     7.1350     6.6750     9.2160     2.2960 
  100.2500   -18.8550    79.8620    23.8380     5.8340     6.0930     8.1100     2.3210 
  100.3750   -18.7550    86.5170    24.2490     5.0310     5.7430     7.4010     2.3200 
  100.5000   -18.9570    87.3020    24.6480     5.0340     5.6780     7.2470     2.3000 
  100.6250   -19.4130    82.3220    24.8480     5.8140     5.9450     7.7190     2.2760 
  100.7500   -19.9970    76.0430    25.0620     6.8390     6.4420     8.5320     2.2560 
  100.8750   -20.6420    71.2380    25.2650     7.8400     7.0680     9.4290     2.2370 
  101.0000   -21.2540    68.5130    25.0930     8.7480     7.6750    10.1410     2.2240 
  101.1250   -21.7710    67.4030    24.7620     9.4660     8.0660    10.3950     2.2260 
  101.2500   -22.1300    67.9550    24.9090     9.8190     8.1990    10.2540     2.2320 
  101.3750   -22.2830    68.6890    25.1190     9.7270     8.1380     9.9230     2.2290 
  101.5000   -22.2540    67.9540    24.8300     9.3840     8.0350     9.7040     2.2120 
  101.6250   -22.0990    67.0750    24.2300     9.1970     8.1040     9.9590     2.2000 
  101.7500   -21.9230    67.7160    23.9730     9.7320     8.4470    10.7500     2.2230 
  101.8750   -21.7690    67.8580    24.0660    11.9790     9.0760    12.0070     2.2910 
  102.0000   -21.6810    66.0450    24.2380    16.5140     9.9050    13.4850     2.3900 
  102.1250   -21.6890    65.6240    24.9160    21.3490    10.7080    14.6930     2.4710 
  102.2500   -21.7710    67.9180    25.9380    22.6970    11.2120    15.2330     2.4870 
  102.3750   -21.9110    70.9730    26.3840    19.5830    11.2570    14.9540     2.4310 
  102.5000   -22.0830    73.0800    25.6500    14.5070    10.8500    13.9890     2.3380 
  102.6250   -22.2710    74.5990    24.4100    11.1920    10.1370    12.6730     2.2680 
  102.7500   -22.4310    75.3490    23.7950    10.0600     9.3940    11.4340     2.2390 
  102.8750   -22.5620    74.7900    23.7510     9.9430     8.7620    10.4620     2.2370 
  103.0000   -22.6590    74.2440    23.7630     9.9370     8.3080     9.8090     2.2410 
  103.1250   -22.7130    74.8700    23.6980     9.8170     8.0710     9.4890     2.2440 
  103.2500   -22.7380    75.9140    23.6010     9.6890     7.9980     9.3960     2.2460 
  103.3750   -22.7610    76.5190    23.5190     9.5920     8.0490     9.4730     2.2490 
  103.5000   -22.8130    77.0050    23.4900     9.5060     8.1750     9.6510     2.2530 
  103.6250   -22.9070    75.8810    23.4960     9.4210     8.3080     9.8310     2.2530 
  103.7500   -23.0560    72.2230    23.4970     9.3530     8.3900     9.9340     2.2470 
  103.8750   -23.2540    67.9540    23.4970     9.3010     8.4020     9.9480     2.2350 
  104.0000   -23.4750    67.5650    23.4970     9.2380     8.3520     9.9070     2.2230 
  104.1250   -23.6880    72.2730    23.4970     9.1580     8.2630     9.8680     2.2120 
  104.2500   -23.8740    75.9500    23.4970     9.1080     8.1670     9.8620     2.1990 
  104.3750   -24.0310    76.4470    23.4970     9.1220     8.0820     9.8830     2.1850 
  104.5000   -24.1320    74.3540    23.4970     9.1930     8.0180     9.9120     2.1790 
  104.6250   -24.1640    71.9560    23.4960     9.2970     8.0000     9.9370     2.1930 
  104.7500   -24.1170    70.0260    23.4870     9.4230     8.0280     9.9570     2.2200 
  104.8750   -23.9580    67.3520    23.4710     9.5870     8.0860     9.9660     2.2460 
  105.0000   -23.6840    63.6950    23.4570     9.7820     8.1460     9.9590     2.2550 
  105.1250   -23.3050    62.7380    23.4640     9.9350     8.1940     9.9870     2.2430 
  105.2500   -22.8560    66.6830    23.4880     9.9670     8.2860    10.1690     2.2250 
  105.3750   -22.3390    71.5890    23.5000     9.9760     8.5140    10.6520     2.2180 
  105.5000   -21.8140    72.8470    23.4640    10.6680     8.9730    11.5500     2.2360 
  105.6250   -21.3460    72.5780    23.4270    14.8510     9.7280    12.8740     2.2920 
  105.7500   -20.9750    75.2500    23.7340    23.7930    10.5910    14.2180     2.3630 
  105.8750   -20.7510    77.6660    24.3740    34.4650    11.2820    15.0710     2.4120 
  106.0000   -20.6820    75.9270    24.8590    39.8250    11.4970    15.0080     2.4080 
  106.1250   -20.7630    72.2150    24.7450    33.9170    11.0190    13.8870     2.3460 
  106.2500   -20.9450    70.0660    24.3550    23.0480    10.1470    12.3680     2.2730 
  106.3750   -21.2160    68.4180    24.0070    14.1120     9.1950    10.9920     2.2160 
  106.5000   -21.5320    65.6090    23.7440     9.8650     8.4070    10.0640     2.1840 
  106.6250   -21.8380    63.6770    23.5870     9.0330     7.9260     9.6350     2.1760 
  106.7500   -22.1150    64.9940    23.5760     8.9190     7.6750     9.4190     2.1790 
  106.8750   -22.3400    67.1130    23.6060     8.7640     7.5750     9.2510     2.1860 
  107.0000   -22.5230    67.2240    23.6510     8.4410     7.5530     9.0870     2.1940 
  107.1250   -22.6710    66.7720    23.7120     8.2000     7.5650     9.0160     2.2030 
  107.2500   -22.8190    68.4530    23.7710     8.2770     7.6030     9.1150     2.2110 
  107.3750   -22.9770    71.2660    23.8060     8.6430     7.6860     9.3940     2.2160 
  107.5000   -23.1550    72.0890    23.8120     9.0720     7.8240     9.7840     2.2180 
  107.6250   -23.3510    70.4600    23.8090     9.3330     7.9980    10.1540     2.2190 
  107.7500   -23.5410    69.1880    23.8080     9.4440     8.1510    10.3910     2.2160 
  107.8750   -23.7180    68.5050    23.8060     9.4790     8.2360    10.4410     2.2080 
  108.0000   -23.8630    66.9370    23.8300     9.4640     8.2290    10.3030     2.1960 
  108.1250   -23.9520    65.8080    23.9090     9.3700     8.1270    10.0070     2.1860 
  108.2500   -23.9870    67.4670    24.0320     9.2010     7.9850     9.6580     2.1790 
  108.3750   -23.9420    69.8890    24.1390     8.9660     7.8490     9.3400     2.1760 
  108.5000   -23.7990    70.3400    24.1580     8.6770     7.7610     9.1270     2.1750 
  108.6250   -23.5180    69.5880    24.0780     8.3560     7.7490     9.0690     2.1770 
  108.7500   -23.1120    69.0420    24.0020     8.0770     7.7710     9.0910     2.1830 
  108.8750   -22.5590    68.2070    24.0480     7.9450     7.7630     9.0820     2.1900 
  109.0000   -21.8440    66.4850    24.1920     8.0000     7.6610     8.9270     2.1950 
  109.1250   -20.9940    66.8750    24.4030     8.0250     7.4110     8.5370     2.2020 
  109.2500   -20.0590    73.0170    24.6360     7.6670     7.0530     7.9890     2.2180 
  109.3750   -19.0950    85.0850    24.7590     6.8450     6.6370     7.3740     2.2420 
  109.5000   -18.1330    95.6240    24.7250     5.8540     6.2190     6.7850     2.2560 
  109.6250   -17.2170    96.2110    24.6690     5.1540     5.8510     6.3180     2.2500 
  109.7500   -16.3820    94.5670    24.7190     4.7590     5.5590     5.9840     2.2470 
  109.8750   -15.6560    96.5370    24.7960     4.4660     5.3610     5.7730     2.2680 
  110.0000   -15.0800    99.2530    24.8520     4.1750     5.2670     5.6600     2.3130 
  110.1250   -14.6530   101.0200    25.0610     4.0680     5.2820     5.6420     2.3570 
  110.2500   -14.3180   104.0400    25.2970     4.3270     5.3670     5.7120     2.3870 
  110.3750   -14.0530   105.7870    25.4010     4.9280     5.4950     5.8720     2.4070 
  110.5000   -13.8330   103.8710    25.3110     5.5630     5.6360     6.0850     2.4220 
  110.6250   -13.6400   101.1910    25.0830     5.7350     5.7440     6.2570     2.4200 
  110.7500   -13.4450    98.8020    24.8650     5.4410     5.7760     6.3040     2.3970 
  110.8750   -13.2490    97.9500    24.7240     4.9690     5.7000     6.1900     2.3630 
  111.0000   -13.0430   101.0980    24.6960     4.5860     5.5180     5.9380     2.3370 
  111.1250   -12.8380   107.0160    24.6980     4.3260     5.2810     5.6270     2.3330 
