~V
VERS. 2.00: Ver 2.00
~W
STRT.M 55.0000:
STOP.M 274.0000:
STEP.M 0.1250:
NULL. -999.2500:
UWI. DF5018:
~C
DEPT.M :
SP.MV :
GR.API :
CALI.CM :
RXO.OHMM :
RI. :
RML.OHMM :
DEN.GM/CC :
~A
# ...
  122.5000   -17.6270   103.7740    24.4330     8.0140     5.6610     7.2700     2.3190 
  122.6250   -17.8370    95.9630    24.4260     7.6150     5.7700     7.4110     2.2600 
  122.7500   -17.9530    90.4040    24.4230     7.6190     5.8030     7.4590     2.2180 
  122.8750   -18.0140    90.2270    24.4230     7.7300     5.7550     7.4030     2.2000 
  123.0000   -17.9140    93.0090    24.4310     7.7100     5.6370     7.2480     2.2000 
  123.1250   -17.8020    95.2150    24.4850     7.1990     5.4600     7.0060     2.2090 
  123.2500   -17.5930    98.1010    24.5940     6.6220     5.2510     6.7300     2.2240 
  123.3750   -17.3800   102.4160    24.7070     6.3490     5.0390     6.4640     2.2460 
  123.5000   -17.1150   106.4590    24.7630     6.4090     4.8560     6.2430     2.2660 
  123.6250   -16.8720   107.5480    24.7700     6.3740     4.7290     6.1010     2.2820 
  123.7500   -16.6230   105.2640    24.7710     6.0230     4.6480     6.0290     2.2950 
  123.8750   -16.4620   100.4770    24.7710     5.7610     4.6040     6.0110     2.3070 
  124.0000   -16.4190    96.2620    24.7650     5.9620     4.5810     6.0110     2.3140 
  124.1250   -16.3400    97.3880    24.7420     6.5940     4.5590     5.9960     2.3140 
  124.2500   -16.3280   102.2500    24.7270     6.8240     4.5450     5.9780     2.3110 
  124.3750   -16.2600   105.5610    24.7220     6.5020     4.5770     6.0070     2.3050 
  124.5000   -16.2420   103.9540    24.7050     6.1200     4.6830     6.1410     2.2980 
  124.6250   -16.2360    98.7460    24.6170     6.1460     4.8680     6.4260     2.2850 
  124.7500   -16.2570    94.1870    24.4640     6.6770     5.0640     6.7730     2.2670 
  124.8750   -16.2470    92.0580    24.3540     7.2430     5.1920     7.0380     2.2550 
  125.0000   -16.1570    93.4390    24.3430     7.3640     5.1670     7.0560     2.2620 
  125.1250   -16.1250    98.1980    24.4590     6.9580     4.9330     6.7160     2.2870 
  125.2500   -16.0260   101.5800    24.6270     6.2000     4.5960     6.2010     2.3170 
  125.3750   -16.0000   103.8720    24.7510     5.5280     4.2680     5.6950     2.3450 
  125.5000   -15.9860   107.3240    24.7940     5.1660     4.0340     5.3310     2.3700 
  125.6250   -16.0300   110.9250    24.7940     5.1860     3.9600     5.2030     2.3790 
  125.7500   -16.1900   109.1370    24.7940     5.4680     4.0290     5.2870     2.3670 
  125.8750   -16.4190   102.4990    24.7810     5.7980     4.2430     5.5890     2.3340 
  126.0000   -16.7850    94.6390    24.7220     6.1290     4.6110     6.1240     2.2900 
  126.1250   -17.1540    87.3840    24.5700     6.8190     5.1530     6.9190     2.2570 
  126.2500   -17.5870    83.1240    24.4150     8.1740     5.7900     7.8500     2.2530 
  126.3750   -17.9240    84.6660    24.3330     9.8730     6.4110     8.7450     2.2770 
  126.5000   -18.2060    88.5620    24.3340    11.2360     6.8610     9.3740     2.3080 
  126.6250   -18.3220    88.5370    24.3980    11.4790     6.9510     9.4700     2.3210 
  126.7500   -18.3040    85.0320    24.4740    10.5840     6.7260     9.1050     2.3160 
  126.8750   -18.1440    83.4650    24.5070     9.1510     6.2730     8.4300     2.2980 
  127.0000   -17.8400    85.3400    24.5130     7.9840     5.7070     7.6250     2.2800 
  127.1250   -17.4090    88.9430    24.5140     7.1950     5.1390     6.8410     2.2800 
  127.2500   -16.8550    93.9580    24.5120     6.6090     4.6760     6.1860     2.2970 
  127.3750   -16.3700    98.0610    24.5110     6.0650     4.4150     5.7940     2.3220 
  127.5000   -15.8460    95.8380    24.5110     5.8030     4.4590     5.8460     2.3500 
  127.6250   -15.3900    87.2660    24.5110     6.2040     4.9610     6.5880     2.3930 
  127.7500   -14.9460    80.9130    24.5110     7.6220     5.8470     7.9100     2.4490 
  127.8750   -14.5340    81.2080    24.5100    10.7170     6.9380     9.5240     2.4980 
  128.0000   -14.1930    85.3470    24.5020    14.2380     7.8340    10.7630     2.5110 
  128.1250   -13.8750    91.5400    24.4700    14.1050     7.9270    10.6030     2.4710 
  128.2500   -13.6680    99.1100    24.4230    10.5310     7.2920     9.3110     2.4170 
  128.3750   -13.4380   103.5330    24.3910     7.1380     6.3280     7.6940     2.3810 
  128.5000   -13.2840   102.5220    24.3810     5.7970     5.4340     6.4040     2.3770 
  128.6250   -13.1950    98.6640    24.3720     5.6640     4.8610     5.7420     2.3850 
  128.7500   -13.1370    95.9540    24.3510     5.6740     4.5690     5.5150     2.3850 
  128.8750   -13.1480    96.3160    24.3300     5.6040     4.4620     5.5180     2.3760 
  129.0000   -13.1500    99.3980    24.3230     5.4970     4.4260     5.5490     2.3680 
  129.1250   -13.3140   101.6200    24.3290     5.4150     4.3780     5.4830     2.3750 
  129.2500   -13.4610    98.6730    24.3310     5.3410     4.3040     5.3650     2.3910 
  129.3750   -13.6710    91.7150    24.3290     5.2710     4.2180     5.2610     2.4060 
  129.5000   -13.9000    86.9520    24.3210     5.2450     4.1360     5.2050     2.4110 
  129.6250   -14.1830    85.6580    24.3180     5.2530     4.0800     5.1900     2.4070 
  129.7500   -14.5280    83.7410    24.3170     5.2150     4.0560     5.1850     2.4010 
  129.8750   -14.9370    80.5400    24.3210     5.0960     4.0690     5.1920     2.3910 
  130.0000   -15.4490    78.1080    24.3260     4.9720     4.1300     5.2460     2.3750 
  130.1250   -16.0210    79.8890    24.3260     4.9710     4.2880     5.4510     2.3610 
  130.2500   -16.6940    83.4860    24.3230     5.3590     4.5650     5.8550     2.3480 
  130.3750   -17.4160    84.1530    24.3220     6.3580     4.9610     6.4370     2.3260 
  130.5000   -18.2370    80.0350    24.3230     7.8840     5.4390     7.0880     2.2950 
  130.6250   -18.9960    73.4690    24.3200     9.2670     5.9600     7.6900     2.2770 
  130.7500   -19.8050    69.5020    24.3130    10.2520     6.5160     8.2790     2.2900 
  130.8750   -20.5720    69.2660    24.3090    10.7430     7.1540     8.9820     2.3390 
  131.0000   -21.2620    70.3170    24.3080    11.2410     7.9250     9.9230     2.4090 
  131.1250   -21.8850    69.6670    24.3080    13.5840     8.8290    11.1380     2.4530 
  131.2500   -22.4090    66.9290    24.3010    17.0260     9.6690    12.3100     2.4360 
  131.3750   -22.8880    64.9800    24.2720    17.6870    10.1920    13.0140     2.3580 
  131.5000   -23.2390    65.8280    24.2060    14.6180    10.2340    12.9680     2.2570 
  131.6250   -23.6140    66.8740    24.1740    11.9550     9.7910    12.2170     2.1860 
  131.7500   -23.9160    66.1920    24.1630    10.9560     9.1540    11.2630     2.1570 
  131.8750   -24.1860    65.3660    24.1630    10.5140     8.5190    10.4180     2.1630 
  132.0000   -24.4590    66.4230    24.1630     9.9200     8.0130     9.8410     2.1880 
  132.1250   -24.6650    68.9940    24.1630     9.3290     7.6910     9.5510     2.2130 
  132.2500   -24.8950    70.4720    24.1630     8.9910     7.4870     9.3990     2.2260 
  132.3750   -25.0160    70.9210    24.1630     8.9210     7.3750     9.3250     2.2230 
  132.5000   -25.1600    71.7760    24.1630     9.0620     7.3450     9.3090     2.2130 
  132.6250   -25.2260    73.5260    24.1630     9.2750     7.3840     9.3430     2.2060 
  132.7500   -25.2430    75.0150    24.1630     9.4070     7.4480     9.3960     2.2050 
  132.8750   -25.2370    74.9320    24.1630     9.4910     7.5230     9.4620     2.2050 
  133.0000   -25.1670    72.4550    24.1630     9.5860     7.6140     9.5480     2.2010 
  133.1250   -25.1010    69.8430    24.1630     9.7200     7.7410     9.6920     2.1940 
  133.2500   -24.9770    68.4030    24.1630     9.8960     7.9200     9.9170     2.1810 
  133.3750   -24.8900    67.5070    24.1630    10.1190     8.1760    10.2270     2.1640 
  133.5000   -24.7210    65.3360    24.1630    10.5050     8.5040    10.6020     2.1490 
  133.6250   -24.5890    63.7270    24.1630    11.0050     8.8550    10.9950     2.1480 
