~V
VERS. 2.00: Ver 2.00
~W
STRT.M 55.0000:
STOP.M 253.0000:
STEP.M 0.1250:
NULL. -999.2500:
UWI. DF5051:
~C
DEPT.M :
SP.MV :
GR.API :
RML.OHMM :
RI. :
RXO.OHMM :
CALI.CM :
DEN.GM/CC :
~A
# ...
  212.5000   -12.5270    62.5050    58.9640    54.3690    49.2880    24.3660     2.2180 
  212.6250   -12.5740    64.4370    59.9730    54.9630    49.0060    24.3570     2.2080 
  212.7500   -12.6060    62.9980    61.4240    55.9650    49.3400    24.3270     2.1920 
  212.8750   -12.6290    58.2610    63.1310    57.2630    50.3120    24.2460     2.1810 
  213.0000   -12.6310    55.7330    64.6070    58.4730    51.9140    24.1300     2.1840 
  213.1250   -12.6100    59.1250    65.0500    58.9150    54.3250    24.0180     2.1950 
  213.2500   -12.5390    61.7840    64.3830    58.4340    55.5110    23.9310     2.2030 
  213.3750   -12.4780    59.6150    63.1200    57.3920    54.7820    23.9810     2.2000 
  213.5000   -12.3320    57.6110    62.2450    56.5900    53.2650    24.1410     2.1970 
  213.6250   -12.1620    60.1540    62.7900    56.9490    54.7410    24.2320     2.2210 
  213.7500   -11.9840    61.7240    64.3230    58.1580    63.2980    24.1800     2.2840 
  213.8750   -11.7550    59.1390    65.6050    59.1730    78.6200    24.1010     2.3850 
  214.0000   -11.5690    55.0360    64.9930    58.5900    96.0820    24.0470     2.4940 
  214.1250   -11.3890    52.6110    60.8580    54.9260   101.4590    24.0360     2.5570 
  214.2500   -11.2700    51.9490    54.1370    49.0400    81.9530    24.0440     2.5540 
  214.3750   -11.1740    54.7710    46.7370    42.5590    52.3330    24.0650     2.5000 
  214.5000   -11.1600    61.6870    40.9160    37.3670    35.7820    24.0710     2.4260 
  214.6250   -11.2320    68.3970    39.0010    35.3550    34.2610    24.0470     2.3570 
  214.7500   -11.3250    69.5630    41.6400    36.6990    37.1030    24.0040     2.3040 
  214.8750   -11.5090    65.1930    48.0540    41.4730    43.3660    23.9110     2.2680 
  215.0000   -11.6730    59.6180    57.5390    49.2910    53.0260    23.6990     2.2470 
  215.1250   -11.8400    57.9070    68.7230    59.2080    63.6370    23.3670     2.2420 
  215.2500   -11.9840    60.6980    79.1680    68.9800    72.0870    23.2560     2.2450 
  215.3750   -12.0950    63.3440    87.0720    76.8570    77.8210    23.5560     2.2510 
  215.5000   -12.2040    61.9140    91.4640    81.7650    82.2270    24.0700     2.2570 
  215.6250   -12.2510    58.2670    92.1480    83.2690    82.7800    24.2980     2.2640 
  215.7500   -12.2770    57.3330    90.8610    82.7630    77.9770    24.3400     2.2720 
  215.8750   -12.2200    57.9350    88.5560    81.0820    71.1870    24.2860     2.2820 
  216.0000   -12.1790    57.2330    85.6770    78.6940    67.6400    24.1780     2.2910 
  216.1250   -12.1070    56.2070    82.1640    75.6450    66.5310    24.0430     2.2960 
  216.2500   -12.0140    57.0820    78.0630    72.0840    63.6840    23.9170     2.2970 
  216.3750   -11.9400    59.2050    73.5650    68.2110    59.4660    23.8110     2.2930 
  216.5000   -11.8010    61.0940    69.2340    64.5010    55.7050    23.8300     2.2820 
  216.6250   -11.6960    61.6860    66.3330    62.0300    52.4910    24.0290     2.2660 
  216.7500   -11.5810    63.4600    65.5830    61.4660    50.1780    24.2120     2.2550 
  216.8750   -11.4480    67.5520    66.9120    62.8340    49.5670    24.2460     2.2540 
  217.0000   -11.3000    70.7370    68.9780    65.0100    51.5910    24.1070     2.2700 
  217.1250   -11.1160    68.3600    68.5760    65.0480    61.7580    23.8950     2.3010 
  217.2500   -10.9280    66.3140    63.3110    60.4760    76.3470    23.7990     2.3360 
  217.3750   -10.7590    68.2630    52.7130    50.5940    88.9050    23.9280     2.3680 
  217.5000   -10.6290    71.6080    39.0460    37.5180    91.1700    24.1550     2.3920 
  217.6250   -10.5600    73.9420    26.7220    25.6980    66.0980    24.1450     2.4060 
  217.7500   -10.5590    77.4460    18.1070    17.4540    26.4340    24.0100     2.4120 
  217.8750   -10.6400    81.3670    13.1920    12.6540    11.5040    23.9810     2.4130 
  218.0000   -10.7200    83.8130    11.0400    10.3670     8.7500    24.1570     2.4130 
  218.1250   -10.8430    85.2610    10.7860     9.8580     9.1250    24.3870     2.4090 
  218.2500   -11.0230    88.3500    11.2800    10.1640     9.4780    24.5150     2.4040 
  218.3750   -11.1980    94.5320    11.9670    10.8190     9.2500    24.5560     2.3990 
  218.5000   -11.4160   102.6270    12.4600    11.4320     9.0230    24.5710     2.3930 
  218.6250   -11.5750   107.0110    12.5130    11.6820     9.1340    24.6020     2.3900 
  218.7500   -11.7120   107.3490    12.2560    11.5920     9.4540    24.6200     2.3890 
  218.8750   -11.8820   107.5650    11.8620    11.2950     9.7130    24.6040     2.3910 
  219.0000   -12.0820   110.3440    11.5250    10.9690     9.8540    24.5640     2.3960 
  219.1250   -12.3910   111.5180    11.5490    10.8430    10.1160    24.5460     2.4030 
  219.2500   -12.7320   109.7280    12.0720    11.0750    10.7520    24.5440     2.4070 
  219.3750   -13.1410   105.6490    13.2480    11.7970    12.0760    24.5270     2.4050 
  219.5000   -13.5710    99.4120    15.0080    13.0850    14.3900    24.4840     2.3960 
  219.6250   -14.0620    93.1420    17.3800    14.9900    17.7380    24.4390     2.3820 
  219.7500   -14.6020    87.4310    19.8260    17.2270    21.3150    24.4210     2.3700 
  219.8750   -15.0780    81.4990    22.0700    19.5070    24.2350    24.4180     2.3610 
  220.0000   -15.5730    75.2940    24.2130    21.5200    26.1380    24.4170     2.3540 
  220.1250   -15.9970    72.4660    25.8000    22.9930    27.0700    24.4140     2.3470 
  220.2500   -16.3750    73.7970    27.0070    24.0790    28.0550    24.4130     2.3380 
  220.3750   -16.6940    75.6620    28.1430    25.0120    29.3400    24.4110     2.3300 
  220.5000   -16.9400    75.6770    29.4600    26.0190    30.0160    24.3990     2.3240 
  220.6250   -17.1220    74.8750    31.0450    27.2220    30.6780    24.3690     2.3220 
  220.7500   -17.2330    74.7260    32.6490    28.4770    32.4420    24.3550     2.3240 
  220.8750   -17.3490    75.7860    33.9590    29.5580    34.7220    24.3520     2.3280 
  221.0000   -17.3980    76.1980    34.6840    30.2290    35.6150    24.3520     2.3320 
  221.1250   -17.4080    75.5500    34.5770    30.2640    34.8660    24.3520     2.3330 
  221.2500   -17.3980    76.5260    33.9160    29.8360    33.2670    24.3520     2.3310 
  221.3750   -17.3280    79.1560    33.0350    29.1920    31.7720    24.3520     2.3260 
  221.5000   -17.2630    81.4540    32.2880    28.6230    31.0950    24.3520     2.3210 
  221.6250   -17.1730    82.7230    31.9840    28.4070    30.7080    24.3460     2.3180 
  221.7500   -17.0740    84.1040    32.0880    28.5540    31.0870    24.3220     2.3170 
  221.8750   -16.9110    83.8010    32.4740    28.9850    32.3690    24.2800     2.3140 
  222.0000   -16.7690    81.9590    32.9480    29.5450    33.7990    24.2340     2.3090 
  222.1250   -16.6470    82.2780    33.2860    30.0310    34.2670    24.1920     2.3000 
  222.2500   -16.5220    84.0960    33.4000    30.3230    34.3660    24.1260     2.2930 
  222.3750   -16.4430    85.3450    33.3110    30.4030    33.9950    24.0730     2.2930 
  222.5000   -16.3420    84.9750    33.1360    30.3520    33.2500    24.1080     2.2980 
  222.6250   -16.3010    83.1910    33.0550    30.3150    32.2780    24.2200     2.3070 
  222.7500   -16.2810    79.5280    33.1260    30.3720    32.2810    24.2690     2.3140 
  222.8750   -16.2930    75.3980    33.2850    30.4880    33.3610    24.2670     2.3170 
  223.0000   -16.3170    73.5600    33.3950    30.5620    35.3120    24.2370     2.3170 
  223.1250   -16.3280    75.0460    33.3300    30.4910    36.3560    24.2210     2.3150 
  223.2500   -16.3540    78.3470    33.2170    30.3660    36.1370    24.2160     2.3140 
  223.3750   -16.3890    80.5690    33.4200    30.4610    34.5290    24.2160     2.3120 
  223.5000   -16.4520    81.5130    34.4800    31.2210    32.8390    24.2140     2.3110 
  223.6250   -16.4990    80.8760    37.1470    33.3260    34.5070    24.2000     2.3110 
