~V
VERS. 2.00: Ver 2.00
~W
STRT.M 55.0000:
STOP.M 271.0000:
STEP.M 0.1250:
NULL. -999.2500:
UWI. DF5009:
~C
DEPT.M :
GR.API :
CALI.CM :
RXO.OHMM :
RI. :
RML.OHMM :
DEN.GM/CC :
SP.MV :
~A
# ...
  201.2500    85.1260    25.3610    19.9070    12.7370    16.9910     2.3970    -9.7870 
  201.3750    84.5990    25.4220    16.1770    12.6730    16.7090     2.3900    -9.2900 
  201.5000    85.0210    25.5070    15.5050    12.3480    16.1550     2.3770    -8.6860 
  201.6250    87.4590    25.5710    15.8340    11.7470    15.2890     2.3630    -8.1420 
  201.7500    91.9140    25.6150    14.4290    10.9150    14.1120     2.3550    -7.5850 
  201.8750    98.2160    25.6560    12.0380     9.8850    12.6420     2.3590    -7.0240 
  202.0000   104.2110    25.6730    10.3930     8.7540    11.0220     2.3730    -6.4360 
  202.1250   104.7890    25.5930     8.6720     7.7140     9.5840     2.3960    -5.8940 
  202.2500    99.9780    25.4460     7.0440     6.9340     8.6020     2.4160    -5.3620 
  202.3750    92.4070    25.3510     6.2910     6.5040     8.1800     2.4290    -4.8210 
  202.5000    86.5430    25.3950     6.6720     6.4190     8.2370     2.4320    -4.4530 
  202.6250    85.0920    25.5370     7.4850     6.6010     8.5450     2.4280    -4.1300 
  202.7500    86.9150    25.6590     8.1410     6.8070     8.7360     2.4180    -3.8580 
  202.8750    89.4920    25.7150     8.3290     6.8450     8.5780     2.4070    -3.6280 
  203.0000    88.9970    25.6830     7.6960     6.6080     8.0210     2.3970    -3.3920 
  203.1250    80.4400    25.5540     6.4580     6.1410     7.2350     2.3880    -3.3250 
  203.2500    67.7020    25.3830     5.6300     5.6590     6.5330     2.3810    -3.1350 
  203.3750    57.0880    25.2040     5.3020     5.2850     6.0540     2.3740    -3.0560 
  203.5000    53.2300    25.0350     5.1660     5.0680     5.8120     2.3690    -2.9950 
  203.6250    55.1340    24.9530     5.0960     5.0190     5.7700     2.3690    -2.9140 
  203.7500    56.6740    24.9840     5.0180     5.0700     5.8230     2.3790    -2.9370 
  203.8750    56.5710    25.0660     5.0190     5.1790     5.9280     2.3980    -2.9780 
  204.0000    58.6940    25.1150     5.1130     5.3150     6.0640     2.4190    -3.1410 
  204.1250    67.0440    25.1180     5.2640     5.4550     6.2200     2.4290    -3.2020 
  204.2500    77.6940    25.1260     5.4300     5.5750     6.3570     2.4250    -3.4500 
  204.3750    85.1850    25.1380     5.5600     5.6480     6.4300     2.4130    -3.7420 
  204.5000    87.7720    25.1160     5.5420     5.6540     6.4070     2.4000    -4.0260 
  204.6250    86.7770    25.0600     5.3870     5.5770     6.2800     2.3920    -4.4210 
  204.7500    82.8650    24.9910     5.1900     5.4550     6.1120     2.3850    -4.7640 
  204.8750    79.0670    24.8780     5.0150     5.3270     5.9600     2.3770    -5.1620 
  205.0000    78.1790    24.7030     4.9610     5.2340     5.8690     2.3680    -5.5270 
  205.1250    80.4920    24.5470     5.1180     5.2180     5.8880     2.3610    -6.0150 
  205.2500    84.3150    24.4790     5.3670     5.2810     6.0150     2.3550    -6.5210 
  205.3750    89.1210    24.4840     5.5840     5.4280     6.2610     2.3510    -6.9680 
  205.5000    92.3510    24.5410     5.8940     5.6640     6.6380     2.3470    -7.4910 
  205.6250    90.6780    24.6450     6.6310     6.0090     7.1590     2.3420    -7.8720 
  205.7500    88.5420    24.7310     8.0210     6.4240     7.7480     2.3350    -8.2720 
  205.8750    90.0410    24.7370     9.1250     6.8450     8.3040     2.3290    -8.6710 
  206.0000    92.2480    24.6610     9.3610     7.1810     8.7030     2.3230    -9.0220 
  206.1250    91.5700    24.5910     9.7770     7.3230     8.8290     2.3160    -9.3850 
  206.2500    90.5850    24.5890     9.3100     7.2980     8.7610     2.3040    -9.5680 
  206.3750    88.3310    24.6790     8.3840     7.1930     8.6430     2.2850    -9.8060 
  206.5000    84.0510    24.8630     8.0020     7.1440     8.6950     2.2670    -9.9920 
  206.6250    82.0500    25.1060     8.9330     7.3850     9.3030     2.2640   -10.1090 
  206.7500    84.4330    25.3330    10.6920     8.0970    10.7400     2.2760   -10.2750 
  206.8750    88.4410    25.4910    12.3030     9.5300    13.3620     2.2950   -10.3730 
  207.0000    89.9740    25.5860    14.1450    12.0230    17.5460     2.3070   -10.5590 
  207.1250    86.3660    25.6570    20.1040    16.3170    23.9350     2.2940   -10.5970 
  207.2500    79.7690    25.7050    34.4880    22.5020    32.2010     2.2590   -10.7510 
  207.3750    73.5380    25.7100    50.8290    30.3570    41.7740     2.2170   -10.8730 
  207.5000    71.6860    25.6690    58.9900    38.9820    51.5910     2.1800   -10.8580 
  207.6250    72.7880    25.6190    59.2020    47.0840    60.4700     2.1560   -11.0070 
  207.7500    72.7780    25.5850    60.0300    54.4550    68.6720     2.1430   -11.1110 
  207.8750    70.8700    25.5670    73.0660    61.7840    77.2180     2.1380   -11.1650 
  208.0000    69.0050    25.5610    91.2500    69.7240    86.8770     2.1360   -11.2300 
  208.1250    71.2090    25.5640    98.1760    77.9020    97.0240     2.1380   -11.2880 
  208.2500    73.9660    25.5640   102.2390    84.5890   105.1890     2.1410   -11.2730 
  208.3750    73.2090    25.5390   105.1000    88.1020   109.0670     2.1460   -11.3120 
  208.5000    69.1450    25.4770    98.8630    87.8630   108.0310     2.1510   -11.3950 
  208.6250    67.6400    25.4100    89.1060    84.6790   103.5430     2.1510   -11.4330 
  208.7500    69.6230    25.3770    82.1060    81.0030    98.8560     2.1460   -11.4190 
  208.8750    71.1820    25.3750    78.5130    78.1810    95.5370     2.1400   -11.4740 
  209.0000    70.8830    25.3770    75.2120    76.9000    94.2500     2.1380   -11.4860 
  209.1250    70.9790    25.3760    76.8190    77.6870    95.4630     2.1440   -11.5180 
  209.2500    72.5310    25.4200    82.5760    80.2090    98.6610     2.1540   -11.6300 
  209.3750    74.1750    25.5660    89.6320    84.3150   103.6300     2.1590   -11.5900 
  209.5000    73.2010    25.7980    91.1510    89.8090   110.1290     2.1570   -11.6390 
  209.6250    69.6850    25.9660    97.7250    96.5220   117.8660     2.1490   -11.6140 
  209.7500    68.1780    25.9880   111.1850   103.4590   125.5050     2.1450   -11.5960 
  209.8750    70.7730    25.9420   122.5830   109.2080   131.1130     2.1460   -11.5820 
  210.0000    73.9720    25.9300   124.6960   112.0070   132.3580     2.1510   -11.4440 
  210.1250    71.8890    25.9530   122.5510   109.7710   126.8460     2.1600   -11.4630 
  210.2500    67.6310    25.9540   117.7740   103.5640   116.8110     2.1700   -11.3610 
  210.3750    66.0780    25.8920   101.6330    95.2500   105.2150     2.1770   -11.3640 
  210.5000    67.2370    25.7300    80.6390    87.1270    94.9020     2.1760   -11.3400 
  210.6250    68.4100    25.4700    70.5290    81.3040    87.9780     2.1660   -11.2480 
  210.7500    68.2100    25.2540    68.6900    77.9770    84.0800     2.1540   -11.2640 
  210.8750    69.5890    25.1740    71.4390    76.8570    82.6410     2.1440   -11.2510 
  211.0000    73.2380    25.2220    77.3580    77.3090    82.8160     2.1430   -11.4190 
  211.1250    75.6440    25.3460    80.4950    78.3570    83.3780     2.1520   -11.4530 
  211.2500    74.0920    25.4690    78.0580    78.4970    82.6210     2.1680   -11.5720 
  211.3750    71.1420    25.5470    75.3260    76.3920    79.1600     2.1850   -11.7000 
  211.5000    70.6830    25.5630    73.6680    71.4370    72.7090     2.2010   -11.7420 
  211.6250    72.3250    25.5100    68.5820    64.5500    64.9700     2.2090   -12.0000 
  211.7500    73.4710    25.4330    56.2650    58.4830    59.0780     2.2110   -12.1790 
  211.8750    74.1440    25.3760    42.6770    55.3740    57.1640     2.2090   -12.4120 
  212.0000    74.5900    25.3850    35.8280    57.0130    60.7000     2.2050   -12.5480 
  212.1250    75.0360    25.4970    68.5680    66.2240    72.0050     2.2000   -12.6900 
  212.2500    74.2150    25.6610   125.2990    82.9150    90.6890     2.1920   -12.8890 
  212.3750    71.1180    25.8270   175.9920   106.0070   115.8590     2.1790   -12.9240 
