~V
VERS. 2.00: Ver 2.00
~W
STRT.M 65.0000:
STOP.M 258.0000:
STEP.M 0.1250:
NULL. -999.2500:
UWI. DF5030:
~C
DEPT.M :
SP.MV :
GR.API :
RML.OHMM :
RI. :
RXO.OHMM :
CALI.CM :
DEN.GM/CC :
~A
# ...
  166.2500   -16.9740    45.1170    14.8960    13.0680    14.0250    23.6900     2.4540 
  166.3750   -16.8940    43.7670    14.8340    13.0550    14.1580    23.7770     2.4500 
  166.5000   -16.8030    39.5340    14.7880    13.0660    13.9620    23.8840     2.4470 
  166.6250   -16.7430    40.0440    14.7750    13.1110    13.9400    23.9740     2.4440 
  166.7500   -16.7720    45.1940    14.8160    13.1940    14.2390    24.0630     2.4440 
  166.8750   -16.8240    48.0020    14.9300    13.3190    14.6700    24.1100     2.4460 
  167.0000   -16.8300    49.1640    15.0730    13.4550    14.9840    24.1270     2.4520 
  167.1250   -16.8320    49.5640    15.1830    13.5610    15.2110    24.1230     2.4610 
  167.2500   -16.8880    47.2440    15.1870    13.5940    15.5500    24.1180     2.4730 
  167.3750   -17.0040    45.2080    15.0090    13.5060    15.7770    24.1180     2.4830 
  167.5000   -17.1170    48.9940    14.6910    13.3200    15.4190    24.1250     2.4860 
  167.6250   -17.1800    53.6370    14.2900    13.0730    14.5890    24.1280     2.4840 
  167.7500   -17.1690    55.7320    13.8770    12.8140    13.7910    24.1370     2.4800 
  167.8750   -17.1650    55.4660    13.5210    12.6020    13.4610    24.1220     2.4790 
  168.0000   -17.2120    55.2280    13.2390    12.4620    13.4060    24.1150     2.4860 
  168.1250   -17.2820    54.4510    13.0370    12.4060    13.3650    24.1120     2.4970 
  168.2500   -17.3460    51.8690    12.9220    12.4350    13.5160    24.1120     2.5100 
  168.3750   -17.3570    49.0150    12.9330    12.5700    13.6900    24.1110     2.5160 
  168.5000   -17.3520    47.6600    13.0700    12.7950    14.0660    24.1080     2.5150 
  168.6250   -17.3890    49.1300    13.3200    13.0930    14.4740    24.1050     2.5100 
  168.7500   -17.5110    51.4700    13.6240    13.4170    14.7460    24.1060     2.5040 
  168.8750   -17.6830    48.7060    13.8640    13.6710    14.6020    24.1100     2.5010 
  169.0000   -17.8310    44.5200    13.9280    13.7570    14.4740    24.1140     2.4990 
  169.1250   -17.9470    45.5440    13.7400    13.5910    14.2130    24.1220     2.4930 
  169.2500   -18.0790    51.8460    13.2700    13.1260    13.6300    24.1280     2.4820 
  169.3750   -18.3180    55.6910    12.5110    12.3470    13.1510    24.0940     2.4630 
  169.5000   -18.6580    54.8710    11.6550    11.4170    12.5580    24.0520     2.4430 
  169.6250   -19.0440    54.4640    10.9470    10.5250    12.1470    23.9880     2.4260 
  169.7500   -19.4340    55.1740    10.7420     9.9330    12.3040    23.8730     2.4150 
  169.8750   -19.8760    54.2910    11.9450    10.2710    13.5900    23.7720     2.4080 
  170.0000   -20.4310    55.3420    15.4010    12.3060    17.9680    23.7570     2.3950 
  170.1250   -21.1430    58.2870    22.3580    17.2320    29.6700    23.8530     2.3690 
  170.2500   -21.9300    57.0910    33.8200    26.2570    53.4560    24.0850     2.3290 
  170.3750   -22.6850    49.0620    50.3260    40.5390    89.7140    24.2160     2.2830 
  170.5000   -23.4040    43.1510    69.2020    57.7690   133.7700    24.1670     2.2440 
  170.6250   -24.1320    46.5650    86.4800    74.7060   166.9770    23.9800     2.2210 
  170.7500   -24.9020    53.9250    98.3120    87.5050   168.7830    23.8620     2.2150 
  170.8750   -25.6670    58.6140   101.6410    92.6130   159.3820    23.8310     2.2200 
  171.0000   -26.3820    62.6540    99.4760    92.0300   133.7880    23.8060     2.2260 
  171.1250   -27.0060    64.6890    94.4980    88.1390   115.0100    23.7610     2.2280 
  171.2500   -27.5570    63.6940    88.8760    83.0480   109.2280    23.7320     2.2250 
  171.3750   -28.0940    63.1670    84.5430    78.5950    99.2240    23.7360     2.2210 
  171.5000   -28.6590    64.6350    83.3550    76.3900    82.9200    23.7770     2.2190 
  171.6250   -29.2510    64.1940    87.5530    78.3000    73.1640    23.8660     2.2220 
  171.7500   -29.8090    58.8420   100.1730    86.5310    83.5700    24.0240     2.2250 
  171.8750   -30.3100    52.6650   123.8230   104.5000   120.5520    24.2000     2.2220 
  172.0000   -30.8010    48.4140   154.5670   130.4440   174.0790    24.3750     2.2090 
  172.1250   -31.3160    45.2400   185.4050   160.2080   235.2950    24.4760     2.1890 
  172.2500   -31.8420    44.2550   209.5250   186.0230   283.7550    24.4900     2.1670 
  172.3750   -32.3320    46.1730   213.2050   195.2940   291.0610    24.4640     2.1520 
  172.5000   -32.7730    49.7860   195.2810   184.9460   266.6260    24.4370     2.1500 
  172.6250   -33.1630    52.7220   162.5540   158.8350   213.4060    24.4140     2.1620 
  172.7500   -33.5750    53.9310   127.1560   126.7480   138.4270    24.3740     2.1870 
  172.8750   -34.0410    57.5980    99.9250    99.4430    84.5290    24.3400     2.2190 
  173.0000   -34.4940    64.6560    82.1510    80.4330    58.8620    24.3110     2.2480 
  173.1250   -34.9240    72.3550    72.9120    69.6650    49.0770    24.3000     2.2670 
  173.2500   -35.4060    77.3090    71.1400    66.2960    48.3780    24.3000     2.2730 
  173.3750   -36.0060    74.7240    77.5680    71.0960    57.0760    24.3170     2.2640 
  173.5000   -36.6670    68.7900    91.1730    83.1150    78.3420    24.3500     2.2470 
  173.6250   -37.3270    62.7910   111.9590   102.4060   109.9520    24.3880     2.2280 
  173.7500   -37.9330    56.8310   139.1060   128.1120   145.1510    24.4120     2.2090 
  173.8750   -38.4780    52.0160   170.6630   158.1450   174.6560    24.3950     2.1940 
  174.0000   -39.0470    49.6710   202.0360   187.8520   186.3110    24.3320     2.1830 
  174.1250   -39.6300    48.5040   229.6350   213.7230   195.3050    24.2560     2.1720 
  174.2500   -40.1610    45.6880   251.0470   233.4600   218.7510    24.2280     2.1630 
  174.3750   -40.5440    45.3430   264.6440   245.4510   242.7050    24.3230     2.1580 
  174.5000   -40.8170    47.9200   272.8260   252.0070   247.8980    24.4080     2.1570 
  174.6250   -41.0490    47.9130   277.6810   255.1810   239.6020    24.4200     2.1620 
  174.7500   -41.3020    44.8530   281.7660   257.5610   233.7660    24.3690     2.1710 
  174.8750   -41.6200    42.8070   287.8970   262.1460   236.4730    24.2300     2.1820 
  175.0000   -41.8910    43.3760   296.2860   269.4950   245.4030    23.9980     2.1910 
  175.1250   -42.0620    43.8350   304.6330   277.7800   258.1150    23.8210     2.1960 
  175.2500   -42.1690    41.5890   308.7430   283.1880   269.5090    23.8100     2.1950 
  175.3750   -42.3140    38.2630   302.6050   279.9410   273.6930    23.9340     2.1900 
  175.5000   -42.4900    37.1110   286.3420   267.3340   266.7860    24.0700     2.1820 
  175.6250   -42.6380    38.1580   262.6720   247.1870   247.2560    24.1430     2.1760 
  175.7500   -42.6820    40.6140   236.6220   223.7470   216.6580    24.1620     2.1730 
  175.8750   -42.6220    43.5730   214.5420   202.8450   182.1620    24.1640     2.1760 
  176.0000   -42.5900    48.0200   199.8300   188.2570   157.1530    24.1730     2.1820 
  176.1250   -42.6130    52.7050   194.1630   181.9450   147.1590    24.2020     2.1900 
  176.2500   -42.6270    55.6610   197.9140   184.5600   146.5780    24.2400     2.2000 
  176.3750   -42.5060    55.9000   211.1440   196.4760   157.5450    24.2940     2.2070 
  176.5000   -42.2790    51.6450   229.1590   213.4170   179.6190    24.3630     2.2100 
  176.6250   -42.0010    45.8990   247.3850   231.1460   211.1020    24.4560     2.2080 
  176.7500   -41.7300    45.9110   260.7850   244.8510   251.4810    24.5210     2.2010 
  176.8750   -41.4550    54.9320   263.9900   249.1830   273.8900    24.5380     2.1920 
  177.0000   -41.0890    61.7430   258.4490   244.9560   264.8350    24.5270     2.1850 
  177.1250   -40.6360    58.8000   247.5030   234.9350   234.2480    24.4930     2.1800 
  177.2500   -40.1120    51.2730   235.4370   223.1160   201.6930    24.4520     2.1770 
  177.3750   -39.6030    48.8750   225.8650   213.2190   185.0630    24.4280     2.1760 
