~V
VERS. 2.00: Ver 2.00
~W
STRT.M 72.0000:
STOP.M 259.0000:
STEP.M 0.1250:
NULL. -999.2500:
UWI. DF5020:
~C
DEPT.M :
DEN.GM/CC :
GR.API :
RML.OHMM :
RI. :
RXO.OHMM :
CALI.CM :
SP.MV :
~A
# ...
  150.7500     2.4870    89.6560     9.4150     8.0210     8.9160    24.6880   -22.3240 
  150.8750     2.4750    86.2500    10.7730     9.0230     9.8750    24.6820   -22.2690 
  151.0000     2.5020    76.8710    13.4480    11.1870    13.9950    24.6670   -22.2660 
  151.1250     2.5570    64.2590    17.0530    14.3030    20.6080    24.6180   -22.2140 
  151.2500     2.6100    54.2070    20.3960    17.3900    25.0740    24.5560   -22.1680 
  151.3750     2.6430    49.2730    22.3360    19.4830    27.5650    24.5630   -22.0400 
  151.5000     2.6480    48.8010    22.1260    19.8750    29.7810    24.6220   -21.9050 
  151.6250     2.6210    52.3980    19.8950    18.4340    29.1810    24.4870   -21.8000 
  151.7500     2.5760    57.1360    17.3240    16.3770    24.2530    24.4710   -21.6740 
  151.8750     2.5290    60.7790    15.4740    14.6210    17.7340    24.4690   -21.5610 
  152.0000     2.4980    63.0000    14.8630    13.7460    14.1560    24.4770   -21.4170 
  152.1250     2.4980    65.6490    15.8430    14.1990    14.4870    24.5250   -21.2940 
  152.2500     2.5210    68.0100    18.0020    15.7300    17.1880    24.5330   -21.1700 
  152.3750     2.5550    66.5050    20.8880    18.0210    21.1060    24.5420   -21.0690 
  152.5000     2.5850    59.7960    23.8230    20.5450    26.3970    24.5890   -20.9780 
  152.6250     2.5990    52.5810    25.8650    22.5500    27.8990    24.6030   -20.8800 
  152.7500     2.5990    48.7130    26.7350    23.6820    28.5640    24.6330   -20.7610 
  152.8750     2.5900    48.4400    26.6980    24.0110    26.7960    24.6640   -20.6700 
  153.0000     2.5810    49.5390    26.3510    23.9080    24.2540    24.6870   -20.6180 
  153.1250     2.5780    48.7020    26.1970    23.7660    23.6000    24.7920   -20.6070 
  153.2500     2.5810    46.4180    26.2340    23.7080    24.8030    24.9250   -20.6180 
  153.3750     2.5880    45.1230    26.2480    23.6270    24.2290    25.0230   -20.6470 
  153.5000     2.5930    46.3800    26.0260    23.3780    24.7020    25.0740   -20.7030 
  153.6250     2.5920    47.3150    25.4940    22.8920    23.7580    25.1560   -20.7550 
  153.7500     2.5850    47.3130    24.9230    22.3600    23.9630    25.2510   -20.8980 
  153.8750     2.5760    48.4310    24.5990    22.0180    25.2620    25.2780   -21.0010 
  154.0000     2.5720    50.1420    24.7270    22.0540    22.1980    25.2630   -21.1240 
  154.1250     2.5770    52.0230    25.3970    22.5860    23.9760    25.2170   -21.1720 
  154.2500     2.5900    53.4420    26.3340    23.4060    25.4080    25.1050   -21.2490 
  154.3750     2.6010    53.9120    27.2360    24.2670    27.5630    25.0150   -21.3130 
  154.5000     2.6040    54.1640    27.7830    24.8870    25.4440    24.9260   -21.3870 
  154.6250     2.5930    54.6380    27.6480    24.9480    25.0590    24.7890   -21.4200 
  154.7500     2.5760    54.8000    26.9210    24.4770    24.7420    24.5930   -21.3810 
  154.8750     2.5620    53.7800    25.7830    23.5900    25.1620    24.3730   -21.3680 
  155.0000     2.5580    52.9620    24.4880    22.4930    24.2620    24.0390   -21.3440 
  155.1250     2.5620    54.8870    23.3210    21.4310    23.7700    23.8820   -21.3420 
  155.2500     2.5650    57.9570    22.4230    20.5660    21.6920    23.8470   -21.3070 
  155.3750     2.5630    60.5880    21.8430    19.9690    19.6340    23.8820   -21.2540 
  155.5000     2.5570    61.6710    21.5780    19.6560    18.8850    23.9930   -21.1610 
  155.6250     2.5500    61.3670    21.6210    19.6460    20.5070    24.0810   -21.0970 
  155.7500     2.5430    61.9350    21.8430    19.8290    21.9440    24.1670   -21.0300 
  155.8750     2.5350    62.5460    22.1400    20.1160    22.2840    24.2500   -20.9620 
  156.0000     2.5260    61.3230    22.3980    20.4010    22.3790    24.3300   -20.9170 
  156.1250     2.5180    58.7090    22.4730    20.5510    21.4600    24.3900   -20.8740 
  156.2500     2.5120    58.0530    22.3340    20.5140    21.8080    24.4140   -20.8400 
  156.3750     2.5070    60.7800    21.9990    20.2880    20.8840    24.4980   -20.7980 
  156.5000     2.5020    64.5300    21.5400    19.9160    19.3740    24.5890   -20.7890 
  156.6250     2.4930    66.0490    21.0600    19.4770    18.9430    24.6410   -20.7500 
  156.7500     2.4810    64.2630    20.6500    19.0640    19.1340    24.7190   -20.7610 
  156.8750     2.4670    60.7690    20.3580    18.7340    19.3540    24.7320   -20.7310 
  157.0000     2.4550    59.3900    20.2160    18.5260    19.3480    24.7330   -20.6910 
  157.1250     2.4470    62.1060    20.2790    18.4940    18.8700    24.7370   -20.6450 
  157.2500     2.4410    65.0190    20.5080    18.6180    18.8480    24.6980   -20.6120 
  157.3750     2.4400    64.0370    20.8380    18.8520    18.5310    24.6790   -20.5870 
  157.5000     2.4420    60.7010    21.1230    19.0880    18.2600    24.6880   -20.5080 
  157.6250     2.4510    59.8830    21.0780    19.1010    19.0570    24.6950   -20.4410 
  157.7500     2.4660    60.9230    20.5680    18.7510    19.6910    24.6600   -20.3310 
  157.8750     2.4840    61.4780    19.6060    18.0070    19.1110    24.6090   -20.2440 
  158.0000     2.5000    62.1580    18.4080    17.0030    17.8030    24.6000   -20.1660 
  158.1250     2.5090    65.9990    17.3870    16.0400    16.1180    24.6000   -20.0710 
  158.2500     2.5110    69.1310    16.8420    15.4020    14.1420    24.6000   -19.9520 
  158.3750     2.5080    66.2050    16.8500    15.2080    12.7180    24.6000   -19.8290 
  158.5000     2.5030    58.1370    17.2640    15.3980    12.4010    24.6000   -19.7450 
  158.6250     2.4980    52.8720    17.7450    15.7570    13.6930    24.6000   -19.6850 
  158.7500     2.4930    55.3570    17.9370    15.9680    15.6320    24.6000   -19.6620 
  158.8750     2.4890    60.4830    17.6970    15.8650    17.3610    24.6000   -19.6670 
  159.0000     2.4850    61.8130    17.1090    15.4410    17.6600    24.6000   -19.6470 
  159.1250     2.4840    58.5250    16.4440    14.8550    16.1960    24.6000   -19.6060 
  159.2500     2.4840    55.5480    15.9850    14.3590    14.2250    24.6000   -19.6140 
  159.3750     2.4870    54.7010    15.8180    14.0690    13.6610    24.6030   -19.6490 
  159.5000     2.4920    55.5150    15.9010    13.9940    13.8680    24.6110   -19.6960 
  159.6250     2.5020    56.0060    16.1280    14.0780    13.7050    24.6690   -19.6980 
  159.7500     2.5140    55.5260    16.3730    14.2100    13.7840    24.7400   -19.6720 
  159.8750     2.5250    55.1940    16.6090    14.3520    14.1190    24.8460   -19.6040 
  160.0000     2.5320    56.1610    16.8650    14.5100    14.3920    24.9330   -19.5740 
  160.1250     2.5280    57.5640    17.2130    14.7370    14.2020    25.0110   -19.6500 
  160.2500     2.5130    58.0850    17.6680    15.0550    14.1040    25.0580   -19.6500 
  160.3750     2.4930    58.5380    18.1980    15.4470    14.8190    25.0610   -19.6730 
  160.5000     2.4730    60.1130    18.7350    15.8600    16.0330    25.0460   -19.6530 
  160.6250     2.4610    62.7670    19.1780    16.2130    16.0820    24.9450   -19.7190 
  160.7500     2.4580    64.6780    19.4670    16.4520    16.7360    24.8950   -19.7480 
  160.8750     2.4620    65.1660    19.5800    16.5520    17.6390    24.8160   -19.8090 
  161.0000     2.4680    66.4240    19.5500    16.5310    17.7660    24.7370   -19.8240 
  161.1250     2.4700    67.7810    19.4660    16.4450    17.6020    24.6670   -19.7860 
  161.2500     2.4710    67.6750    19.4480    16.3870    17.5120    24.6670   -19.7540 
  161.3750     2.4720    66.2170    19.5620    16.4050    17.2650    24.6670   -19.7220 
  161.5000     2.4760    65.9840    19.7980    16.5040    16.9030    24.6670   -19.7080 
  161.6250     2.4830    67.7470    20.0380    16.6110    16.9510    24.6670   -19.6700 
  161.7500     2.4930    69.0260    20.1070    16.6050    16.9840    24.6670   -19.6750 
  161.8750     2.5040    68.9300    19.8890    16.3980    17.8080    24.6670   -19.6750 
