~V
VERS. 2.00: Ver 2.00
~W
STRT.M 67.0000:
STOP.M 277.0000:
STEP.M 0.1250:
NULL. -999.2500:
UWI. DF5013:
~C
DEPT.M :
SP.MV :
GR.API :
RML.OHMM :
RI. :
RXO.OHMM :
CALI.CM :
DEN.GM/CC :
~A
# ...
  179.5000   -20.0100    64.4710   120.2180   109.8860    84.0420    24.6280     2.2790 
  179.6250   -19.8570    62.9910   128.1610   116.2150    89.8000    24.5730     2.2750 
  179.7500   -19.6950    64.2510   140.0420   126.2650    99.0130    24.5020     2.2640 
  179.8750   -19.5180    68.0150   155.8070   139.9580   111.2000    24.4130     2.2500 
  180.0000   -19.3640    72.9310   175.0550   156.9250   127.7480    24.3420     2.2370 
  180.1250   -19.1920    74.1010   195.4220   174.9990   146.4500    24.2760     2.2290 
  180.2500   -18.9920    69.0610   214.6830   192.1860   159.8510    24.1820     2.2270 
  180.3750   -18.7860    61.6780   230.4770   206.4330   160.8140    24.0980     2.2310 
  180.5000   -18.5400    57.9180   239.3300   214.8850   151.5100    24.0660     2.2350 
  180.6250   -18.2790    57.8780   240.0500   216.6910   139.3000    24.0610     2.2360 
  180.7500   -18.0280    58.6260   230.9250   210.5200   130.3650    24.0610     2.2320 
  180.8750   -17.8030    59.2750   210.9130   195.3940   126.4050    24.0610     2.2260 
  181.0000   -17.5520    61.4340   180.3400   170.7740   120.8270    24.0610     2.2200 
  181.1250   -17.3490    65.8330   146.8350   142.0420   108.0680    24.0550     2.2200 
  181.2500   -17.1730    71.4790   117.0810   114.5530    86.8610    24.0230     2.2250 
  181.3750   -17.0280    76.1220    95.3750    92.8680    62.8390    23.9350     2.2330 
  181.5000   -16.9000    76.4070    84.3180    80.7620    47.1250    23.8380     2.2430 
  181.6250   -16.8150    72.1510    81.7510    77.1380    42.7910    23.7850     2.2500 
  181.7500   -16.7430    66.7190    87.0700    81.5520    47.4690    23.8050     2.2530 
  181.8750   -16.6800    64.3330    99.7040    93.3310    57.6410    23.8740     2.2500 
  182.0000   -16.6130    64.6110   118.9290   111.6620    70.3480    24.0180     2.2390 
  182.1250   -16.5610    63.2520   140.0930   131.9930    84.8180    24.2240     2.2250 
  182.2500   -16.5140    59.5930   158.2350   149.5960   100.2310    24.4670     2.2100 
  182.3750   -16.4670    56.8740   168.3820   159.7750   112.7530    24.6580     2.2010 
  182.5000   -16.4500    56.6090   166.5510   158.5700   116.6980    24.7430     2.2020 
  182.6250   -16.4480    58.2820   157.7140   150.0990   111.9380    24.7670     2.2130 
  182.7500   -16.4930    60.4400   148.0010   139.7460   100.1480    24.7700     2.2270 
  182.8750   -16.5830    61.4250   143.2670   133.2630    87.5900    24.7700     2.2390 
  183.0000   -16.7610    61.3910   149.2600   136.6720    91.3050    24.7700     2.2400 
  183.1250   -16.9830    60.7280   166.1620   150.3870   108.3680    24.7690     2.2300 
  183.2500   -17.2630    59.6640   193.2450   173.4440   129.3830    24.7540     2.2140 
  183.3750   -17.5650    57.1880   227.2240   202.5110   144.2630    24.7080     2.1980 
  183.5000   -17.8580    53.9120   260.7760   231.0590   139.8060    24.6160     2.1850 
  183.6250   -18.1090    51.4350   284.9640   251.7870   133.8340    24.5460     2.1770 
  183.7500   -18.2990    50.3370   293.9040   260.0380   133.1860    24.5500     2.1730 
  183.8750   -18.4260    51.2170   286.6030   254.7860   136.4520    24.6220     2.1730 
  184.0000   -18.5100    52.0290   266.1220   237.7530   137.2960    24.6700     2.1800 
  184.1250   -18.5360    52.4540   241.5470   216.2520   134.9260    24.6900     2.1940 
  184.2500   -18.4980    54.8330   217.9810   194.8440   133.4350    24.6950     2.2120 
  184.3750   -18.4260    60.2150   198.2820   176.5410   129.3190    24.6890     2.2320 
  184.5000   -18.3280    64.6870   183.9250   163.2450   125.6910    24.6710     2.2480 
  184.6250   -18.2490    66.1440   173.3950   153.8310   117.1710    24.6390     2.2570 
  184.7500   -18.1790    64.9970   165.6110   147.3410   108.8140    24.5990     2.2590 
  184.8750   -18.1330    61.7230   159.5200   142.7620   103.3870    24.5500     2.2570 
  185.0000   -18.0310    58.5710   154.2210   139.2090    96.9530    24.5170     2.2500 
  185.1250   -17.9100    59.0080   148.8010   135.6790    94.9170    24.5060     2.2400 
  185.2500   -17.7670    61.7880   142.7150   131.5730    94.1740    24.5010     2.2260 
  185.3750   -17.6210    63.5550   135.5160   126.4130    92.8060    24.4630     2.2110 
  185.5000   -17.4630    65.8030   126.6140   119.5630    89.7270    24.3500     2.1990 
  185.6250   -17.2970    69.0800   116.2100   111.1110    83.8850    24.2050     2.1930 
  185.7500   -17.1310    70.7200   104.6020   101.2210    78.6720    24.1110     2.1980 
  185.8750   -16.9490    68.8940    92.3340    90.3320    72.9620    24.0880     2.2130 
  186.0000   -16.8390    65.6780    80.2470    79.1690    63.7280    24.1090     2.2370 
  186.1250   -16.7390    63.7520    69.2380    68.6970    52.8670    24.1090     2.2630 
  186.2500   -16.6610    63.1620    60.1070    59.7390    44.2280    24.0790     2.2860 
  186.3750   -16.5890    65.4160    53.5150    52.9920    38.1620    24.0220     2.3020 
  186.5000   -16.5680    70.8770    50.4280    49.4410    34.0990    23.9230     2.3080 
  186.6250   -16.5400    74.3280    50.5410    48.9020    34.0980    23.8460     2.3060 
  186.7500   -16.5130    72.0450    53.8460    51.4420    39.1650    23.8580     2.3000 
  186.8750   -16.5040    67.1360    60.1940    56.9770    48.6700    23.9590     2.2930 
  187.0000   -16.4850    67.6570    69.5500    65.5070    60.7420    23.9940     2.2890 
  187.1250   -16.5070    70.4730    80.6040    75.6960    71.7630    23.9410     2.2870 
  187.2500   -16.5240    70.2470    92.2210    86.3650    78.6340    23.8900     2.2850 
  187.3750   -16.5530    68.4440   103.1190    96.2180    85.0760    23.9420     2.2810 
  187.5000   -16.5460    68.9240   111.7490   103.7380    93.2500    24.0660     2.2740 
  187.6250   -16.5560    68.2720   117.8790   108.7550   101.7790    24.2840     2.2650 
  187.7500   -16.5600    65.1320   121.8350   111.5710   106.1860    24.5460     2.2570 
  187.8750   -16.5590    64.2690   124.6190   113.0970   105.1280    24.7150     2.2510 
  188.0000   -16.5070    67.9080   127.8960   114.8420   100.9280    24.7500     2.2460 
  188.1250   -16.4340    69.3130   132.9860   118.1500   100.7020    24.7310     2.2420 
  188.2500   -16.3510    66.4870   140.3580   123.6220   107.0450    24.7020     2.2360 
  188.3750   -16.2600    62.6800   149.5210   131.0050   117.1200    24.6780     2.2290 
  188.5000   -16.1480    61.8410   158.8750   139.1170   124.9190    24.6520     2.2240 
  188.6250   -16.0220    61.7860   166.2860   146.0610   129.1310    24.6370     2.2240 
  188.7500   -15.8810    61.2580   170.1830   150.4140   131.0270    24.6230     2.2280 
  188.8750   -15.7290    61.8380   169.8220   151.3690   131.7140    24.5980     2.2350 
  189.0000   -15.5840    63.1540   165.1090   148.5590   129.6470    24.5780     2.2390 
  189.1250   -15.4540    62.6780   158.3540   143.7030   123.9670    24.5500     2.2390 
  189.2500   -15.3520    60.3470   151.6050   138.4240   114.5250    24.5210     2.2330 
  189.3750   -15.2650    58.0500   146.8750   134.4790   103.8280    24.4990     2.2260 
  189.5000   -15.2470    57.0340   146.0600   133.7550    98.5450    24.4510     2.2210 
  189.6250   -15.2740    56.7460   148.1500   135.8290    99.6100    24.3390     2.2190 
  189.7500   -15.3470    58.9820   151.1340   139.2370   106.8380    24.1830     2.2190 
  189.8750   -15.4540    62.4060   152.4790   141.7590   117.6820    24.0640     2.2220 
  190.0000   -15.6400    61.6360   149.8420   141.0920   125.3330    24.0550     2.2270 
  190.1250   -15.7960    57.2140   144.5530   137.9680   125.0400    24.1980     2.2350 
  190.2500   -15.9610    53.9580   139.8020   134.7120   111.5500    24.4120     2.2430 
  190.3750   -16.1190    53.9920   139.1310   134.6670    93.1130    24.5370     2.2470 
  190.5000   -16.2460    54.4820   148.1970   142.3410    93.3170    24.5620     2.2430 
  190.6250   -16.3120    54.9100   166.7470   158.1500   106.1180    24.5530     2.2350 
