~V
VERS. 2.00: Ver 2.00
~W
STRT.M 62.0000:
STOP.M 250.0000:
STEP.M 0.1250:
NULL. -999.2500:
UWI. DF5059:
~C
DEPT.M :
SP.MV :
GR.API :
RML.OHMM :
RI. :
RXO.OHMM :
CALI.CM :
DEN.GM/CC :
~A
# ...
  174.5000   -13.4890    87.5650    80.7920    77.5370    72.2300    23.1690     2.2320 
  174.6250   -13.4640    84.9490    76.8040    73.8560    71.0230    23.1660     2.2360 
  174.7500   -13.4300    79.1120    72.7540    70.0810    67.6960    23.0910     2.2400 
  174.8750   -13.4510    76.1840    69.0340    66.5230    64.2270    22.9660     2.2430 
  175.0000   -13.5110    79.8920    66.3140    63.7490    61.5170    22.8840     2.2460 
  175.1250   -13.5770    83.8860    65.8090    62.8410    59.2290    22.8630     2.2510 
  175.2500   -13.5900    82.8540    67.8950    64.2380    57.1440    22.8880     2.2550 
  175.3750   -13.5850    77.6550    72.7100    68.1890    58.7340    23.0130     2.2550 
  175.5000   -13.6250    72.7610    79.7890    74.4020    66.4280    23.3590     2.2480 
  175.6250   -13.7200    71.1190    87.9910    81.9610    78.7820    23.8510     2.2330 
  175.7500   -13.8230    68.6170    95.4160    89.0280    90.0340    24.1820     2.2140 
  175.8750   -13.8710    62.8000   100.7470    94.2160    97.6990    24.2330     2.1970 
  176.0000   -13.9160    58.4730   103.4760    96.8520   101.8530    24.1730     2.1860 
  176.1250   -14.0490    64.0430   104.3990    97.3080   102.0290    24.1480     2.1840 
  176.2500   -14.2450    72.5600   106.0830    97.7820    99.7000    24.1430     2.1890 
  176.3750   -14.4320    74.5220   110.3130   100.2070    98.2180    24.1620     2.2000 
  176.5000   -14.5800    69.5990   118.5920   106.0710   102.2030    24.2120     2.2120 
  176.6250   -14.7150    66.4710   130.7600   116.5680   115.6580    24.3070     2.2210 
  176.7500   -14.8560    65.2930   145.3200   130.0540   134.4250    24.3510     2.2260 
  176.8750   -14.9800    62.1560   159.3880   144.4270   149.7270    24.3680     2.2240 
  177.0000   -15.0350    56.7740   170.1330   157.0020   157.0690    24.3910     2.2170 
  177.1250   -14.9910    53.2090   177.8440   164.2850   157.4330    24.4340     2.2070 
  177.2500   -14.9030    52.5520   178.1850   165.4780   151.5960    24.4560     2.1970 
  177.3750   -14.8160    51.6470   171.0890   160.3970   141.1610    24.4400     2.1860 
  177.5000   -14.7040    48.9440   157.6470   149.6790   134.6750    24.3110     2.1790 
  177.6250   -14.4930    46.5760   139.6260   134.3670   136.1940    23.9760     2.1820 
  177.7500   -14.2210    49.4270   120.9090   117.7110   137.9320    23.7130     2.2040 
  177.8750   -13.9810    53.0280   104.3020   102.2740   125.5260    23.6250     2.2430 
  178.0000   -13.7740    55.7700    91.7840    90.1270    91.8540    23.6440     2.2880 
  178.1250   -13.5750    59.9050    84.8920    83.0550    70.0100    23.6870     2.3210 
  178.2500   -13.3370    61.4140    82.2740    80.0840    65.5250    23.7200     2.3280 
  178.3750   -13.0390    55.5920    82.8080    80.2530    72.5790    23.7990     2.3120 
  178.5000   -12.7220    48.9020    85.1740    82.3250    84.0040    23.8710     2.2850 
  178.6250   -12.4810    50.7890    88.0080    84.9630    94.8150    23.9790     2.2600 
  178.7500   -12.2880    52.3330    90.2050    86.9760    97.0400    24.0270     2.2450 
  178.8750   -12.0500    49.3440    91.4090    87.9080    88.2500    23.9620     2.2410 
  179.0000   -11.7560    47.8280    91.7570    87.8080    80.8560    23.8550     2.2440 
  179.1250   -11.4860    51.2520    91.7720    87.1060    83.3240    23.7960     2.2480 
  179.2500   -11.2520    52.1620    92.3310    86.6860    87.9380    23.8280     2.2460 
  179.3750   -11.0360    49.8670    94.3460    87.4180    84.7340    24.0300     2.2340 
  179.5000   -10.8200    50.2850    98.7280    90.1660    82.7460    24.2310     2.2150 
  179.6250   -10.5660    54.8600   106.4330    95.8360    89.5600    24.2500     2.1950 
  179.7500   -10.2760    57.6940   116.3570   103.5040   107.2380    24.1810     2.1790 
  179.8750    -9.9630    55.8920   126.9020   111.7840   133.7190    24.1690     2.1670 
  180.0000    -9.6530    51.7110   135.9840   118.9060   162.4180    24.2300     2.1540 
  180.1250    -9.3320    48.9240   141.0380   122.8210   182.8230    24.3040     2.1360 
  180.2500    -8.9830    48.9710   141.6710   123.3700   185.1520    24.3170     2.1230 
  180.3750    -8.6120    51.3040   137.7930   120.5390   161.5250    24.2370     2.1300 
  180.5000    -8.2220    51.4230   129.2340   114.0500   138.3660    24.0600     2.1760 
  180.6250    -7.7980    49.0830   114.5690   102.4490   140.9910    23.8710     2.2750 
  180.7500    -7.3760    48.1960    95.5810    86.6160   147.0710    23.8060     2.4020 
  180.8750    -6.9860    50.7190    74.8280    68.4280   135.1490    23.7360     2.5240 
  181.0000    -6.6270    54.7570    55.6200    50.8550    89.0450    23.6710     2.6090 
  181.1250    -6.2210    57.1990    41.1900    37.1820    47.2140    23.6530     2.6380 
  181.2500    -5.8020    56.7920    30.2260    27.6340    27.4590    23.6660     2.6370 
  181.3750    -5.4340    54.3460    23.2900    21.5060    19.7270    23.6710     2.6300 
  181.5000    -5.1180    50.7360    19.0430    17.6920    16.0550    23.6980     2.6280 
  181.6250    -4.8320    50.1930    16.3750    15.2680    13.8760    23.7110     2.6290 
  181.7500    -4.5280    55.0760    14.2020    13.2610    12.9480    23.7450     2.6200 
  181.8750    -4.1730    60.4930    12.1490    11.3140    12.5460    23.7730     2.5990 
  182.0000    -3.8040    59.0970    10.1540     9.3490    11.2400    23.6330     2.5700 
  182.1250    -3.4980    49.2870     8.4060     7.5480     8.9340    23.1770     2.5430 
  182.2500    -3.2440    41.9860     6.8540     6.0970     5.6540    22.5660     2.5170 
  182.3750    -2.9900    41.9350     5.7810     5.0950     3.9520    22.2470     2.4840 
  182.5000    -2.7210    44.8220     5.1910     4.5430     3.4760    22.2930     2.4400 
  182.6250    -2.5130    44.8930     5.0580     4.4190     3.5440    22.2840     2.3870 
  182.7500    -2.3600    41.9570     5.1870     4.5390     3.7680    22.1270     2.3410 
  182.8750    -2.2670    39.3280     5.4520     4.7870     4.0470    22.2300     2.3100 
  183.0000    -2.2130    38.3580     5.7470     5.0640     4.3380    22.6100     2.2980 
  183.1250    -2.1830    37.3560     5.9850     5.2850     4.6060    23.2410     2.3060 
  183.2500    -2.1840    37.9420     6.1510     5.4380     4.7900    23.6660     2.3230 
  183.3750    -2.2220    42.6850     6.2590     5.5350     4.9320    23.8060     2.3410 
  183.5000    -2.2660    50.9180     6.3260     5.6000     5.1090    23.8310     2.3550 
  183.6250    -2.2740    55.3110     6.3580     5.6500     5.2260    23.9650     2.3650 
  183.7500    -2.2890    52.9530     6.3570     5.6870     5.2960    24.1070     2.3750 
  183.8750    -2.3630    50.7040     6.3200     5.7040     5.3900    24.0800     2.3870 
  184.0000    -2.4650    53.5080     6.2680     5.6960     5.5040    23.9700     2.4010 
  184.1250    -2.5180    59.5060     6.2570     5.6710     5.5040    23.8010     2.4110 
  184.2500    -2.5100    63.6950     6.2990     5.6570     5.5110    23.7040     2.4140 
  184.3750    -2.5060    64.8430     6.3740     5.6750     5.5770    23.6610     2.4090 
  184.5000    -2.5730    61.9060     6.4620     5.7330     5.8120    23.6830     2.4030 
  184.6250    -2.6660    54.1750     6.5550     5.8140     6.2150    23.7000     2.3990 
  184.7500    -2.7250    46.6960     6.6280     5.8780     6.4970    23.7080     2.3990 
  184.8750    -2.7330    43.5040     6.6450     5.8930     6.4680    23.6910     2.3990 
  185.0000    -2.7540    43.2310     6.5620     5.8430     6.1160    23.6130     2.3990 
  185.1250    -2.8440    44.2910     6.4000     5.7310     5.5340    23.4140     2.4000 
  185.2500    -2.9730    44.2990     6.1820     5.5990     5.1670    23.1870     2.4040 
  185.3750    -3.0930    42.9610     5.9760     5.4810     4.9950    23.0570     2.4080 
  185.5000    -3.1850    41.8680     5.9090     5.3990     4.9560    23.0860     2.4040 
  185.6250    -3.3090    42.0800     5.9200     5.3690     5.0320    23.2020     2.3880 
