~V
VERS. 2.00: Ver 2.00
~W
STRT.M 55.0000:
STOP.M 268.0000:
STEP.M 0.1250:
NULL. -999.2500:
UWI. DF5025:
~C
DEPT.M :
SP.MV :
GR.API :
CALI.CM :
RXO.OHMM :
RI. :
RML.OHMM :
DEN.GM/CC :
~A
# ...
  257.5000   -10.7930    71.1010    22.7970    10.5490    10.5510    12.5400     2.4710 
  257.6250   -10.6220    70.2000    22.7710    10.4160    10.6820    12.7080     2.4730 
  257.7500   -10.4280    65.7060    22.7420    10.4490    10.8830    12.9660     2.4770 
  257.8750   -10.2300    62.1360    22.7280    10.6160    11.1060    13.2540     2.4800 
  258.0000   -10.0370    62.2170    22.7130    10.6590    11.2620    13.4530     2.4790 
  258.1250    -9.8770    63.6700    22.6640    10.1990    11.2140    13.3920     2.4720 
  258.2500    -9.7430    64.3400    22.5930     9.4730    10.9540    13.0580     2.4680 
  258.3750    -9.6270    66.2740    22.5340     9.0510    10.5270    12.5090     2.4770 
  258.5000    -9.5500    69.3230    22.5050     9.3930    10.0260    11.8650     2.5030 
  258.6250    -9.5120    69.3230    22.5000    10.3890     9.5710    11.2800     2.5320 
  258.7500    -9.4970    69.3230    22.5000    11.2040     9.2410    10.8560     2.5510 
  258.8750    -9.5010    69.3230    22.5020    11.5180     9.0750    10.6420     2.5550 
  259.0000    -9.5250    69.3230    22.4990    11.8050     9.0710    10.6370     2.5450 
  259.1250    -9.5490    69.3230    22.4810    13.1800     9.1850    10.7840     2.5280 
  259.2500    -9.5650    69.3230    22.4540    15.6430     9.2970    10.9280     2.5150 
  259.3750    -9.5750    69.3230    22.4310    18.2260     9.3210    10.9580     2.5070 
  259.5000    -9.5590    69.3230    22.4160    19.6260     9.2120    10.8180     2.5010 
  259.6250    -9.5160    69.3230    22.3890    18.7640     8.9680    10.5050     2.4910 
  259.7500    -9.4370    69.3230    22.3450    16.3130     8.6800    10.1340     2.4830 
  259.8750    -9.3230    69.3230    22.2990    13.1830     8.4210     9.8010     2.4830 
  260.0000    -9.1870    69.3230    22.2720    10.3120     8.2510     9.5830     2.4890 
  260.1250    -9.0330    69.3230    22.2650     8.4970     8.2140     9.5350     2.5000 
  260.2500    -8.8840    69.3230    22.2660     7.6770     8.2640     9.5990     2.5120 
  260.3750    -8.7550    69.3230    22.2660     7.5750     8.3510     9.7110     2.5200 
  260.5000    -8.6450    69.3230    22.2660     7.7810     8.4300     9.8130     2.5180 
  260.6250    -8.5570    69.3230    22.2660     7.8590     8.4720     9.8670     2.5040 
  260.7500    -8.4830    69.3230    22.2660     7.6500     8.4880     9.8870     2.4860 
  260.8750    -8.4220    69.3230    22.2660     7.2600     8.4870     9.8860     2.4730 
  261.0000    -8.3550    69.3230    22.2670     6.9150     8.4720     9.8670     2.4710 
  261.1250    -8.2790    69.3230    22.2660     6.8560     8.4240     9.8060     2.4750 
  261.2500    -8.1920    69.3230    22.2550     7.0710     8.3370     9.6940     2.4740 
  261.3750    -8.0870    69.3230    22.2100     7.4180     8.2180     9.5400     2.4700 
  261.5000    -7.9660    69.3230    22.1180     7.6730     8.0880     9.3730     2.4690 
  261.6250    -7.8440    69.3230    21.9960     7.6090     7.9830     9.2380     2.4740 
  261.7500    -7.7330    69.3230    21.8880     7.2940     7.9160     9.1520     2.4740 
  261.8750    -7.6540    69.3230    21.8010     6.8890     7.8840     9.1100     2.4650 
  262.0000    -7.6250    69.3230    21.7290     6.5610     7.8730     9.0970     2.4540 
  262.1250    -7.6320    69.3230    21.6790     6.4160     7.8730     9.0960     2.4480 
  262.2500    -7.6520    69.3230    21.6370     6.3850     7.8740     9.0970     2.4490 
  262.3750    -7.6850    69.3230    21.5540     6.3740     7.8750     9.1000     2.4490 
  262.5000    -7.7310    69.3230    21.4110     6.3060     7.8780     9.1030     2.4410 
  262.6250    -7.7790    69.3230    21.2380     6.1660     7.8800     9.1050     2.4140 
  262.7500    -7.8270    69.3230    21.0300     6.0300     7.8800     9.1050     2.3760 
  262.8750    -7.8690    69.3230    20.7620     5.9580     7.8790     9.1040     2.3340 
  263.0000    -7.8940    69.3230    20.4760     5.9700     7.8780     9.1030     2.2960 
  263.1250    -7.9030    69.3230    20.1800     6.0090     7.8790     9.1040     2.2640 
  263.2500    -7.9130    69.3230    19.7680     5.9570     7.8810     9.1070     2.2390 
  263.3750    -7.9350    69.3230    19.1480     5.7800     7.8830     9.1100     2.2230 
  263.5000    -7.9620    69.3230    18.3580     5.5740     7.8820     9.1090     2.2150 
  263.6250    -7.9860    69.3230    17.4880     5.5450     7.8790     9.1040     2.2130 
  263.7500    -7.9980    69.3230    16.6180     5.7340     7.8750     9.0990     2.2180 
  263.8750    -7.9970    69.3230    15.8330     6.0560     7.8730     9.0960     2.2250 
  264.0000    -7.9880    69.3230    15.2460     6.3830     7.8730     9.0960     2.2280 
  264.1250    -7.9770    69.3230    14.9520     6.5930     7.8740     9.0980     2.2160 
  264.2500    -7.9640    69.3230    14.8510     6.6230     7.8740     9.0980     2.1910 
  264.3750    -7.9450    69.3230    14.8380     6.4520     7.8740     9.0980     2.1610 
  264.5000    -7.9230    69.3230    14.8400     6.1660     7.8740     9.0980     2.1320 
  264.6250    -7.9150    69.3230    14.8320     5.9810     7.8740     9.0980     2.1080 
  264.7500    -7.9130    69.3230    14.7040     6.0090     7.8740     9.0980     2.0930 
  264.8750    -7.9110    69.3230    14.2790     6.1970     7.8740     9.0980     2.0920 
  265.0000    -7.9230    69.3230    13.5860     6.3990     7.8740     9.0980     2.0930 
  265.1250    -7.9540    69.3230    12.9960     6.4980     7.8740     9.0980     2.1130 
  265.2500    -8.0070    69.3230    12.7510     6.5220     7.8740     9.0980     2.1200 
  265.3750    -8.0690    69.3230    12.7320     6.5200     7.8740     9.0980     2.1210 
  265.5000    -8.1460    69.3230    12.7390     6.5190     7.8740     9.0980     2.1210 
  265.6250    -8.2250    69.3230    12.7230     6.5210     7.8740     9.0980     2.1240 
  265.7500    -8.2970    69.3230    12.7100     6.5230     7.8740     9.0980     2.1300 
  265.8750    -8.3570    69.3230    12.7030     6.5240     7.8740     9.0980     2.1330 
  266.0000    -8.4060    69.3230    12.6990     6.5250     7.8740     9.0980     2.1280 
  266.1250    -8.4430    69.3230    12.6950     6.5250     7.8740     9.0980     2.1160 
  266.2500    -8.4510    69.3230    12.6920     6.5250     7.8740     9.0980     2.1090 
  266.3750    -8.4420    69.3230    12.6810     6.5250     7.8740     9.0980     2.1110 
  266.5000    -8.4190    69.3230    12.6770     6.5240     7.8740     9.0980     2.1140 
  266.6250    -8.3700    69.3230    12.6760     6.5220     7.8740     9.0980     2.1120 
  266.7500    -8.3180    69.3230    12.6770     6.5210     7.8740     9.0980     2.1200 
  266.8750    -8.2640    69.3230    12.6770     6.5210     7.8740     9.0980     2.1390 
  267.0000    -8.1920    69.3230    12.6760     6.5220     7.8740     9.0980     2.1520 
  267.1250    -8.1190    69.3230    12.6740     6.5230     7.8740     9.0980     2.1430 
  267.2500    -8.0490    69.3230    12.6720     6.5240     7.8740     9.0980     2.1250 
  267.3750    -7.9640    69.3230    12.6700     6.5230     7.8740     9.0980     2.1260 
  267.5000    -7.8470    69.3230    12.6700     6.5200     7.8700   446.6630     2.1450 
  267.6250    -7.7250    69.3230    12.6680     6.5280     7.8930  -999.2500     2.1560 
  267.7500    -7.6050    69.3230    12.6670     6.5780     7.9700  -999.2500     2.1420 
  267.8750    -7.4860    69.3230    12.6670     6.3910     7.5400 40329.9570     2.1260 
  268.0000    -7.3770    69.3230    12.6670     5.3170     5.8200 197869.8590  -999.2500 
