~V
VERS. 2.00: Ver 2.00
~W
STRT.M 60.0000:
STOP.M 248.0000:
STEP.M 0.1250:
NULL. -999.2500:
UWI. DF5054:
~C
DEPT.M :
SP.MV :
GR.API :
CALI.CM :
RXO.OHMM :
RI. :
RML.OHMM :
DEN.GM/CC :
~A
# ...
  116.2500    -8.0250   118.7520    23.4130     4.8760     4.5640     4.9510     2.3400 
  116.3750    -7.9740   121.6660    23.6760     4.1830     4.2630     4.6730     2.3260 
  116.5000    -8.0340   120.8340    23.8930     3.7530     4.0640     4.5190     2.3230 
  116.6250    -8.2410   118.3350    23.9650     3.6460     4.0060     4.5250     2.3330 
  116.7500    -8.5840   115.6110    23.9760     3.7390     4.0710     4.6600     2.3380 
  116.8750    -9.0570   111.3240    23.9870     4.0240     4.2430     4.8970     2.3290 
  117.0000    -9.6350   103.6530    23.9940     4.6270     4.4900     5.1930     2.3130 
  117.1250   -10.2930    93.6600    23.9490     5.5730     4.7850     5.5130     2.3020 
  117.2500   -10.9820    85.5510    23.8660     6.2620     5.0910     5.8220     2.2950 
  117.3750   -11.6650    80.5950    23.7900     6.3940     5.3870     6.1060     2.2890 
  117.5000   -12.3120    77.8790    23.7380     6.2770     5.6650     6.3680     2.2840 
  117.6250   -12.8890    76.6600    23.6920     6.4220     5.9290     6.6190     2.2740 
  117.7500   -13.3820    75.8220    23.6690     6.8680     6.1790     6.8620     2.2560 
  117.8750   -13.7760    74.2230    23.6620     7.4810     6.4130     7.0890     2.2330 
  118.0000   -14.0670    71.7690    23.6670     8.0970     6.6250     7.2930     2.2130 
  118.1250   -14.2370    70.0610    23.6800     8.4670     6.7970     7.4540     2.2070 
  118.2500   -14.3000    70.4000    23.6810     8.6300     6.9230     7.5690     2.2110 
  118.3750   -14.2560    72.6860    23.6770     8.6850     7.0100     7.6440     2.2140 
  118.5000   -14.1030    76.1550    23.6680     8.6380     7.0710     7.6970     2.2100 
  118.6250   -13.8210    80.2270    23.6140     8.4210     7.1030     7.7350     2.2010 
  118.7500   -13.4340    82.9740    23.5120     8.1100     7.0870     7.7360     2.1970 
  118.8750   -12.9530    82.0770    23.4140     7.8200     6.9870     7.6550     2.1970 
  119.0000   -12.3900    77.2610    23.3690     7.5920     6.7650     7.4360     2.1940 
  119.1250   -11.7540    72.6520    23.3800     7.3940     6.3750     7.0170     2.1850 
  119.2500   -11.0930    73.2920    23.4130     7.1660     5.8720     6.4600     2.1810 
  119.3750   -10.4590    80.1360    23.4720     6.7180     5.3270     5.8570     2.1950 
  119.5000    -9.9080    90.7350    23.5860     5.8300     4.8260     5.3140     2.2300 
  119.6250    -9.5210    99.4800    23.7480     4.7600     4.4790     4.9620     2.2750 
  119.7500    -9.3030   101.5330    23.8710     4.0170     4.3180     4.8290     2.3070 
  119.8750    -9.2480    96.2740    23.8580     3.8850     4.3480     4.9160     2.3180 
  120.0000    -9.3400    87.8980    23.6910     4.2980     4.5400     5.1790     2.3110 
  120.1250    -9.5710    83.2030    23.4280     4.9890     4.8450     5.5490     2.2920 
  120.2500    -9.8790    83.6760    23.2680     5.6580     5.1570     5.9010     2.2730 
  120.3750   -10.2170    86.7570    23.2600     6.1750     5.3950     6.1390     2.2560 
  120.5000   -10.5530    89.7000    23.2840     6.5960     5.5120     6.2200     2.2460 
  120.6250   -10.8630    91.4340    23.2880     6.8350     5.4940     6.1540     2.2440 
  120.7500   -11.1510    91.4720    23.3110     6.8730     5.4110     6.0360     2.2480 
  120.8750   -11.4300    89.0220    23.4120     6.6730     5.3240     5.9400     2.2540 
  121.0000   -11.7240    84.4330    23.5270     6.3840     5.2900     5.9310     2.2600 
  121.1250   -12.0620    79.6570    23.5890     6.2240     5.3670     6.0760     2.2590 
  121.2500   -12.4500    76.3090    23.5730     6.2980     5.5600     6.3740     2.2460 
  121.3750   -12.8780    74.5370    23.4810     6.6820     5.8610     6.8050     2.2290 
  121.5000   -13.3250    74.2950    23.4030     7.3880     6.2370     7.3070     2.2200 
  121.6250   -13.7610    75.0700    23.4150     8.3700     6.6180     7.7780     2.2250 
  121.7500   -14.1670    76.0840    23.4980     9.2860     6.9350     8.1380     2.2350 
  121.8750   -14.5190    77.6580    23.5830    10.1900     7.1590     8.3580     2.2450 
  122.0000   -14.7990    79.1670    23.6040    11.3070     7.3230     8.4760     2.2530 
  122.1250   -14.9900    78.4980    23.5640    12.3400     7.5360     8.6450     2.2520 
  122.2500   -15.1100    76.7400    23.5470    12.1900     7.9560     9.0990     2.2480 
  122.3750   -15.1660    76.0990    23.5930    11.3590     8.7580    10.0830     2.2560 
  122.5000   -15.1760    76.7010    23.6480    11.6480    10.0900    11.7520     2.2910 
  122.6250   -15.1700    75.5760    23.6830    16.0370    12.0770    14.1260     2.3530 
  122.7500   -15.1790    71.5580    23.7350    25.4730    14.4220    16.7300     2.4330 
  122.8750   -15.2310    66.2930    23.8400    37.3790    16.6540    19.0020     2.5260 
  123.0000   -15.3510    62.7110    23.9440    46.4210    18.0960    20.2700     2.6090 
  123.1250   -15.5660    63.4180    24.0020    49.2740    17.9220    19.7520     2.6350 
  123.2500   -15.8540    66.0430    24.0050    48.1280    16.4030    17.7890     2.5910 
  123.3750   -16.1930    67.8290    23.9280    42.1940    14.1010    14.9990     2.4990 
  123.5000   -16.5570    67.8420    23.7550    31.0480    11.6810    12.1470     2.3970 
  123.6250   -16.9060    67.2380    23.5510    19.3650     9.7010     9.9420     2.3120 
  123.7500   -17.2110    67.5720    23.4110    12.3930     8.2560     8.4680     2.2450 
  123.8750   -17.4560    69.4790    23.3600     9.8340     7.2990     7.6150     2.1990 
  124.0000   -17.6310    73.1900    23.3670     9.2340     6.7380     7.2010     2.1790 
  124.1250   -17.7200    78.5890    23.4110     8.9770     6.4970     7.0750     2.1820 
  124.2500   -17.7460    83.2850    23.4910     8.7090     6.4100     7.0490     2.1890 
  124.3750   -17.7250    84.5920    23.5860     8.4780     6.3960     7.0420     2.1880 
  124.5000   -17.6750    81.9070    23.6570     8.2560     6.4070     7.0190     2.1790 
  124.6250   -17.6130    77.9050    23.6710     8.0280     6.4340     6.9880     2.1690 
  124.7500   -17.5550    75.3230    23.6690     7.9020     6.4840     6.9820     2.1630 
  124.8750   -17.5040    74.0430    23.6700     7.9780     6.5700     7.0220     2.1610 
  125.0000   -17.4640    72.9530    23.6630     8.2580     6.6950     7.1140     2.1630 
  125.1250   -17.4370    71.2130    23.6030     8.6490     6.8520     7.2520     2.1700 
  125.2500   -17.4280    69.5430    23.5120     8.8980     7.0130     7.4040     2.1820 
  125.3750   -17.4380    69.4200    23.4320     8.9560     7.1560     7.5490     2.1990 
  125.5000   -17.4700    71.2560    23.3730     8.9980     7.2650     7.6700     2.2170 
  125.6250   -17.5290    74.2470    23.3480     9.1520     7.3280     7.7530     2.2240 
  125.7500   -17.6110    77.9790    23.3410     9.2820     7.3520     7.7990     2.2180 
  125.8750   -17.7180    82.2230    23.3450     9.2730     7.3400     7.8110     2.2040 
  126.0000   -17.8440    84.7640    23.3800     9.2030     7.3000     7.7950     2.1920 
  126.1250   -17.9830    83.0000    23.4550     9.1250     7.2410     7.7550     2.1870 
  126.2500   -18.1330    79.5020    23.5320     9.0050     7.1730     7.6990     2.1830 
  126.3750   -18.2960    76.7300    23.5550     8.8220     7.1030     7.6340     2.1730 
  126.5000   -18.4740    74.6280    23.5540     8.6190     7.0370     7.5740     2.1600 
  126.6250   -18.6570    72.6330    23.5740     8.4370     6.9900     7.5400     2.1520 
  126.7500   -18.8330    71.4760    23.6130     8.3150     6.9740     7.5410     2.1550 
  126.8750   -18.9960    71.4870    23.6370     8.2990     6.9920     7.5790     2.1650 
  127.0000   -19.1440    71.6940    23.6140     8.4260     7.0400     7.6440     2.1760 
  127.1250   -19.2720    71.0460    23.5420     8.6990     7.1030     7.7190     2.1840 
  127.2500   -19.3690    69.7450    23.4810     9.0150     7.1670     7.7850     2.1860 
  127.3750   -19.4270    68.3140    23.5110     9.2840     7.2240     7.8340     2.1770 
