~V
VERS. 2.00: Ver 2.00
~W
STRT.M 60.0000:
STOP.M 259.0000:
STEP.M 0.1250:
NULL. -999.2500:
UWI. DF5006:
~C
DEPT.M :
SP.MV :
GR.API :
RML.OHMM :
RI. :
RXO.OHMM :
CALI.CM :
DEN.GM/CC :
~A
# ...
   71.2500   -26.3670    67.5620     7.9320     9.6950    10.7610    23.1810     2.1350 
   71.3750   -26.2020    70.6510     7.7290     9.4420    10.4960    23.1730     2.1470 
   71.5000   -25.8590    74.2160     7.5470     9.1230    10.1030    23.1330     2.1640 
   71.6250   -25.3540    79.9890     7.4500     8.8090     9.7320    23.1360     2.1840 
   71.7500   -24.7590    83.1570     7.4900     8.5700     9.2210    23.2690     2.2000 
   71.8750   -24.2460    82.0180     7.6320     8.4210     8.8260    23.4440     2.2100 
   72.0000   -23.7380    80.8310     7.8130     8.3390     8.8320    23.4930     2.2160 
   72.1250   -23.2480    82.4010     7.9360     8.2610     9.1620    23.4910     2.2200 
   72.2500   -22.8850    84.0510     7.8660     8.0990     9.1260    23.4940     2.2230 
   72.3750   -22.5830    83.4970     7.6020     7.8330     8.7690    23.4520     2.2190 
   72.5000   -22.3630    83.7750     7.2340     7.5070     8.4950    23.4270     2.2030 
   72.6250   -22.2530    86.6050     6.9620     7.2540     8.4910    23.5910     2.1770 
   72.7500   -22.2140    87.2630     7.1700     7.3880     8.6880    23.7010     2.1550 
   72.8750   -22.2140    83.4270     8.0720     8.1610     9.8860    23.5760     2.1600 
   73.0000   -22.2690    78.3930     9.7590     9.7520    12.3180    23.4310     2.2070 
   73.1250   -22.3820    74.7670    12.0650    12.1040    16.0010    23.4730     2.2950 
   73.2500   -22.6440    69.8450    14.4000    14.7460    20.6490    23.6660     2.3980 
   73.3750   -23.0740    64.0920    15.8990    16.7510    24.4560    23.7540     2.4670 
   73.5000   -23.5870    60.8930    15.9480    17.3610    25.5120    23.7210     2.4730 
   73.6250   -24.2310    61.2190    14.5360    16.3340    23.7250    23.5820     2.4190 
   73.7500   -24.9480    61.7190    12.4260    14.1650    18.7970    23.3710     2.3350 
   73.8750   -25.6100    62.4270    10.6760    12.0170    14.5300    23.1480     2.2590 
   74.0000   -26.3460    64.2790     9.6050    10.4000    12.1810    23.0100     2.2060 
   74.1250   -27.1300    65.8980     9.1330     9.4170    11.4650    22.9630     2.1770 
   74.2500   -27.8060    65.1430     9.0640     9.0180    11.3820    22.9610     2.1670 
   74.3750   -28.4330    63.7940     9.1180     8.9200    11.2200    22.9720     2.1610 
   74.5000   -28.9920    62.8870     9.1900     8.9670    10.9090    23.0090     2.1560 
   74.6250   -29.4250    61.4250     9.2450     9.0450    10.5250    23.1020     2.1500 
   74.7500   -29.8030    59.7090     9.2770     9.0900    10.2590    23.1990     2.1450 
   74.8750   -30.1540    60.6810     9.2890     9.0960    10.1490    23.2650     2.1420 
   75.0000   -30.4600    65.3120     9.2640     9.0660    10.1660    23.2870     2.1400 
   75.1250   -30.7190    69.3250     9.1940     9.0040    10.2180    23.2960     2.1400 
   75.2500   -30.9340    67.7330     9.0930     8.9130    10.1610    23.3170     2.1420 
   75.3750   -31.1100    63.3680     9.0100     8.8030    10.1500    23.3510     2.1460 
   75.5000   -31.2440    59.8910     8.9690     8.6760    10.1670    23.3820     2.1500 
   75.6250   -31.3350    59.5300     8.9520     8.5300    10.2630    23.4060     2.1540 
   75.7500   -31.3990    60.7860     8.9020     8.3560    10.4200    23.4160     2.1550 
   75.8750   -31.4600    62.2030     8.7990     8.1750    10.6450    23.4160     2.1530 
   76.0000   -31.4350    61.4820     8.7140     8.0440    10.8470    23.4020     2.1490 
   76.1250   -31.3540    57.7990     8.8090     8.0720    11.0100    23.3680     2.1460 
   76.2500   -31.2420    54.8570     9.3320     8.4280    11.7790    23.3460     2.1520 
   76.3750   -30.9720    56.3240    10.2360     9.0890    13.9880    23.3860     2.1740 
   76.5000   -30.6380    60.9920    11.3150     9.9240    18.0530    23.5620     2.2140 
   76.6250   -30.3160    63.3640    12.2290    10.6840    23.2490    23.7960     2.2620 
   76.7500   -29.9350    58.8000    12.5140    10.9840    27.3250    23.9010     2.2920 
   76.8750   -29.5900    53.4030    12.1190    10.7240    27.0220    23.7580     2.2900 
   77.0000   -29.3360    53.4960    11.2240    10.0070    19.3510    23.4890     2.2570 
   77.1250   -29.0710    57.6620    10.1870     9.1100    12.2060    23.3100     2.2110 
   77.2500   -28.7950    57.9270     9.4020     8.3560    10.5430    23.2480     2.1740 
   77.3750   -28.5830    56.9180     8.9750     7.8700    10.1340    23.2780     2.1540 
   77.5000   -28.3480    61.5380     8.8630     7.6440     9.9560    23.4020     2.1520 
   77.6250   -28.0760    71.1250     8.9400     7.6080     9.7300    23.5980     2.1590 
   77.7500   -27.8820    75.6840     9.0750     7.6770     9.4910    23.7830     2.1690 
   77.8750   -27.6890    73.8340     9.1950     7.7720     9.2510    23.8520     2.1760 
   78.0000   -27.5040    71.0170     9.3160     7.8820     9.1770    23.8070     2.1770 
   78.1250   -27.4350    70.9010     9.4730     8.0070     9.3290    23.7260     2.1730 
   78.2500   -27.4500    69.5810     9.6740     8.1490     9.7460    23.6110     2.1650 
   78.3750   -27.5540    64.8320     9.8790     8.2920    10.1800    23.4950     2.1570 
   78.5000   -27.7080    60.1110    10.0530     8.4230    10.5970    23.4280     2.1510 
   78.6250   -27.8750    59.8100    10.1720     8.5290    10.8530    23.4020     2.1470 
   78.7500   -28.0070    62.4190    10.2270     8.5970    10.8770    23.3890     2.1460 
   78.8750   -28.0760    62.4930    10.2350     8.6310    10.8890    23.4050     2.1450 
   79.0000   -28.1040    61.7720    10.1980     8.6340    10.9610    23.4510     2.1420 
   79.1250   -28.0700    63.4680    10.1210     8.6110    11.1520    23.5410     2.1390 
   79.2500   -27.9270    65.3530    10.0240     8.5660    11.1840    23.6380     2.1360 
   79.3750   -27.6850    63.3490     9.9460     8.5100    10.9380    23.6750     2.1350 
   79.5000   -27.4350    60.6090     9.9140     8.4540    10.5600    23.6710     2.1350 
   79.6250   -27.1240    62.4400     9.9440     8.4170    10.3180    23.6420     2.1380 
   79.7500   -26.7170    67.6260    10.0480     8.4280    10.2050    23.6230     2.1410 
   79.8750   -26.3400    71.3590    10.1990     8.4880    10.0780    23.6020     2.1430 
   80.0000   -25.9440    71.7720    10.3650     8.5830     9.9920    23.5610     2.1450 
   80.1250   -25.5130    70.6610    10.5090     8.6810     9.9560    23.5000     2.1470 
   80.2500   -25.1460    70.4950    10.5880     8.7400     9.8780    23.4460     2.1510 
   80.3750   -24.7680    70.7290    10.5940     8.7420     9.6530    23.4020     2.1570 
   80.5000   -24.4030    71.3750    10.5220     8.6860     9.3570    23.3990     2.1650 
   80.6250   -24.1090    71.7830    10.3810     8.5780     9.1770    23.4090     2.1740 
   80.7500   -23.8040    72.9680    10.1720     8.4170     9.1180    23.4050     2.1830 
   80.8750   -23.4370    76.0860     9.9130     8.2100     9.1880    23.3840     2.1910 
   81.0000   -22.9710    82.1320     9.6240     7.9610     9.1970    23.3620     2.2000 
   81.1250   -22.4360    88.9520     9.3290     7.6880     8.8730    23.3330     2.2100 
   81.2500   -21.8610    91.6110     9.0590     7.4310     8.5230    23.2710     2.2210 
   81.3750   -21.2830    92.2490     8.8340     7.2320     8.1510    23.2320     2.2300 
   81.5000   -20.7140    92.3590     8.6840     7.1190     7.8810    23.3150     2.2370 
   81.6250   -20.1170    90.4770     8.6240     7.0960     7.6820    23.4420     2.2420 
   81.7500   -19.5390    88.2420     8.6300     7.1330     7.7850    23.5730     2.2430 
   81.8750   -19.0220    85.8200     8.6100     7.1460     8.0130    23.6220     2.2410 
   82.0000   -18.5410    81.2990     8.4910     7.0780     8.3740    23.5690     2.2350 
   82.1250   -17.9810    79.1490     8.2550     6.9160     8.5920    23.4550     2.2310 
   82.2500   -17.3320    88.2590     8.0000     6.7220     8.2500    23.4380     2.2350 
   82.3750   -16.6720   102.3050     7.8790     6.6080     7.4140    23.6090     2.2550 
