~V
VERS. 2.00: Ver 2.00
~W
STRT.M 57.0000:
STOP.M 276.0000:
STEP.M 0.1250:
NULL. -999.2500:
UWI. DF5005:
~C
DEPT.M :
GR.API :
RML.OHMM :
RI. :
RXO.OHMM :
CALI.CM :
DEN.GM/CC :
SP.MV :
~A
# ...
  192.0000    61.9340   106.7910    98.7250    88.4030    24.2900     2.2740   -18.6570 
  192.1250    59.0430   114.2780   105.8690    96.8530    24.2900     2.2630   -18.6690 
  192.2500    59.6130   120.5810   112.2970   102.3100    24.2970     2.2500   -18.6600 
  192.3750    62.7930   123.6610   116.0200   101.7180    24.3300     2.2380   -18.5980 
  192.5000    65.4220   123.2830   116.5610    96.6670    24.3900     2.2310   -18.5580 
  192.6250    66.4610   119.8430   114.0920    91.4410    24.4470     2.2290   -18.5510 
  192.7500    65.8170   114.3960   109.4740    87.9190    24.4740     2.2330   -18.5060 
  192.8750    64.0440   108.2670   103.8870    85.0430    24.4830     2.2440   -18.4310 
  193.0000    63.1000   102.7180    98.6320    82.4310    24.5100     2.2550   -18.4140 
  193.1250    63.7700    98.4250    94.4030    78.0890    24.5840     2.2640   -18.4150 
  193.2500    64.5510    95.8080    91.6260    73.9560    24.6690     2.2670   -18.3830 
  193.3750    63.2320    95.4380    90.8450    73.5540    24.7260     2.2630   -18.3720 
  193.5000    62.5360    97.0720    91.9050    75.2570    24.7390     2.2570   -18.4160 
  193.6250    64.5800   100.6450    94.8160    79.3960    24.7230     2.2530   -18.4460 
  193.7500    67.5940   105.9920    99.4750    82.4160    24.6690     2.2540   -18.4610 
  193.8750    67.8840   113.0860   105.8670    87.6250    24.6050     2.2600   -18.5080 
  194.0000    66.8480   121.3520   113.3810    96.6500    24.5780     2.2660   -18.5370 
  194.1250    65.7180   130.5310   121.7270   106.8440    24.6150     2.2690   -18.4920 
  194.2500    62.8000   140.5110   130.7720   115.7650    24.6950     2.2630   -18.4900 
  194.3750    58.0820   151.5980   140.7900   121.1600    24.7770     2.2450   -18.6090 
  194.5000    56.2540   163.8520   151.8590   125.8610    24.8080     2.2220   -18.6910 
  194.6250    56.3940   176.7810   163.7960   135.2590    24.8140     2.1990   -18.7050 
  194.7500    55.2550   189.1620   175.5980   150.6540    24.8060     2.1820   -18.7030 
  194.8750    54.9150   197.9400   184.5360   164.6450    24.7800     2.1750   -18.7160 
  195.0000    58.4630   201.1510   188.3910   170.1800    24.7360     2.1750   -18.7270 
  195.1250    61.8650   198.0200   185.9780   162.9910    24.6810     2.1800   -18.7320 
  195.2500    61.9280   190.5740   178.1100   145.9700    24.5920     2.1880   -18.6950 
  195.3750    60.2640   181.4160   167.5240   123.7870    24.4590     2.1970   -18.5850 
  195.5000    58.5500   173.3480   158.1640   105.6150    24.3390     2.2080   -18.4690 
  195.6250    57.2100   166.7860   152.0040    97.0420    24.3690     2.2180   -18.3670 
  195.7500    56.6340   164.2690   149.5620   101.3260    24.5420     2.2250   -18.3340 
  195.8750    56.3990   165.1030   150.5240   111.3360    24.7100     2.2270   -18.3420 
  196.0000    55.6270   167.1050   152.9160   120.5220    24.7920     2.2250   -18.3310 
  196.1250    54.6980   168.8720   155.3810   122.1930    24.8130     2.2220   -18.3560 
  196.2500    53.3810   169.5030   156.9290   117.9070    24.8140     2.2200   -18.4550 
  196.3750    51.4950   168.7390   157.0590   114.2790    24.8110     2.2200   -18.5520 
  196.5000    50.2720   167.5720   156.4940   111.2420    24.8090     2.2230   -18.6440 
  196.6250    50.8330   166.9550   156.0360   108.6760    24.8110     2.2260   -18.8130 
  196.7500    53.0390   167.5940   156.3730   103.8350    24.8140     2.2280   -19.0280 
  196.8750    56.5480   169.9570   158.0460   104.3620    24.8130     2.2290   -19.2060 
  197.0000    60.2750   173.5240   160.7680   113.2840    24.8100     2.2290   -19.4020 
  197.1250    62.2480   177.8250   164.2020   125.4710    24.8070     2.2290   -19.6680 
  197.2500    62.2420   182.3680   167.9400   136.7720    24.8060     2.2300   -19.8990 
  197.3750    62.4630   186.6290   171.5280   141.5960    24.8070     2.2290   -20.0680 
  197.5000    61.7320   190.2540   174.6300   143.1810    24.8050     2.2270   -20.2560 
  197.6250    59.0400   193.0110   177.0220   142.7210    24.7850     2.2230   -20.4340 
  197.7500    56.6590   194.8920   178.6560   139.9860    24.7370     2.2200   -20.5270 
  197.8750    57.5230   196.4460   179.9200   132.8610    24.6180     2.2180   -20.5800 
  198.0000    58.4640   199.1200   182.0520   117.7560    24.3570     2.2190   -20.6570 
  198.1250    57.0420   204.5970   186.5990    98.7200    23.9790     2.2220   -20.6940 
  198.2500    55.0720   214.1160   194.8770    86.2170    23.6820     2.2240   -20.7150 
  198.3750    54.8250   227.5530   207.3280    85.6300    23.5770     2.2220   -20.8050 
  198.5000    53.4600   240.7050   220.5660    93.9700    23.5960     2.2150   -20.8970 
  198.6250    51.0410   248.4510   230.1280   108.7190    23.7600     2.2040   -20.9030 
  198.7500    52.2730   246.0680   231.4000   126.8120    24.1210     2.1960   -20.8780 
  198.8750    57.9180   230.5120   220.4890   142.9030    24.5160     2.1950   -20.8980 
  199.0000    60.3620   208.4180   202.1510   149.8970    24.7920     2.2010   -20.8840 
  199.1250    59.1380   186.6520   182.2620   145.5000    24.8960     2.2110   -20.7880 
  199.2500    58.7050   170.4090   166.2250   132.4650    24.8870     2.2180   -20.6760 
  199.3750    60.6950   162.2220   157.5300   120.0550    24.8270     2.2210   -20.5630 
  199.5000    61.7780   158.5080   153.6110   120.2450    24.7810     2.2180   -20.4040 
  199.6250    61.7830   155.3610   150.9480   131.7060    24.7050     2.2130   -20.2860 
  199.7500    61.6050   148.9110   145.7120   142.3700    24.5860     2.2070   -20.2350 
  199.8750    61.2930   136.1660   134.5870   136.1050    24.5020     2.2050   -20.1270 
  200.0000    63.5020   119.7660   119.4400   116.5590    24.4630     2.2080   -19.9840 
  200.1250    69.0260   103.8000   103.8350    92.1950    24.4350     2.2150   -19.9340 
  200.2500    73.6070    92.2660    91.7200    69.9050    24.4170     2.2250   -19.8980 
  200.3750    71.3490    88.6450    86.8740    61.1560    24.4130     2.2300   -19.7590 
  200.5000    66.0640    91.8470    88.6680    67.0070    24.4210     2.2290   -19.5930 
  200.6250    63.8600   100.4140    95.7950    82.7430    24.4410     2.2220   -19.4170 
  200.7500    64.3820   111.9410   105.9440   100.5570    24.4790     2.2140   -19.1830 
  200.8750    63.1970   123.0000   115.9090   110.4740    24.5190     2.2120   -18.9200 
  201.0000    61.0630   131.0290   123.0970   114.4660    24.5360     2.2180   -18.7000 
  201.1250    62.3750   135.4370   126.7730   114.4890    24.5400     2.2280   -18.5400 
  201.2500    65.3560   137.4040   127.9670   112.4640    24.5400     2.2370   -18.4370 
  201.3750    64.7260   139.6340   129.0540   110.9800    24.5200     2.2400   -18.4060 
  201.5000    61.4110   143.4670   131.9700   112.2410    24.4860     2.2370   -18.4820 
  201.6250    57.2460   149.2610   137.2220   117.8100    24.4860     2.2300   -18.6590 
  201.7500    55.6210   156.7390   144.4050   124.1940    24.5470     2.2210   -18.8880 
  201.8750    57.4950   165.2740   152.5710   136.4290    24.5840     2.2130   -19.1650 
  202.0000    59.4380   176.1560   160.5270   148.2330    24.6110     2.2080   -19.4360 
  202.1250    59.5590   186.6210   168.0000   153.6950    24.6400     2.2070   -19.6120 
  202.2500    58.2980   197.2610   175.5130   146.7830    24.6190     2.2080   -19.6740 
  202.3750    58.1020   209.4730   184.3090   139.1020    24.4290     2.2120   -19.7010 
  202.5000    57.8690   223.3410   194.6890   140.8380    24.1010     2.2150   -19.6700 
  202.6250    57.4730   237.3430   205.7760   145.0200    23.8480     2.2170   -19.4750 
  202.7500    57.0440   248.2200   215.3010   153.3620    23.8960     2.2160   -19.1600 
  202.8750    55.7910   250.1580   218.7980   163.3610    24.2270     2.2120   -18.8380 
  203.0000    54.7310   241.6200   214.2660   168.4370    24.5470     2.2080   -18.4730 
  203.1250    54.0690   223.5950   201.4950   167.5890    24.7340     2.2040   -18.0070 
