~V
VERS. 2.00: Ver 2.00
~W
STRT.M 61.0000:
STOP.M 247.0000:
STEP.M 0.1250:
NULL. -999.2500:
UWI. DF5042:
~C
DEPT.M :
SP.MV :
GR.API :
CALI.CM :
RXO.OHMM :
RI. :
RML.OHMM :
DEN.GM/CC :
~A
# ...
  173.5000   -34.3380    68.6260    25.1790    69.0410   218.5550   251.7810     2.1540 
  173.6250   -34.4220    69.5190    25.1680    71.9680   209.5980   239.9480     2.1590 
  173.7500   -34.4600    68.6540    25.1560    77.9350   199.1340   226.2000     2.1650 
  173.8750   -34.4350    68.1130    25.1440    82.6760   187.7510   211.3960     2.1690 
  174.0000   -34.3950    68.6000    25.1370    80.6210   175.8240   196.1000     2.1730 
  174.1250   -34.3640    68.4400    25.1410    74.2710   163.7750   180.9460     2.1740 
  174.2500   -34.3700    67.3390    25.1490    69.1090   152.2280   166.6460     2.1740 
  174.3750   -34.3800    68.2480    25.1540    65.1760   141.5390   153.6240     2.1720 
  174.5000   -34.3770    73.2530    25.1580    59.2530   131.9480   142.2260     2.1710 
  174.6250   -34.4100    77.9620    25.1460    55.0630   124.3150   133.5070     2.1740 
  174.7500   -34.4350    79.3060    25.1100    58.0190   119.1780   127.8560     2.1800 
  174.8750   -34.4650    78.7430    25.0610    66.3210   117.1190   125.7060     2.1870 
  175.0000   -34.4770    77.2800    25.0250    66.1760   118.5380   127.2370     2.1930 
  175.1250   -34.4950    75.1280    25.0620    69.9880   124.0160   132.6630     2.1980 
  175.2500   -34.5180    72.0260    25.1770    83.4870   131.9820   140.1200     2.2000 
  175.3750   -34.5690    68.4740    25.3220    95.8240   140.4610   147.4340     2.2010 
  175.5000   -34.6250    66.1660    25.4330    93.5930   146.6280   151.7060     2.2010 
  175.6250   -34.6510    66.4610    25.4490    85.3930   146.2300   148.8600     2.2000 
  175.7500   -34.6630    68.7460    25.3860    81.4220   138.8840   139.3300     2.1980 
  175.8750   -34.6910    71.1520    25.2900    78.0440   126.5470   125.7890     2.1960 
  176.0000   -34.7490    71.6950    25.2190    71.9510   112.9240   112.1830     2.1940 
  176.1250   -34.8430    71.3490    25.2140    61.0350   102.0470   102.3640     2.1910 
  176.2500   -34.9790    72.1200    25.2460    52.6240    95.3810    97.1990     2.1880 
  176.3750   -35.1300    73.7290    25.3160    49.3280    93.3340    96.8240     2.1870 
  176.5000   -35.2520    73.5660    25.4140    51.4320    95.7540   100.9300     2.1880 
  176.6250   -35.3010    71.6930    25.4960    55.9870   102.8190   109.5880     2.1910 
  176.7500   -35.3080    71.1650    25.5400    59.6950   113.2120   121.4760     2.1960 
  176.8750   -35.2700    71.0480    25.5570    62.2800   126.3740   136.0800     2.2000 
  177.0000   -35.2210    70.4190    25.5620    65.5030   141.9810   153.0980     2.2010 
  177.1250   -35.1480    70.3940    25.5620    69.7770   160.2170   172.6240     2.1990 
  177.2500   -35.0290    69.8750    25.5450    76.3010   180.0220   193.4300     2.1960 
  177.3750   -34.8740    67.9260    25.5030    85.7280   199.6830   213.5880     2.1930 
  177.5000   -34.7150    65.6420    25.4900    93.1320   216.5690   230.2080     2.1890 
  177.6250   -34.6210    63.8560    25.5670    95.3270   226.6440   238.8950     2.1830 
  177.7500   -34.5810    62.5700    25.6690    97.4820   228.9790   239.0190     2.1750 
  177.8750   -34.5990    62.8120    25.7200    99.8600   223.2860   230.7850     2.1650 
  178.0000   -34.6400    64.4270    25.7150   100.7140   210.6910   215.9850     2.1580 
  178.1250   -34.7000    64.4300    25.7070    95.8740   193.7830   197.9970     2.1550 
  178.2500   -34.7640    63.0820    25.7050    90.7480   177.4460   181.6940     2.1570 
  178.3750   -34.8430    62.6650    25.6850    85.5710   165.0250   170.0980     2.1620 
  178.5000   -34.9740    62.9080    25.6350    76.2420   158.7720   164.8910     2.1670 
  178.6250   -35.1760    63.7830    25.5710    61.8250   160.6680   167.3580     2.1720 
  178.7500   -35.4000    65.2960    25.5160    55.6720   168.8240   175.1870     2.1760 
  178.8750   -35.6240    65.5370    25.4790    61.7620   181.5200   186.2300     2.1820 
  179.0000   -35.8450    62.4980    25.4550    70.8640   195.8660   197.1650     2.1900 
  179.1250   -36.0080    57.1590    25.4480    72.7930   206.3630   202.0790     2.1980 
  179.2500   -36.1300    53.7830    25.4580    71.5840   208.4710   197.5810     2.2040 
  179.3750   -36.2460    54.4730    25.4720    71.7290   200.0040   183.1240     2.2060 
  179.5000   -36.3380    57.2250    25.4730    71.1000   182.0640   161.4640     2.2020 
  179.6250   -36.3560    60.0580    25.4340    63.6970   158.3060   137.4000     2.1950 
  179.7500   -36.3420    61.8330    25.3670    54.2740   134.7700   115.6970     2.1890 
  179.8750   -36.3010    63.1080    25.2960    47.7190   114.4490    98.2050     2.1880 
  180.0000   -36.2580    63.9230    25.2430    41.6510    98.4700    85.2370     2.1900 
  180.1250   -36.2610    66.4610    25.2140    37.8380    87.6370    77.1680     2.1950 
  180.2500   -36.3100    69.6530    25.1900    37.8920    81.1370    73.1390     2.2010 
  180.3750   -36.2650    70.1480    25.1690    38.2520    79.2370    73.4820     2.2080 
  180.5000   -36.1040    68.1500    25.1530    35.0100    82.8370    79.0870     2.2120 
  180.6250   -35.8620    67.9690    25.1480    34.5780    95.5250    92.9390     2.2120 
  180.7500   -35.5600    70.0090    25.1470    39.7590   119.2660   116.3110     2.2060 
  180.8750   -35.2030    71.6060    25.1460    49.9190   156.0190   151.2080     2.1910 
  181.0000   -34.7640    70.3160    25.1440    60.2600   203.6320   197.1300     2.1700 
  181.1250   -34.2850    66.8730    25.1430    64.2310   249.3020   243.8800     2.1480 
  181.2500   -33.7880    62.6700    25.1440    61.3440   274.7660   271.7060     2.1290 
  181.3750   -33.3670    60.0540    25.1460    51.2350   273.9580   272.8300     2.1190 
  181.5000   -33.0130    58.7630    25.1370    40.8030   256.8450   258.1260     2.1200 
  181.6250   -32.7270    59.2580    25.0930    41.7060   238.7280   243.3680     2.1260 
  181.7500   -32.4900    61.9730    25.0290    48.4810   225.7820   233.3290     2.1340 
  181.8750   -32.2260    64.3530    24.9740    53.6400   216.2370   225.7050     2.1410 
  182.0000   -31.9410    63.1340    24.9400    55.2740   207.3210   217.8550     2.1450 
  182.1250   -31.6100    59.8530    24.9180    52.0910   197.8780   208.9640     2.1470 
  182.2500   -31.1830    59.6050    24.8930    43.1140   189.0640   200.7690     2.1490 
  182.3750   -30.6770    62.1350    24.8680    33.5960   183.0940   195.7010     2.1470 
  182.5000   -30.0580    63.2040    24.8480    29.9030   182.2290   195.8540     2.1430 
  182.6250   -29.3350    60.7060    24.8420    35.9210   188.8360   203.1610     2.1400 
  182.7500   -28.4840    57.8740    24.8380    41.5910   201.2310   215.6540     2.1400 
  182.8750   -27.5900    56.0770    24.8290    43.8300   216.9780   230.6390     2.1440 
  183.0000   -26.6920    55.4160    24.8220    43.5940   231.7960   243.6140     2.1470 
  183.1250   -25.7820    54.4330    24.8190    47.3510   239.2970   248.0370     2.1490 
  183.2500   -24.8670    52.3490    24.8200    49.6790   237.9170   242.8190     2.1470 
  183.3750   -23.9490    49.6660    24.8240    47.6150   227.0880   227.0150     2.1410 
  183.5000   -23.1110    48.3270    24.8330    46.4540   204.3160   197.3910     2.1380 
  183.6250   -22.3780    50.1760    24.8400    45.7400   165.4830   152.3680     2.1450 
  183.7500   -21.7450    54.1590    24.8430    48.1240   119.9760   105.7730     2.1720 
  183.8750   -21.2100    58.1840    24.8430    51.2700    78.8250    68.2790     2.2240 
  184.0000   -20.7000    61.6020    24.8430    44.7210    49.0650    43.2410     2.2920 
  184.1250   -20.2400    66.6930    24.8410    27.8880    32.8610    30.0980     2.3530 
  184.2500   -19.8430    72.4070    24.8530    14.9570    24.7640    23.8270     2.3780 
  184.3750   -19.5440    75.8320    24.8980    12.8450    21.8950    22.3900     2.3570 
  184.5000   -19.2640    75.6670    24.9660    14.4780    22.6600    24.5120     2.3320 
  184.6250   -18.9440    72.5770    24.9970    23.3820    26.4490    29.0070     2.3270 
