~V
VERS. 2.00: Ver 2.00
~W
STRT.M 55.0000:
STOP.M 261.0000:
STEP.M 0.1250:
NULL. -999.2500:
UWI. DF5033:
~C
DEPT.M :
SP.MV :
GR.API :
CALI.CM :
RXO.OHMM :
RI. :
RML.OHMM :
DEN.GM/CC :
~A
# ...
  223.7500   -27.7020    68.8250    26.8840   128.9180   103.5250   111.6460     2.2800 
  223.8750   -27.4100    72.2790    26.8660   124.7880   102.4400   109.7540     2.2930 
  224.0000   -27.1100    73.4930    26.8370   116.5370    98.6280   104.9650     2.3020 
  224.1250   -26.8010    74.2950    26.8020   105.6440    91.9590    97.4150     2.3060 
  224.2500   -26.4970    77.0950    26.7700    93.1660    84.2950    89.0270     2.3140 
  224.3750   -26.2010    81.0800    26.7480    83.7830    77.2970    81.4890     2.3300 
  224.5000   -25.9060    83.2490    26.7420    80.2180    72.2990    76.2090     2.3480 
  224.6250   -25.6380    81.3790    26.7520    78.9430    70.6590    74.6970     2.3620 
  224.7500   -25.3960    75.0420    26.7710    79.3510    72.3190    76.7770     2.3700 
  224.8750   -25.1820    67.3860    26.7930    87.3080    77.1370    82.1480     2.3690 
  225.0000   -24.9880    61.9710    26.8120   104.1350    84.1170    89.6050     2.3520 
  225.1250   -24.8000    59.7570    26.8240   117.8890    90.7860    96.2370     2.3220 
  225.2500   -24.6080    59.4320    26.8290   120.4120    94.3540    98.9700     2.2980 
  225.3750   -24.4220    60.6200    26.8300   113.6790    93.4740    96.6000     2.2910 
  225.5000   -24.2450    63.6480    26.8280   100.7040    88.6530    90.2430     2.2940 
  225.6250   -24.0500    67.7980    26.8260    85.0810    81.6910    82.3710     2.2940 
  225.7500   -23.8420    72.0040    26.8240    74.6960    74.7990    75.1950     2.2910 
  225.8750   -23.6240    75.8390    26.8210    70.8100    68.7010    69.2740     2.2890 
  226.0000   -23.3830    77.4590    26.8130    67.9390    63.6430    64.6640     2.2880 
  226.1250   -23.1380    73.6330    26.7950    61.4920    60.2710    61.8130     2.2830 
  226.2500   -22.8960    68.3030    26.7680    54.8700    58.9280    60.9450     2.2750 
  226.3750   -22.6530    65.6280    26.7360    52.3700    59.9550    62.4600     2.2750 
  226.5000   -22.4220    65.3550    26.7090    57.0590    63.3430    66.4690     2.2880 
  226.6250   -22.2040    64.7930    26.6980    75.6820    68.9040    72.8690     2.3030 
  226.7500   -21.9840    63.3160    26.7070    99.6850    75.4080    80.2550     2.3000 
  226.8750   -21.7390    63.5980    26.7320   105.9740    81.9240    87.4910     2.2780 
  227.0000   -21.4700    64.8890    26.7640    89.0450    87.8280    93.9210     2.2550 
  227.1250   -21.1690    63.7460    26.7900    78.1490    92.7980    99.3720     2.2500 
  227.2500   -20.8610    59.9850    26.8040    96.3310    96.6110   103.6310     2.2520 
  227.3750   -20.5470    55.9320    26.8050   133.0490    98.2370   105.3430     2.2520 
  227.5000   -20.2180    53.8610    26.7970   151.2070    96.3200   102.6920     2.2650 
  227.6250   -19.9080    54.0880    26.7890   126.3320    89.6250    94.3040     2.3120 
  227.7500   -19.6270    55.3950    26.7870    97.9650    82.2150    85.4350     2.3690 
  227.8750   -19.3910    56.6810    26.7880    83.7980    77.1120    79.5390     2.4040 
  228.0000   -19.1980    59.2500    26.7950    68.5210    68.2710    69.7320     2.4040 
  228.1250   -19.0520    63.0460    26.8070    61.8060    60.5300    61.4970     2.3800 
  228.2500   -18.9180    67.5970    26.8160    58.0790    55.2470    55.8860     2.3530 
  228.3750   -18.7910    70.0830    26.8210    54.4290    52.0830    52.3100     2.3270 
  228.5000   -18.6730    67.6770    26.8220    51.4860    50.4050    50.0690     2.3030 
  228.6250   -18.5490    63.1740    26.8220    51.6870    49.5910    48.6370     2.2910 
  228.7500   -18.4250    60.1350    26.8220    52.9270    48.8660    47.4020     2.2900 
  228.8750   -18.3170    57.5690    26.8200    51.4180    47.8090    46.0200     2.2900 
  229.0000   -18.2290    54.7390    26.8140    46.4970    46.2790    44.3400     2.2860 
  229.1250   -18.1760    56.2680    26.8010    41.5620    44.4880    42.5370     2.2890 
  229.2500   -18.1670    62.6080    26.7840    38.8510    42.9250    41.0290     2.3060 
  229.3750   -18.2050    68.1200    26.7670    38.1510    41.9120    40.1380     2.3330 
  229.5000   -18.2710    67.7480    26.7520    38.9570    41.5710    40.0030     2.3550 
  229.6250   -18.3390    63.2740    26.7430    41.1440    41.8450    40.5670     2.3560 
  229.7500   -18.3890    60.8010    26.7390    44.1630    42.3220    41.3530     2.3420 
  229.8750   -18.4200    61.9670    26.7420    46.5050    42.7170    42.0520     2.3240 
  230.0000   -18.4590    64.0710    26.7570    45.8630    42.8560    42.4720     2.3100 
  230.1250   -18.5290    64.6850    26.7860    42.1770    42.6730    42.5510     2.2960 
  230.2500   -18.6300    64.7530    26.8190    39.4110    42.3580    42.5350     2.2830 
  230.3750   -18.7700    65.7310    26.8460    39.4390    42.1600    42.7620     2.2760 
  230.5000   -18.9800    69.7650    26.8620    41.3520    42.4250    43.6520     2.2780 
  230.6250   -19.2980    74.7380    26.8620    43.2040    43.8420    45.8990     2.2830 
  230.7500   -19.6930    74.9560    26.8560    44.9910    46.9410    49.8810     2.2850 
  230.8750   -20.1390    69.9490    26.8490    49.9250    52.5170    56.3590     2.2810 
  231.0000   -20.5900    63.9580    26.8430    64.1970    61.4030    66.2850     2.2750 
  231.1250   -20.9720    62.1230    26.8390    98.1090    74.5160    81.0330     2.2680 
  231.2500   -21.2730    61.6500    26.8330   144.7500    89.7060    98.5910     2.2570 
  231.3750   -21.4720    60.9290    26.8190   182.5420   103.1100   114.1700     2.2440 
  231.5000   -21.5380    61.2000    26.7970   190.5470   109.6100   120.5490     2.2360 
  231.6250   -21.4410    63.6100    26.7650   166.1220   104.7630   112.3170     2.2380 
  231.7500   -21.2130    67.4090    26.7290   134.6030    93.1690    97.1980     2.2420 
  231.8750   -20.8710    71.1070    26.6960   110.6510    79.8900    81.9190     2.2510 
  232.0000   -20.4320    72.8930    26.6710    95.9060    68.6340    69.9720     2.2760 
  232.1250   -19.9380    72.3750    26.6600    83.5580    61.5460    62.8040     2.3330 
  232.2500   -19.4220    70.6860    26.6650    74.6290    57.9620    59.2510     2.4110 
  232.3750   -18.8970    68.9690    26.6900    78.4450    57.1200    58.3910     2.4980 
  232.5000   -18.3910    67.7710    26.7280    95.2690    57.7460    58.8180     2.5820 
  232.6250   -17.8990    66.9830    26.7600   107.7730    57.8030    58.3590     2.6360 
  232.7500   -17.4280    68.1870    26.7630   112.1350    55.7440    55.6030     2.6410 
  232.8750   -16.9700    71.8080    26.7320   108.2560    51.3580    50.6040     2.5950 
  233.0000   -16.5250    75.6520    26.6730    88.7310    45.5670    44.5220     2.5230 
  233.1250   -16.0690    80.3880    26.6040    58.4770    39.8290    38.8470     2.4570 
  233.2500   -15.6070    85.2890    26.5430    42.4000    34.9880    34.1710     2.4140 
  233.3750   -15.1510    87.4590    26.4950    40.5700    31.1570    30.4660     2.4000 
  233.5000   -14.7020    84.3840    26.4560    41.1730    28.2980    27.6610     2.4060 
  233.6250   -14.2920    80.3520    26.4190    35.6230    26.6470    26.0670     2.4110 
  233.7500   -13.9240    80.0360    26.3770    28.0630    26.1620    25.7580     2.4000 
  233.8750   -13.6080    80.1400    26.3320    24.8810    26.9410    26.9060     2.3880 
  234.0000   -13.3440    78.9780    26.2990    29.4230    29.0140    29.5210     2.4000 
  234.1250   -13.1480    77.4870    26.2960    41.8960    32.1000    33.1130     2.4490 
  234.2500   -12.9890    72.9290    26.3210    49.4520    34.5980    35.7380     2.5050 
  234.3750   -12.8400    66.5570    26.3610    43.6340    34.4920    35.1820     2.5410 
  234.5000   -12.6690    63.8530    26.3990    30.0840    30.6830    30.5420     2.5560 
  234.6250   -12.4300    68.2440    26.4150    21.1540    24.3060    23.4720     2.5640 
  234.7500   -12.1400    73.2320    26.4030    16.3120    18.2510    17.0350     2.5590 
  234.8750   -11.8200    74.9420    26.3620    12.9730    13.6740    12.3080     2.5270 
