~V
VERS. 2.00: Ver 2.00
~W
STRT.M 60.0000:
STOP.M 271.0000:
STEP.M 0.1250:
NULL. -999.2500:
UWI. DF5026:
~C
DEPT.M :
SP.MV :
GR.API :
CALI.CM :
RXO.OHMM :
RI. :
RML.OHMM :
DEN.GM/CC :
~A
# ...
  127.5000   -46.2440    67.8050    23.7640     8.0380     9.1350    10.2900     2.2270 
  127.6250   -46.2330    65.6690    23.7850     8.1560     9.4960    10.6120     2.2310 
  127.7500   -46.0250    62.7470    23.7910     8.1370     9.7150    10.7460     2.2170 
  127.8750   -45.7740    60.3560    23.7870     8.0940     9.7820    10.7140     2.1930 
  128.0000   -45.6160    59.3190    23.7800     8.0270     9.7480    10.5930     2.1700 
  128.1250   -45.3780    59.8150    23.7760     7.8480     9.6540    10.4330     2.1590 
  128.2500   -45.1770    60.7960    23.7600     7.4500     9.4870    10.1990     2.1580 
  128.3750   -45.0390    62.0050    23.7320     7.0330     9.1750     9.7920     2.1640 
  128.5000   -44.8050    64.7250    23.7060     6.9280     8.6630     9.1450     2.1740 
  128.6250   -44.5330    69.1970    23.6980     7.1930     7.9730     8.3090     2.1950 
  128.7500   -44.3680    72.7590    23.7000     6.9590     7.2750     7.5110     2.2240 
  128.8750   -44.2720    75.2830    23.6940     6.0210     6.7090     6.9330     2.2530 
  129.0000   -44.2250    77.7110    23.6740     5.1850     6.3750     6.6870     2.2690 
  129.1250   -44.1910    80.1340    23.6470     5.6820     6.3670     6.8600     2.2630 
  129.2500   -44.1610    81.0560    23.6320     6.3510     6.6220     7.3210     2.2450 
  129.3750   -44.1580    80.1200    23.6290     6.6480     7.0720     7.9340     2.2240 
  129.5000   -44.1520    78.0170    23.6300     7.1200     7.5940     8.5110     2.2070 
  129.6250   -44.1670    74.6080    23.6290     8.3100     7.9950     8.8140     2.1960 
  129.7500   -44.1640    70.8560    23.6300     9.7420     8.1970     8.8530     2.1860 
  129.8750   -44.0970    68.1680    23.6540    10.3450     8.2770     8.8200     2.1810 
  130.0000   -43.9440    66.9320    23.7090    10.0670     8.4370     9.0210     2.1840 
  130.1250   -43.6680    66.9610    23.7690    10.6170     8.9990     9.8480     2.2040 
  130.2500   -43.2370    67.7010    23.8280    12.0800    10.0800    11.3090     2.2410 
  130.3750   -42.6910    68.1910    23.9010    17.0020    11.6180    13.1750     2.2970 
  130.5000   -42.1450    67.0300    23.9860    25.0500    13.1800    14.7740     2.3630 
  130.6250   -41.6600    67.0590    24.0340    30.5050    13.6630    14.7490     2.4210 
  130.7500   -41.2150    69.8620    23.9620    25.9940    12.6150    12.9210     2.4470 
  130.8750   -40.7690    76.5370    23.7300    15.1040    10.4980    10.1430     2.4340 
  131.0000   -40.3760    84.4530    23.4230     6.6720     8.2130     7.5220     2.3940 
  131.1250   -40.1140    88.9680    23.2290     5.3830     6.4590     5.7590     2.3520 
  131.2500   -40.0680    89.1520    23.1770     4.9300     5.2840     4.7140     2.3210 
  131.3750   -40.1960    87.1720    23.1820     4.4080     4.6010     4.1990     2.3040 
  131.5000   -40.4000    86.7760    23.1830     4.1120     4.2810     4.0210     2.2960 
  131.6250   -40.6230    88.0190    23.1830     4.2910     4.2140     4.0270     2.2930 
  131.7500   -40.8880    87.3010    23.1830     4.3340     4.2470     4.0830     2.2870 
  131.8750   -41.2590    83.8080    23.1830     4.2960     4.3270     4.1550     2.2800 
  132.0000   -41.7060    79.7710    23.1830     4.5300     4.4390     4.2440     2.2710 
  132.1250   -42.1970    81.4910    23.1830     4.5690     4.5930     4.3750     2.2610 
  132.2500   -42.6660    86.3780    23.1830     4.5710     4.7910     4.5670     2.2530 
  132.3750   -43.1000    88.9480    23.1830     4.8280     5.0370     4.8300     2.2480 
  132.5000   -43.4560    86.4600    23.1830     5.3110     5.3220     5.1560     2.2460 
  132.6250   -43.7640    82.6680    23.1830     5.6520     5.6190     5.5070     2.2440 
  132.7500   -44.0510    81.0670    23.1830     5.9700     5.8830     5.8140     2.2400 
  132.8750   -44.3100    81.0620    23.1850     6.2820     6.0630     6.0220     2.2350 
  133.0000   -44.5060    80.9660    23.1850     6.6220     6.1200     6.1020     2.2330 
  133.1250   -44.6700    80.1820    23.1870     6.7100     6.0450     6.0760     2.2370 
  133.2500   -44.8050    79.3020    23.1930     6.4640     5.9250     6.0490     2.2450 
  133.3750   -44.9570    79.3100    23.1990     6.0530     5.8450     6.1120     2.2510 
  133.5000   -45.2440    81.4970    23.2000     5.9450     5.8900     6.3490     2.2480 
  133.6250   -45.6510    83.8210    23.2010     6.5330     6.1700     6.8650     2.2320 
  133.7500   -46.0920    82.9510    23.2140     7.6540     6.6990     7.6570     2.2160 
  133.8750   -46.5090    79.1520    23.2360     9.0650     7.5010     8.7410     2.2120 
  134.0000   -46.9210    75.3300    23.2520    10.7500     8.5780    10.1110     2.2290 
  134.1250   -47.2750    71.9370    23.2730    12.6880     9.9450    11.7670     2.2750 
  134.2500   -47.5010    67.5000    23.3350    15.2720    11.4790    13.5510     2.3440 
  134.3750   -47.5940    63.3390    23.4390    20.0580    13.0200    15.2480     2.4250 
  134.5000   -47.5680    61.2070    23.5580    28.7020    14.3010    16.5140     2.4960 
  134.6250   -47.5140    61.5440    23.6780    45.0230    14.8670    16.8110     2.5200 
  134.7500   -47.4340    61.9200    23.7870    54.6000    14.6600    16.1670     2.4880 
  134.8750   -47.3070    63.2470    23.8590    46.0330    13.8350    14.8760     2.4150 
  135.0000   -47.1960    65.7590    23.8810    28.3370    12.7180    13.4040     2.3330 
  135.1250   -47.0970    68.1680    23.8770    18.5940    11.6730    12.2130     2.2690 
  135.2500   -47.0680    68.7970    23.8760    16.5550    10.8890    11.4320     2.2280 
  135.3750   -47.1300    67.9870    23.8770    14.9680    10.4050    11.0340     2.2070 
  135.5000   -47.2200    66.7960    23.8770    13.8800    10.1800    10.9100     2.1990 
  135.6250   -47.2540    65.5900    23.8770    12.7020    10.1370    10.9240     2.1990 
  135.7500   -47.2540    66.2770    23.8770    11.5190    10.1400    10.9350     2.1990 
  135.8750   -47.2770    67.9940    23.8770    10.9200    10.1380    10.9120     2.1960 
  136.0000   -47.2750    68.0110    23.8770    10.9650    10.1350    10.8940     2.1920 
  136.1250   -47.2540    66.3410    23.8770    11.1000    10.1810    10.9540     2.1890 
  136.2500   -47.2260    65.9390    23.8770    11.4190    10.2980    11.1080     2.1880 
  136.3750   -47.1480    67.2330    23.8770    11.9650    10.4800    11.3330     2.1870 
  136.5000   -46.9940    67.5030    23.8790    12.4220    10.6850    11.5690     2.1850 
  136.6250   -46.7030    66.8970    23.8790    12.3660    10.8120    11.6820     2.1820 
  136.7500   -46.3810    68.0620    23.8780    11.9810    10.7520    11.5510     2.1800 
  136.8750   -46.0600    72.2940    23.8770    11.5280    10.4290    11.1050     2.1810 
  137.0000   -45.7200    77.3240    23.8760    11.1440     9.8560    10.3850     2.1850 
  137.1250   -45.3460    78.7790    23.8780    10.6390     9.1450     9.5590     2.1920 
  137.2500   -44.9510    77.6700    23.8770     9.6100     8.4940     8.8650     2.1980 
  137.3750   -44.5830    76.6900    23.8470     8.5190     8.0350     8.4500     2.2000 
  137.5000   -44.2860    77.0340    23.7590     8.5920     7.8460     8.3850     2.1970 
  137.6250   -44.1060    79.4340    23.6370     9.2940     7.9900     8.7110     2.1890 
  137.7500   -43.9660    80.3590    23.5540     9.5030     8.3560     9.2520     2.1800 
  137.8750   -43.8350    76.5920    23.5270     9.6820     8.8060     9.8040     2.1750 
  138.0000   -43.7250    70.7300    23.5290     9.8070     9.1370    10.1140     2.1730 
  138.1250   -43.6270    70.3190    23.5300     9.8230     9.1200     9.9280     2.1770 
  138.2500   -43.6240    74.4940    23.5300     9.6730     8.7890     9.3790     2.1840 
  138.3750   -43.6810    77.8800    23.5300     8.8090     8.2650     8.6780     2.1930 
  138.5000   -43.7490    78.7920    23.5300     7.3190     7.6950     8.0360     2.2060 
  138.6250   -43.8090    79.8720    23.5300     6.5830     7.2230     7.6180     2.2190 
