~V
VERS. 2.00: Ver 2.00
~W
STRT.M 61.0000:
STOP.M 247.0000:
STEP.M 0.1250:
NULL. -999.2500:
UWI. DF5042:
~C
DEPT.M :
SP.MV :
GR.API :
CALI.CM :
RXO.OHMM :
RI. :
RML.OHMM :
DEN.GM/CC :
~A
# ...
   72.2500   -27.2490    75.6330    24.9330     6.7660     6.0120     6.7380     2.1400 
   72.3750   -27.3280    75.4730    24.8470     6.7810     6.0830     6.7510     2.1400 
   72.5000   -27.4590    74.9840    24.7630     6.8520     6.0800     6.6910     2.1480 
   72.6250   -27.6450    74.5820    24.8050     6.8160     5.9320     6.4940     2.1630 
   72.7500   -27.8220    79.0970    25.0460     6.4520     5.6500     6.1840     2.1830 
   72.8750   -28.0170    91.4440    25.4160     5.7050     5.2810     5.8120     2.2020 
   73.0000   -28.1870   106.7810    25.7470     5.0840     4.8940     5.4470     2.2180 
   73.1250   -28.2670   114.7240    25.9010     4.8160     4.5620     5.1510     2.2300 
   73.2500   -28.2930   114.5270    25.9490     4.6000     4.3030     4.9230     2.2420 
   73.3750   -28.2060   111.6260    25.9670     4.5230     4.1010     4.7290     2.2570 
   73.5000   -28.0330   109.3070    25.9740     4.5630     3.9280     4.5520     2.2800 
   73.6250   -27.8160   106.2630    25.9770     4.5660     3.8150     4.4740     2.3050 
   73.7500   -27.5770   104.1060    25.9700     4.4730     3.8550     4.6510     2.3290 
   73.8750   -27.2850   105.5460    25.9050     4.4200     4.1890     5.2640     2.3510 
   74.0000   -26.9820   108.1540    25.7610     4.7600     4.9530     6.4600     2.3740 
   74.1250   -26.7520   104.7640    25.6310     7.9060     6.3310     8.3350     2.3960 
   74.2500   -26.6170    94.0450    25.5920    16.2650     8.1230    10.4370     2.4090 
   74.3750   -26.5720    80.4000    25.5860    23.2740     9.8520    12.0660     2.3860 
   74.5000   -26.6770    70.3600    25.5010    21.1010    10.7960    12.5130     2.3250 
   74.6250   -26.8030    66.7020    25.3350    13.9500    10.4280    11.5470     2.2500 
   74.7500   -27.0490    66.3980    25.1970     9.2150     9.4390    10.1420     2.1870 
   74.8750   -27.3520    68.1060    25.1110     7.9110     8.4430     8.9860     2.1480 
   75.0000   -27.7380    69.6300    25.0630     7.7260     7.7750     8.3800     2.1290 
   75.1250   -28.1210    68.6720    25.0420     7.7290     7.5520     8.3380     2.1230 
   75.2500   -28.4630    65.8660    25.0130     7.6460     7.5950     8.5570     2.1250 
   75.3750   -28.7980    63.2050    24.9460     7.5120     7.7690     8.8630     2.1260 
   75.5000   -29.0890    61.7050    24.8620     7.4450     7.9730     9.1500     2.1280 
   75.6250   -29.3990    61.8880    24.8170     7.5330     8.1350     9.3470     2.1290 
   75.7500   -29.6580    66.1450    24.8240     7.7740     8.2240     9.4390     2.1300 
   75.8750   -29.8410    71.8840    24.8940     8.1140     8.2180     9.4110     2.1290 
   76.0000   -29.9020    75.4640    25.0360     8.3950     8.1000     9.2620     2.1280 
   76.1250   -29.9690    77.9570    25.1830     8.4080     7.8760     9.0250     2.1290 
   76.2500   -30.0140    79.4640    25.2400     8.3380     7.6200     8.7900     2.1310 
   76.3750   -30.0610    78.3120    25.2040     8.1420     7.3990     8.6300     2.1320 
   76.5000   -30.0360    75.5240    25.1350     7.7470     7.2670     8.5990     2.1310 
   76.6250   -29.9510    75.4770    25.1330     7.4210     7.2830     8.7440     2.1290 
   76.7500   -29.8110    74.9980    25.3690     7.5220     7.4210     9.0130     2.1280 
   76.8750   -29.6700    69.9970    25.9350     7.8430     7.6490     9.3460     2.1300 
   77.0000   -29.5970    63.2890    26.5790     7.9500     7.9190     9.6760     2.1310 
   77.1250   -29.5180    60.6220    26.7530     8.0160     8.1680     9.9150     2.1290 
   77.2500   -29.4520    61.1060    26.4300     8.2000     8.3450    10.0270     2.1240 
   77.3750   -29.3470    63.0750    25.9160     8.4360     8.4180    10.0100     2.1170 
   77.5000   -29.2500    64.2260    25.4860     8.5430     8.3870     9.8920     2.1120 
   77.6250   -29.2130    62.1010    25.2340     8.5290     8.2570     9.7020     2.1090 
   77.7500   -29.2080    59.4010    25.0950     8.4770     8.0780     9.4870     2.1090 
   77.8750   -29.1700    58.3050    24.9940     8.5150     7.8850     9.2770     2.1110 
   78.0000   -29.1140    59.7200    24.8600     8.5400     7.7110     9.0950     2.1100 
   78.1250   -29.0300    61.5310    24.7040     8.2890     7.5780     8.9600     2.1080 
   78.2500   -28.9320    63.1240    24.5740     8.0130     7.4860     8.8770     2.1070 
   78.3750   -28.8410    64.7410    24.4850     7.9100     7.4450     8.8560     2.1110 
   78.5000   -28.7800    66.6040    24.4290     7.7330     7.4590     8.8960     2.1250 
   78.6250   -28.6970    72.0070    24.4160     7.0610     7.5040     8.9530     2.1450 
   78.7500   -28.6010    79.5230    24.4240     6.6490     7.5140     8.9460     2.1670 
   78.8750   -28.5360    84.1310    24.4440     7.1980     7.4300     8.8010     2.1850 
   79.0000   -28.4310    84.0110    24.5480     8.3360     7.2140     8.4810     2.1980 
   79.1250   -28.2490    82.8600    24.8270     7.7990     6.8570     7.9920     2.2060 
   79.2500   -27.9440    84.1040    25.1180     6.4370     6.4440     7.4520     2.2100 
   79.3750   -27.6030    87.3570    25.2540     5.7460     6.0450     6.9570     2.2090 
   79.5000   -27.2060    92.1450    25.2510     5.7500     5.7170     6.5750     2.2040 
   79.6250   -26.7820    96.4660    25.2810     5.7440     5.5240     6.3780     2.2000 
   79.7500   -26.3310    96.7540    25.3590     5.6690     5.4680     6.3580     2.1990 
   79.8750   -25.8760    92.4060    25.3920     5.6910     5.5460     6.5080     2.2000 
   80.0000   -25.3910    86.2910    25.3450     5.7430     5.7360     6.7970     2.1970 
   80.1250   -25.0190    83.0440    25.2480     5.9610     5.9980     7.1440     2.1890 
   80.2500   -24.7710    83.1510    25.1510     6.2840     6.2250     7.3960     2.1790 
   80.3750   -24.6070    84.7200    25.0790     6.5020     6.3050     7.4210     2.1750 
   80.5000   -24.5200    86.1140    25.0620     6.3970     6.1720     7.1710     2.1790 
   80.6250   -24.5040    85.5170    25.1400     6.0770     5.8510     6.7300     2.1950 
   80.7500   -24.5460    85.9620    25.2760     5.5990     5.5060     6.3250     2.2190 
   80.8750   -24.6260    88.8440    25.4100     5.0740     5.2550     6.0930     2.2420 
   81.0000   -24.8210    92.2670    25.4670     4.9940     5.1590     6.0800     2.2560 
   81.1250   -25.0250    91.9010    25.4390     5.5720     5.2190     6.2440     2.2580 
   81.2500   -25.2340    89.3250    25.4060     6.2450     5.3250     6.4200     2.2500 
   81.3750   -25.3270    88.1130    25.3870     6.3800     5.3860     6.4930     2.2410 
   81.5000   -25.3580    89.6070    25.3700     5.7450     5.3530     6.4220     2.2390 
   81.6250   -25.3210    94.8000    25.3590     5.3780     5.2320     6.2520     2.2430 
   81.7500   -25.2750   100.4530    25.3910     5.1670     5.1100     6.1140     2.2470 
   81.8750   -25.2360   101.6640    25.4530     5.1580     5.0600     6.0970     2.2440 
   82.0000   -25.1880    98.2000    25.4960     5.3330     5.1270     6.2440     2.2350 
   82.1250   -25.1410    94.3260    25.4720     5.5840     5.3440     6.5780     2.2220 
   82.2500   -25.1210    90.5750    25.3830     5.7440     5.6720     7.0300     2.2070 
   82.3750   -25.1630    87.0740    25.2470     5.9730     6.0680     7.5250     2.1890 
   82.5000   -25.1840    87.6680    25.0930     6.3550     6.4520     7.9480     2.1680 
   82.6250   -25.2850    89.5830    24.9870     6.9060     6.6770     8.1180     2.1490 
   82.7500   -25.3810    85.5850    24.9380     7.2280     6.6770     8.0090     2.1400 
   82.8750   -25.4430    78.0630    24.9340     7.2710     6.4690     7.6850     2.1480 
   83.0000   -25.5190    75.3100    25.0160     6.5680     6.1500     7.2970     2.1670 
   83.1250   -25.5830    78.8190    25.2060     5.7970     5.8760     7.0510     2.1880 
   83.2500   -25.6890    80.7050    25.3510     5.6470     5.7530     7.0340     2.1970 
   83.3750   -25.8210    79.7980    25.3360     6.3400     5.8130     7.2420     2.1880 
