~V
VERS. 2.00: Ver 2.00
~W
STRT.M 61.0000:
STOP.M 236.0000:
STEP.M 0.1250:
NULL. -999.2500:
UWI. DF5057:
~C
DEPT.M :
GR.API :
RML.OHMM :
RI. :
RXO.OHMM :
CALI.CM :
DEN.GM/CC :
SP.MV :
~A
# ...
  196.0000    68.6110   122.8180   121.5890    70.5380    25.1850     2.2010   -12.4850 
  196.1250    67.1470   115.2070   114.9190    72.9430    25.2080     2.2070   -12.5780 
  196.2500    68.7480   109.4850   109.8470    70.5690    25.2270     2.2110   -12.6650 
  196.3750    69.4110   106.0100   106.7520    64.3580    25.2210     2.2110   -12.7480 
  196.5000    67.4100   104.7840   105.6840    59.6190    25.2190     2.2090   -12.7940 
  196.6250    66.6230   105.4770   106.3890    60.9560    25.2430     2.2080   -12.7960 
  196.7500    66.9690   106.5120   107.4430    64.9970    25.2280     2.2080   -12.8080 
  196.8750    64.8010   106.3660   107.4240    67.2600    25.1650     2.2090   -12.8300 
  197.0000    60.9870   103.8410   105.1400    67.6370    25.1600     2.2080   -12.8060 
  197.1250    60.9300    98.6150   100.1140    65.9510    25.1770     2.2050   -12.7640 
  197.2500    63.7460    92.6690    94.1450    60.8360    25.1880     2.2000   -12.7680 
  197.3750    66.9980    87.9920    89.1480    55.5540    25.1870     2.1960   -12.7980 
  197.5000    69.9120    86.3060    86.9050    54.2620    25.2170     2.1950   -12.8230 
  197.6250    70.2400    89.3840    89.3370    56.9120    25.3310     2.2110   -12.8100 
  197.7500    66.7680    96.5500    95.9540    59.0770    25.3360     2.2520   -12.8060 
  197.8750    63.2390   106.6890   105.7640    62.0650    25.1320     2.3160   -12.8010 
  198.0000    62.7380   117.5390   116.6550    70.8070    24.8130     2.3860   -12.8460 
  198.1250    64.6450   124.9640   124.7880    93.6450    24.6660     2.4300   -12.9170 
  198.2500    66.4780   126.5230   127.6120   100.7620    24.6260     2.4310   -12.9430 
  198.3750    67.4100   122.1580   124.6580    90.3170    24.6140     2.3950   -12.9300 
  198.5000    66.6920   113.9240   117.4580    81.6470    24.5880     2.3420   -12.9660 
  198.6250    64.7010   104.3630   108.2370    76.5270    24.5690     2.2960   -12.9800 
  198.7500    66.0060    95.3810    99.1650    69.9350    24.5610     2.2620   -12.9400 
  198.8750    70.8480    87.6500    91.1390    61.6580    24.5600     2.2390   -12.8920 
  199.0000    73.7820    81.3800    84.5350    56.9350    24.5610     2.2210   -12.8340 
  199.1250    71.2970    76.7470    79.6100    53.4510    24.6010     2.2110   -12.8110 
  199.2500    68.5120    73.4940    76.1040    49.9160    24.7040     2.2110   -12.7970 
  199.3750    69.7310    71.6890    74.0730    51.0180    24.8390     2.2190   -12.8170 
  199.5000    72.4760    71.4150    73.5780    54.3860    24.9440     2.2300   -12.8230 
  199.6250    73.2250    73.1260    75.0170    53.0480    25.0250     2.2380   -12.8970 
  199.7500    72.8660    76.8050    78.3480    49.2930    25.0230     2.2410   -13.0180 
  199.8750    72.8770    82.5790    83.6990    51.1860    24.9180     2.2400   -13.1680 
  200.0000    72.2590    90.2210    90.8500    59.7790    24.8200     2.2380   -13.3040 
  200.1250    70.1670    99.0420    99.0820    72.3170    24.8870     2.2350   -13.4430 
  200.2500    67.7590   107.5320   106.8880    78.0200    25.0060     2.2310   -13.5870 
  200.3750    66.3580   114.4900   113.1030    76.8240    25.0840     2.2250   -13.7450 
  200.5000    66.6940   119.3590   117.2050    72.0380    25.0870     2.2160   -13.9000 
  200.6250    67.6570   122.6010   119.5990    68.2480    25.0100     2.2050   -14.0100 
  200.7500    66.5820   125.9430   121.9310    67.3700    24.9350     2.1950   -14.1430 
  200.8750    64.3350   130.4740   125.2470    68.1110    24.9420     2.1860   -14.2850 
  201.0000    62.9830   136.5190   129.8800    71.7970    25.1240     2.1800   -14.4320 
  201.1250    61.8090   143.3030   135.1370    80.3970    25.2910     2.1760   -14.5730 
  201.2500    60.7800   148.5970   139.0690    93.1440    25.3630     2.1740   -14.6810 
  201.3750    62.0180   149.9350   139.6210   105.5060    25.3780     2.1740   -14.7470 
  201.5000    64.7940   145.4630   135.2980   107.8140    25.3890     2.1780   -14.8160 
  201.6250    64.8060   134.5690   125.4880    92.0240    25.3840     2.1850   -14.8780 
  201.7500    62.7800   120.8450   113.0100    79.0890    25.3930     2.1900   -14.8850 
  201.8750    61.7300   107.1830   100.2590    70.4950    25.3990     2.1920   -14.7890 
  202.0000    62.4270    95.7170    89.2110    65.0830    25.3920     2.1910   -14.6160 
  202.1250    64.2220    88.1570    81.6020    60.0250    25.3590     2.1850   -14.3820 
  202.2500    66.5340    84.1040    77.2690    56.5630    25.2870     2.1780   -14.1400 
  202.3750    69.1620    83.1570    75.9410    55.1710    25.2050     2.1720   -13.8940 
  202.5000    72.4020    84.6440    77.0620    56.5790    25.1720     2.1690   -13.6190 
  202.6250    74.6880    87.8110    80.0300    61.3720    25.1620     2.1730   -13.3040 
  202.7500    73.7240    91.3210    83.5770    65.6200    25.1470     2.1820   -12.9920 
  202.8750    68.8920    94.3360    86.8720    67.0000    25.1130     2.1920   -12.7350 
  203.0000    65.2570    96.3580    89.3250    66.2830    25.1010     2.2010   -12.5140 
  203.1250    66.1510    97.0220    90.4210    67.5020    25.1870     2.2040   -12.3250 
  203.2500    68.0310    96.3370    90.1030    73.6580    25.3070     2.2020   -12.1440 
  203.3750    68.9300    93.7920    87.9300    80.2600    25.3720     2.1970   -11.9510 
  203.5000    68.6410    88.7220    83.3470    84.2180    25.3790     2.1940   -11.7860 
  203.6250    68.0910    80.5670    75.8280    81.8850    25.4240     2.2090   -11.5940 
  203.7500    67.7840    70.8650    66.7400    66.3690    25.5330     2.2470   -11.3590 
  203.8750    67.8050    61.2870    57.6230    45.1100    25.6080     2.3020   -11.0990 
  204.0000    68.2240    53.3790    49.9610    31.4170    25.6120     2.3580   -10.8350 
  204.1250    69.9600    48.7490    45.2530    28.0710    25.5420     2.3890   -10.5790 
  204.2500    74.1460    47.6000    43.6490    30.1830    25.5290     2.3900   -10.3280 
  204.3750    78.4120    50.3990    45.5610    33.5880    25.5780     2.3700   -10.0910 
  204.5000    79.0850    57.5270    51.4330    37.4290    25.6450     2.3510    -9.8730 
  204.6250    77.5990    69.4390    61.8920    46.2760    25.6200     2.3610    -9.7230 
  204.7500    77.6560    83.3350    74.5250    73.2760    25.5630     2.4060    -9.6240 
  204.8750    78.7140    94.7050    85.4580   110.1110    25.5770     2.4730    -9.5940 
  205.0000    78.6060    97.8980    89.8230   147.3560    25.6090     2.5340    -9.5980 
  205.1250    76.5910    89.1400    83.7420   144.0770    25.5230     2.5520    -9.6430 
  205.2500    74.0570    74.9070    71.9220   115.2060    25.4760     2.5230    -9.7270 
  205.3750    71.7090    60.9000    59.3140    77.1660    25.5390     2.4620    -9.8240 
  205.5000    69.5950    50.3240    49.3030    48.7040    25.6050     2.3930    -9.8850 
  205.6250    69.5260    44.6280    43.6630    40.6660    25.6250     2.3340    -9.8920 
  205.7500    70.9510    42.6470    41.4960    38.9090    25.6260     2.2860    -9.8560 
  205.8750    72.2780    43.5550    42.1430    43.7050    25.6260     2.2470    -9.6910 
  206.0000    73.1180    46.0130    44.5420    52.4780    25.6150     2.2210    -9.4150 
  206.1250    74.6630    47.4060    46.4170    62.3700    25.5750     2.2230    -8.9600 
  206.2500    77.1100    45.1570    44.8850    70.8460    25.5090     2.2580    -8.3640 
  206.3750    76.3410    38.4980    38.7030    67.1500    25.4400     2.3260    -7.6780 
  206.5000    69.6060    29.2400    29.6750    46.9380    25.3730     2.4110    -6.9640 
  206.6250    61.2280    20.7230    21.4240    30.8320    25.2290     2.4910    -6.3690 
  206.7500    59.1520    14.6070    15.5470    22.3930    25.1130     2.5430    -5.9670 
  206.8750    65.5070    10.9150    11.9200    13.3250    24.9940     2.5580    -5.7660 
  207.0000    76.1960     9.1050     9.9850    10.2050    25.0000     2.5390    -5.7090 
  207.1250    85.5210     8.6990     9.3660     9.5460    25.0800     2.5000    -5.7990 
