~V
VERS. 2.00: Ver 2.00
~W
STRT.M 50.0000:
STOP.M 277.0000:
STEP.M 0.1250:
NULL. -999.2500:
UWI. DF5031:
~C
DEPT.M :
DEN.GM/CC :
GR.API :
CALI.CM :
RXO.OHMM :
RI. :
RML.OHMM :
SP.MV :
~A
# ...
  117.5000     2.3580    95.7540    24.4290     8.5510     5.7100     8.5700   -13.7490 
  117.6250     2.3500    97.0060    24.4060     9.0680     5.9270     8.8830   -13.9190 
  117.7500     2.3130    98.9300    24.2660     8.1320     5.8610     8.6730   -14.0970 
  117.8750     2.2570    98.6310    24.0610     6.9120     5.5960     8.1320   -14.2070 
  118.0000     2.2070    98.7440    23.9570     6.2740     5.2740     7.5510   -14.2620 
  118.1250     2.1910   100.4590    23.9600     6.0580     5.0530     7.2090   -14.3240 
  118.2500     2.1930   100.1120    23.9570     6.0290     4.9890     7.1550   -14.4450 
  118.3750     2.1930    98.6020    23.9390     6.2360     5.0710     7.3410   -14.5520 
  118.5000     2.1840    99.6430    23.9040     6.6310     5.2410     7.6560   -14.6460 
  118.6250     2.1730   102.3560    23.9150     6.8870     5.4180     7.9670   -14.6670 
  118.7500     2.1670   101.9270    23.9370     7.0510     5.5190     8.1520   -14.7130 
  118.8750     2.1640    97.7700    23.9290     7.1230     5.4920     8.1380   -14.7410 
  119.0000     2.1670    92.8260    23.8750     7.0250     5.3250     7.9200   -14.7190 
  119.1250     2.1840    91.5170    23.8360     6.6180     5.0470     7.5460   -14.5610 
  119.2500     2.2100    92.8580    23.8280     6.1020     4.7570     7.1450   -14.3810 
  119.3750     2.2320    96.1270    23.8800     5.6340     4.5230     6.8050   -14.1730 
  119.5000     2.2430   100.8910    23.9460     5.3660     4.3780     6.5850   -13.9260 
  119.6250     2.2440   102.9000    23.9770     5.3240     4.3430     6.5360   -13.6460 
  119.7500     2.2380   100.7860    23.9880     5.5210     4.3940     6.6360   -13.3560 
  119.8750     2.2260    97.3730    23.9900     5.8000     4.5300     6.8770   -13.1710 
  120.0000     2.2190    95.4930    24.0030     5.9670     4.7310     7.2230   -13.0780 
  120.1250     2.2280    97.3430    24.0420     6.2230     4.9400     7.5940   -12.9780 
  120.2500     2.2430   101.1710    24.0860     6.8080     5.0680     7.8400   -12.8710 
  120.3750     2.2550   105.4630    24.1040     7.4990     5.0510     7.8210   -12.7920 
  120.5000     2.2590   108.1900    24.1150     7.4360     4.8800     7.4910   -12.7860 
  120.6250     2.2630   110.8830    24.1450     6.4560     4.6230     6.9750   -12.8370 
  120.7500     2.2610   110.7540    24.1850     5.4950     4.4210     6.5700   -12.9080 
  120.8750     2.2460   104.0040    24.1910     5.1460     4.3680     6.4680   -12.9140 
  121.0000     2.2260    94.0830    24.1500     5.2740     4.5130     6.7450   -12.9440 
  121.1250     2.2270    88.1240    24.1010     5.5690     4.8440     7.3570   -13.0400 
  121.2500     2.2550    87.8640    24.0780     5.9170     5.1980     7.9770   -13.1330 
  121.3750     2.2910    91.7110    24.0790     6.2030     5.4110     8.2890   -13.1850 
  121.5000     2.3060    96.1480    24.0970     6.1900     5.3720     8.1120   -13.1820 
  121.6250     2.2940    97.4070    24.1480     5.6900     5.0770     7.5210   -13.2310 
  121.7500     2.2810    97.7740    24.2730     5.0960     4.7100     6.9010   -13.2710 
  121.8750     2.2750   101.3820    24.4480     4.8400     4.4060     6.4730   -13.2960 
  122.0000     2.2670   105.2140    24.5360     4.9870     4.2540     6.3260   -13.2490 
  122.1250     2.2520   102.6310    24.4840     5.2280     4.3120     6.4800   -13.2960 
  122.2500     2.2360    96.7250    24.3650     5.3540     4.5120     6.8100   -13.3410 
  122.3750     2.2210    92.8000    24.2210     5.5180     4.7780     7.2060   -13.3890 
  122.5000     2.2090    90.7960    24.1060     5.7970     5.0120     7.5490   -13.4200 
  122.6250     2.2050    88.9120    24.0220     6.0170     5.1110     7.7080   -13.3970 
  122.7500     2.2090    88.1630    24.0070     5.9800     5.0660     7.6590   -13.3500 
  122.8750     2.2200    90.0430    24.0410     5.8350     4.9040     7.4230   -13.3250 
  123.0000     2.2320    93.7580    24.1060     5.8010     4.6860     7.0790   -13.2550 
  123.1250     2.2400    96.8010    24.1410     5.9390     4.4860     6.7470   -13.0940 
  123.2500     2.2410   100.2340    24.1740     5.9300     4.3480     6.5090   -12.9410 
  123.3750     2.2430   103.2090    24.2590     5.6980     4.2810     6.3800   -12.8620 
  123.5000     2.2490   103.8820    24.4230     5.4550     4.2690     6.3470   -12.8770 
  123.6250     2.2530   100.5540    24.5020     5.4680     4.3060     6.4020   -12.9440 
  123.7500     2.2480    97.1630    24.5260     5.5590     4.3760     6.5190   -13.0050 
  123.8750     2.2380    97.2340    24.5290     5.4780     4.4670     6.6740   -13.1120 
  124.0000     2.2270    99.6920    24.5270     5.3170     4.5640     6.8250   -13.3100 
  124.1250     2.2200    99.6570    24.4880     5.5010     4.6310     6.9070   -13.5510 
  124.2500     2.2190    98.0120    24.3970     5.7520     4.6440     6.8980   -13.7550 
  124.3750     2.2300    99.2740    24.3500     5.7540     4.5870     6.8040   -13.8680 
  124.5000     2.2540   103.1310    24.3790     5.5070     4.4640     6.6490   -13.8710 
  124.6250     2.2730   104.2320    24.4220     5.2580     4.2880     6.4570   -13.8820 
  124.7500     2.2740   102.0260    24.4180     5.1000     4.0980     6.2420   -13.9110 
  124.8750     2.2630    99.0800    24.4190     4.8740     3.9220     6.0130   -13.9170 
  125.0000     2.2500    95.5910    24.5570     4.6670     3.7870     5.8030   -13.9450 
  125.1250     2.2400    91.5280    24.7580     4.7840     3.7450     5.6870   -13.9810 
  125.2500     2.2310    89.9180    24.8320     5.0490     3.8170     5.7130   -14.1090 
  125.3750     2.2280    88.8680    24.8660     5.1700     4.0170     5.9130   -14.2650 
  125.5000     2.2250    86.0370    25.0340     5.2110     4.3360     6.2900   -14.4690 
  125.6250     2.2140    83.4950    24.8130     5.6350     4.7290     6.7980   -14.6020 
  125.7500     2.2040    82.5720    24.2460     6.0410     5.0940     7.2980   -14.7890 
  125.8750     2.2020    81.9420    23.8690     6.2200     5.3600     7.6710   -14.9500 
  126.0000     2.2110    81.4320    23.7740     6.1870     5.4950     7.8460   -15.0670 
  126.1250     2.2280    81.5580    23.8230     6.0140     5.4930     7.8040   -15.0690 
  126.2500     2.2500    81.0090    23.9170     5.8500     5.4030     7.6390   -14.9850 
  126.3750     2.2680    79.4470    24.0170     5.8110     5.2430     7.3880   -14.9330 
  126.5000     2.2730    78.4300    24.1130     5.8720     5.0190     7.0620   -14.9020 
  126.6250     2.2720    80.4310    24.2070     5.8160     4.7450     6.6780   -14.8540 
  126.7500     2.2750    84.9800    24.3650     5.6500     4.4930     6.3300   -14.7860 
  126.8750     2.2760    90.3810    24.5460     5.4290     4.3630     6.1550   -14.8250 
  127.0000     2.2680    91.5340    24.5980     5.3180     4.4660     6.3060   -14.9750 
  127.1250     2.2560    85.1290    24.4320     5.6450     4.9380     6.9940   -15.2580 
  127.2500     2.2650    77.9780    24.1510     6.7100     5.7340     8.1750   -15.6130 
  127.3750     2.3010    74.4690    23.9560     9.0280     6.7600     9.7070   -15.9640 
  127.5000     2.3390    73.3700    23.9050    12.4900     7.7920    11.1980   -16.3540 
  127.6250     2.3290    71.6800    23.9050    13.8220     8.4170    11.8890   -16.7540 
  127.7500     2.2750    69.1020    23.8090    11.9590     8.5030    11.6430   -17.1170 
  127.8750     2.2130    68.4850    23.6180     9.2310     8.1810    10.8460   -17.3740 
  128.0000     2.1700    70.0940    23.4740     7.9440     7.7170    10.0280   -17.5370 
  128.1250     2.1570    72.8090    23.4110     7.8050     7.3750     9.5830   -17.6690 
  128.2500     2.1610    75.0270    23.4030     7.8650     7.2420     9.5130   -17.7850 
  128.3750     2.1730    75.0600    23.3980     7.8830     7.2990     9.7130   -17.8820 
  128.5000     2.1810    74.2180    23.3840     7.9060     7.4670    10.0210   -17.9160 
  128.6250     2.1710    74.0370    23.3640     8.0230     7.6550    10.2850   -18.0590 
