~V
VERS. 2.00: Ver 2.00
~W
STRT.M 60.0000:
STOP.M 261.0000:
STEP.M 0.1250:
NULL. -999.2500:
UWI. DF5055:
~C
DEPT.M :
SP.MV :
GR.API :
RML.OHMM :
RI. :
RXO.OHMM :
CALI.CM :
DEN.GM/CC :
~A
# ...
  116.2500    -7.1190   106.1470     5.3710     4.6780     5.0090    26.0060     2.3230 
  116.3750    -7.1740   106.8240     5.2680     4.5550     5.1910    26.0770     2.3480 
  116.5000    -7.3160   103.2490     5.2860     4.5100     5.1130    26.2640     2.3640 
  116.6250    -7.5410    99.5630     5.4740     4.5790     5.0150    26.4340     2.3610 
  116.7500    -7.8810    96.0880     5.7830     4.7390     5.0470    26.1590     2.3430 
  116.8750    -8.4320    90.2620     6.1350     4.9530     5.5000    25.6420     2.3170 
  117.0000    -9.2040    82.9190     6.4280     5.1680     6.3250    25.1310     2.2900 
  117.1250   -10.1240    78.7720     6.5890     5.3380     6.9210    24.8300     2.2720 
  117.2500   -11.0710    77.2430     6.6950     5.4910     6.7150    24.7050     2.2600 
  117.3750   -12.0290    75.6800     6.8800     5.6910     6.4990    24.6610     2.2520 
  117.5000   -13.0290    73.9370     7.2870     6.0150     6.4400    24.5320     2.2420 
  117.6250   -14.0680    73.5550     8.0400     6.5510     6.8490    24.1990     2.2300 
  117.7500   -15.0370    73.5380     8.9880     7.2370     7.8290    23.8410     2.2180 
  117.8750   -15.8260    73.1320     9.8610     7.9260     8.9760    23.6330     2.2100 
  118.0000   -16.3920    71.7720    10.3170     8.3830     9.8870    23.5560     2.2050 
  118.1250   -16.6530    71.6270    10.0150     8.3240    10.1520    23.5720     2.2050 
  118.2500   -16.6340    73.0010     9.1540     7.8290     8.8660    23.6440     2.2130 
  118.3750   -16.3200    75.9660     8.0430     7.0920     7.8440    23.7890     2.2310 
  118.5000   -15.7390    80.8290     7.0350     6.3530     6.8830    24.0910     2.2580 
  118.6250   -14.9350    86.2540     6.4560     5.8390     5.9360    24.6160     2.2860 
  118.7500   -14.1000    88.1380     6.3180     5.5930     5.6040    25.0320     2.3060 
  118.8750   -13.3650    84.1790     6.5350     5.5910     5.4730    25.0570     2.3120 
  119.0000   -12.7350    78.2620     6.9160     5.7410     5.6330    24.6720     2.3060 
  119.1250   -12.1700    75.8430     7.1260     5.8520     6.4930    24.2940     2.2940 
  119.2500   -11.6470    76.8150     6.9520     5.7550     7.0090    24.1750     2.2850 
  119.3750   -11.2080    79.5840     6.4180     5.4300     6.3320    24.3760     2.2850 
  119.5000   -10.9100    83.0450     5.7450     4.9940     5.1690    24.6340     2.2950 
  119.6250   -10.8310    85.7940     5.2490     4.6360     4.5250    24.7820     2.3060 
  119.7500   -10.8890    86.1140     5.0800     4.4680     4.5000    24.8580     2.3050 
  119.8750   -11.0730    82.4490     5.2910     4.5440     5.0380    24.8950     2.2860 
  120.0000   -11.4990    76.8220     5.8930     4.8950     5.8840    24.8940     2.2510 
  120.1250   -12.3610    74.9340     6.9590     5.5980     6.5340    24.7950     2.2150 
  120.2500   -13.5630    77.3600     8.4060     6.6080     7.2010    24.4790     2.1950 
  120.3750   -14.9490    78.7720    10.1150     7.8640     8.3490    23.8450     2.1940 
  120.5000   -16.3490    75.3460    11.8100     9.1960    10.7660    23.0540     2.2010 
  120.6250   -17.6670    71.0460    12.9390    10.2230    13.2220    22.4370     2.1960 
  120.7500   -18.8800    69.6920    13.2240    10.6800    12.6560    22.0820     2.1760 
  120.8750   -19.9240    69.3880    12.7180    10.5440    10.7410    22.0170     2.1480 
  121.0000   -20.7150    68.3080    11.7850    10.0260     9.6190    22.1720     2.1260 
  121.1250   -21.1710    65.7240    10.9130     9.4360     9.4280    22.3710     2.1230 
  121.2500   -21.4590    64.3660    10.3640     8.9920     9.4960    22.5090     2.1300 
  121.3750   -21.6840    65.3750    10.1590     8.7460     9.5600    22.6350     2.1400 
  121.5000   -21.8660    67.2370    10.1930     8.6650     9.5420    22.7600     2.1470 
  121.6250   -21.9470    69.2800    10.3110     8.6740     9.4610    22.8970     2.1490 
  121.7500   -21.9400    71.2950    10.3650     8.6750     9.3310    23.0310     2.1510 
  121.8750   -21.8910    71.4790    10.3020     8.6270     9.1690    23.1240     2.1550 
  122.0000   -21.8520    68.2260    10.1300     8.5250     9.0350    23.1860     2.1630 
  122.1250   -21.8470    64.2970     9.9030     8.3970     8.9740    23.2310     2.1730 
  122.2500   -21.8590    64.7140     9.7060     8.2890     8.9010    23.2960     2.1840 
  122.3750   -21.9030    66.8370     9.5880     8.2280     8.8530    23.3860     2.1930 
  122.5000   -22.0000    67.9980     9.5690     8.2280     8.9220    23.4540     2.2020 
  122.6250   -22.0870    67.4620     9.6510     8.2940     9.2440    23.4940     2.2060 
  122.7500   -22.1470    67.0930     9.7910     8.4020     9.4470    23.5530     2.2030 
  122.8750   -22.2170    67.8270     9.9550     8.5320     9.4370    23.6160     2.1950 
  123.0000   -22.2240    67.5900    10.0990     8.6550     9.4230    23.6620     2.1880 
  123.1250   -22.1720    66.3700    10.1470     8.7160     9.4380    23.6600     2.1920 
  123.2500   -22.1120    66.2570    10.0590     8.6840     9.4680    23.6130     2.2030 
  123.3750   -22.0260    68.1000     9.8230     8.5400     9.6010    23.4710     2.2150 
  123.5000   -21.9010    69.9320     9.4740     8.3040     9.7400    23.2800     2.2180 
  123.6250   -21.7380    70.3700     9.1110     8.0370     9.5210    23.2090     2.2100 
  123.7500   -21.5190    70.3380     8.8490     7.8250     8.9370    23.2060     2.2010 
  123.8750   -21.2100    69.7100     8.7430     7.7150     8.4360    23.2320     2.1970 
  124.0000   -20.9190    68.8820     8.7920     7.7190     8.3800    23.2460     2.2000 
  124.1250   -20.7050    69.5690     8.9340     7.8140     8.5090    23.2600     2.2070 
  124.2500   -20.5220    70.5850     9.0380     7.9130     8.5800    23.2530     2.2120 
  124.3750   -20.3500    70.1510     9.0110     7.9410     8.4700    23.2620     2.2160 
  124.5000   -20.1820    70.2710     8.8140     7.8540     8.2330    23.2570     2.2200 
  124.6250   -20.1200    73.1190     8.4830     7.6550     7.9870    23.2720     2.2240 
  124.7500   -20.1330    76.0350     8.1600     7.4400     7.6790    23.2870     2.2260 
  124.8750   -20.1450    77.4370     7.9660     7.2910     7.3300    23.3370     2.2230 
  125.0000   -20.1540    77.2320     7.9790     7.2730     7.1500    23.4550     2.2160 
  125.1250   -20.1150    78.6340     8.2370     7.4240     7.4140    23.6480     2.2080 
  125.2500   -19.9430    79.9520     8.6070     7.6680     7.9480    23.7870     2.2060 
  125.3750   -19.6820    78.6020     8.9420     7.9080     8.2930    23.8770     2.2130 
  125.5000   -19.4240    74.0350     9.1050     8.0430     8.3580    23.9370     2.2340 
  125.6250   -19.1240    71.5800     9.0060     7.9930     8.3460    23.9610     2.2620 
  125.7500   -18.8030    73.8240     8.7700     7.8310     8.2960    23.9650     2.2870 
  125.8750   -18.5710    77.0000     8.5430     7.6550     7.9630    23.9430     2.2990 
  126.0000   -18.4410    76.9600     8.4430     7.5510     7.6450    23.8860     2.2990 
  126.1250   -18.4450    73.4760     8.5010     7.5660     8.2030    23.7830     2.2880 
  126.2500   -18.5670    70.0400     8.6020     7.6430     8.7270    23.6410     2.2730 
  126.3750   -18.7480    67.5490     8.6850     7.7410     8.9940    23.4790     2.2550 
  126.5000   -18.9040    65.8240     8.8140     7.8860     9.2520    23.3320     2.2340 
  126.6250   -19.0390    65.5670     9.2800     8.2410     9.1740    23.2450     2.2250 
  126.7500   -19.0900    66.5040    10.2860     8.9390     9.1950    23.2330     2.2420 
  126.8750   -18.9100    66.8930    11.8780    10.0580    10.1040    23.3740     2.2940 
  127.0000   -18.5110    65.8160    13.8040    11.5150    12.8070    23.7640     2.3700 
  127.1250   -17.9480    65.0060    15.2920    12.8440    18.5470    24.2610     2.4370 
  127.2500   -17.3390    65.7850    15.6100    13.3950    21.5890    24.5320     2.4650 
  127.3750   -16.7250    68.2570    14.6030    12.9070    19.0680    24.5220     2.4500 
