~V
VERS. 2.00: Ver 2.00
~W
STRT.M 59.0000:
STOP.M 243.0000:
STEP.M 0.1250:
NULL. -999.2500:
UWI. DF5058:
~C
DEPT.M :
GR.API :
CALI.CM :
RXO.OHMM :
RI. :
RML.OHMM :
DEN.GM/CC :
SP.MV :
~A
# ...
  216.5000    78.3290    24.4250    18.7930    22.8370    24.9840     2.4060   -18.9190 
  216.6250    77.5320    24.4260    22.6080    22.4580    25.0260     2.4010   -18.3060 
  216.7500    75.5770    24.4010    25.0400    22.9790    25.8900     2.3910   -17.7160 
  216.8750    72.5570    24.3970    24.4430    23.9750    26.9810     2.3810   -17.1650 
  217.0000    68.5820    24.4070    24.7090    25.0070    27.8410     2.3710   -16.7310 
  217.1250    65.1600    24.3520    29.3650    25.6990    28.1780     2.3650   -16.3630 
  217.2500    63.9380    24.3210    29.1500    25.9880    28.0600     2.3640   -16.1060 
  217.3750    64.5290    24.4320    25.9020    25.8250    27.4560     2.3650   -15.9030 
  217.5000    64.5040    24.6530    25.4210    25.0940    26.2420     2.3690   -15.7810 
  217.6250    63.6170    24.7830    27.3060    23.6200    24.2930     2.3720   -15.5950 
  217.7500    63.9910    24.7820    26.6340    21.7480    22.0450     2.3670   -15.4640 
  217.8750    63.7640    24.7570    21.7750    19.9060    20.0010     2.3520   -15.3720 
  218.0000    62.0930    24.7670    16.4530    18.4900    18.5920     2.3320   -15.2000 
  218.1250    62.3090    24.7930    15.3390    17.8420    18.1400     2.3170   -15.0370 
  218.2500    64.4380    24.8060    16.4260    17.8360    18.3610     2.3090   -14.8410 
  218.3750    66.3130    24.8060    18.0770    18.2690    18.9140     2.3050   -14.6460 
  218.5000    66.2730    24.8060    19.1030    18.8090    19.3860     2.3020   -14.4830 
  218.6250    64.2590    24.8060    18.9830    19.0090    19.3550     2.2990   -14.3780 
  218.7500    61.9810    24.8060    17.8950    18.7320    18.8470     2.2980   -14.1860 
  218.8750    61.5630    24.8060    16.1630    18.0890    18.0690     2.2990   -14.1030 
  219.0000    65.1540    24.8050    14.9670    17.3180    17.2900     2.3010   -13.9950 
  219.1250    69.2440    24.8090    14.9730    16.6470    16.7240     2.3030   -13.9450 
  219.2500    68.9120    24.8210    15.2630    16.1400    16.3730     2.3050   -13.8580 
  219.3750    64.8530    24.8250    15.3450    15.7860    16.2110     2.3070   -13.7800 
  219.5000    61.8040    24.8060    15.7690    15.5890    16.2540     2.3130   -13.6350 
  219.6250    64.3550    24.7740    16.6960    15.6750    16.6890     2.3180   -13.5510 
  219.7500    68.5820    24.7460    17.0010    16.1730    17.6730     2.3230   -13.5130 
  219.8750    70.8780    24.6720    17.3930    17.2680    19.4010     2.3250   -13.4510 
  220.0000    71.2000    24.5260    19.4210    19.1180    21.9640     2.3250   -13.4180 
  220.1250    71.4880    24.4460    27.5900    21.8500    25.2970     2.3190   -13.3930 
  220.2500    70.1020    24.5290    34.9910    25.0440    28.8180     2.3120   -13.4170 
  220.3750    66.1400    24.6800    37.9830    28.2600    32.0590     2.3070   -13.4630 
  220.5000    63.9840    24.7640    38.4930    31.1310    34.7670     2.3060   -13.5860 
  220.6250    67.5580    24.7820    38.8950    33.4660    36.9020     2.3120   -13.6670 
  220.7500    70.3330    24.8080    37.8390    35.3820    38.6180     2.3190   -13.7340 
  220.8750    67.6090    24.7850    39.1340    36.7210    39.6300     2.3200   -13.7250 
  221.0000    61.8640    24.6720    46.6860    36.9260    39.2590     2.3150   -13.8000 
  221.1250    60.4880    24.5460    50.2120    34.9420    36.5050     2.3110   -13.8230 
  221.2500    63.3520    24.5180    39.8540    31.1820    32.0430     2.3130   -13.8550 
  221.3750    67.6020    24.5810    25.5520    26.6960    27.0760     2.3210   -13.8710 
  221.5000    71.5870    24.6260    18.3720    22.6610    22.8640     2.3260   -13.8180 
  221.6250    74.2370    24.5550    15.8930    20.0310    20.4620     2.3210   -13.7160 
  221.7500    74.6170    24.4890    15.3610    18.7960    19.7450     2.3040   -13.5910 
  221.8750    73.1330    24.5220    17.1070    18.8510    20.4420     2.2820   -13.4930 
  222.0000    70.8390    24.6160    20.5790    19.9560    22.0850     2.2610   -13.3040 
  222.1250    67.2690    24.6690    23.5630    21.7420    24.0190     2.2490   -13.1390 
  222.2500    63.0440    24.6910    25.0550    23.4640    25.5160     2.2420   -12.9430 
  222.3750    59.8810    24.7210    24.8150    24.6220    26.2310     2.2410   -12.7490 
  222.5000    58.4480    24.7400    24.4240    25.0490    26.2130     2.2440   -12.5450 
  222.6250    58.3020    24.7300    24.4660    24.9290    25.8440     2.2480   -12.4320 
  222.7500    59.2250    24.7190    24.0640    24.7560    25.6330     2.2490   -12.2920 
  222.8750    61.3490    24.7180    23.3720    24.7850    25.7830     2.2430   -12.1700 
  223.0000    63.5920    24.7350    23.7390    25.0800    26.2630     2.2310   -12.0150 
  223.1250    64.4520    24.7640    25.2650    25.4870    26.8050     2.2180   -11.9620 
  223.2500    63.4350    24.8010    25.3120    25.6830    27.0390     2.2100   -11.9730 
  223.3750    61.1710    24.8430    24.6820    25.4460    26.7510     2.2090   -11.8950 
  223.5000    61.2390    24.8570    23.0280    24.7220    25.9280     2.2130   -11.7440 
  223.6250    64.1080    24.8000    20.5240    23.6310    24.7550     2.2190   -11.5350 
  223.7500    65.1300    24.6910    18.4000    22.5260    23.6490     2.2240   -11.4130 
  223.8750    63.6450    24.5570    18.1600    21.6660    22.9090     2.2280   -11.3770 
  224.0000    60.9700    24.4180    19.1090    21.2450    22.7430     2.2310   -11.4700 
  224.1250    59.7290    24.3250    20.0030    21.4880    23.3670     2.2320   -11.4650 
  224.2500    60.5560    24.2980    20.2160    22.3180    24.6460     2.2330   -11.4100 
  224.3750    62.2760    24.3110    22.2940    23.6900    26.5200     2.2320   -11.4370 
  224.5000    64.2480    24.3310    25.4210    25.5870    28.9640     2.2300   -11.4830 
  224.6250    64.3170    24.3370    30.8490    28.0790    31.9440     2.2330   -11.4860 
  224.7500    62.6880    24.3200    33.1770    30.8090    34.9040     2.2470   -11.4120 
  224.8750    61.0020    24.2910    33.1280    33.0650    36.9410     2.2750   -11.2670 
  225.0000    60.5160    24.2580    34.1470    33.8300    36.9760     2.3120   -11.1800 
  225.1250    58.9500    24.2260    43.0490    32.0220    34.1290     2.3390   -11.1510 
  225.2500    55.9430    24.2360    42.1650    28.6250    29.8160     2.3420   -11.1360 
  225.3750    57.2980    24.3250    30.3840    25.0170    25.6730     2.3210   -11.1140 
  225.5000    64.0540    24.4400    20.3240    22.3400    22.9670     2.2830   -11.0990 
  225.6250    67.4300    24.4720    17.0870    21.3480    22.4410     2.2380   -11.0380 
  225.7500    65.6040    24.5040    20.1510    21.7060    23.3570     2.1980   -10.9950 
  225.8750    63.2270    24.6350    27.8790    22.8820    24.7640     2.1710   -11.0100 
  226.0000    61.5720    24.8240    36.2220    23.8620    25.3840     2.1630   -10.9940 
  226.1250    61.2850    24.9300    35.2350    23.1620    23.8740     2.1750   -10.9370 
  226.2500    66.1990    24.9460    27.5270    20.8740    20.8190     2.1990   -10.8760 
  226.3750    73.6930    24.9630    18.6940    17.9130    17.3500     2.2290   -10.8280 
  226.5000    77.6560    24.9840    13.0920    15.2010    14.4280     2.2600   -10.8730 
  226.6250    76.0020    24.8990     9.3100    13.2900    12.5620     2.2910   -11.0140 
  226.7500    74.7800    24.6920     7.3120    12.0390    11.4440     2.3170   -11.0810 
  226.8750    74.0070    24.4420     6.5370    11.2700    10.8010     2.3380   -10.9980 
  227.0000    71.5260    24.2450     6.6280    10.7970    10.4050     2.3530   -10.8170 
  227.1250    69.5700    24.1870     6.9100    10.5030    10.1400     2.3640   -10.6480 
  227.2500    68.9350    24.2600     7.0760    10.3020     9.9540     2.3730   -10.4870 
  227.3750    67.8060    24.4050     7.0390    10.1790     9.8420     2.3820   -10.3460 
  227.5000    65.0420    24.5210     7.1640    10.1170     9.7920     2.3910   -10.2110 
  227.6250    63.8880    24.5610     7.7270    10.0850     9.7700     2.3960   -10.1290 
