~V
VERS. 2.00: Ver 2.00
~W
STRT.M 60.0000:
STOP.M 271.0000:
STEP.M 0.1250:
NULL. -999.2500:
UWI. DF5026:
~C
DEPT.M :
SP.MV :
GR.API :
CALI.CM :
RXO.OHMM :
RI. :
RML.OHMM :
DEN.GM/CC :
~A
# ...
   82.5000   -41.1870   104.4580    24.6750     7.2300     4.9650     5.8580     2.3120 
   82.6250   -41.8730    98.5720    24.5410     7.9960     5.5040     6.4020     2.2880 
   82.7500   -42.5810    89.6000    24.3920     7.5280     5.8810     6.7050     2.2560 
   82.8750   -43.3300    81.1550    24.2900     7.6660     6.0810     6.8100     2.2190 
   83.0000   -44.0850    77.6310    24.2610     8.3560     6.1730     6.8440     2.1830 
   83.1250   -44.7510    75.8800    24.2830     9.0480     6.2430     6.9190     2.1540 
   83.2500   -45.3630    72.6880    24.3260     9.3880     6.3140     7.0180     2.1350 
   83.3750   -45.8370    70.7960    24.3820     9.7120     6.3390     7.0580     2.1290 
   83.5000   -46.1890    72.8420    24.4280     9.9140     6.2720     6.9800     2.1370 
   83.6250   -46.3490    75.8930    24.4480     9.5200     6.1180     6.8280     2.1550 
   83.7500   -46.4360    78.1500    24.4530     8.3290     5.9800     6.7460     2.1710 
   83.8750   -46.4410    81.3200    24.4690     7.7200     5.9340     6.8200     2.1740 
   84.0000   -46.4390    84.0230    24.5020     8.7300     6.0080     7.0550     2.1620 
   84.1250   -46.4230    80.8070    24.5280     9.9050     6.1850     7.3810     2.1410 
   84.2500   -46.3480    76.4960    24.5320    10.1140     6.3770     7.6720     2.1240 
   84.3750   -46.2820    76.5340    24.5320    10.0040     6.5240     7.8560     2.1140 
   84.5000   -46.2080    80.0670    24.5000    10.1550     6.5960     7.9170     2.1110 
   84.6250   -46.1800    80.3160    24.3650    10.6050     6.5970     7.8990     2.1150 
   84.7500   -46.1220    77.2400    24.1840    11.7440     6.5770     7.8790     2.1220 
   84.8750   -46.0320    75.0200    24.0590    13.2740     6.5560     7.8800     2.1300 
   85.0000   -45.8720    75.1230    24.0210    14.3370     6.5450     7.9010     2.1400 
   85.1250   -45.6780    76.3190    24.0160    13.9590     6.5690     7.9640     2.1470 
   85.2500   -45.5030    76.3790    23.9500    13.5760     6.6630     8.1130     2.1500 
   85.3750   -45.3050    75.8290    23.7560    13.0010     6.8580     8.3830     2.1500 
   85.5000   -45.1460    76.8010    23.4520    11.9970     7.1600     8.7710     2.1490 
   85.6250   -44.9710    76.7810    23.2610    10.5220     7.5300     9.2040     2.1490 
   85.7500   -44.8200    73.5390    23.3680    10.6910     7.8640     9.5360     2.1500 
   85.8750   -44.6600    69.6360    23.6960    11.3950     8.0750     9.6650     2.1520 
   86.0000   -44.5060    69.0110    24.0680    12.3190     8.1210     9.5670     2.1530 
   86.1250   -44.3210    70.1770    24.3940    12.9170     7.9960     9.2800     2.1500 
   86.2500   -44.1270    69.2220    24.6600    12.8140     7.7600     8.9030     2.1440 
   86.3750   -43.8700    67.1660    24.8270    12.2720     7.4360     8.4600     2.1410 
   86.5000   -43.4750    67.3860    24.8700    11.8470     7.0400     7.9610     2.1450 
   86.6250   -42.9440    69.6280    24.8120    10.9020     6.5840     7.4140     2.1610 
   86.7500   -42.3190    71.5460    24.6800     9.1290     6.1190     6.8750     2.1850 
   86.8750   -41.6430    72.8860    24.5170     7.4110     5.6940     6.4070     2.2050 
   87.0000   -40.9980    75.5020    24.4070     7.7030     5.3540     6.0520     2.2170 
   87.1250   -40.4090    80.7450    24.3850     8.1330     5.1290     5.8300     2.2160 
   87.2500   -39.8540    85.4260    24.3880     7.7440     4.9900     5.6950     2.2110 
   87.3750   -39.3910    88.3950    24.3890     6.9880     4.9250     5.6260     2.2070 
   87.5000   -39.0890    90.6160    24.3910     6.6260     4.9260     5.6310     2.2100 
   87.6250   -38.9070    90.7140    24.3940     6.1820     5.0210     5.7600     2.2230 
   87.7500   -38.8750    89.0310    24.3980     5.6160     5.2060     6.0040     2.2450 
   87.8750   -38.9530    87.6470    24.3710     5.7290     5.4520     6.3010     2.2720 
   88.0000   -39.0580    86.7240    24.2770     6.7000     5.6690     6.5180     2.2990 
   88.1250   -39.1860    82.3710    24.1480     8.1400     5.6940     6.4400     2.3190 
   88.2500   -39.3020    79.0880    24.0710     9.2680     5.4710     6.0460     2.3310 
   88.3750   -39.4690    82.2330    24.0670     9.8730     5.0420     5.4410     2.3370 
   88.5000   -39.6190    90.6180    24.0990     9.8050     4.5350     4.8210     2.3370 
   88.6250   -39.8440    98.3210    24.1290     9.0940     4.1160     4.4030     2.3320 
   88.7500   -40.0370   103.6820    24.1430     8.0900     3.8620     4.2360     2.3240 
   88.8750   -40.2310   106.3810    24.1310     7.0180     3.7870     4.3020     2.3110 
   89.0000   -40.4250   106.3140    24.1060     6.6910     3.8620     4.5240     2.2980 
   89.1250   -40.6720   104.1680    24.0870     7.2220     4.0210     4.7710     2.2890 
   89.2500   -40.9770   101.1040    24.0810     8.0590     4.1540     4.9060     2.2860 
   89.3750   -41.3000    97.8050    24.1230     8.3950     4.2040     4.8890     2.2900 
   89.5000   -41.6810    97.6670    24.2440     8.3050     4.1680     4.7700     2.2960 
   89.6250   -42.1430   101.6260    24.3980     8.1400     4.0980     4.6630     2.2980 
   89.7500   -42.6760   104.4420    24.4930     8.1820     4.0680     4.6620     2.2910 
   89.8750   -43.2760   103.3300    24.5160     8.4980     4.1240     4.8060     2.2750 
   90.0000   -43.9440    98.4330    24.5110     9.4200     4.2870     5.0900     2.2530 
   90.1250   -44.6410    93.6550    24.5100    10.0590     4.5560     5.4840     2.2280 
   90.2500   -45.3720    90.1440    24.5070    10.6570     4.8730     5.9080     2.2030 
   90.3750   -46.1300    86.7930    24.5050    12.0690     5.1960     6.3150     2.1800 
   90.5000   -46.8420    83.6530    24.5060    13.7400     5.4900     6.6740     2.1610 
   90.6250   -47.4660    80.8140    24.5090    13.7950     5.7320     6.9540     2.1480 
   90.7500   -48.0280    78.6850    24.5130    14.0960     5.9370     7.1670     2.1400 
   90.8750   -48.4860    76.7010    24.5120    15.2850     6.1130     7.3250     2.1350 
   91.0000   -48.8180    74.4710    24.5120    16.3960     6.2670     7.4480     2.1320 
   91.1250   -48.9660    71.2320    24.5440    15.7250     6.3980     7.5600     2.1290 
   91.2500   -48.9100    67.4840    24.6080    13.9430     6.5070     7.6800     2.1240 
   91.3750   -48.6520    65.6030    24.6700    12.7760     6.5900     7.7960     2.1220 
   91.5000   -48.2330    65.6150    24.7110    12.4770     6.6370     7.8770     2.1220 
   91.6250   -47.6290    65.9400    24.6830    12.4900     6.6260     7.8630     2.1270 
   91.7500   -46.9150    66.0340    24.5320    11.6530     6.5510     7.7480     2.1360 
   91.8750   -46.0820    67.5090    24.2840    10.6250     6.4160     7.5510     2.1480 
   92.0000   -45.1640    70.9320    24.0750     9.7180     6.2410     7.3090     2.1600 
   92.1250   -44.1910    75.4810    24.0140     8.3930     6.0510     7.0650     2.1730 
   92.2500   -43.2150    79.7630    24.0160     6.9580     5.8690     6.8370     2.1880 
   92.3750   -42.2620    81.8080    24.0160     6.7660     5.6920     6.6090     2.2060 
   92.5000   -41.3760    81.3710    24.0270     7.3930     5.5040     6.3520     2.2290 
   92.6250   -40.5590    81.2780    24.0630     7.3480     5.2880     6.0460     2.2550 
   92.7500   -39.7540    84.5750    24.1030     6.9870     5.0560     5.7200     2.2760 
   92.8750   -39.0310    89.5320    24.1390     6.7250     4.8270     5.4090     2.2870 
   93.0000   -38.3690    93.1240    24.1850     6.5460     4.6230     5.1460     2.2840 
   93.1250   -37.8260    96.2960    24.2670     6.5800     4.4690     4.9540     2.2760 
   93.2500   -37.4020    99.1060    24.3600     6.3430     4.3610     4.8160     2.2700 
   93.3750   -37.0510    98.9620    24.4470     6.0540     4.2900     4.7160     2.2720 
   93.5000   -36.8010    96.9500    24.5360     5.9030     4.2440     4.6470     2.2790 
   93.6250   -36.6410    97.2000    24.6470     5.7650     4.2280     4.6290     2.2850 
