~V
VERS. 2.00: Ver 2.00
~W
STRT.M 58.0000:
STOP.M 250.0000:
STEP.M 0.1250:
NULL. -999.2500:
UWI. DF5046:
~C
DEPT.M :
GR.API :
CALI.CM :
RXO.OHMM :
RI. :
RML.OHMM :
DEN.GM/CC :
SP.MV :
~A
# ...
  125.5000    53.6060    23.6010     8.4780     6.6320     8.2630     2.1720   -27.0130 
  125.6250    53.4660    23.6330     8.3720     6.6180     8.2710     2.1620   -27.0830 
  125.7500    55.2640    23.6590     8.3610     6.6160     8.3090     2.1560   -27.1630 
  125.8750    56.0790    23.6520     8.3690     6.6220     8.3470     2.1540   -27.2560 
  126.0000    56.7980    23.6280     8.3330     6.6300     8.3520     2.1530   -27.3670 
  126.1250    58.2800    23.6150     8.2740     6.6310     8.3090     2.1560   -27.5010 
  126.2500    59.1660    23.6150     8.2320     6.6200     8.2490     2.1600   -27.6600 
  126.3750    58.5340    23.6140     8.2050     6.6010     8.1990     2.1610   -27.8230 
  126.5000    57.9520    23.6130     8.1860     6.5830     8.1740     2.1570   -27.9710 
  126.6250    58.8230    23.6400     8.1840     6.5750     8.1610     2.1540   -28.0760 
  126.7500    59.5270    23.7060     8.1980     6.5800     8.1420     2.1560   -28.1300 
  126.8750    59.5410    23.7850     8.2180     6.5980     8.1290     2.1610   -28.1420 
  127.0000    58.6370    23.8440     8.2330     6.6300     8.1550     2.1660   -28.1110 
  127.1250    56.6930    23.8930     8.2120     6.6760     8.2490     2.1690   -28.0260 
  127.2500    56.0000    23.9480     8.1760     6.7250     8.3750     2.1750   -27.8890 
  127.3750    57.7100    23.9870     8.2140     6.7610     8.4750     2.1820   -27.7190 
  127.5000    60.7040    23.9860     8.3510     6.7580     8.4840     2.1890   -27.5320 
  127.6250    61.7090    23.9590     8.4200     6.6890     8.3570     2.1920   -27.3550 
  127.7500    62.5240    23.9490     8.3010     6.5780     8.1640     2.1910   -27.2110 
  127.8750    66.1880    23.9710     8.1540     6.4710     8.0000     2.1910   -27.0960 
  128.0000    70.4480    24.0310     8.2050     6.4270     7.9660     2.1980   -27.0190 
  128.1250    71.4830    24.1070     8.4800     6.5180     8.1500     2.2200   -26.9770 
  128.2500    70.5370    24.1330     8.8890     6.7220     8.4840     2.2500   -26.9490 
  128.3750    69.4390    24.0990     9.8510     6.9750     8.8550     2.2710   -26.9220 
  128.5000    68.7830    24.0400    11.6350     7.1770     9.1100     2.2710   -26.8850 
  128.6250    69.0390    24.0180    12.8370     7.2060     9.0890     2.2500   -26.8300 
  128.7500    70.3780    24.0030    11.9490     7.0700     8.8460     2.2290   -26.7720 
  128.8750    69.4660    23.8700     9.6030     6.8380     8.5020     2.2170   -26.7230 
  129.0000    64.9760    23.5420     7.5520     6.6040     8.1980     2.2130   -26.6960 
  129.1250    60.5770    23.1130     6.7900     6.4550     8.0440     2.2100   -26.7390 
  129.2500    59.2910    22.7860     6.6640     6.4000     8.0190     2.2060   -26.8520 
  129.3750    60.5980    22.6040     6.6460     6.4140     8.0700     2.2010   -27.0190 
  129.5000    64.2070    22.5040     6.4670     6.4580     8.1360     2.1960   -27.2080 
  129.6250    67.2160    22.4540     6.1290     6.4770     8.1460     2.1930   -27.3780 
  129.7500    66.7500    22.4330     5.8390     6.4440     8.0840     2.1960   -27.5040 
  129.8750    64.9550    22.4250     5.7090     6.3710     7.9790     2.2070   -27.5800 
  130.0000    65.9560    22.4200     5.6970     6.2970     7.8960     2.2190   -27.5990 
  130.1250    68.8290    22.4480     5.6570     6.2880     7.9250     2.2290   -27.5210 
  130.2500    69.8530    22.5180     5.6800     6.3740     8.1010     2.2390   -27.3400 
  130.3750    68.6280    22.6280     6.0770     6.5700     8.4300     2.2530   -27.0570 
  130.5000    65.6850    22.7880     6.9190     6.8760     8.8960     2.2690   -26.6960 
  130.6250    63.7990    23.0250     7.6520     7.2820     9.4670     2.2890   -26.2600 
  130.7500    64.5130    23.3280     7.8660     7.7230    10.0500     2.3130   -25.7810 
  130.8750    65.5400    23.6570     7.7920     8.1050    10.5110     2.3380   -25.3020 
  131.0000    64.9010    23.9610     7.8590     8.2830    10.6230     2.3540   -24.8540 
  131.1250    65.2860    24.1750     8.0440     8.0350    10.0630     2.3450   -24.4500 
  131.2500    68.6980    24.3140     7.7810     7.4120     8.9680     2.3170   -24.0880 
  131.3750    71.6700    24.4440     6.8150     6.5720     7.6600     2.2900   -23.7630 
  131.5000    72.8860    24.6210     5.5370     5.7450     6.5300     2.2900   -23.5060 
  131.6250    76.0320    24.8260     4.7450     5.1790     5.9270     2.3140   -23.3870 
  131.7500    80.3390    24.9680     4.6240     4.9260     5.8330     2.3270   -23.4360 
  131.8750    81.7700    24.9380     5.0150     4.9540     6.1290     2.3080   -23.6810 
  132.0000    78.3590    24.6760     5.7710     5.1440     6.5740     2.2670   -24.1280 
  132.1250    74.6940    24.2880     6.5510     5.2920     6.7800     2.2410   -24.7790 
  132.2500    77.1330    24.0530     6.6770     5.2510     6.5680     2.2460   -25.5220 
  132.3750    82.5070    24.0970     5.8960     5.0310     6.0530     2.2690   -26.2960 
  132.5000    83.9600    24.3320     4.8270     4.7630     5.5350     2.2900   -27.0440 
  132.6250    78.5000    24.5210     4.6480     4.6440     5.3380     2.2870   -27.6480 
  132.7500    72.0320    24.5150     5.4230     4.7570     5.5130     2.2620   -28.0040 
  132.8750    67.5970    24.3380     6.5020     5.1210     6.0280     2.2240   -28.0270 
  133.0000    65.3570    24.1320     7.2800     5.6860     6.7820     2.1930   -27.6720 
  133.1250    65.7860    24.0440     7.6280     6.3160     7.5710     2.1870   -26.9100 
  133.2500    66.2520    24.0560     7.8140     6.7870     8.1150     2.1910   -25.9640 
  133.3750    67.5350    24.0760     7.9140     6.9430     8.2360     2.1890   -24.9590 
  133.5000    71.7270    24.0500     7.8750     6.7340     7.8840     2.1860   -23.9570 
  133.6250    80.4480    24.0420     7.4310     6.1860     7.0950     2.2000   -23.0270 
  133.7500    89.5330    24.1830     6.5250     5.4920     6.1070     2.2360   -22.2490 
  133.8750    96.1810    24.4900     5.4130     4.7870     5.1190     2.2860   -21.6540 
  134.0000    99.6460    24.8330     4.5200     4.2000     4.3510     2.3290   -21.2490 
  134.1250    99.0590    25.0070     4.1080     3.8880     4.0700     2.3490   -21.0790 
  134.2500    95.9950    25.0270     4.0180     3.8850     4.3130     2.3590   -21.0660 
  134.3750    90.8350    25.0020     4.6580     4.2040     5.0790     2.3830   -21.1710 
  134.5000    84.9830    24.9850     7.0990     4.8030     6.2610     2.4370   -21.3950 
  134.6250    79.8580    24.9410    11.3010     5.5250     7.5010     2.4910   -21.7690 
  134.7500    77.8440    24.8540    13.2980     6.0380     8.1770     2.5020   -22.2090 
  134.8750    81.4020    24.7880    11.1820     6.1050     7.9180     2.4620   -22.6640 
  135.0000    88.2100    24.7990     7.3110     5.7240     6.9220     2.3980   -23.0970 
  135.1250    92.0570    24.7710     5.3840     5.1420     5.8230     2.3440   -23.4110 
  135.2500    90.1690    24.5690     5.0860     4.7010     5.1380     2.3100   -23.6000 
  135.3750    85.6820    24.2700     5.4070     4.6020     5.0790     2.2910   -23.6660 
  135.5000    82.4850    24.0560     6.0670     5.0050     5.7880     2.2800   -23.6090 
  135.6250    79.0310    24.0500     8.3680     6.2330     7.6450     2.2850   -23.4280 
  135.7500    72.5700    24.1740    14.9010     8.3680    10.7360     2.3200   -23.1850 
  135.8750    64.8840    24.3510    28.4000    11.3310    14.9540     2.3980   -22.9520 
  136.0000    61.7920    24.4790    43.8860    14.2820    18.9290     2.5050   -22.7800 
  136.1250    66.0620    24.4280    43.4260    14.9580    18.9280     2.5840   -22.7360 
  136.2500    73.1800    24.2580    29.0060    13.0530    15.2360     2.5970   -22.7740 
  136.3750    82.8410    24.0560    14.4540    10.0920    10.8660     2.5480   -22.8440 
  136.5000    91.9140    23.8580     7.1570     7.5470     7.7400     2.4680   -22.9140 
  136.6250    93.3290    23.7070     5.0720     6.0590     6.2920     2.3930   -22.9480 
