~V
VERS. 2.00: Ver 2.00
~W
STRT.M 59.0000:
STOP.M 275.0000:
STEP.M 0.1250:
NULL. -999.2500:
UWI. DF5021:
~C
DEPT.M :
SP.MV :
GR.API :
CALI.CM :
RXO.OHMM :
RI. :
RML.OHMM :
DEN.GM/CC :
~A
# ...
  205.2500   -17.9030    94.2790    24.5080    11.6680     8.6460     9.7890     2.4380 
  205.3750   -17.3400    96.7210    24.5450    10.2650     8.3680     9.4880     2.4720 
  205.5000   -16.8550    97.7940    24.5100     9.9000     8.1940     9.2990     2.5030 
  205.6250   -16.3760    97.6830    24.4350    10.5690     8.1350     9.2350     2.5180 
  205.7500   -15.9390    97.3960    24.3660    11.1760     8.1910     9.2960     2.5040 
  205.8750   -15.6130    98.8730    24.3300    10.9760     8.3840     9.5050     2.4770 
  206.0000   -15.4100   102.5000    24.3630    10.5910     8.6730     9.8190     2.4660 
  206.1250   -15.2760   106.6690    24.5840    10.5770     9.0070    10.1820     2.4670 
  206.2500   -15.2030   107.9720    25.0300    10.8390     9.3070    10.5070     2.4490 
  206.3750   -15.2340   103.2240    25.3420    11.2230     9.4650    10.6790     2.3940 
  206.5000   -15.3040    95.5350    25.4020    11.7960     9.4460    10.6590     2.3340 
  206.6250   -15.2740    89.0970    25.2870    12.2930     9.2380    10.4320     2.3030 
  206.7500   -15.2060    86.4210    25.1110    11.9040     8.8590    10.0210     2.3140 
  206.8750   -15.1690    87.3540    24.8830    10.1710     8.3670     9.4870     2.3540 
  207.0000   -15.0730    88.8780    24.7210     8.1050     7.8680     8.9440     2.3860 
  207.1250   -14.8430    89.3540    24.7460     6.8450     7.4220     8.4600     2.4030 
  207.2500   -14.7050    88.1300    24.9430     6.7540     7.0590     8.0660     2.4100 
  207.3750   -14.6820    85.3660    25.1040     7.1110     6.8010     7.7850     2.4150 
  207.5000   -14.6030    83.2490    25.1300     7.0820     6.6200     7.5890     2.4150 
  207.6250   -14.5910    84.4080    25.1250     6.6850     6.5070     7.4660     2.4120 
  207.7500   -14.8060    90.4490    25.1820     6.3640     6.4560     7.4110     2.4140 
  207.8750   -15.1270    99.2830    25.2080     6.4920     6.4730     7.4300     2.4190 
  208.0000   -15.4310   106.1170    25.1960     6.8540     6.5450     7.5080     2.4190 
  208.1250   -15.8320   108.8730    25.2030     7.2060     6.6740     7.6480     2.4160 
  208.2500   -16.3320   108.1850    25.2070     7.4310     6.8590     7.8490     2.4180 
  208.3750   -16.7580   105.4530    25.1680     7.6420     7.1110     8.1220     2.4220 
  208.5000   -17.1140   101.4990    25.1260     7.9430     7.4130     8.4510     2.4180 
  208.6250   -17.5400    96.4940    25.1470     8.3750     7.7640     8.8320     2.4040 
  208.7500   -17.9590    91.8900    25.1540     9.0430     8.1490     9.2500     2.3880 
  208.8750   -18.2890    90.5310    25.1190     9.9530     8.5210     9.6540     2.3750 
  209.0000   -18.5800    92.1250    25.1310    10.9990     8.8030     9.9600     2.3670 
  209.1250   -18.9420    94.5440    25.1430    12.0090     8.9280    10.0960     2.3700 
  209.2500   -19.2750    96.2250    25.0900    12.4600     8.8780    10.0420     2.3850 
  209.3750   -19.5290    97.6080    25.0770    11.9700     8.7150     9.8640     2.4100 
  209.5000   -19.7870    98.7550    25.1190    11.1440     8.6390     9.7820     2.4260 
  209.6250   -20.0820    97.7640    25.1450    10.5230     8.8990    10.0650     2.4260 
  209.7500   -20.3450    93.1930    25.0920    10.2500     9.8320    11.0770     2.4170 
  209.8750   -20.5600    86.6900    25.0780    10.8150    12.1940    13.6320     2.4250 
  210.0000   -20.8040    81.4020    25.1180    13.4870    16.5160    18.2450     2.4520 
  210.1250   -21.0720    77.8000    25.1380    20.9130    23.5330    25.6640     2.4780 
  210.2500   -21.2600    74.9370    25.0860    37.1090    33.8930    36.7060     2.4740 
  210.3750   -21.4210    72.1630    25.0740    63.8930    48.3500    52.2250     2.4270 
  210.5000   -21.6810    69.2060    25.1260    93.1260    65.2730    70.4340     2.3630 
  210.6250   -21.9190    66.1670    25.1720   117.5840    82.4190    88.8830     2.3000 
  210.7500   -22.0320    63.9000    25.1540   136.2290    97.0670   104.6440     2.2450 
  210.8750   -22.1650    64.0590    25.1110   150.8020   106.5480   114.8460     2.2020 
  211.0000   -22.4030    66.2580    25.1430   157.6360   111.7090   120.3990     2.1790 
  211.1250   -22.5560    69.1210    25.1860   157.4190   113.9930   122.8570     2.1780 
  211.2500   -22.6350    71.0370    25.1660   153.4950   115.0650   124.0100     2.1950 
  211.3750   -22.7980    70.6910    25.0870   149.5150   116.3180   125.3580     2.2150 
  211.5000   -22.9790    69.0070    25.0790   149.1420   118.3770   127.5740     2.2320 
  211.6250   -23.0470    67.8380    25.1410   156.0600   121.4150   130.8430     2.2440 
  211.7500   -23.0870    68.0650    25.1790   167.8270   125.3160   135.0400     2.2500 
  211.8750   -23.1650    68.7080    25.1530   175.4260   129.6510   139.7050     2.2450 
  212.0000   -23.2100    68.4030    25.1150   179.5950   133.7660   144.1320     2.2280 
  212.1250   -23.1650    67.6340    25.1250   184.1410   137.1180   147.7390     2.2060 
  212.2500   -23.1400    67.4720    25.0670   188.6300   138.9910   149.7540     2.1960 
  212.3750   -23.1790    67.5420    24.8670   187.1780   138.3200   149.0330     2.2210 
  212.5000   -23.1890    66.9190    24.6710   177.2660   135.3270   145.8120     2.2770 
  212.6250   -23.1510    66.0550    24.5840   161.2330   130.4170   140.5280     2.3470 
  212.7500   -23.2210    66.3790    24.5960   155.3270   124.2850   133.9310     2.4150 
  212.8750   -23.3700    67.9640    24.6280   159.1720   118.0580   127.2300     2.4600 
  213.0000   -23.4490    68.7160    24.6570   153.6680   112.9990   121.7870     2.4690 
  213.1250   -23.5470    67.7680    24.6630   130.7520   110.0310   118.5930     2.4370 
  213.2500   -23.7820    66.1900    24.6370   107.7230   109.7690   118.3110     2.3850 
  213.3750   -23.9800    66.1840    24.6150   103.6820   112.9330   121.7150     2.3590 
  213.5000   -24.0590    67.4870    24.6160   112.4390   118.8210   128.0510     2.3670 
  213.6250   -24.2890    68.3370    24.6840   125.2980   127.0950   136.9540     2.3800 
  213.7500   -24.5820    67.5480    24.9070   135.8600   137.4060   148.0480     2.3670 
  213.8750   -24.6960    65.5500    25.1070   142.9560   149.5210   161.0850     2.3210 
  214.0000   -24.7960    63.3410    25.1800   149.5540   162.5830   175.1390     2.2730 
  214.1250   -25.0620    61.2290    25.1460   159.4910   175.9330   189.5040     2.2460 
  214.2500   -25.1850    59.7720    25.1200   176.7670   188.6800   203.2190     2.2450 
  214.3750   -25.1870    59.7880    25.1530   208.8820   198.8530   214.1660     2.2650 
  214.5000   -25.3430    60.4360    25.2100   242.8890   204.9020   220.6740     2.2820 
  214.6250   -25.4620    60.9860    25.2320   262.9250   205.6420   221.4710     2.2750 
  214.7500   -25.3780    61.4670    25.2340   260.4850   200.9790   216.4540     2.2420 
  214.8750   -25.3990    62.2750    25.2380   236.7420   191.4940   206.2470     2.2000 
  215.0000   -25.5250    62.9940    25.2450   207.6500   180.1590   194.0510     2.1730 
  215.1250   -25.4410    63.4220    25.2530   181.3180   169.3430   182.4140     2.1680 
  215.2500   -25.3710    64.3830    25.2910   163.1140   161.0600   173.5000     2.1800 
  215.3750   -25.4640    66.7370    25.3750   158.3690   157.2850   169.4390     2.1920 
  215.5000   -25.4760    68.5820    25.4670   160.0260   157.7700   169.9610     2.1960 
  215.6250   -25.3640    68.3710    25.5130   165.3550   162.3480   174.8870     2.1930 
  215.7500   -25.4300    67.3360    25.5200   178.3650   170.4470   183.6010     2.1910 
  215.8750   -25.5500    67.8870    25.5190   203.3920   181.4460   195.4360     2.1930 
  216.0000   -25.5250    68.6210    25.5230   232.2990   193.4350   208.3360     2.1930 
  216.1250   -25.5800    67.8130    25.5360   251.5270   204.7130   220.4720     2.1910 
  216.2500   -25.7810    67.1340    25.5520   261.5720   213.5200   229.9480     2.1870 
  216.3750   -25.8720    69.8870    25.5720   270.4180   217.4620   234.1890     2.1830 
