~V
VERS. 2.00: Ver 2.00
~W
STRT.M 59.0000:
STOP.M 243.0000:
STEP.M 0.1250:
NULL. -999.2500:
UWI. DF5058:
~C
DEPT.M :
GR.API :
CALI.CM :
RXO.OHMM :
RI. :
RML.OHMM :
DEN.GM/CC :
SP.MV :
~A
# ...
  227.7500    65.5830    24.5670     8.3200    10.0490     9.7460     2.3980   -10.1380 
  227.8750    69.0930    24.5710     8.4410    10.0070     9.7220     2.3980   -10.1560 
  228.0000    70.8280    24.5770     8.1590     9.9730     9.7150     2.4000   -10.1470 
  228.1250    68.8290    24.5610     7.9940     9.9680     9.7500     2.4050   -10.0770 
  228.2500    68.3170    24.4830     8.7080     9.9900     9.8220     2.4100    -9.9570 
  228.3750    71.3870    24.3640     9.6080    10.0340     9.9210     2.4090    -9.8150 
  228.5000    74.2890    24.3060     9.8300    10.0930    10.0410     2.4000    -9.6470 
  228.6250    74.8900    24.3810     9.0000    10.1800    10.1950     2.3860    -9.4460 
  228.7500    76.2770    24.4860     8.9290    10.2960    10.3830     2.3740    -9.2900 
  228.8750    77.4100    24.5450     9.4100    10.4220    10.5810     2.3670    -9.2540 
  229.0000    73.6670    24.5530     9.5790    10.5150    10.7350     2.3700    -9.3160 
  229.1250    70.3430    24.5060    10.3110    10.4900    10.7490     2.3810    -9.3630 
  229.2500    72.8690    24.4260    11.5410    10.3090    10.5880     2.3960    -9.3600 
  229.3750    76.4380    24.3730    10.9190     9.9750    10.2710     2.4120    -9.4120 
  229.5000    76.4240    24.3710     8.3220     9.5550     9.8870     2.4240    -9.4550 
  229.6250    74.8280    24.3650     7.4530     9.1790     9.5950     2.4260    -9.4860 
  229.7500    74.9470    24.3380     7.1050     8.9620     9.5180     2.4220    -9.4660 
  229.8750    75.4340    24.3280     7.3390     8.9830     9.7320     2.4120    -9.3700 
  230.0000    75.6460    24.3380     7.5610     9.2890    10.2600     2.4030    -9.1770 
  230.1250    78.2060    24.3540     9.6820     9.9120    11.0910     2.4010    -9.0340 
  230.2500    80.4070    24.4060    13.2980    10.7280    12.0590     2.4080    -8.9730 
  230.3750    80.0160    24.5070    15.7850    11.6140    13.0170     2.4220    -8.8570 
  230.5000    78.4770    24.6070    15.1780    12.4230    13.8130     2.4380    -8.7460 
  230.6250    79.4270    24.6450    12.9260    12.9740    14.2840     2.4520    -8.6380 
  230.7500    80.7290    24.6180    10.9790    13.2500    14.4690     2.4610    -8.5380 
  230.8750    80.1060    24.5560    12.6380    13.2940    14.4400     2.4640    -8.4790 
  231.0000    78.6460    24.5070    18.2460    13.1800    14.2800     2.4640    -8.4790 
  231.1250    77.3070    24.5210    24.1850    12.9700    14.0540     2.4630    -8.4610 
  231.2500    74.9060    24.5700    23.4480    12.7370    13.8170     2.4640    -8.4650 
  231.3750    71.9690    24.5500    18.3090    12.5170    13.5960     2.4670    -8.4550 
  231.5000    71.3910    24.4280    14.2090    12.3330    13.4200     2.4690    -8.4790 
  231.6250    73.6200    24.3400    13.9910    12.2310    13.3500     2.4650    -8.4520 
  231.7500    75.3310    24.3600    14.1800    12.2260    13.3960     2.4580    -8.3970 
  231.8750    75.0820    24.4180    13.0260    12.3170    13.5420     2.4510    -8.3080 
  232.0000    74.1720    24.4110    12.7060    12.4700    13.7310     2.4490    -8.1760 
  232.1250    75.2690    24.3760    12.8910    12.6180    13.8740     2.4540    -8.0430 
  232.2500    78.6220    24.3880    12.4180    12.7030    13.9190     2.4590    -7.8740 
  232.3750    81.0330    24.4180    11.6800    12.7090    13.8800     2.4580    -7.7170 
  232.5000    79.3070    24.4270    11.4680    12.6790    13.8290     2.4510    -7.5580 
  232.6250    79.3070    24.3860    11.8080    12.7090    13.8890     2.4410    -7.4270 
  232.7500    79.3070    24.3220    12.5840    12.8610    14.1040     2.4360    -7.3140 
  232.8750    79.3070    24.2750    13.7160    13.1440    14.4540     2.4370    -7.2160 
  233.0000    79.3070    24.3000    14.7090    13.5210    14.8750     2.4450    -7.1190 
  233.1250    79.3070    24.4190    15.3280    13.9190    15.2730     2.4570    -7.0240 
  233.2500    79.3070    24.5150    16.3220    14.2610    15.5830     2.4680    -6.9750 
  233.3750    79.3070    24.5180    20.2830    14.5090    15.7790     2.4750    -6.9240 
  233.5000    79.3070    24.4680    20.8380    14.6530    15.8610     2.4730    -6.8670 
  233.6250    79.3070    24.4690    21.9600    14.6840    15.8270     2.4620    -6.8440 
  233.7500    79.3070    24.5140    19.7580    14.6230    15.7060     2.4490    -6.8580 
  233.8750    79.3070    24.5510    18.4520    14.4700    15.4960     2.4410    -6.8690 
  234.0000    79.3070    24.5540    17.5620    14.2150    15.1860     2.4410    -6.8960 
  234.1250    79.3070    24.5320    16.1960    13.8210    14.7410     2.4480    -6.9270 
  234.2500    79.3070    24.5230    14.7520    13.3100    14.1850     2.4570    -6.9390 
  234.3750    79.3070    24.5400    13.1900    12.7110    13.5520     2.4610    -6.9240 
  234.5000    79.3070    24.5650    11.4940    12.0910    12.9220     2.4570    -6.9400 
  234.6250    79.3070    24.5710     9.2150    11.5720    12.4520     2.4470    -6.9540 
  234.7500    79.3070    24.5590     8.2330    11.2670    12.2780     2.4410    -6.9270 
  234.8750    79.3070    24.5350     9.5640    11.2810    12.5240     2.4450    -6.8810 
  235.0000    79.3070    24.5210    12.6620    11.6920    13.2500     2.4570    -6.8320 
  235.1250    79.3070    24.5580    16.1690    12.5780    14.4620     2.4700    -6.7160 
  235.2500    79.3070    24.6240    17.1930    13.7610    15.8730     2.4800    -6.6550 
  235.3750    79.3070    24.6600    17.3400    15.0170    17.1860     2.4850    -6.6730 
  235.5000    79.3070    24.6430    17.6400    16.0460    18.0980     2.4850    -6.5530 
  235.6250    79.3070    24.6130    16.6620    16.5010    18.3130     2.4840    -6.4840 
  235.7500    79.3070    24.6160    13.7380    16.4190    17.9820     2.4840    -6.4930 
  235.8750    79.3070    24.6230    11.9520    15.9570    17.3350     2.4860    -6.5880 
  236.0000    79.3070    24.5900    13.1390    15.3300    16.6320     2.4910    -6.7160 
  236.1250    79.3070    24.5210    15.0190    14.7340    16.0890     2.4960    -6.9050 
  236.2500    79.3070    24.4860    15.4380    14.2400    15.7190     2.4960    -6.9750 
  236.3750    79.3070    24.5020    15.0140    13.8380    15.4610     2.4910    -7.0580 
  236.5000    79.3070    24.5340    15.1240    13.5060    15.2540     2.4810    -7.2560 
  236.6250    79.3070    24.5110    14.1960    13.2470    15.0850     2.4710    -7.3780 
  236.7500    79.3070    24.4330    12.9820    13.0550    14.9760     2.4620    -7.3630 
  236.8750    79.3070    24.3640    12.2680    12.9290    14.9490     2.4560    -7.3320 
  237.0000    79.3070    24.3580    12.3070    12.8580    14.9890     2.4540    -7.3280 
  237.1250    79.3070    24.3970    13.9470    12.8300    15.0500     2.4590    -7.2860 
  237.2500    79.3070    24.4160    16.4030    12.8170    15.0490     2.4710    -7.3280 
  237.3750    79.3070    24.4210    17.9850    12.8010    14.9280     2.4850    -7.3140 
  237.5000    79.3070    24.4350    17.7830    12.7680    14.6980     2.4980    -7.1960 
  237.6250    79.3070    24.4250    16.7100    12.7180    14.4370     2.5070    -7.1000 
  237.7500    79.3070    24.3900    14.6530    12.6680    14.2620     2.5100    -7.0780 
  237.8750    79.3070    24.3510    13.7110    12.6350    14.2350     2.5040    -7.0640 
  238.0000    79.3070    24.3230    14.0870    12.6200    14.3340     2.4950    -7.0790 
  238.1250    79.3070    24.2930    14.5390    12.6150    14.4690     2.4870    -7.0580 
  238.2500    79.3070    24.2620    13.2910    12.6120    14.5540     2.4810    -7.0550 
  238.3750    79.3070    24.2550    11.6420    12.6100    14.5760     2.4740    -7.0760 
  238.5000    79.3070    24.2790    10.5970    12.6100    14.5760     2.4630    -7.1550 
  238.6250    79.3070    24.3060    10.1930    12.6100    14.5760     2.4460    -7.1770 
  238.7500    79.3070    24.3320     9.7840    12.6100    14.5760     2.4290    -7.2940 
  238.8750    79.3070    24.3660     9.4390    12.6100    14.5760     2.4160    -7.3080 
