~V
VERS. 2.00: Ver 2.00
~W
STRT.M 62.0000:
STOP.M 250.0000:
STEP.M 0.1250:
NULL. -999.2500:
UWI. DF5059:
~C
DEPT.M :
SP.MV :
GR.API :
RML.OHMM :
RI. :
RXO.OHMM :
CALI.CM :
DEN.GM/CC :
~A
# ...
  129.5000   -13.4140    79.4100     6.0220     6.0960     6.7010    21.4390     2.3040 
  129.6250   -13.2290    80.5620     5.9870     6.0580     6.3690    21.7870     2.2990 
  129.7500   -12.9520    90.6400     5.7510     5.7600     5.4130    22.3700     2.2880 
  129.8750   -12.6020   101.9300     5.3530     5.3200     4.5060    22.8200     2.2790 
  130.0000   -12.2520   108.6800     4.9360     4.8700     4.1310    23.0760     2.2790 
  130.1250   -12.0180   111.6440     4.5650     4.5020     3.9820    23.4690     2.2910 
  130.2500   -11.9550   115.0170     4.2790     4.2130     3.9340    23.9980     2.3060 
  130.3750   -12.0200   119.2860     4.1610     3.9840     3.8800    24.6130     2.3160 
  130.5000   -12.1340   120.2570     4.0780     3.8140     3.8390    24.9040     2.3170 
  130.6250   -12.3250   116.1990     4.1090     3.7700     3.8030    24.7480     2.3110 
  130.7500   -12.6280   114.3410     4.3280     3.9150     3.9030    24.3610     2.3110 
  130.8750   -13.0410   116.8050     4.7840     4.3000     4.4350    24.1470     2.3250 
  131.0000   -13.5240   116.5810     5.4660     4.9180     5.7760    23.9910     2.3540 
  131.1250   -13.9830   105.1420     6.2900     5.6950     7.7020    23.5080     2.3890 
  131.2500   -14.3800    91.3390     7.0770     6.4590     9.6520    22.9110     2.4080 
  131.3750   -14.7550    85.4440     7.6980     7.0910    10.7270    22.3590     2.4000 
  131.5000   -15.1210    87.8970     8.1090     7.5430     9.4550    21.7910     2.3680 
  131.6250   -15.4000    93.3570     8.3500     7.8500     7.7220    21.3620     2.3240 
  131.7500   -15.5660    96.5400     8.5190     8.1060     7.4700    21.1050     2.2870 
  131.8750   -15.5570    95.5900     8.5950     8.2980     7.6200    21.0510     2.2630 
  132.0000   -15.3820    90.9030     8.4820     8.3300     7.5570    21.2350     2.2520 
  132.1250   -15.0910    88.7330     8.0410     8.0380     7.2540    21.5450     2.2510 
  132.2500   -14.7490    94.3810     7.3490     7.4500     6.7490    21.9100     2.2560 
  132.3750   -14.3970   104.2000     6.5610     6.6840     6.0570    22.3230     2.2670 
  132.5000   -14.0250   112.4600     5.8590     5.9180     5.3050    22.6960     2.2820 
  132.6250   -13.6640   118.4550     5.3980     5.3360     4.7310    22.7910     2.2960 
  132.7500   -13.3830   121.7420     5.1620     4.9730     4.6190    22.7220     2.3040 
  132.8750   -13.2300   119.1270     5.1260     4.8300     4.7290    22.6380     2.3050 
  133.0000   -13.1800   110.5550     5.2610     4.8930     4.8970    22.6220     2.2980 
  133.1250   -13.2000   105.4350     5.5400     5.1520     5.0010    22.6540     2.2900 
  133.2500   -13.2490   104.4010     5.8630     5.5030     5.3150    22.6260     2.2850 
  133.3750   -13.3040   100.5580     6.1340     5.8430     5.9360    22.5310     2.2900 
  133.5000   -13.3980    93.1000     6.2540     6.0540     6.6510    22.4520     2.3010 
  133.6250   -13.4570    95.1560     6.1220     6.0030     7.1010    22.4810     2.3140 
  133.7500   -13.4520   106.8960     5.8020     5.7200     6.7220    22.6420     2.3200 
  133.8750   -13.4330   116.6520     5.3960     5.2920     5.6040    22.9310     2.3190 
  134.0000   -13.4270   115.0960     5.0220     4.8450     4.6860    23.1600     2.3120 
  134.1250   -13.4570   107.8930     4.7880     4.5120     4.3820    23.3150     2.3060 
  134.2500   -13.4930   106.5600     4.6890     4.3240     4.3710    23.5170     2.3020 
  134.3750   -13.4880   111.7050     4.6920     4.2660     4.4520    23.7750     2.3010 
  134.5000   -13.4310   116.1020     4.7500     4.2970     4.5330    24.0360     2.2990 
  134.6250   -13.4240   114.5650     4.8170     4.3680     4.6310    24.1680     2.2980 
  134.7500   -13.4600   111.3100     4.8650     4.4340     4.6210    24.2600     2.2990 
  134.8750   -13.4730   109.3900     4.8900     4.4820     4.6110    24.2940     2.3000 
  135.0000   -13.4840   108.3120     4.8940     4.5090     4.6030    24.2380     2.2980 
  135.1250   -13.4680   108.0190     4.8910     4.5300     4.6040    24.1810     2.2910 
  135.2500   -13.4430   107.2910     4.8950     4.5610     4.6250    24.1240     2.2800 
  135.3750   -13.4680   105.3850     4.9130     4.6130     4.6960    24.0480     2.2710 
  135.5000   -13.5550   102.0750     4.9500     4.6850     4.8150    24.0010     2.2650 
  135.6250   -13.6410   101.0110     5.0110     4.7770     4.9450    23.9970     2.2650 
  135.7500   -13.6790   104.1930     5.1000     4.8880     5.0460    23.9930     2.2690 
  135.8750   -13.7030   111.8200     5.2230     5.0240     5.1210    23.9970     2.2750 
  136.0000   -13.7060   117.7770     5.3750     5.1860     5.1820    23.9980     2.2810 
  136.1250   -13.7230   113.4290     5.5200     5.3530     5.3100    23.8660     2.2820 
  136.2500   -13.7440   105.2450     5.5970     5.4690     5.4580    23.7340     2.2770 
  136.3750   -13.6920   100.6170     5.5490     5.4720     5.5610    23.7030     2.2690 
  136.5000   -13.5940   101.3560     5.3540     5.3180     5.5570    23.8480     2.2620 
  136.6250   -13.5150   105.5370     5.0480     5.0060     5.2550    24.0770     2.2570 
  136.7500   -13.4920   111.7770     4.7720     4.6650     4.7030    24.2760     2.2570 
  136.8750   -13.4780   115.7900     4.6510     4.4340     4.1880    24.5280     2.2600 
  137.0000   -13.4330   114.2420     4.7680     4.4260     4.0510    24.7590     2.2670 
  137.1250   -13.3730   111.2100     5.1580     4.7170     4.6930    24.5690     2.2820 
  137.2500   -13.3160   108.2300     5.6680     5.1840     5.7490    24.3490     2.2980 
  137.3750   -13.3140   102.5200     6.1360     5.6710     6.8880    24.0870     2.3110 
  137.5000   -13.3390    96.8040     6.3930     6.0010     7.5230    23.9530     2.3120 
  137.6250   -13.2900    99.8240     6.3050     6.0040     6.7790    24.0740     2.2960 
  137.7500   -13.1580   107.1450     6.0100     5.7650     5.8840    24.1380     2.2730 
  137.8750   -13.0080   109.7220     5.7090     5.4480     5.5600    24.1240     2.2510 
  138.0000   -12.8920   105.6370     5.6250     5.2580     5.7600    24.0370     2.2410 
  138.1250   -12.8040    99.3990     6.0530     5.4550     6.5510    23.9820     2.2510 
  138.2500   -12.7440    95.8110     7.1090     6.1520     8.1650    23.9610     2.2810 
  138.3750   -12.6570    90.9540     8.9150     7.4630    10.9570    23.9410     2.3320 
  138.5000   -12.5360    80.4170    11.4910     9.4310    15.1220    23.9000     2.3960 
  138.6250   -12.4790    65.3990    14.6980    12.0180    19.4150    23.8440     2.4610 
  138.7500   -12.5010    54.5560    17.9290    14.7730    22.8110    23.8600     2.5130 
  138.8750   -12.5420    52.0130    20.6020    17.2280    25.1330    23.8760     2.5460 
  139.0000   -12.5520    53.5110    22.2550    18.9510    24.5060    23.8310     2.5610 
  139.1250   -12.5270    53.4260    22.6260    19.6100    22.9480    23.7920     2.5630 
  139.2500   -12.4960    50.9650    22.2630    19.5560    21.6990    23.8270     2.5580 
  139.3750   -12.5290    46.1960    21.6140    19.1260    21.1070    23.8930     2.5510 
  139.5000   -12.5810    41.8370    21.0180    18.6180    20.5040    23.9170     2.5440 
  139.6250   -12.5800    41.5410    20.6860    18.2540    20.0080    23.8690     2.5420 
  139.7500   -12.5680    45.7420    20.5960    18.0880    19.8960    23.7990     2.5460 
  139.8750   -12.5870    49.9710    20.7160    18.1230    19.6580    23.7520     2.5540 
  140.0000   -12.6340    50.3500    21.0120    18.3460    19.8080    23.8090     2.5600 
  140.1250   -12.6530    50.7760    21.4900    18.7630    20.5900    23.9050     2.5550 
  140.2500   -12.6210    51.1030    22.1110    19.3320    21.2760    24.0020     2.5410 
  140.3750   -12.5470    48.7910    22.8360    20.0190    21.4910    23.9950     2.5250 
  140.5000   -12.4790    48.9040    23.5620    20.7480    21.1920    23.8980     2.5150 
  140.6250   -12.4420    55.6380    24.0390    21.3270    21.4830    23.7980     2.5170 
