~V
VERS. 2.00: Ver 2.00
~W
STRT.M 60.0000:
STOP.M 277.0000:
STEP.M 0.1250:
NULL. -999.2500:
UWI. DF5010:
~C
DEPT.M :
GR.API :
CALI.CM :
RXO.OHMM :
RI. :
RML.OHMM :
SP.MV :
DEN.GM/CC :
~A
# ...
  240.0000    77.7450    24.7810    47.2350    50.3250    55.9810   -36.6610     2.2290 
  240.1250    74.7970    24.7890    58.8310    49.1250    54.8380   -36.6060     2.2210 
  240.2500    68.6060    24.7900    58.7480    49.6260    55.4090   -36.6790     2.2170 
  240.3750    65.1520    24.7860    53.4960    50.9360    56.6780   -36.8030     2.2190 
  240.5000    68.3470    24.7820    50.4980    52.3580    57.9350   -37.0820     2.2250 
  240.6250    74.5380    24.7810    51.8810    53.4030    58.7710   -37.3580     2.2220 
  240.7500    76.4720    24.7830    54.2800    53.9730    59.1470   -37.4480     2.2080 
  240.8750    75.2210    24.7810    54.6540    53.9300    58.8820   -37.6570     2.1890 
  241.0000    74.7890    24.7590    53.6920    53.0490    57.6890   -38.0330     2.1760 
  241.1250    73.0270    24.6980    53.2030    51.2020    55.4780   -38.2290     2.1760 
  241.2500    68.6520    24.6190    50.9000    49.1350    53.1880   -38.3690     2.1820 
  241.3750    66.4400    24.5540    46.1410    47.7840    51.9500   -38.6240     2.1930 
  241.5000    70.0120    24.5110    41.5670    48.1330    52.8990   -38.8630     2.2040 
  241.6250    75.1260    24.4480    44.5920    51.6820    57.6850   -39.0690     2.2090 
  241.7500    77.3010    24.3580    60.6540    58.8540    66.5440   -39.3050     2.2080 
  241.8750    76.1060    24.2790    82.1810    69.9090    79.5240   -39.4460     2.2030 
  242.0000    72.5140    24.2460    98.0130    83.8210    95.2560   -39.4610     2.2000 
  242.1250    67.5830    24.2460   106.6490    96.4280   108.5380   -39.6360     2.2070 
  242.2500    63.2250    24.2710   114.2050   101.9220   112.5270   -39.7600     2.2250 
  242.3750    60.9540    24.3530   119.2950    97.1480   104.2270   -39.7000     2.2500 
  242.5000    61.7620    24.4750   113.2030    84.0610    87.4460   -39.6200     2.2700 
  242.6250    63.3930    24.5580    82.3040    68.4640    69.8330   -39.4750     2.2760 
  242.7500    65.6120    24.5740    54.6600    55.5280    56.1570   -39.2660     2.2730 
  242.8750    68.1730    24.5940    39.5340    46.6140    47.1640   -39.1300     2.2670 
  243.0000    71.0430    24.6870    34.8850    41.4710    42.2400   -39.0950     2.2570 
  243.1250    73.6840    24.8200    37.7480    39.6910    40.8320   -38.8660     2.2390 
  243.2500    76.0800    24.9020    40.9330    40.0270    41.5690   -38.6440     2.2160 
  243.3750    78.4300    24.9200    44.3310    42.0530    43.9680   -38.4300     2.1930 
  243.5000    79.3330    24.9150    47.2670    45.5240    47.7740   -38.2170     2.1730 
  243.6250    79.1550    24.9160    49.9560    50.5820    53.1630   -38.2620     2.1610 
  243.7500    78.0360    24.9150    57.5570    56.9990    59.9080   -38.2740     2.1590 
  243.8750    75.1780    24.9150    70.6360    64.5010    67.6590   -38.1950     2.1670 
  244.0000    72.3640    24.9240    79.3770    72.2200    75.4510   -38.1010     2.1760 
  244.1250    70.3600    24.9500    76.0180    78.4230    81.4520   -38.0340     2.1760 
  244.2500    68.3830    24.9780    89.2520    82.0380    84.6210   -38.1310     2.1710 
  244.3750    65.7460    24.9950   111.5540    82.6910    84.6580   -38.2790     2.1810 
  244.5000    63.2720    24.9760   109.8030    80.8750    82.2070   -38.3320     2.2140 
  244.6250    62.8080    24.8820    95.3670    77.7290    78.5780   -38.2880     2.2530 
  244.7500    63.7740    24.7660    93.8920    74.6920    75.1800   -38.3660     2.2700 
  244.8750    64.8910    24.6980    91.5840    72.1080    72.2310   -38.4210     2.2530 
  245.0000    65.0990    24.6970    77.6890    69.4960    69.1210   -38.5340     2.2110 
  245.1250    65.8130    24.7130    81.4250    65.5910    64.5280   -38.8230     2.1700 
  245.2500    69.3730    24.7150    83.8000    60.0460    58.2900   -38.9090     2.1540 
  245.3750    73.7800    24.7130    78.7270    53.6640    51.4020   -38.9940     2.1680 
  245.5000    76.6660    24.7110    62.5610    47.8630    45.3720   -39.1070     2.2020 
  245.6250    78.6690    24.7090    43.5220    44.0260    41.5970   -39.2410     2.2480 
  245.7500    80.4410    24.7100    34.6850    42.1990    39.9910   -39.3540     2.3060 
  245.8750    81.8630    24.7130    50.6570    42.2710    40.3310   -39.4530     2.3660 
  246.0000    83.0190    24.7170    64.1650    43.8680    42.1220   -39.4490     2.3980 
  246.1250    84.6280    24.7200    55.8780    46.4380    44.7660   -39.4780     2.3660 
  246.2500    82.8060    24.7240    45.1740    49.2830    47.6910   -39.6500     2.2980 
  246.3750    75.6590    24.7270    66.3120    52.3590    50.9730   -39.8500     2.2320 
  246.5000    69.2620    24.7300    88.8250    55.9700    54.9670   -39.9850     2.1940 
  246.6250    69.5400    24.7310    75.8620    60.6940    60.2410   -40.0450     2.1980 
  246.7500    72.1650    24.7310    65.3510    66.3850    66.5200   -40.0860     2.2310 
  246.8750    73.5980    24.7310    76.7460    72.2840    72.9280   -40.1000     2.2790 
  247.0000    75.6370    24.7310   106.4830    76.9980    77.9640   -40.2050     2.3230 
  247.1250    79.1160    24.7310   109.1200    78.6170    79.6120   -40.2550     2.3520 
  247.2500    79.1350    24.7310    91.3100    77.1730    78.0140   -40.2810     2.3730 
  247.3750    76.2300    24.7300    67.4750    73.4880    74.2070   -40.2160     2.3870 
  247.5000    76.0390    24.7330    59.4260    69.2120    70.0840   -40.1140     2.3760 
  247.6250    80.6410    24.7290    54.2120    66.6150    68.0710   -40.1260     2.3220 
  247.7500    85.0030    24.6930    58.1300    66.6680    68.9630   -40.1620     2.2560 
  247.8750    86.7700    24.6280    62.9120    69.4640    72.6950   -40.2220     2.2080 
  248.0000    86.9830    24.5680    59.6150    74.4030    78.5420   -40.1810     2.1870 
  248.1250    88.3900    24.5490    59.9650    80.4080    85.2950   -40.0690     2.1840 
  248.2500    88.4870    24.5640    79.6860    85.9690    91.3900   -39.8910     2.2050 
  248.3750    84.3390    24.5920   118.5220    90.1810    95.9130   -39.8680     2.2620 
  248.5000    76.5340    24.6160   130.3800    92.5930    98.4700   -39.9060     2.3490 
  248.6250    72.4190    24.6230   105.9990    92.8560    98.7680   -39.7990     2.4300 
  248.7500    75.2290    24.6210    90.8290    91.4430    97.3110   -39.6500     2.4770 
  248.8750    81.0230    24.6150    89.3630    88.6740    94.4200   -39.5690     2.4880 
  249.0000    83.3930    24.6120    84.6290    85.1840    90.8100   -39.5400     2.4740 
  249.1250    81.7080    24.6250    77.7010    82.2370    87.9270   -39.4730     2.4480 
  249.2500    80.8940    24.6470    68.7560    81.1150    87.1610   -39.4240     2.4220 
  249.3750    83.5440    24.6630    71.3720    82.9900    89.7360   -39.2790     2.4080 
  249.5000    88.8410    24.6610    83.6550    89.0240    96.8050   -39.2350     2.4210 
  249.6250    91.5580    24.6370    94.9500   101.0770   110.2430   -39.2660     2.4750 
  249.7500    89.1980    24.6080   116.5950   117.7000   128.4500   -39.3140     2.5440 
  249.8750    83.8470    24.5800   156.3020   134.5240   146.2990   -39.2810     2.5910 
  250.0000    79.6420    24.5520   179.5960   141.8560   151.7570   -39.2050     2.5960 
  250.1250    78.2540    24.5240   174.6390   125.5430   129.1930   -39.2370     2.5670 
  250.2500    76.6670    24.5030   152.6690    93.3730    92.0890   -39.2960     2.5260 
  250.3750    74.9190    24.4870   115.5780    60.3730    57.9050   -39.4060     2.4690 
  250.5000    74.9400    24.4620    65.0980    36.3700    34.4720   -39.4120     2.3940 
  250.6250    81.1290    24.4210    28.8080    23.4460    22.0120   -39.3100     2.3270 
  250.7500    91.7420    24.3930    13.4580    16.5180    15.2810   -39.2350     2.2990 
  250.8750    99.4380    24.4180    11.8310    12.9020    11.8140   -39.2250     2.3070 
  251.0000    97.1300    24.5060    12.4380    11.0230    10.1020   -39.3630     2.3290 
  251.1250    87.4130    24.6090    13.0300    10.1920     9.3840   -39.3770     2.3340 
