~V
VERS. 2.00: Ver 2.00
~W
STRT.M 50.0000:
STOP.M 245.0000:
STEP.M 0.1250:
NULL. -999.2500:
UWI. DF5062:
~C
DEPT.M :
DEN.GM/CC :
GR.API :
RML.OHMM :
RI. :
RXO.OHMM :
CALI.CM :
SP.MV :
~A
# ...
   61.2500     2.2450   102.8800     7.3570     6.1840     6.1860    22.4870   -41.7720 
   61.3750     2.2560   102.0420     7.0620     5.9480     5.8470    22.9730   -41.7050 
   61.5000     2.2680   100.5640     6.7550     5.6510     5.4380    23.6790   -41.5310 
   61.6250     2.2790   102.5290     6.4900     5.3500     5.2600    24.1700   -41.2250 
   61.7500     2.2880   104.9390     6.2540     5.0690     5.1820    24.4120   -41.0220 
   61.8750     2.2970   106.4450     6.0130     4.8060     5.1190    24.5440   -40.8110 
   62.0000     2.3060   108.0500     5.7460     4.5610     5.1220    24.4610   -40.5700 
   62.1250     2.3180   110.9070     5.5030     4.3620     5.2060    24.3680   -40.5390 
   62.2500     2.3310   115.6060     5.4040     4.2620     5.2110    24.2740   -40.6430 
   62.3750     2.3450   118.8000     5.5780     4.3370     5.2810    24.2450   -40.7210 
   62.5000     2.3530   116.4600     6.0960     4.6490     5.7240    24.2000   -41.0000 
   62.6250     2.3460   107.2670     6.9460     5.2330     7.0500    24.0600   -41.5040 
   62.7500     2.3210    97.4090     7.8710     5.9420     9.3350    23.7450   -42.0780 
   62.8750     2.2840    89.0890     8.6160     6.6030    13.0380    23.2920   -42.7790 
   63.0000     2.2400    82.0600     8.9640     7.0280    18.3920    22.8350   -43.5240 
   63.1250     2.2020    79.9750     8.7860     7.0420    17.2360    22.4960   -44.2270 
   63.2500     2.1750    82.5910     8.3310     6.7630    11.1190    22.2880   -44.9830 
   63.3750     2.1640    85.9810     7.8460     6.3580     7.5530    22.1370   -45.6950 
   63.5000     2.1660    86.9100     7.5320     6.0030     6.6220    21.9920   -46.2550 
   63.6250     2.1810    85.0850     7.5370     5.8440     6.7840    21.6010   -46.8250 
   63.7500     2.1980    82.4440     7.8260     5.8970     7.0220    21.2020   -47.2470 
   63.8750     2.2120    80.4510     8.3750     6.1600     7.1680    20.9770   -47.4210 
   64.0000     2.2210    80.3720     9.1210     6.6000     7.4110    20.9810   -47.6710 
   64.1250     2.2250    79.5650     9.9190     7.1480     8.0110    21.1880   -47.8350 
   64.2500     2.2270    74.5260    10.5410     7.6500     8.9670    21.4940   -47.7840 
   64.3750     2.2230    69.5140    10.7980     7.9650    10.4740    21.8900   -47.8010 
   64.5000     2.2080    71.0380    10.5930     7.9920    12.0710    22.2230   -47.8760 
   64.6250     2.1800    77.3820     9.9480     7.6790    10.7460    22.2380   -47.8180 
   64.7500     2.1450    79.9470     9.1820     7.2020     8.2130    22.0620   -47.7970 
   64.8750     2.1140    77.7230     8.5370     6.7220     7.0960    21.8360   -47.9720 
   65.0000     2.0970    74.7500     8.1480     6.3690     6.8300    21.5890   -48.1170 
   65.1250     2.0970    72.0080     8.0650     6.2350     6.8740    21.3580   -48.2890 
   65.2500     2.1090    69.6220     8.1630     6.2670     6.9520    21.2480   -48.6750 
   65.3750     2.1260    69.0330     8.3590     6.4040     7.0770    21.1830   -49.0420 
   65.5000     2.1410    71.5050     8.5840     6.5830     7.2760    21.1480   -49.2980 
   65.6250     2.1460    75.4480     8.7880     6.7510     7.5080    21.1490   -49.6140 
   65.7500     2.1390    78.4000     8.9420     6.8810     7.6990    21.2100   -49.8470 
   65.8750     2.1210    78.7110     9.0170     6.9550     7.6670    21.3540   -49.8270 
   66.0000     2.0960    75.6750     9.0000     6.9520     7.4830    21.5420   -49.7470 
   66.1250     2.0780    71.3710     8.8780     6.8400     7.3840    21.6370   -49.5420 
   66.2500     2.0760    68.6430     8.6830     6.6420     7.3810    21.7000   -49.1270 
   66.3750     2.0940    70.3840     8.4400     6.3920     7.3740    21.8870   -48.5780 
   66.5000     2.1260    76.1890     8.1890     6.1450     7.2950    22.1790   -47.9400 
   66.6250     2.1600    82.3010     8.0030     5.9770     7.1180    22.2850   -47.2840 
   66.7500     2.1830    85.4190     7.9340     5.9170     7.0110    22.1260   -46.7160 
   66.8750     2.1930    84.1880     8.0030     5.9650     7.1250    21.9500   -46.1790 
   67.0000     2.1920    79.7230     8.1790     6.0870     7.2250    21.8040   -45.7120 
   67.1250     2.1870    74.6370     8.3810     6.2290     7.2930    21.7050   -45.3690 
   67.2500     2.1850    72.2920     8.5180     6.3360     7.4720    21.7500   -45.0190 
   67.3750     2.1850    72.6480     8.5600     6.3950     7.6110    21.9540   -44.7130 
   67.5000     2.1880    73.5150     8.5410     6.4220     7.7160    22.2470   -44.4730 
   67.6250     2.1930    76.6350     8.5510     6.4630     7.5870    22.5210   -44.0920 
   67.7500     2.2000    82.8650     8.6470     6.5470     7.3960    22.6870   -43.5970 
   67.8750     2.2080    88.2210     8.8160     6.6670     7.3550    22.6790   -43.1910 
   68.0000     2.2170    89.5380     8.9790     6.7810     7.5620    22.5570   -42.7490 
   68.1250     2.2240    86.4410     8.9920     6.8000     7.9940    22.5060   -42.2610 
   68.2500     2.2290    84.4530     8.7790     6.6790     8.3210    22.5050   -41.8520 
   68.3750     2.2360    86.7790     8.3280     6.4030     8.0890    22.5520   -41.5190 
   68.5000     2.2460    93.1910     7.7030     6.0050     7.2620    22.6750   -41.2080 
   68.6250     2.2620    97.8180     7.0350     5.5540     6.7030    22.8940   -41.0660 
   68.7500     2.2800    98.8600     6.4880     5.1510     6.2680    23.1220   -40.9730 
   68.8750     2.2980    99.5390     6.1950     4.8820     6.0620    23.2640   -40.7500 
   69.0000     2.3190   102.0650     6.2550     4.8220     6.0310    23.2790   -40.5790 
   69.1250     2.3490   104.0810     6.7480     5.0490     6.1470    23.2370   -40.4450 
   69.2500     2.3870   103.2510     7.4980     5.4710     6.5650    23.2050   -40.3080 
   69.3750     2.4240    99.3390     8.2910     5.9700     7.3020    23.2120   -40.2600 
   69.5000     2.4420    94.1370     8.8710     6.3860     8.7690    23.1960   -40.1980 
   69.6250     2.4260    90.7990     8.9590     6.5260    10.2440    23.0760   -40.0980 
   69.7500     2.3870    91.4380     8.6490     6.4020     9.1640    22.8740   -40.1850 
   69.8750     2.3390    94.1510     8.1710     6.1310     7.2430    22.7000   -40.3400 
   70.0000     2.2960    96.5980     7.8110     5.8940     6.5200    22.6310   -40.4420 
   70.1250     2.2610    97.0250     7.8140     5.8810     6.5850    22.7000   -40.7000 
   70.2500     2.2300    93.7830     8.1300     6.0970     6.6900    22.6480   -41.0460 
   70.3750     2.1980    87.9340     8.6200     6.4670     6.9320    22.3730   -41.4630 
   70.5000     2.1650    82.7560     9.0900     6.8620     7.4570    21.9930   -42.0590 
   70.6250     2.1390    81.6950     9.3190     7.1170     8.0180    21.6260   -42.6380 
   70.7500     2.1230    83.5360     9.2790     7.1780     8.3220    21.3640   -43.1090 
   70.8750     2.1210    86.6390     9.0410     7.0680     8.0980    21.3580   -43.7300 
   71.0000     2.1330    88.2260     8.7330     6.8570     7.6300    21.5850   -44.3080 
   71.1250     2.1570    84.6090     8.4930     6.6450     7.3760    21.8840   -44.6390 
   71.2500     2.1830    80.4880     8.3690     6.4940     7.3110    22.1790   -44.8670 
   71.3750     2.2030    80.3910     8.3510     6.4190     7.3190    22.4480   -44.9370 
   71.5000     2.2130    81.2380     8.3970     6.4030     7.3060    22.6450   -44.7630 
   71.6250     2.2170    78.9660     8.4450     6.4000     7.3530    22.7180   -44.4840 
   71.7500     2.2210    77.2560     8.4280     6.3620     7.4360    22.7890   -44.1770 
   71.8750     2.2290    80.4400     8.3080     6.2620     7.5210    22.9490   -43.6080 
   72.0000     2.2390    87.4310     8.0810     6.1010     7.5190    23.1710   -42.9960 
   72.1250     2.2490    93.1210     7.8070     5.9080     7.2250    23.1400   -42.6040 
   72.2500     2.2550    94.3460     7.6080     5.7420     6.5470    22.8610   -42.2670 
   72.3750     2.2580    93.0360     7.5670     5.6460     6.1710    22.6470   -41.9890 
