~V
VERS. 2.00: Ver 2.00
~W
STRT.M 60.0000:
STOP.M 273.0000:
STEP.M 0.1250:
NULL. -999.2500:
UWI. DF5008:
~C
DEPT.M :
GR.API :
CALI.CM :
RXO.OHMM :
RI. :
RML.OHMM :
DEN.GM/CC :
SP.MV :
~A
# ...
  116.2500    93.9990    23.1430     5.6200     5.0350     5.6460     2.2350   -36.4900 
  116.3750    94.8340    23.1300     6.0360     5.2190     5.9430     2.2500   -36.4120 
  116.5000    99.5320    23.1310     6.3240     5.4440     6.2380     2.2670   -36.4600 
  116.6250   101.6190    23.2020     7.2850     5.6150     6.3990     2.2720   -36.4640 
  116.7500    99.2290    23.3600     9.4110     5.6650     6.3760     2.2650   -36.4930 
  116.8750    95.6870    23.5790     9.2220     5.5620     6.1600     2.2540   -36.5770 
  117.0000    96.1070    23.8070     6.2960     5.3210     5.8000     2.2480   -36.6550 
  117.1250   100.5660    24.0100     5.7680     5.0070     5.3960     2.2540   -36.7830 
  117.2500   104.7230    24.2230     6.0610     4.7160     5.0610     2.2670   -37.0180 
  117.3750   107.4170    24.4350     6.0390     4.5090     4.8620     2.2770   -37.2340 
  117.5000   109.9020    24.5790     5.5280     4.4210     4.8310     2.2760   -37.2770 
  117.6250   112.1350    24.6080     5.3500     4.4770     4.9810     2.2620   -37.3030 
  117.7500   113.0920    24.5750     6.3010     4.6320     5.2440     2.2440   -37.3840 
  117.8750   110.2190    24.5430     7.2770     4.8540     5.5740     2.2280   -37.5150 
  118.0000   102.9520    24.5430     7.2720     5.1100     5.9180     2.2200   -37.7100 
  118.1250    96.1900    24.5740     6.4110     5.3500     6.1980     2.2190   -37.8060 
  118.2500    92.5270    24.5720     6.5030     5.5170     6.3470     2.2220   -37.7990 
  118.3750    89.4060    24.5090     7.0590     5.5710     6.3250     2.2330   -37.8370 
  118.5000    87.4340    24.4370     7.6020     5.5000     6.1380     2.2520   -37.9180 
  118.6250    88.8810    24.4330     7.0800     5.3230     5.8470     2.2770   -37.9540 
  118.7500    92.1090    24.4800     6.1390     5.1210     5.5800     2.3000   -37.9540 
  118.8750    95.7830    24.5140     5.5270     4.9560     5.4250     2.3130   -37.8760 
  119.0000    99.3480    24.5070     5.5810     4.8780     5.4230     2.3110   -37.8140 
  119.1250   101.0850    24.4770     6.5490     4.9120     5.5580     2.2990   -37.8050 
  119.2500   100.4290    24.3980     6.7830     5.0080     5.7210     2.2870   -37.7530 
  119.3750    98.2530    24.2100     6.5180     5.1170     5.8430     2.2820   -37.7510 
  119.5000    95.9320    23.9220     6.5420     5.2000     5.9000     2.2790   -37.7770 
  119.6250    96.1340    23.6770     6.0970     5.2390     5.9100     2.2750   -37.8260 
  119.7500    99.3670    23.6030     5.9120     5.2550     5.9180     2.2680   -37.8570 
  119.8750   103.1880    23.7010     6.0870     5.2600     5.9300     2.2610   -37.8830 
  120.0000   104.5250    23.9200     6.2630     5.2450     5.9120     2.2600   -37.8630 
  120.1250   102.1670    24.1920     6.2190     5.1740     5.8050     2.2700   -37.8550 
  120.2500    98.8270    24.4180     5.9570     5.0470     5.6200     2.2880   -37.9360 
  120.3750    97.9180    24.5410     5.6110     4.8840     5.4010     2.3060   -37.9620 
  120.5000   101.9420    24.5770     5.3170     4.7220     5.2090     2.3150   -37.9660 
  120.6250   106.3890    24.5800     5.1940     4.6080     5.1040     2.3130   -37.9760 
  120.7500   106.8520    24.5800     5.3360     4.5570     5.0760     2.3050   -38.0060 
  120.8750   104.4240    24.5850     5.5790     4.5590     5.0990     2.2950   -38.0640 
  121.0000   103.8260    24.5990     5.6570     4.5940     5.1410     2.2840   -38.1490 
  121.1250   105.8850    24.6060     5.5810     4.6440     5.1910     2.2710   -38.2940 
  121.2500   105.0800    24.5950     5.6850     4.7070     5.2760     2.2560   -38.4600 
  121.3750    99.6470    24.5740     5.8020     4.8130     5.4520     2.2400   -38.6450 
  121.5000    91.5760    24.5400     6.0020     5.0030     5.7890     2.2260   -38.8140 
  121.6250    86.8790    24.4770     6.2420     5.3360     6.3520     2.2180   -39.0190 
  121.7500    85.3870    24.3910     6.5330     5.7680     7.0310     2.2150   -39.2110 
  121.8750    83.6790    24.2860     6.9940     6.2000     7.6310     2.2170   -39.3300 
  122.0000    79.7840    24.1650     7.6530     6.4620     7.8920     2.2240   -39.3940 
  122.1250    77.2870    24.0300     8.6300     6.3320     7.5420     2.2360   -39.3270 
  122.2500    80.6450    23.9470     8.1790     5.8910     6.8000     2.2560   -39.1710 
  122.3750    89.3180    23.9780     6.7570     5.3540     6.0390     2.2900   -38.9380 
  122.5000    99.3560    24.1240     5.6350     4.9730     5.6460     2.3390   -38.7110 
  122.6250   102.7770    24.2990     5.4450     5.0150     5.9890     2.4010   -38.3630 
  122.7500    98.1280    24.4050     6.5630     5.5200     6.9990     2.4530   -38.0490 
  122.8750    89.6050    24.4160     9.4760     6.4630     8.4730     2.4720   -37.7670 
  123.0000    82.8980    24.3610    12.5800     7.6440     9.9570     2.4440   -37.5030 
  123.1250    82.0500    24.3010    13.6280     8.5100    10.6150     2.3890   -37.3470 
  123.2500    82.9780    24.2750    12.1710     8.6140    10.1600     2.3400   -37.2860 
  123.3750    83.4590    24.2650     9.6200     7.9750     8.8850     2.3070   -37.3580 
  123.5000    84.0900    24.2430     7.4040     6.9910     7.4250     2.2920   -37.4850 
  123.6250    85.1050    24.2150     6.7690     6.1180     6.3730     2.2880   -37.7090 
  123.7500    86.7700    24.2030     6.2730     5.5370     5.8070     2.2830   -37.8780 
  123.8750    88.8520    24.2050     5.9690     5.2460     5.6270     2.2760   -38.0560 
  124.0000    90.2380    24.1890     5.7490     5.1720     5.6700     2.2720   -38.2230 
  124.1250    88.4930    24.1130     5.9250     5.2010     5.7560     2.2790   -38.3710 
  124.2500    85.7050    23.9990     6.1400     5.2020     5.7470     2.2930   -38.4670 
  124.3750    85.6550    23.8980     6.1290     5.1290     5.6260     2.3090   -38.4760 
  124.5000    87.2320    23.8620     5.9670     5.0110     5.4660     2.3220   -38.4730 
  124.6250    86.3080    23.8840     5.6430     4.9400     5.4120     2.3310   -38.4960 
  124.7500    86.2680    23.8800     5.4700     4.9880     5.5470     2.3340   -38.5640 
  124.8750    88.7100    23.7760     5.6100     5.1850     5.8810     2.3280   -38.6650 
  125.0000    88.9470    23.5780     6.5220     5.5130     6.3550     2.3080   -38.8080 
  125.1250    82.8100    23.4200     7.5940     5.9160     6.8460     2.2760   -39.0060 
  125.2500    75.8980    23.3960     7.6800     6.2950     7.2430     2.2420   -39.2600 
  125.3750    72.8420    23.4470     7.0410     6.6040     7.5160     2.2160   -39.5720 
  125.5000    72.4820    23.4570     6.7880     6.8330     7.6930     2.2040   -39.8630 
  125.6250    73.8150    23.3890     6.9430     6.9870     7.8100     2.2060   -40.1180 
  125.7500    76.1800    23.3260     7.2450     7.1030     7.9050     2.2130   -40.3270 
  125.8750    77.5930    23.2960     7.3350     7.1900     7.9760     2.2180   -40.5540 
  126.0000    77.4710    23.3020     7.1080     7.2510     8.0120     2.2180   -40.7660 
  126.1250    77.7390    23.3470     6.8230     7.2740     8.0130     2.2160   -40.9310 
  126.2500    78.0480    23.3860     6.8510     7.2680     7.9970     2.2150   -41.0470 
  126.3750    77.3920    23.3780     7.0430     7.2330     7.9630     2.2160   -41.1400 
  126.5000    75.3220    23.3380     7.1260     7.1690     7.8970     2.2200   -41.2050 
  126.6250    72.5870    23.3180     6.9960     7.0750     7.7890     2.2220   -41.2940 
  126.7500    71.4930    23.3010     6.9350     6.9640     7.6630     2.2220   -41.4040 
  126.8750    72.3840    23.2310     6.9110     6.8530     7.5540     2.2200   -41.4360 
  127.0000    73.9080    23.1160     7.0570     6.7600     7.4960     2.2180   -41.4500 
  127.1250    72.8810    23.0480     7.5290     6.7050     7.5060     2.2160   -41.4140 
  127.2500    71.1420    23.0970     8.1670     6.6770     7.5350     2.2160   -41.4490 
  127.3750    71.9980    23.2470     8.3960     6.6550     7.5420     2.2200   -41.4850 
