~V
VERS. 2.00: Ver 2.00
~W
STRT.M 55.0000:
STOP.M 247.0000:
STEP.M 0.1250:
NULL. -999.2500:
UWI. DF5063:
~C
DEPT.M :
SP.MV :
GR.API :
RML.OHMM :
RI. :
RXO.OHMM :
CALI.CM :
DEN.GM/CC :
~A
# ...
   77.5000   -29.1030    61.2590    13.0220    11.6210    29.2260    23.5450     2.3130 
   77.6250   -29.4010    60.1410    12.3620    11.2290    21.1650    23.4500     2.2980 
   77.7500   -29.6500    58.9060    11.0780    10.2590    11.9400    23.2610     2.2470 
   77.8750   -29.9250    59.6610     9.6850     9.0850     8.9960    23.1050     2.1840 
   78.0000   -30.2790    61.0350     8.6130     8.0630     8.5640    23.0460     2.1420 
   78.1250   -30.7080    60.2000     8.1030     7.4420     8.5820    23.0420     2.1310 
   78.2500   -31.1170    59.3710     7.9720     7.1630     8.5730    23.0180     2.1330 
   78.3750   -31.4170    61.1480     8.0500     7.1240     8.5570    23.0190     2.1390 
   78.5000   -31.5580    63.7580     8.1900     7.2040     8.5960    23.0490     2.1440 
   78.6250   -31.5270    65.0650     8.3000     7.3020     8.6310    23.0850     2.1480 
   78.7500   -31.4760    65.6150     8.3670     7.3710     8.5600    23.0920     2.1490 
   78.8750   -31.4240    66.0220     8.4010     7.4170     8.1250    23.0660     2.1490 
   79.0000   -31.3730    66.3070     8.4070     7.4540     7.6360    23.0280     2.1530 
   79.1250   -31.3030    66.5210     8.3940     7.4950     8.1370    22.9990     2.1640 
   79.2500   -31.2230    66.2350     8.3730     7.5350     8.6400    22.9730     2.1750 
   79.3750   -31.1370    66.8330     8.3490     7.5560     8.9640    22.9720     2.1770 
   79.5000   -31.0590    69.9150     8.3290     7.5450     8.9560    22.9930     2.1730 
   79.6250   -30.9970    72.7840     8.3220     7.4930     8.5200    23.0040     2.1670 
   79.7500   -30.9760    71.0580     8.3260     7.4170     8.1450    22.9680     2.1610 
   79.8750   -30.9660    66.3640     8.3290     7.3320     7.9830    22.9060     2.1540 
   80.0000   -30.9220    64.1560     8.3060     7.2510     8.0980    22.8320     2.1460 
   80.1250   -30.8260    65.7700     8.2250     7.1760     7.8450    22.7890     2.1380 
   80.2500   -30.7300    66.3080     8.0930     7.1010     7.5810    22.7530     2.1340 
   80.3750   -30.6300    64.3560     7.9300     7.0210     7.4990    22.7230     2.1320 
   80.5000   -30.4910    62.3990     7.7670     6.9380     7.4670    22.6940     2.1350 
   80.6250   -30.3410    63.4140     7.6410     6.8580     7.2840    22.6830     2.1400 
   80.7500   -30.1420    65.4340     7.5640     6.7920     7.0570    22.6950     2.1430 
   80.8750   -29.8780    67.6360     7.5380     6.7440     7.0440    22.7190     2.1450 
   81.0000   -29.5820    68.5150     7.5590     6.7130     7.1330    22.7400     2.1450 
   81.1250   -29.2670    67.4200     7.6060     6.6880     7.1330    22.7050     2.1440 
   81.2500   -28.8980    65.7280     7.6310     6.6440     7.0970    22.6670     2.1420 
   81.3750   -28.4320    66.5800     7.5930     6.5580     7.0900    22.6480     2.1420 
   81.5000   -27.8800    70.7610     7.4670     6.4170     7.0170    22.6370     2.1440 
   81.6250   -27.3060    74.9020     7.2650     6.2210     6.8210    22.6610     2.1540 
   81.7500   -26.7620    75.8340     7.0670     6.0180     6.5120    22.8160     2.1680 
   81.8750   -26.3470    76.2150     6.9480     5.8600     6.2790    23.0550     2.1770 
   82.0000   -26.0410    77.7560     6.9620     5.8000     6.4320    23.2520     2.1780 
   82.1250   -25.8430    77.6640     7.1480     5.8880     6.7810    23.2940     2.1740 
   82.2500   -25.7540    74.4280     7.4490     6.0950     7.3780    23.3210     2.1740 
   82.3750   -25.8440    72.5600     7.8150     6.3840     7.8750    23.3140     2.1820 
   82.5000   -26.1430    76.0720     8.1810     6.6960     8.1320    23.2890     2.1950 
   82.6250   -26.6170    79.9490     8.4680     6.9610     8.2870    23.2420     2.2050 
   82.7500   -27.1830    78.4280     8.6360     7.1430     8.3980    23.2040     2.2080 
   82.8750   -27.7580    73.3860     8.6790     7.2310     8.5140    23.2240     2.2010 
   83.0000   -28.3380    68.8760     8.6190     7.2310     8.6520    23.2630     2.1860 
   83.1250   -28.8930    68.7620     8.4900     7.1580     8.8870    23.3130     2.1700 
   83.2500   -29.3940    70.6740     8.3400     7.0460     9.0460    23.3440     2.1580 
   83.3750   -29.8230    71.5810     8.1830     6.9130     9.1470    23.3600     2.1500 
   83.5000   -30.1770    69.1420     8.0290     6.7720     9.1460    23.3490     2.1460 
   83.6250   -30.4040    65.0170     7.8950     6.6380     9.0400    23.3390     2.1410 
   83.7500   -30.4670    64.1650     7.7980     6.5270     8.8760    23.3490     2.1360 
   83.8750   -30.4020    66.3230     7.7560     6.4540     8.6890    23.3550     2.1340 
   84.0000   -30.2310    67.4140     7.7800     6.4350     8.4830    23.3500     2.1340 
   84.1250   -29.9840    65.8590     7.8640     6.4830     8.6450    23.3320     2.1360 
   84.2500   -29.6840    65.4980     7.9560     6.5690     8.7240    23.3070     2.1390 
   84.3750   -29.3440    66.4020     8.0050     6.6650     8.7200    23.3000     2.1430 
   84.5000   -28.9530    66.4060     7.9680     6.7300     8.7010    23.3280     2.1440 
   84.6250   -28.5020    66.1270     7.8210     6.7250     8.7160    23.3960     2.1380 
   84.7500   -28.0580    68.4200     7.6120     6.6530     8.5840    23.4720     2.1260 
   84.8750   -27.5980    71.8310     7.3910     6.5330     8.3040    23.4980     2.1120 
   85.0000   -27.1070    72.7770     7.1920     6.3940     8.0060    23.4580     2.1040 
   85.1250   -26.5840    71.6100     7.0210     6.2520     7.8340    23.3810     2.1110 
   85.2500   -26.0480    70.7820     6.8440     6.1040     7.9130    23.3400     2.1270 
   85.3750   -25.4650    70.3590     6.6380     5.9370     8.1930    23.3360     2.1450 
   85.5000   -24.8240    72.8830     6.4060     5.7530     8.1780    23.3710     2.1590 
   85.6250   -24.2240    80.6090     6.1980     5.5890     7.4470    23.4750     2.1690 
   85.7500   -23.7200    88.5870     6.0790     5.4980     6.3470    23.6050     2.1850 
   85.8750   -23.3190    90.9240     6.0970     5.5270     5.8630    23.6570     2.2030 
   86.0000   -22.9780    85.9380     6.2540     5.6840     6.5700    23.5640     2.2120 
   86.1250   -22.6180    78.9750     6.4930     5.9320     7.5970    23.3960     2.2060 
   86.2500   -22.1820    75.7160     6.6780     6.1540     8.0380    23.2670     2.1970 
   86.3750   -21.6540    75.3830     6.7070     6.2540     7.8220    23.1730     2.1980 
   86.5000   -21.0370    75.3460     6.5260     6.1730     7.1570    23.1490     2.2110 
   86.6250   -20.2850    78.4210     6.1450     5.8970     6.0250    23.3090     2.2330 
   86.7500   -19.4340    88.1620     5.6960     5.5300     5.2630    23.5620     2.2570 
   86.8750   -18.4860   100.0760     5.2700     5.1460     4.9640    23.8310     2.2780 
   87.0000   -17.4890   105.9960     4.9090     4.7870     4.9050    23.9920     2.2890 
   87.1250   -16.5510   103.4580     4.6120     4.4680     4.8550    24.0730     2.2900 
   87.2500   -15.7630    98.5730     4.3620     4.1910     4.8490    24.1360     2.2910 
   87.3750   -15.2210    96.1800     4.2190     4.0060     4.8050    24.1470     2.3000 
   87.5000   -14.9530    97.1820     4.3390     4.0250     4.7310    24.1310     2.3200 
   87.6250   -15.0320    95.6640     5.0550     4.4970     4.8440    24.2180     2.3460 
   87.7500   -15.3530    90.7990     6.4430     5.4940     5.9700    24.3240     2.3760 
   87.8750   -15.8740    88.3160     8.4130     6.9850    10.0390    24.4370     2.4100 
   88.0000   -16.5940    89.9210    10.5940     8.7380    21.9030    24.3990     2.4440 
   88.1250   -17.5400    86.9280    12.2160    10.2170    25.2830    24.0730     2.4500 
   88.2500   -18.6580    78.3320    12.7440    10.9490    16.9270    23.6660     2.4040 
   88.3750   -19.8630    71.6180    12.0940    10.7820    10.2090    23.4240     2.3200 
   88.5000   -21.0710    69.8670    10.7330     9.9790     8.5550    23.3440     2.2420 
   88.6250   -22.1580    70.8240     9.4310     9.0610     8.6930    23.3560     2.2000 
