~V
VERS. 2.00: Ver 2.00
~W
STRT.M 60.0000:
STOP.M 273.0000:
STEP.M 0.1250:
NULL. -999.2500:
UWI. DF5003:
~C
DEPT.M :
GR.API :
CALI.CM :
RXO.OHMM :
RI. :
RML.OHMM :
DEN.GM/CC :
SP.MV :
~A
# ...
   71.2500    75.4940    25.3510     7.4350     6.5550     7.7080     2.0980   -40.0560 
   71.3750    74.5830    25.2850     7.5170     6.5270     7.6220     2.1130   -39.3890 
   71.5000    76.4040    25.1810     7.5250     6.4250     7.4500     2.1400   -38.7230 
   71.6250    80.4730    25.0680     7.2170     6.2570     7.2360     2.1750   -37.9630 
   71.7500    87.2040    24.9660     6.7740     6.0720     7.0430     2.2060   -37.2040 
   71.8750    98.0320    24.8740     6.2870     5.9000     6.8890     2.2250   -36.3800 
   72.0000   109.1000    24.7970     5.9400     5.7500     6.7620     2.2320   -35.4350 
   72.1250   111.9330    24.7610     6.1850     5.6210     6.6280     2.2360   -34.5020 
   72.2500   108.1630    24.7490     6.3970     5.5000     6.4680     2.2440   -33.6930 
   72.3750   105.6020    24.6990     6.0620     5.3860     6.2950     2.2570   -32.9220 
   72.5000   108.7280    24.5830     5.4790     5.3020     6.1610     2.2730   -32.2320 
   72.6250   111.5250    24.4650     5.4530     5.2990     6.1500     2.2930   -31.7140 
   72.7500   110.9270    24.4090     5.8040     5.3950     6.2740     2.3150   -31.2870 
   72.8750   107.8600    24.4040     6.2210     5.5840     6.5110     2.3370   -31.0060 
   73.0000   104.7750    24.4080     6.9610     5.8280     6.7970     2.3500   -30.9090 
   73.1250   105.0580    24.4070     9.0850     6.0390     7.0000     2.3390   -30.8550 
   73.2500   104.6190    24.4080     8.8580     6.1290     7.0300     2.3110   -30.7870 
   73.3750   101.8900    24.4040     7.0030     6.0610     6.8710     2.2780   -30.7000 
   73.5000    98.7460    24.3870     6.3710     5.8560     6.5750     2.2540   -30.6040 
   73.6250    99.6430    24.3650     6.2380     5.5590     6.2150     2.2470   -30.5910 
   73.7500   103.1650    24.3560     5.9700     5.2560     5.8800     2.2540   -30.7590 
   73.8750   107.2820    24.3600     5.5540     5.0040     5.6230     2.2660   -30.9730 
   74.0000   111.4910    24.3640     5.0570     4.8360     5.4700     2.2760   -31.1590 
   74.1250   112.2590    24.3600     4.9250     4.7870     5.4540     2.2770   -31.3780 
   74.2500   109.7770    24.3570     5.0930     4.8580     5.5790     2.2680   -31.5800 
   74.3750   105.4580    24.3560     5.5030     5.0630     5.8580     2.2580   -31.7860 
   74.5000   101.3320    24.3560     5.9000     5.3960     6.2720     2.2520   -32.0070 
   74.6250    99.6770    24.3550     6.2360     5.8270     6.7690     2.2510   -32.2000 
   74.7500    99.0010    24.3660     6.7490     6.2560     7.2300     2.2460   -32.3700 
   74.8750    96.3530    24.3900     7.7680     6.5800     7.5470     2.2340   -32.5710 
   75.0000    91.8540    24.4120     8.0030     6.7170     7.6440     2.2150   -32.8120 
   75.1250    89.1740    24.4080     7.6250     6.6160     7.4860     2.1980   -33.0850 
   75.2500    86.6840    24.3760     6.8660     6.3720     7.1910     2.1880   -33.3550 
   75.3750    82.1880    24.3290     6.7550     6.0920     6.8960     2.1890   -33.6570 
   75.5000    78.6860    24.2870     6.7430     5.9220     6.7960     2.2040   -33.9220 
   75.6250    80.8140    24.2700     6.9190     6.0840     7.1860     2.2410   -34.2230 
   75.7500    84.3800    24.2710     7.4560     6.6150     8.0690     2.2980   -34.4350 
   75.8750    85.5320    24.2730     9.3440     7.4600     9.2940     2.3670   -34.6050 
   76.0000    85.7560    24.2470    15.6470     8.4190    10.5140     2.4280   -34.7640 
   76.1250    87.2090    24.1630    26.1550     9.1160    11.2010     2.4500   -34.8740 
   76.2500    86.7130    24.0530    26.7110     9.3910    11.2950     2.4410   -35.0780 
   76.3750    84.1510    23.9460    17.5170     9.3580    11.0920     2.4230   -35.3460 
   76.5000    82.1750    23.8550    10.6600     9.2710    10.9980     2.4050   -35.7640 
   76.6250    80.3440    23.7810    13.1820     9.3340    11.2430     2.3790   -36.2070 
   76.7500    74.3530    23.7220    18.1370     9.4920    11.5890     2.3340   -36.7190 
   76.8750    66.4460    23.6690    18.3590     9.5740    11.7070     2.2750   -37.2860 
   77.0000    63.8790    23.6150    13.4620     9.4010    11.3550     2.2170   -37.8750 
   77.1250    66.5930    23.5700     9.6540     8.9080    10.5440     2.1750   -38.4540 
   77.2500    68.0790    23.5750     8.7190     8.3360     9.6970     2.1510   -38.9910 
   77.3750    66.8480    23.7040     8.4260     7.8870     9.1000     2.1410   -39.5280 
   77.5000    65.7660    23.9540     8.2830     7.6580     8.8360     2.1360   -39.9980 
   77.6250    66.3930    24.1780     8.2620     7.6260     8.8130     2.1320   -40.3970 
   77.7500    67.6730    24.2710     8.2370     7.6470     8.8260     2.1270   -40.7080 
   77.8750    69.8890    24.2750     8.0660     7.6450     8.7950     2.1260   -40.9100 
   78.0000    71.8170    24.2700     7.7930     7.6020     8.7100     2.1260   -41.0230 
   78.1250    72.3010    24.2710     7.6220     7.5330     8.6070     2.1260   -41.0880 
   78.2500    72.0200    24.2710     7.6390     7.4790     8.5350     2.1260   -41.1570 
   78.3750    71.5450    24.2710     7.9160     7.4640     8.5180     2.1270   -41.2070 
   78.5000    71.3000    24.2710     8.4130     7.4900     8.5530     2.1280   -41.2730 
   78.6250    70.4610    24.2710     8.1870     7.5440     8.6170     2.1270   -41.2240 
   78.7500    68.0010    24.2710     7.9440     7.5980     8.6800     2.1240   -41.1260 
   78.8750    64.5450    24.2710     7.9290     7.6290     8.7200     2.1180   -41.0610 
   79.0000    61.7660    24.2710     8.0000     7.6280     8.7290     2.1150   -41.0900 
   79.1250    61.4520    24.2710     7.8580     7.5900     8.7000     2.1170   -41.1890 
   79.2500    62.7600    24.2710     7.8050     7.5290     8.6440     2.1220   -41.1410 
   79.3750    66.0360    24.2710     7.8140     7.4530     8.5740     2.1270   -40.9750 
   79.5000    69.0510    24.2700     7.7700     7.3720     8.5010     2.1300   -40.7600 
   79.6250    67.6830    24.2710     7.6840     7.2950     8.4290     2.1310   -40.6600 
   79.7500    65.3490    24.2700     7.6070     7.2190     8.3440     2.1320   -40.5680 
   79.8750    66.5220    24.2690     7.5310     7.1370     8.2370     2.1360   -40.4130 
   80.0000    71.7360    24.2570     7.5090     7.0520     8.1100     2.1440   -40.1690 
   80.1250    75.0130    24.2150     7.5150     6.9810     7.9910     2.1550   -39.9000 
   80.2500    74.5050    24.1560     7.5050     6.9450     7.9120     2.1650   -39.7720 
   80.3750    74.0650    24.1110     8.1080     6.9640     7.8970     2.1690   -39.7580 
   80.5000    74.3060    24.0950     8.5440     7.0480     7.9560     2.1630   -39.6260 
   80.6250    71.0360    24.0940     8.7870     7.2080     8.0980     2.1480   -39.3360 
   80.7500    65.3780    24.1230     8.3250     7.4200     8.3040     2.1340   -39.1350 
   80.8750    62.1510    24.2100     8.2510     7.6500     8.5440     2.1250   -39.0660 
   81.0000    63.2710    24.3300     8.2460     7.8350     8.7480     2.1290   -38.9790 
   81.1250    63.0140    24.3740     8.2660     7.8390     8.7570     2.1490   -38.8020 
   81.2500    60.9860    24.2740     8.3310     7.5840     8.4600     2.1830   -38.4510 
   81.3750    63.0430    24.0690     8.2850     7.0410     7.8150     2.2240   -38.0140 
   81.5000    73.9700    23.9380     7.4450     6.2940     6.9250     2.2660   -37.5820 
   81.6250    90.6180    24.0820     6.2080     5.5700     6.1120     2.2990   -37.1660 
   81.7500   103.7180    24.3590     5.3650     5.1150     5.7040     2.3260   -36.5760 
   81.8750   108.2550    24.5630     5.2460     5.0950     5.9250     2.3530   -35.9400 
   82.0000   105.2990    24.6140     5.9300     5.6280     6.9210     2.3860   -35.4040 
   82.1250    98.8340    24.5480    10.8420     6.8850     8.8280     2.4180   -35.0960 
   82.2500    90.0180    24.4520    19.6050     8.6150    11.1280     2.4210   -34.9290 
   82.3750    78.6880    24.3700    24.5000    10.2880    12.9820     2.3800   -34.8800 
