~V
VERS. 2.00: Ver 2.00
~W
STRT.M 55.0000:
STOP.M 277.0000:
STEP.M 0.1250:
NULL. -999.2500:
UWI. DF5040:
~C
DEPT.M :
GR.API :
CALI.CM :
RXO.OHMM :
RI. :
RML.OHMM :
DEN.GM/CC :
SP.MV :
~A
# ...
  111.2500    84.2480    22.4920     6.3770     6.3460     6.9660     2.1980   -18.3840 
  111.3750    82.3970    22.5090     6.6560     6.4050     7.0320     2.2000   -18.5080 
  111.5000    79.8120    22.5400     6.9440     6.4870     7.1230     2.1920   -18.6130 
  111.6250    77.8880    22.5620     7.0650     6.5770     7.2100     2.1800   -18.7110 
  111.7500    76.3030    22.6030     7.2020     6.6580     7.2750     2.1780   -18.8180 
  111.8750    74.8800    22.7080     7.5610     6.7160     7.3110     2.1910   -18.9330 
  112.0000    74.2670    22.8950     8.1120     6.7490     7.3240     2.2090   -19.0460 
  112.1250    75.5750    23.1370     8.4710     6.7620     7.3240     2.2130   -19.1330 
  112.2500    78.9070    23.3180     8.5920     6.7700     7.3220     2.2030   -19.1830 
  112.3750    83.0400    23.4010     8.6280     6.7750     7.3200     2.1870   -19.1990 
  112.5000    85.0080    23.4150     8.6710     6.7750     7.3180     2.1750   -19.1910 
  112.6250    82.8940    23.4020     8.7420     6.7690     7.3160     2.1700   -19.1750 
  112.7500    79.8560    23.3900     8.8130     6.7580     7.3100     2.1690   -19.1560 
  112.8750    77.8930    23.3920     8.8420     6.7410     7.2890     2.1760   -19.1220 
  113.0000    76.2850    23.3990     8.7740     6.7170     7.2520     2.1850   -19.0620 
  113.1250    74.4940    23.3770     8.6040     6.6790     7.1930     2.1860   -18.9630 
  113.2500    73.9570    23.3450     8.4100     6.6350     7.1200     2.1790   -18.8400 
  113.3750    74.2680    23.3590     8.2250     6.5860     7.0460     2.1740   -18.7120 
  113.5000    73.2370    23.4040     8.0840     6.5360     6.9860     2.1820   -18.5960 
  113.6250    70.3250    23.4310     7.9810     6.4910     6.9440     2.2000   -18.5030 
  113.7500    67.9060    23.4340     7.8950     6.4560     6.9190     2.2180   -18.4260 
  113.8750    67.6050    23.3990     7.8470     6.4330     6.9150     2.2320   -18.3550 
  114.0000    69.9170    23.3170     7.9190     6.4190     6.9320     2.2340   -18.2770 
  114.1250    73.8480    23.2020     8.1730     6.4180     6.9730     2.2200   -18.1850 
  114.2500    76.4630    23.1700     8.4360     6.4300     7.0150     2.1950   -18.0770 
  114.3750    76.4680    23.2200     8.5030     6.4470     7.0390     2.1670   -17.9560 
  114.5000    75.2210    23.3190     8.4040     6.4580     7.0260     2.1460   -17.8200 
  114.6250    74.7080    23.3680     8.3430     6.4450     6.9750     2.1430   -17.6590 
  114.7500    74.4640    23.3680     8.3350     6.4160     6.9070     2.1520   -17.4640 
  114.8750    74.1560    23.3410     8.2800     6.3900     6.8450     2.1660   -17.2200 
  115.0000    74.7970    23.3040     8.0970     6.3890     6.8150     2.1790   -16.9170 
  115.1250    76.7810    23.3570     7.8180     6.4410     6.8470     2.1900   -16.5450 
  115.2500    78.1310    23.4080     7.6760     6.5310     6.9300     2.1980   -16.1220 
  115.3750    77.8520    23.4350     7.8790     6.6300     7.0280     2.2000   -15.6540 
  115.5000    77.0400    23.4110     8.3080     6.7010     7.0880     2.1940   -15.1470 
  115.6250    76.8580    23.3730     8.4970     6.6760     7.0260     2.1920   -14.5920 
  115.7500    77.7050    23.3370     8.3430     6.5360     6.8310     2.1980   -13.9990 
  115.8750    80.8280    23.3060     7.9580     6.2850     6.5240     2.2080   -13.3770 
  116.0000    86.9700    23.4000     7.3830     5.9600     6.1540     2.2160   -12.7490 
  116.1250    94.3620    23.7140     6.6560     5.6090     5.7780     2.2240   -12.1530 
  116.2500    99.8040    23.9890     6.0850     5.2910     5.4470     2.2330   -11.6170 
  116.3750   102.3070    24.1250     5.8040     5.0330     5.1840     2.2400   -11.1590 
  116.5000   102.0920    24.1470     5.6770     4.8390     4.9890     2.2430   -10.7830 
  116.6250   100.3410    24.1410     5.5020     4.7030     4.8620     2.2470   -10.4980 
  116.7500    99.9850    24.1540     5.2800     4.6100     4.7790     2.2540   -10.2810 
  116.8750   102.2340    24.2200     4.9770     4.5510     4.7260     2.2600   -10.1290 
  117.0000   105.1710    24.2830     4.6890     4.5230     4.6990     2.2640   -10.0410 
  117.1250   105.9820    24.3080     4.5940     4.5310     4.7140     2.2690   -10.0270 
  117.2500   105.5350    24.3070     4.7150     4.5670     4.7710     2.2790   -10.0740 
  117.3750   105.2660    24.2960     4.9710     4.6190     4.8560     2.2930   -10.1690 
  117.5000   105.1740    24.2840     5.2040     4.6770     4.9510     2.3040   -10.2950 
  117.6250   104.9170    24.2740     5.3240     4.7130     5.0180     2.3080   -10.4370 
  117.7500   104.5530    24.2340     5.3250     4.7110     5.0360     2.3080   -10.5800 
  117.8750   103.0890    24.1600     5.3030     4.6700     5.0100     2.3110   -10.7260 
  118.0000    99.7820    24.1320     5.3140     4.6250     4.9770     2.3190   -10.8800 
  118.1250    96.5080    24.1920     5.4480     4.6650     5.0470     2.3200   -11.0550 
  118.2500    95.4870    24.2370     5.6120     4.8740     5.3100     2.3070   -11.2460 
  118.3750    96.1890    24.2480     5.7960     5.3170     5.8290     2.2890   -11.4430 
  118.5000    97.3910    24.2440     6.1840     6.0230     6.6160     2.2930   -11.6330 
  118.6250    98.0290    24.2630     7.9210     6.9800     7.6110     2.3420   -11.8030 
  118.7500    96.9220    24.2640    12.2980     7.9930     8.5830     2.4200   -11.9610 
  118.8750    93.6580    24.2170    19.3400     8.8380     9.2950     2.4960   -12.1160 
  119.0000    89.9920    24.1030    25.9590     9.2860     9.5400     2.5340   -12.2750 
  119.1250    89.1490    23.9590    25.1670     9.1220     9.1610     2.4980   -12.4240 
  119.2500    90.6400    23.7370    18.7230     8.5180     8.4070     2.4140   -12.5380 
  119.3750    92.4130    23.5420    11.6300     7.6860     7.5280     2.3230   -12.5920 
  119.5000    93.0920    23.5070     7.7280     6.8520     6.7440     2.2540   -12.5750 
  119.6250    92.6620    23.4990     6.7610     6.1940     6.2040     2.2230   -12.4890 
  119.7500    92.5690    23.3350     6.4850     5.7440     5.8750     2.2140   -12.3720 
  119.8750    93.9150    23.0960     6.2220     5.4830     5.7060     2.2160   -12.2510 
  120.0000    96.4800    23.0410     5.9410     5.3600     5.6330     2.2180   -12.1400 
  120.1250    98.3300    23.2380     5.7720     5.3230     5.5990     2.2150   -12.0440 
  120.2500    98.4490    23.3700     5.6520     5.3170     5.5730     2.2180   -11.9590 
  120.3750    97.5290    23.4140     5.4680     5.3190     5.5560     2.2340   -11.8850 
  120.5000    96.3460    23.3750     5.3290     5.3170     5.5370     2.2530   -11.8280 
  120.6250    95.1990    23.2960     5.6090     5.2840     5.4860     2.2590   -11.8040 
  120.7500    94.3540    23.1680     6.0450     5.2090     5.3990     2.2560   -11.8120 
  120.8750    93.3750    23.2070     6.1570     5.1020     5.2980     2.2560   -11.8460 
  121.0000    91.7370    23.4750     5.8010     5.0030     5.2340     2.2640   -11.8900 
  121.1250    91.2100    23.8220     5.3730     4.9840     5.2890     2.2730   -11.9190 
  121.2500    93.9610    23.9970     5.1830     5.0770     5.4780     2.2820   -11.9240 
  121.3750    97.9810    24.0120     5.2290     5.2830     5.7740     2.2970   -11.9030 
  121.5000    98.2460    23.9300     5.6740     5.5680     6.1230     2.3280   -11.8650 
  121.6250    92.3240    23.8170     6.9590     5.8560     6.4190     2.3610   -11.8170 
  121.7500    86.3170    23.6960     8.5280     6.0510     6.5640     2.3700   -11.7580 
  121.8750    85.4140    23.6200     9.2100     6.0810     6.4990     2.3470   -11.6810 
  122.0000    90.7830    23.5900     8.4110     5.9240     6.2360     2.3130   -11.5740 
  122.1250    98.6820    23.6610     6.8020     5.6140     5.8490     2.3010   -11.4340 
  122.2500   102.8490    23.8640     5.5170     5.2670     5.4710     2.3070   -11.2820 
  122.3750   101.4590    24.0590     4.8770     4.9620     5.1790     2.3130   -11.1420 
