~V
VERS. 2.00: Ver 2.00
~W
STRT.M 58.0000:
STOP.M 250.0000:
STEP.M 0.1250:
NULL. -999.2500:
UWI. DF5046:
~C
DEPT.M :
GR.API :
CALI.CM :
RXO.OHMM :
RI. :
RML.OHMM :
DEN.GM/CC :
SP.MV :
~A
# ...
  193.0000    69.1790    23.7520    70.3260    61.2230    71.8610     2.2600   -24.4270 
  193.1250    66.4980    23.7380    70.4200    60.3940    71.5230     2.2600   -23.9800 
  193.2500    62.8290    23.8200    69.0940    59.1100    70.6320     2.2550   -23.5550 
  193.3750    61.1940    23.9540    66.1080    57.0730    68.7060     2.2510   -23.1610 
  193.5000    63.5820    24.0840    61.8150    54.1580    65.5330     2.2540   -22.8040 
  193.6250    69.6300    24.1440    56.8480    50.5040    61.3400     2.2620   -22.4900 
  193.7500    74.1370    24.1220    51.3370    46.8040    57.1370     2.2680   -22.2190 
  193.8750    73.8540    24.0710    45.3580    43.6920    53.7810     2.2640   -22.0160 
  194.0000    70.2490    24.0910    40.1690    41.7090    51.9270     2.2530   -21.8950 
  194.1250    66.8120    24.2000    38.5620    41.3700    52.1460     2.2510   -21.8620 
  194.2500    63.5260    24.3030    41.7220    42.2430    53.8150     2.2620   -21.9110 
  194.3750    60.7590    24.3630    50.1500    43.7170    56.0770     2.2720   -22.0280 
  194.5000    60.8020    24.3860    60.6390    44.9210    57.7230     2.2680   -22.1390 
  194.6250    63.3040    24.3620    63.8850    44.9130    57.4940     2.2530   -22.2110 
  194.7500    64.0920    24.2770    57.5180    43.8480    55.8340     2.2580   -22.1790 
  194.8750    62.5140    24.1400    47.5220    42.1460    53.4480     2.3010   -21.9780 
  195.0000    61.2980    24.0340    41.7440    40.0090    50.5710     2.3770   -21.6030 
  195.1250    63.4500    24.0710    44.2050    36.9330    46.3690     2.4530   -21.0080 
  195.2500    67.3430    24.1820    47.4040    32.5250    40.3130     2.5060   -20.2760 
  195.3750    71.3130    24.2650    42.8380    26.9620    32.8000     2.5360   -19.4200 
  195.5000    75.3560    24.2920    30.2080    21.1650    25.2010     2.5500   -18.5160 
  195.6250    80.8550    24.2910    18.4270    16.3920    19.1660     2.5470   -17.6310 
  195.7500    85.5340    24.2920    12.1510    12.9230    14.9130     2.5220   -16.8140 
  195.8750    86.8280    24.3110     9.6510    10.6180    12.2000     2.4810   -16.1340 
  196.0000    85.7810    24.3280     8.6920     9.1940    10.6160     2.4390   -15.6430 
  196.1250    85.6590    24.2860     8.1700     8.4430     9.8390     2.4120   -15.4260 
  196.2500    88.3230    24.1630     7.8200     8.0450     9.4530     2.4020   -15.4600 
  196.3750    93.0040    23.9970     7.5120     7.8890     9.3330     2.4120   -15.7270 
  196.5000    96.9330    23.8820     7.1230     7.9160     9.4350     2.4370   -16.1800 
  196.6250    95.2190    23.9490     6.9960     8.1310     9.7860     2.4650   -16.7380 
  196.7500    89.8180    24.1690     7.4960     8.4820    10.3210     2.4750   -17.3480 
  196.8750    86.1670    24.4150     8.4530     8.9160    10.9580     2.4610   -17.9580 
  197.0000    85.9430    24.5160     9.3360     9.3320    11.5470     2.4280   -18.4670 
  197.1250    85.9120    24.3240     9.7200     9.5530    11.8290     2.3970   -18.7630 
  197.2500    83.0750    23.9590     9.7460     9.4920    11.6990     2.3850   -18.7720 
  197.3750    79.0030    23.6110     9.5260     9.1750    11.2280     2.3850   -18.4980 
  197.5000    76.2890    23.3980     9.1430     8.7770    10.7060     2.3820   -17.9490 
  197.6250    75.6010    23.3180     8.7490     8.6160    10.6780     2.3720   -17.1500 
  197.7500    73.7010    23.2910     8.8960     8.9620    11.5850     2.3770   -16.1700 
  197.8750    69.4200    23.3720    10.8440    10.1460    13.9110     2.4140   -15.0220 
  198.0000    65.7150    23.6330    16.5050    12.5890    18.1570     2.4770   -13.7700 
  198.1250    63.8420    23.9920    27.5600    16.7670    24.7900     2.5530   -12.4740 
  198.2500    62.2160    24.2190    40.2660    21.4370    31.5960     2.6220   -11.2480 
  198.3750    61.6180    24.2640    50.0430    23.8730    33.9850     2.6690   -10.1500 
  198.5000    62.6830    24.2270    49.0430    21.6830    28.8310     2.6820    -9.2070 
  198.6250    63.7720    24.1880    33.7570    16.1370    19.8730     2.6590    -8.4810 
  198.7500    62.2640    24.1010    16.7310    11.0970    12.7700     2.6210    -7.9290 
  198.8750    59.7350    23.9360     7.2060     7.6530     8.3510     2.5730    -7.5510 
  199.0000    57.7960    23.7270     4.0750     5.6420     5.9780     2.5230    -7.3350 
  199.1250    58.8580    23.5520     3.8630     4.7120     5.0580     2.4930    -7.2740 
  199.2500    63.8330    23.4210     4.0900     4.3470     4.8440     2.4870    -7.2950 
  199.3750    70.8310    23.3090     4.2210     4.3500     5.0220     2.4830    -7.3620 
  199.5000    76.3580    23.2250     4.2740     4.5590     5.3510     2.4620    -7.4440 
  199.6250    78.0890    23.1960     4.3180     4.8370     5.6520     2.4330    -7.5210 
  199.7500    77.7190    23.2000     4.4380     5.0820     5.8660     2.4180    -7.5940 
  199.8750    77.8970    23.2080     4.6640     5.2660     5.9960     2.4160    -7.6620 
  200.0000    78.2040    23.2020     4.9310     5.3800     6.0480     2.4190    -7.7370 
  200.1250    78.3350    23.1880     5.1110     5.4040     6.0090     2.4180    -7.8380 
  200.2500    78.4220    23.1700     5.1830     5.3470     5.9000     2.4190    -7.9840 
  200.3750    78.9680    23.1670     5.1820     5.2180     5.7530     2.4220    -8.1540 
  200.5000    80.0280    23.2120     5.1200     5.0500     5.6200     2.4250    -8.3530 
  200.6250    79.8870    23.4260     5.0510     4.9040     5.5800     2.4210    -8.5740 
  200.7500    78.2150    23.7960     5.1450     4.8350     5.6760     2.4090    -8.7960 
  200.8750    76.0430    24.0790     5.4710     4.8850     5.9450     2.3920    -9.0170 
  201.0000    74.6880    24.0350     5.8490     5.0830     6.4180     2.3770    -9.2320 
  201.1250    75.2170    23.6990     6.0450     5.4860     7.1710     2.3710    -9.4090 
  201.2500    75.6250    23.4650     6.2260     6.0780     8.1870     2.3730    -9.5550 
  201.3750    75.1170    23.4550     6.7500     6.8600     9.4740     2.3730    -9.6880 
  201.5000    72.8050    23.5290     8.0680     7.8360    11.0420     2.3620    -9.8170 
  201.6250    70.8780    23.5210    10.5390     9.0310    12.9110     2.3410    -9.9550 
  201.7500    70.5040    23.4680    13.0510    10.3530    14.9010     2.3200   -10.1010 
  201.8750    71.2060    23.4810    14.7380    11.6690    16.7740     2.3050   -10.2700 
  202.0000    72.4710    23.6420    16.2330    12.8170    18.2760     2.3020   -10.4640 
  202.1250    72.9060    23.9150    18.4750    13.6720    19.2830     2.3090   -10.7120 
  202.2500    70.4660    24.1540    19.5880    14.4260    20.2230     2.3140   -10.9730 
  202.3750    67.1390    24.2750    18.4790    15.4120    21.7020     2.3170   -11.2430 
  202.5000    65.1950    24.2910    17.2500    17.0130    24.3130     2.3180   -11.5560 
  202.6250    63.4630    24.2770    20.6260    19.6320    28.5880     2.3120   -11.9190 
  202.7500    60.7440    24.2600    29.9310    22.8770    33.6990     2.2940   -12.3520 
  202.8750    59.8790    24.2390    41.6210    25.8280    37.9050     2.2700   -12.8490 
  203.0000    63.9470    24.2400    46.9110    27.2460    39.0730     2.2520   -13.3980 
  203.1250    69.7190    24.2640    40.0710    26.4440    36.6630     2.2510   -13.9770 
  203.2500    71.7080    24.2470    29.7610    24.9920    33.9050     2.2610   -14.5660 
  203.3750    70.5450    24.1360    23.2320    24.4230    33.1280     2.2740   -15.1640 
  203.5000    68.6960    23.9220    23.8090    25.9040    35.5960     2.2810   -15.7280 
  203.6250    69.2540    23.6480    34.5070    30.6640    42.6920     2.2740   -16.2470 
  203.7500    70.7120    23.4000    49.7330    38.2310    53.8010     2.2640   -16.7160 
  203.8750    72.3090    23.2010    60.6660    47.2920    67.1170     2.2570   -17.1310 
  204.0000    73.1390    23.1060    62.8330    55.1450    78.1150     2.2530   -17.5090 
  204.1250    72.5350    23.2520    58.6100    58.5760    81.2870     2.2430   -17.8690 
