~V
VERS. 2.00: Ver 2.00
~W
STRT.M 60.0000:
STOP.M 268.0000:
STEP.M 0.1250:
NULL. -999.2500:
UWI. DF5039:
~C
DEPT.M :
DEN.GM/CC :
GR.API :
CALI.CM :
RXO.OHMM :
RI. :
RML.OHMM :
SP.MV :
~A
   60.0000     2.0410    45.9590    25.5850     0.9830     0.0850    -0.4180     6.8150 
   60.1250     2.0900    42.6960    25.5540     0.9830     0.0820    -0.4160     3.0740 
   60.2500     2.1300    42.1900    25.4250     1.2080     0.0990    -0.4020    -1.0690 
   60.3750     2.1470    45.6490    25.0600     2.4880     0.1660    -0.3510    -5.4990 
   60.5000     2.1450    51.9640    24.4640     4.6310     0.3320    -0.2020    -9.9930 
   60.6250     2.1350    57.8050    23.9130     6.4140     0.7180     0.2220   -14.3650 
   60.7500     2.1300    61.4140    23.6300     6.9840     1.3660     0.9890   -18.3780 
   60.8750     2.1360    63.1190    23.5550     7.2360     2.2270     1.9650   -21.9020 
   61.0000     2.1440    63.9640    23.5150     7.4220     3.1180     2.8070   -24.9460 
   61.1250     2.1460    65.3400    23.4390     7.3160     3.8100     3.2620   -27.4500 
   61.2500     2.1400    66.8080    23.3640     6.9270     4.2900     3.5140   -29.2510 
   61.3750     2.1330    67.4620    23.2470     6.5950     4.5980     3.6990   -30.5150 
   61.5000     2.1300    69.7980    23.0150     6.5080     4.7820     3.8650   -31.4040 
   61.6250     2.1310    76.3650    22.7080     6.5490     4.8760     4.0120   -32.0740 
   61.7500     2.1320    82.2920    22.5370     6.6380     4.9410     4.1410   -32.5910 
   61.8750     2.1290    83.8740    22.6990     6.7310     5.0040     4.2510   -33.0380 
   62.0000     2.1230    82.8710    23.1790     6.7510     5.0650     4.3430   -33.4840 
   62.1250     2.1170    84.9710    23.6750     6.7140     5.1080     4.4170   -33.8730 
   62.2500     2.1160    88.1470    23.9180     6.7070     5.1260     4.4810   -34.2480 
   62.3750     2.1190    89.2520    23.9460     6.7000     5.1250     4.5430   -34.5410 
   62.5000     2.1260    89.7380    23.9310     6.6740     5.1230     4.6130   -34.8160 
   62.6250     2.1320    91.7690    23.9340     6.6560     5.1350     4.7000   -35.1360 
   62.7500     2.1380    94.0490    23.9320     6.6650     5.1630     4.7990   -35.4030 
   62.8750     2.1420    94.3810    23.9250     6.7120     5.2030     4.9060   -35.6730 
   63.0000     2.1440    93.0750    23.9200     6.7700     5.2460     5.0080   -35.9560 
   63.1250     2.1440    91.3080    23.9140     6.7650     5.2760     5.0840   -36.2220 
   63.2500     2.1420    88.4230    23.9030     6.7200     5.2870     5.1250   -36.5190 
   63.3750     2.1360    85.2310    23.8950     6.7060     5.2800     5.1360   -36.8070 
   63.5000     2.1250    82.9450    23.9040     6.8440     5.2590     5.1310   -37.0680 
   63.6250     2.1120    83.5240    23.9260     6.7910     5.2310     5.1350   -37.3020 
   63.7500     2.1000    85.2120    23.9470     6.6930     5.2050     5.1580   -37.4570 
   63.8750     2.0930    83.8820    23.8970     6.7900     5.1800     5.1890   -37.5550 
   64.0000     2.0900    77.8470    23.6610     7.0900     5.1560     5.2130   -37.5470 
   64.1250     2.0900    68.8320    23.2580     7.1870     5.1410     5.2200   -37.4850 
   64.2500     2.0930    62.1420    22.9460     7.1460     5.1360     5.2150   -37.2400 
   64.3750     2.0990    59.3600    22.9110     7.0250     5.1310     5.1940   -36.9260 
   64.5000     2.1080    60.3230    23.1160     6.9680     5.1100     5.1540   -36.4980 
   64.6250     2.1250    63.4230    23.2150     7.0450     5.0530     5.0930   -35.9170 
   64.7500     2.1480    65.3640    22.9620     7.0650     4.9780     5.0440   -35.2840 
   64.8750     2.1680    67.8970    22.4870     6.6660     4.9340     5.0590   -34.6240 
   65.0000     2.1760    74.2930    22.1840     6.0260     4.9730     5.1850   -33.9720 
   65.1250     2.1720    83.6480    22.3100     5.9040     5.1340     5.4350   -33.3670 
   65.2500     2.1690    89.3850    22.5750     6.9640     5.3550     5.7160   -32.8670 
   65.3750     2.1780    89.0140    22.7820    10.1150     5.5530     5.9210   -32.4150 
   65.5000     2.1950    86.4310    22.9790    12.5220     5.6410     5.9560   -32.0370 
   65.6250     2.2060    88.5560    23.3740    10.7680     5.5590     5.7910   -31.7930 
   65.7500     2.2030    96.2380    23.9260     7.0230     5.3930     5.5720   -31.6740 
   65.8750     2.1870   103.7080    24.4260     5.6670     5.2420     5.4190   -31.6680 
   66.0000     2.1660   106.2940    24.7110     5.5650     5.1760     5.4010   -31.7260 
   66.1250     2.1520   102.0010    24.7380     5.7300     5.2370     5.5240   -31.8180 
   66.2500     2.1490    95.8430    24.6440     6.0210     5.3650     5.6920   -31.9730 
   66.3750     2.1550    91.7450    24.5130     6.2400     5.4900     5.8230   -32.1710 
   66.5000     2.1690    91.2060    24.4230     6.1520     5.5490     5.8630   -32.4380 
   66.6250     2.1860    94.4390    24.4220     5.9310     5.5150     5.8120   -32.7510 
   66.7500     2.1990    98.3440    24.4540     5.8600     5.4440     5.7500   -33.0740 
   66.8750     2.2040   100.8110    24.4850     5.8110     5.3890     5.7430   -33.4190 
   67.0000     2.2010    99.2190    24.5050     5.7230     5.4000     5.8320   -33.7730 
   67.1250     2.1930    94.4330    24.4660     5.8260     5.5080     6.0300   -34.1840 
   67.2500     2.1870    91.0130    24.3350     6.0660     5.6670     6.2600   -34.5700 
   67.3750     2.1840    87.3340    24.1660     6.5250     5.8210     6.4500   -34.9650 
   67.5000     2.1830    80.6190    24.0560     6.8750     5.9270     6.5680   -35.3280 
   67.6250     2.1870    74.5780    24.0310     7.0490     6.0180     6.7070   -35.6480 
   67.7500     2.2000    74.5070    24.0170     7.0230     6.2210     7.0410   -35.9050 
   67.8750     2.2250    77.4760    23.9960     7.1420     6.6540     7.6940   -36.0940 
   68.0000     2.2600    78.3490    23.9850     7.8320     7.3710     8.6680   -36.2460 
   68.1250     2.2800    76.2160    24.0080    10.9190     8.3100     9.7460   -36.3380 
   68.2500     2.2670    74.0680    24.0430    14.8030     9.1350    10.4920   -36.4000 
   68.3750     2.2250    73.8130    24.0590    15.4870     9.4950    10.5680   -36.4840 
   68.5000     2.1720    75.2010    24.0270    11.9630     9.2170     9.9270   -36.5820 
   68.6250     2.1300    75.4490    23.9570     8.5620     8.4410     8.8650   -36.6730 
   68.7500     2.1020    73.4760    23.9030     7.1510     7.6270     7.9030   -36.7890 
   68.8750     2.0860    71.5840    23.8740     6.8150     7.0130     7.2790   -36.9050 
   69.0000     2.0790    71.5580    23.8480     6.6670     6.6880     7.0320   -37.0160 
   69.1250     2.0800    72.4600    23.8010     6.5940     6.6400     7.0760   -37.1190 
   69.2500     2.0870    73.3420    23.7290     6.6320     6.6930     7.1870   -37.2080 
   69.3750     2.1020    73.4330    23.6670     6.7000     6.7280     7.2400   -37.2410 
   69.5000     2.1230    72.3720    23.6700     6.7230     6.6780     7.1770   -37.2270 
   69.6250     2.1510    72.1130    23.7700     6.6840     6.5170     6.9880   -37.1800 
   69.7500     2.1800    75.9230    23.9310     6.4630     6.2760     6.7100   -37.1370 
   69.8750     2.2060    83.1020    24.1170     6.2220     5.9650     6.3550   -37.1400 
   70.0000     2.2300    89.7440    24.2870     6.2660     5.6110     5.9730   -37.1380 
   70.1250     2.2570    92.6470    24.3930     6.3110     5.3310     5.7590   -37.1370 
   70.2500     2.2900    93.5930    24.4520     5.9890     5.2950     5.9600   -37.1730 
   70.3750     2.3330    93.4830    24.4990     5.7120     5.6910     6.8400   -37.2920 
   70.5000     2.3820    92.2050    24.5370     6.2380     6.7070     8.5970   -37.4980 
   70.6250     2.4230    89.7410    24.5510    10.3960     8.5990    11.3260   -37.7830 
   70.7500     2.4330    85.9490    24.5410    19.0810    11.0350    14.2770   -38.1070 
   70.8750     2.4050    80.2210    24.4940    24.9180    13.2080    16.3090   -38.4510 
   71.0000     2.3500    73.7660    24.3670    21.6830    13.9800    16.3220   -38.8100 
   71.1250     2.2900    70.1410    24.1220    14.4700    12.7970    14.1900   -39.2230 
