~V
VERS. 2.00: Ver 2.00
~W
STRT.M 50.0000:
STOP.M 245.0000:
STEP.M 0.1250:
NULL. -999.2500:
UWI. DF5062:
~C
DEPT.M :
DEN.GM/CC :
GR.API :
RML.OHMM :
RI. :
RXO.OHMM :
CALI.CM :
SP.MV :
~A
# ...
  218.7500     2.6330    57.8870    27.6110    28.3960    53.6620    24.7200   -22.0700 
  218.8750     2.6310    62.2270    18.6330    19.5370    29.4170    24.6440   -21.8760 
  219.0000     2.5840    71.9880    13.2540    14.0480    13.9380    24.7840   -21.7470 
  219.1250     2.5220    80.8330    10.8150    11.4390    11.6140    24.9540   -21.6810 
  219.2500     2.4730    86.5560     9.8290    10.3110    10.3120    25.1000   -21.7770 
  219.3750     2.4490    91.7810     9.6500    10.0590     9.9860    25.1320   -21.9270 
  219.5000     2.4470    98.2770     9.8370    10.2660     9.7430    25.0900   -22.0820 
  219.6250     2.4590   103.2470    10.0710    10.5980     9.5800    25.0260   -22.2790 
  219.7500     2.4710   104.0940    10.1740    10.8050     9.3720    24.9290   -22.5160 
  219.8750     2.4760   102.7810    10.1250    10.8180     9.1740    24.8250   -22.7870 
  220.0000     2.4720   102.9170     9.9850    10.6760     9.1020    24.7680   -23.1110 
  220.1250     2.4620   104.1500     9.8940    10.4950     9.0390    24.7870   -23.4530 
  220.2500     2.4520   105.2690    10.0130    10.4310     9.1720    24.8160   -23.6940 
  220.3750     2.4450   106.5360    10.5040    10.6290     9.5380    24.8260   -24.0580 
  220.5000     2.4400   105.9740    11.5250    11.2310    10.2190    24.8270   -24.4110 
  220.6250     2.4330   101.4790    13.3090    12.4630    11.6570    24.8510   -24.8640 
  220.7500     2.4210    95.2750    15.7380    14.2730    14.1230    24.9010   -25.3360 
  220.8750     2.4050    90.6860    18.6320    16.5580    17.4900    24.9460   -25.6900 
  221.0000     2.3890    87.2130    21.6560    19.0670    20.9460    24.9690   -26.1410 
  221.1250     2.3760    83.6020    24.2970    21.3670    24.4680    24.9080   -26.5110 
  221.2500     2.3690    80.9840    26.2680    23.1280    26.5180    24.8050   -26.9100 
  221.3750     2.3660    79.6400    27.5270    24.2330    27.2890    24.7480   -27.2900 
  221.5000     2.3680    78.5300    28.2690    24.7970    27.2470    24.7260   -27.5760 
  221.6250     2.3730    77.7640    28.8300    25.0930    27.6610    24.7210   -27.8470 
  221.7500     2.3800    78.9370    29.5430    25.4620    27.4390    24.7180   -28.0390 
  221.8750     2.3860    79.9460    30.5350    26.0600    27.0740    24.7150   -28.2070 
  222.0000     2.3870    78.2700    31.8010    26.9200    27.5080    24.7300   -28.3780 
  222.1250     2.3830    74.6040    33.2300    27.9910    29.2410    24.7850   -28.5400 
  222.2500     2.3750    72.5310    34.6190    29.1110    30.0170    24.8710   -28.6320 
  222.3750     2.3640    72.7570    35.8580    30.1900    30.3250    24.9350   -28.6960 
  222.5000     2.3520    72.8530    36.9240    31.1770    31.5880    24.9830   -28.7780 
  222.6250     2.3430    70.7670    37.8690    32.0630    32.9240    24.9450   -28.8560 
  222.7500     2.3370    68.0500    38.8100    32.9050    33.3570    24.8430   -28.8820 
  222.8750     2.3350    66.7810    39.7980    33.7370    33.4930    24.7580   -28.8760 
  223.0000     2.3330    66.7120    40.8160    34.5660    34.2030    24.7470   -28.8090 
  223.1250     2.3300    66.6900    41.7620    35.3460    35.2910    24.7840   -28.7180 
  223.2500     2.3260    67.5190    42.5300    36.0150    36.3780    24.8100   -28.6990 
  223.3750     2.3240    69.3420    43.0440    36.5170    37.3050    24.8320   -28.5380 
  223.5000     2.3260    73.2750    43.3270    36.8390    37.9210    24.8740   -28.3870 
  223.6250     2.3340    76.9890    43.5840    37.0860    38.3560    24.8860   -28.1590 
  223.7500     2.3460    76.7920    44.1810    37.5180    38.3130    24.8710   -27.8810 
  223.8750     2.3580    73.3310    45.4530    38.4080    38.3890    24.8630   -27.6790 
  224.0000     2.3680    70.7410    47.6130    39.9850    39.3160    24.8510   -27.3680 
  224.1250     2.3730    70.7770    50.7760    42.4490    42.0000    24.8280   -27.0980 
  224.2500     2.3750    67.6970    54.4690    45.4950    46.7810    24.7940   -26.7460 
  224.3750     2.3760    63.0800    58.2170    48.7650    53.2150    24.7880   -26.3630 
  224.5000     2.3800    62.3470    61.4920    51.8060    59.2670    24.8030   -25.9830 
  224.6250     2.3840    65.2440    63.6280    54.0060    62.2220    24.8150   -25.5250 
  224.7500     2.3870    67.0590    64.4650    55.1250    62.6860    24.8150   -25.1460 
  224.8750     2.3900    66.3230    63.8410    54.9720    62.5520    24.7950   -24.6670 
  225.0000     2.3960    65.7350    61.6470    53.4350    62.3580    24.7710   -24.1390 
  225.1250     2.4060    65.8810    57.6200    50.2860    60.8910    24.7610   -23.6020 
  225.2500     2.4190    67.6280    52.2910    45.9840    57.8850    24.7560   -23.0470 
  225.3750     2.4280    70.4220    46.2180    40.9700    49.8440    24.8040   -22.4840 
  225.5000     2.4300    70.5350    40.1450    35.8450    41.5980    24.9050   -21.9480 
  225.6250     2.4220    67.2200    35.0100    31.3790    33.8410    24.9800   -21.4170 
  225.7500     2.4100    65.0300    31.2240    27.9730    28.8140    24.9960   -20.8370 
  225.8750     2.4000    66.5800    29.0130    25.8620    25.7440    24.9250   -20.3460 
  226.0000     2.3970    68.5670    28.4270    25.1290    24.0160    24.7990   -19.8760 
  226.1250     2.4040    66.4980    29.5290    25.8870    23.2570    24.6410   -19.3970 
  226.2500     2.4160    62.9240    31.5840    27.5560    24.2570    24.4380   -18.8960 
  226.3750     2.4310    61.1950    33.8460    29.5520    26.9710    24.2080   -18.5070 
  226.5000     2.4430    60.9310    35.4150    31.1290    30.2250    23.9560   -18.0970 
  226.6250     2.4510    60.8650    35.2200    31.3470    31.3050    23.7460   -17.7510 
  226.7500     2.4560    62.9010    33.3640    30.1430    28.8620    23.6300   -17.5050 
  226.8750     2.4580    66.0140    30.4170    27.8800    24.6100    23.5960   -17.1750 
  227.0000     2.4540    68.0060    27.2530    25.2350    20.9840    23.6680   -16.9920 
  227.1250     2.4380    68.4580    24.7380    22.9450    19.0260    23.8020   -16.8000 
  227.2500     2.4100    67.6630    23.0490    21.2760    17.3510    23.9830   -16.6690 
  227.3750     2.3770    65.4790    22.0670    20.2060    16.3960    24.1270   -16.5880 
  227.5000     2.3490    63.0930    21.5370    19.5720    16.1800    24.1830   -16.4670 
  227.6250     2.3350    62.9630    21.1790    19.1810    16.0220    24.1000   -16.4290 
  227.7500     2.3340    64.9430    20.7600    18.8140    15.4910    24.0250   -16.3210 
  227.8750     2.3410    67.7380    20.2150    18.3930    14.9240    24.0610   -16.2080 
  228.0000     2.3490    70.3940    19.5810    17.9200    14.6300    24.1790   -16.1280 
  228.1250     2.3520    70.4670    18.9750    17.4590    14.4960    24.3130   -16.0580 
  228.2500     2.3520    68.4010    18.4980    17.0880    14.3990    24.4710   -16.0340 
  228.3750     2.3510    67.5750    18.2040    16.8580    14.5830    24.6390   -15.9940 
  228.5000     2.3500    69.6610    18.1250    16.8070    15.0020    24.7270   -15.9360 
  228.6250     2.3510    74.0150    18.3430    17.0010    15.4700    24.6880   -15.8690 
  228.7500     2.3500    74.8850    18.8300    17.4200    15.5950    24.6470   -15.8630 
  228.8750     2.3470    71.5790    19.5390    18.0320    15.5280    24.6560   -15.8810 
  229.0000     2.3430    70.3000    20.3460    18.7470    15.9450    24.6400   -15.8570 
  229.1250     2.3410    73.8460    21.0030    19.3760    17.0950    24.4940   -15.7730 
  229.2500     2.3390    77.3830    21.2960    19.7240    18.5050    24.3380   -15.6680 
  229.3750     2.3370    76.3790    21.1080    19.6560    19.2960    24.3780   -15.5530 
  229.5000     2.3300    70.2730    20.4580    19.1390    19.4390    24.6260   -15.4570 
  229.6250     2.3210    62.0240    19.4850    18.2300    18.7380    24.8370   -15.3240 
  229.7500     2.3160    56.8460    18.5080    17.2130    17.7340    24.9630   -15.1000 
  229.8750     2.3180    57.7680    17.7610    16.3160    16.6240    25.0330   -14.9960 
