~V
VERS. 2.00: Ver 2.00
~W
STRT.M 55.0000:
STOP.M 271.0000:
STEP.M 0.1250:
NULL. -999.2500:
UWI. DF5032:
~C
DEPT.M :
SP.MV :
GR.API :
CALI.CM :
RXO.OHMM :
RI. :
RML.OHMM :
DEN.GM/CC :
~A
# ...
  190.0000   -38.3690    67.8980    24.6040   228.6020   226.7440   235.8400     2.2110 
  190.1250   -38.3550    71.4690    24.5960   217.6890   221.1460   230.0300     2.2080 
  190.2500   -38.3140    71.5150    24.5790   204.6220   214.8210   223.4640     2.2120 
  190.3750   -38.2700    67.7960    24.5700   192.3910   207.6350   216.0050     2.2080 
  190.5000   -38.2450    63.5950    24.5790   185.9410   199.2130   207.2630     2.1920 
  190.6250   -38.2440    63.3510    24.5790   189.0590   188.6720   196.3220     2.1760 
  190.7500   -38.2460    66.4340    24.5930   196.5910   176.0320   183.2010     2.1770 
  190.8750   -38.2430    70.1400    24.5850   196.1390   161.6740   168.2970     2.1940 
  191.0000   -38.2510    72.0800    24.5650   175.7930   146.6690   152.7230     2.2140 
  191.1250   -38.2990    71.2670    24.5500   141.5260   133.0730   138.6100     2.2290 
  191.2500   -38.3880    69.3510    24.5160   118.2380   122.5840   127.7230     2.2420 
  191.3750   -38.4980    67.6410    24.4700   111.5460   116.3960   121.2990     2.2520 
  191.5000   -38.6020    66.5470    24.4170   111.8350   115.3510   120.2140     2.2560 
  191.6250   -38.6900    65.5260    24.4570   107.7760   121.5080   126.6050     2.2550 
  191.7500   -38.7790    63.9060    24.4950   102.4690   134.8580   140.4630     2.2510 
  191.8750   -38.8820    61.5630    24.5260   109.8560   155.6340   162.0280     2.2340 
  192.0000   -38.9930    59.4500    24.5450   142.7690   183.0100   190.4450     2.2050 
  192.1250   -39.0820    59.2760    24.5450   206.5900   215.0660   223.7190     2.1850 
  192.2500   -39.1300    60.3650    24.5520   271.4790   246.6010   256.4510     2.1830 
  192.3750   -39.1470    61.2290    24.5550   314.0010   272.2390   283.0640     2.1870 
  192.5000   -39.1540    61.0340    24.5660   325.8720   286.7780   298.1560     2.1760 
  192.6250   -39.1650    60.6450    24.6260   309.6690   285.5380   296.8680     2.1540 
  192.7500   -39.1650    61.9090    24.7230   277.5610   273.4030   284.2730     2.1370 
  192.8750   -39.1350    64.6070    24.7870   244.5130   255.3970   265.5820     2.1310 
  193.0000   -39.0730    66.3300    24.7290   226.4660   236.1910   245.6470     2.1380 
  193.1250   -39.0000    65.1350    24.5100   218.3390   219.0350   227.8380     2.1590 
  193.2500   -38.9390    63.5400    24.2050   203.3140   204.2260   212.4670     2.1870 
  193.3750   -38.8890    63.2010    23.9500   184.5220   191.2430   198.9900     2.2120 
  193.5000   -38.8270    63.8240    23.8180   173.6860   179.3030   186.5960     2.2300 
  193.6250   -38.7340    65.4300    23.7740   170.8040   167.7010   174.5540     2.2440 
  193.7500   -38.6270    68.2910    23.7780   163.9010   156.0770   162.4880     2.2520 
  193.8750   -38.5300    71.5290    23.7830   150.7480   144.7280   150.7070     2.2540 
  194.0000   -38.4540    73.1500    23.8070   135.9950   134.2150   139.7950     2.2480 
  194.1250   -38.3860    72.0230    23.8820   121.5150   125.2330   130.4720     2.2420 
  194.2500   -38.3020    70.2290    23.9870   108.9750   117.9180   122.8790     2.2410 
  194.3750   -38.1990    69.2080    24.0730    99.7720   112.4500   117.2030     2.2400 
  194.5000   -38.0980    68.5600    24.1110    95.2790   108.8000   113.4140     2.2310 
  194.6250   -38.0270    66.7710    24.1270    94.2580   106.9150   111.4570     2.2160 
  194.7500   -37.9820    64.5120    24.1360    92.2880   106.3080   110.8280     2.2070 
  194.8750   -37.9450    63.9360    24.1930    88.7300   106.9500   111.4940     2.2150 
  195.0000   -37.9030    66.1800    24.2910    84.8560   108.9380   113.5570     2.2380 
  195.1250   -37.8660    69.2690    24.3490    85.4190   112.7990   117.5650     2.2650 
  195.2500   -37.8530    69.6060    24.4070    93.1960   118.6750   123.6650     2.2770 
  195.3750   -37.8690    66.7980    24.5080   107.7950   126.8700   132.1710     2.2670 
  195.5000   -37.8960    63.5300    24.6810   125.7850   137.3770   143.0780     2.2380 
  195.6250   -37.9020    62.5280    24.9060   144.2480   149.6650   155.8320     2.2080 
  195.7500   -37.8830    62.4570    25.0710   165.2600   161.8460   168.4760     2.1950 
  195.8750   -37.8510    61.8010    25.1700   191.8250   172.2160   179.2400     2.1970 
  196.0000   -37.8170    60.6200    25.1640   222.6960   179.3810   186.6770     2.2060 
  196.1250   -37.7710    60.0900    25.0980   244.2760   181.9140   189.3070     2.2120 
  196.2500   -37.6920    60.8440    25.0140   242.8960   180.8940   188.2480     2.2170 
  196.3750   -37.5710    62.2470    24.9450   216.5860   177.6400   184.8700     2.2250 
  196.5000   -37.4250    63.1740    24.9000   178.3200   173.7570   180.8400     2.2320 
  196.6250   -37.2850    63.6440    24.8160   157.2540   170.4620   177.4190     2.2270 
  196.7500   -37.1610    65.3740    24.7600   160.5780   167.4020   174.2430     2.2090 
  196.8750   -37.0410    68.6530    24.7240   173.5980   162.6370   169.2980     2.1890 
  197.0000   -36.9070    71.1750    24.7140   177.1890   153.4420   159.7530     2.1790 
  197.1250   -36.7540    70.0640    24.7110   169.4210   137.1030   142.7930     2.1800 
  197.2500   -36.6090    67.4980    24.7120   159.4080   116.1380   121.0310     2.1820 
  197.3750   -36.4880    67.0820    24.7140   147.5230    93.8230    97.8680     2.1850 
  197.5000   -36.3920    70.4590    24.7480   127.7510    73.4890    76.7620     2.1990 
  197.6250   -36.2960    75.9690    24.8160    95.4060    58.2780    60.9720     2.2330 
  197.7500   -36.1810    80.3920    24.8600    60.6220    48.1460    50.4550     2.2730 
  197.8750   -36.0500    82.5570    24.7100    35.8840    42.6800    44.7820     2.3020 
  198.0000   -35.9270    82.2210    24.4090    27.3330    41.0400    43.0790     2.3110 
  198.1250   -35.8270    79.6380    24.2320    32.6690    42.4470    44.5400     2.3020 
  198.2500   -35.7390    76.5160    24.2110    41.1790    45.2450    47.4440     2.2930 
  198.3750   -35.6420    73.8440    24.2860    47.1970    48.5530    50.8780     2.2910 
  198.5000   -35.5270    71.4160    24.3500    48.1940    51.7880    54.2360     2.2990 
  198.6250   -35.4030    69.0320    24.3670    45.2170    54.7240    57.2830     2.3180 
  198.7500   -35.2850    67.3950    24.3120    41.6370    57.7970    60.4730     2.3350 
  198.8750   -35.1710    67.3410    24.2140    39.9320    61.6610    64.4840     2.3410 
  199.0000   -35.0520    68.6210    24.1010    41.6840    66.8110    69.8290     2.3330 
  199.1250   -34.9130    70.0380    23.9650    48.2410    73.4530    76.7240     2.3160 
  199.2500   -34.7630    70.4400    23.8230    59.3260    80.6590    84.2040     2.2970 
  199.3750   -34.6050    69.8010    23.7020    74.5230    87.3500    91.1500     2.2800 
  199.5000   -34.4360    69.1870    23.6750    91.1360    92.4940    96.4880     2.2670 
  199.6250   -34.2440    69.5180    23.7700    98.3220    95.3650    99.4690     2.2580 
  199.7500   -34.0340    70.3920    23.8880    94.0170    96.9720   101.1370     2.2530 
  199.8750   -33.8180    71.7300    23.9980    85.4950    98.6330   102.8620     2.2500 
  200.0000   -33.6040    73.7580    24.0670    83.2240   102.0290   106.3860     2.2450 
  200.1250   -33.3800    75.3900    24.1260    91.6640   109.5870   114.2310     2.2340 
  200.2500   -33.1250    74.6190    24.2520   106.6960   122.0700   127.1890     2.2200 
  200.3750   -32.8320    71.7140    24.3980   128.7520   140.1650   145.9710     2.2080 
  200.5000   -32.5070    68.7970    24.5240   156.2160   163.7420   170.4440     2.1950 
  200.6250   -32.1610    67.0080    24.6000   185.9360   190.6220   198.3450     2.1770 
  200.7500   -31.7920    64.9170    24.6200   217.6700   213.8850   222.4930     2.1620 
  200.8750   -31.3780    61.8550    24.6100   255.1450   225.8490   234.9110     2.1580 
  201.0000   -30.8970    58.7300    24.5500   285.9720   220.5680   229.4290     2.1660 
  201.1250   -30.3370    56.0870    24.4900   290.0360   195.7390   203.6570     2.1750 
