~V
VERS. 2.00: Ver 2.00
~W
STRT.M 65.0000:
STOP.M 272.0000:
STEP.M 0.1250:
NULL. -999.2500:
UWI. DF5002:
~C
DEPT.M :
DEN.GM/CC :
GR.API :
CALI.CM :
RXO.OHMM :
RI. :
RML.OHMM :
SP.MV :
~A
# ...
  222.5000     2.1590    69.5630    24.1520    57.6220    47.4960    57.9290   -22.1550 
  222.6250     2.1590    69.4320    24.0560    55.4550    46.8550    56.8740   -22.1810 
  222.7500     2.1590    66.1320    23.9760    55.1000    47.1800    56.9380   -22.2470 
  222.8750     2.1600    62.8340    23.9420    56.7860    48.2450    57.8550   -22.3580 
  223.0000     2.1670    62.3660    23.9360    59.0730    49.7560    59.2590   -22.5090 
  223.1250     2.1760    63.7140    23.9360    61.1210    51.4250    60.7760   -22.6680 
  223.2500     2.1780    65.8810    23.9360    63.0450    53.0770    62.2210   -22.8260 
  223.3750     2.1750    68.4680    23.9380    64.1980    54.8590    63.7770   -23.0350 
  223.5000     2.1740    69.3830    23.9410    63.1990    57.1750    65.8720   -23.2230 
  223.6250     2.1840    68.4610    23.9500    61.7390    60.7570    69.2200   -23.4530 
  223.7500     2.1970    66.4730    23.9580    64.5080    65.8080    74.0030   -23.6500 
  223.8750     2.1970    63.6460    23.9820    74.0550    72.3610    80.2540   -23.8970 
  224.0000     2.1830    62.6230    24.0520    90.3060    80.1460    87.6850   -24.1320 
  224.1250     2.1870    63.7190    24.2010   107.0670    88.5970    95.6690   -24.4170 
  224.2500     2.2270    63.3180    24.3160   115.7870    96.7910   103.2940   -24.6590 
  224.3750     2.2780    59.4150    24.3580   121.7730   104.0500   109.9070   -24.8610 
  224.5000     2.2990    55.8340    24.3750   133.5340   109.7460   114.9220   -25.0650 
  224.6250     2.2720    58.5420    24.3980   142.1800   112.8140   117.3660   -25.2330 
  224.7500     2.2320    63.5450    24.4200   141.9160   113.2400   117.3070   -25.3700 
  224.8750     2.2040    65.7610    24.3940   132.8130   111.4100   115.1240   -25.4070 
  225.0000     2.1920    65.3980    24.3410   120.0710   108.5900   111.9620   -25.4060 
  225.1250     2.1860    66.9290    24.2660   110.2160   106.7940   109.7190   -25.3740 
  225.2500     2.1810    71.4860    24.2290   106.0180   107.0640   109.4870   -25.3490 
  225.3750     2.1760    74.3000    24.1920   107.2840   109.3810   111.2520   -25.3360 
  225.5000     2.1780    73.4060    24.1400   116.4640   112.9200   114.1650   -25.3150 
  225.6250     2.1870    70.5960    24.1230   134.9370   116.1940   116.8650   -25.3420 
  225.7500     2.1940    68.7080    24.1410   149.2630   118.0790   118.4220   -25.3790 
  225.8750     2.1880    68.1140    24.2160   147.0530   118.4760   118.7540   -25.4800 
  226.0000     2.1730    67.8770    24.3370   131.3120   118.1830   118.5000   -25.5530 
  226.1250     2.1660    69.2250    24.4750   123.5100   118.5650   118.8180   -25.6080 
  226.2500     2.1730    71.3070    24.5950   133.1240   120.3150   120.3220   -25.5770 
  226.3750     2.1820    70.3600    24.6260   146.1530   123.4830   123.0260   -25.5060 
  226.5000     2.1820    65.7550    24.5470   151.7360   127.6380   126.5500   -25.3880 
  226.6250     2.1710    63.1250    24.4190   147.5360   131.9130   130.2230   -25.2340 
  226.7500     2.1620    65.9830    24.3580   148.6980   135.3220   133.3400   -24.9890 
  226.8750     2.1560    69.6440    24.3380   152.0010   137.1260   135.4660   -24.6520 
  227.0000     2.1540    68.3900    24.3280   160.7410   136.7310   136.3930   -24.2480 
  227.1250     2.1560    65.0190    24.3350   171.2730   133.7520   135.9180   -23.7600 
  227.2500     2.1600    65.1850    24.4130   170.9900   129.7850   134.9060   -23.2140 
  227.3750     2.1710    66.5790    24.5380   158.8460   126.7740   134.7230   -22.5620 
  227.5000     2.1960    66.6550    24.6320   141.8150   126.7510   137.1670   -21.8620 
  227.6250     2.2650    67.4200    24.6670   130.7000   132.4080   144.9960   -21.0570 
  227.7500     2.3770    70.1610    24.6480   147.3090   143.2950   157.5460   -20.2090 
  227.8750     2.5060    70.5530    24.5330   206.7400   154.6860   170.1280   -19.2650 
  228.0000     2.6150    65.8810    24.3140   280.2590   151.9170   171.1070   -18.2210 
  228.1250     2.6880    59.6010    24.1770   300.0900   117.3310   142.5420   -17.1110 
  228.2500     2.7400    56.6280    24.0950   257.9200    74.2410    96.8290   -15.9700 
  228.3750     2.7730    58.5310    24.0830   180.1760    42.1640    55.5460   -14.8380 
  228.5000     2.7720    63.3360    24.0780    96.5090    23.2750    29.0600   -13.6880 
  228.6250     2.7200    67.1760    24.0800    40.9680    13.9430    16.4120   -12.5920 
  228.7500     2.6360    71.0380    24.0570    17.0790     8.8980    10.0140   -11.5960 
  228.8750     2.5440    75.5830    24.0030     8.6260     6.3260     6.8130   -10.8020 
  229.0000     2.4680    80.6430    23.9460     6.2320     5.3240     5.2530   -10.2300 
  229.1250     2.4290    84.7460    23.9350     6.1090     5.0260     5.2680    -9.8640 
  229.2500     2.4210    87.4080    23.9770     6.9180     5.3930     5.8700    -9.6230 
  229.3750     2.4310    89.3240    24.0440     8.1250     6.1580     6.7670    -9.5010 
  229.5000     2.4420    92.1520    24.0970     8.9980     7.0240     7.6240    -9.4790 
  229.6250     2.4380    97.2590    24.1180     9.1390     7.6470     8.0790    -9.5240 
  229.7500     2.4270   103.5420    24.1210     9.0120     7.9150     8.1220    -9.6070 
  229.8750     2.4180   110.4550    24.1170     8.8610     7.9030     7.9050    -9.6730 
  230.0000     2.4200   117.2660    24.1040     8.7230     7.7680     7.6410    -9.7360 
  230.1250     2.4270   119.2830    24.0890     8.6790     7.6440     7.5010    -9.7890 
  230.2500     2.4210   117.2120    24.0850     8.6830     7.5690     7.4960    -9.9000 
  230.3750     2.3940   114.8900    24.0940     8.7130     7.5190     7.5890    -9.9980 
  230.5000     2.3610   114.6500    24.1290     8.6600     7.4580     7.7170   -10.0890 
  230.6250     2.3480   115.6190    24.1940     8.5870     7.3560     7.8140   -10.1260 
  230.7500     2.3490   115.1100    24.2580     8.5090     7.2150     7.8350   -10.1530 
  230.8750     2.3490   114.9140    24.3090     8.4240     7.0480     7.7580   -10.1720 
  231.0000     2.3490   117.0940    24.3670     8.3090     6.8670     7.5810   -10.1870 
  231.1250     2.3610   119.0240    24.3710     8.2450     6.7100     7.3500   -10.1730 
  231.2500     2.3800   116.5700    24.3690     8.2270     6.6330     7.1840   -10.1290 
  231.3750     2.3880   113.0060    24.3660     8.2410     6.6900     7.1780   -10.0940 
  231.5000     2.3740   113.9680    24.3660     8.2970     6.9070     7.3850   -10.1020 
  231.6250     2.3410   117.2130    24.3660     8.6650     7.3050     7.8400   -10.1520 
  231.7500     2.3130   114.0480    24.3660     9.5780     7.8170     8.4520   -10.2140 
  231.8750     2.3070   108.7280    24.3660    10.7790     8.3620     9.1060   -10.2540 
  232.0000     2.3270   108.6720    24.3660    11.2330     8.8100     9.6340   -10.2790 
  232.1250     2.3540   115.1230    24.3660    10.8590     8.9570     9.8050   -10.2910 
  232.2500     2.3700   121.8930    24.3560    10.5620     8.7640     9.5970   -10.3240 
  232.3750     2.3770   126.3960    24.3290    10.3810     8.2840     9.0880   -10.3440 
  232.5000     2.3780   126.6910    24.3300     9.4020     7.6480     8.4410   -10.3520 
  232.6250     2.3720   123.9320    24.3350     8.0140     7.0090     7.8270   -10.3170 
  232.7500     2.3640   123.2740    24.3420     7.2530     6.4540     7.3250   -10.3060 
  232.8750     2.3600   123.5190    24.3510     7.2990     6.0300     6.9710   -10.2770 
  233.0000     2.3590   119.4610    24.3540     7.5780     5.7890     6.8090   -10.2780 
  233.1250     2.3510   112.7850    24.3270     7.7870     5.8620     6.9610   -10.3330 
  233.2500     2.3390   109.6520    24.2440     8.4240     6.3390     7.5300   -10.4460 
  233.3750     2.3270   106.6850    24.1950    10.1520     7.4190     8.7490   -10.6280 
  233.5000     2.3150    99.1320    24.1780    12.9130     9.4110    10.9630   -10.8210 
  233.6250     2.2960    89.5190    24.1620    17.3430    13.2560    15.0780   -11.1600 
