~V
VERS. 2.00: Ver 2.00
~W
STRT.M 59.0000:
STOP.M 253.0000:
STEP.M 0.1250:
NULL. -999.2500:
UWI. DF5043:
~C
DEPT.M :
SP.MV :
GR.API :
CALI.CM :
RXO.OHMM :
RI. :
RML.OHMM :
DEN.GM/CC :
~A
# ...
  104.0000   -15.7840    76.2070    22.9490     6.2260     7.0780     8.0750     2.1520 
  104.1250   -15.8650    75.5820    23.2230     7.6150     7.2460     8.2670     2.1530 
  104.2500   -15.9510    76.4140    23.4590    10.2060     7.3330     8.3680     2.1580 
  104.3750   -16.0280    79.1190    23.5500    12.7200     7.3260     8.3630     2.1600 
  104.5000   -16.0920    80.3980    23.5460    12.5680     7.2580     8.2880     2.1520 
  104.6250   -16.1430    78.0820    23.4420     9.9600     7.1540     8.1730     2.1340 
  104.7500   -16.1820    73.6440    23.3270     7.2410     7.0370     8.0470     2.1210 
  104.8750   -16.2120    70.7450    23.3130     6.0870     6.9090     7.9150     2.1280 
  105.0000   -16.2380    70.4290    23.3880     5.8440     6.7660     7.7600     2.1450 
  105.1250   -16.2670    72.0850    23.4530     5.8750     6.6050     7.5690     2.1570 
  105.2500   -16.3040    75.3460    23.4150     5.9080     6.4260     7.3430     2.1560 
  105.3750   -16.3570    79.9920    23.3540     5.8780     6.2420     7.1080     2.1540 
  105.5000   -16.4240    84.5890    23.4160     5.8330     6.0780     6.9010     2.1570 
  105.6250   -16.5000    87.9150    23.5360     5.8020     5.9640     6.7520     2.1610 
  105.7500   -16.5780    89.5570    23.6030     5.8060     5.9150     6.6800     2.1630 
  105.8750   -16.6520    89.6710    23.5140     5.8690     5.9420     6.6970     2.1680 
  106.0000   -16.7230    88.7500    23.3790     5.9720     6.0080     6.7650     2.1710 
  106.1250   -16.8010    87.0090    23.2630     6.0650     6.0750     6.8220     2.1690 
  106.2500   -16.8960    84.8750    23.2140     6.0860     6.0950     6.7990     2.1620 
  106.3750   -17.0150    83.6390    23.2100     6.0090     6.0060     6.6260     2.1590 
  106.5000   -17.1540    84.4800    23.2170     5.9020     5.8060     6.3310     2.1620 
  106.6250   -17.3120    88.3090    23.2240     5.8150     5.5080     5.9460     2.1620 
  106.7500   -17.4920    94.9000    23.2250     5.7480     5.1530     5.5230     2.1600 
  106.8750   -17.7010   102.7230    23.3000     5.6250     4.8170     5.1590     2.1760 
  107.0000   -17.9220   109.1020    23.5120     5.3540     4.5740     4.9330     2.2200 
  107.1250   -18.1340   112.0000    23.8550     4.9700     4.4620     4.8810     2.2810 
  107.2500   -18.3090   110.6010    24.1350     4.6910     4.4910     4.9990     2.3290 
  107.3750   -18.4210   106.5330    24.2040     4.9220     4.6590     5.2580     2.3400 
  107.5000   -18.4880   103.3880    24.1160     5.9740     4.8840     5.5520     2.3290 
  107.6250   -18.5330   101.6990    23.9500     7.9530     5.0980     5.8000     2.3200 
  107.7500   -18.5740   100.3490    23.7760    10.1090     5.2420     5.9370     2.3270 
  107.8750   -18.6160    99.6340    23.5860    10.4110     5.2630     5.9120     2.3420 
  108.0000   -18.6440   100.8330    23.4090     8.8020     5.1860     5.7640     2.3450 
  108.1250   -18.6430   103.0970    23.3040     6.7980     5.0420     5.5490     2.3270 
  108.2500   -18.6110   104.6440    23.2760     5.6730     4.8690     5.3220     2.2930 
  108.3750   -18.5640   106.2090    23.2050     5.4250     4.6940     5.1220     2.2550 
  108.5000   -18.5220   109.5260    23.1800     5.3740     4.5410     4.9660     2.2280 
  108.6250   -18.4910   112.8260    23.1690     5.3150     4.4320     4.8720     2.2150 
  108.7500   -18.4580   113.7820    23.1390     5.2120     4.3880     4.8610     2.2150 
  108.8750   -18.4000   112.6870    23.0650     5.0090     4.4400     4.9690     2.2250 
  109.0000   -18.3150   111.8440    22.9770     4.7830     4.5870     5.1960     2.2470 
  109.1250   -18.2130   110.4080    22.8610     4.7240     4.8310     5.5350     2.2780 
  109.2500   -18.1160   106.7870    22.7100     5.0850     5.1430     5.9410     2.3120 
  109.3750   -18.0440   102.9340    22.6160     6.1290     5.4550     6.3230     2.3410 
  109.5000   -17.9940   101.9530    22.5770     7.3660     5.6930     6.6030     2.3570 
  109.6250   -17.9580   103.4560    22.6820     7.8060     5.8160     6.7340     2.3470 
  109.7500   -17.9280   105.1270    22.9310     7.1110     5.8170     6.7100     2.3030 
  109.8750   -17.8980   105.8130    23.2190     6.1300     5.7190     6.5710     2.2470 
  110.0000   -17.8720   106.3280    23.4040     5.6390     5.5970     6.4210     2.2090 
  110.1250   -17.8570   106.5970    23.4300     5.4500     5.4990     6.3290     2.1950 
  110.2500   -17.8580   106.2720    23.3460     5.3600     5.4580     6.3330     2.1980 
  110.3750   -17.8790   105.0480    23.2870     5.3790     5.4920     6.4330     2.2110 
  110.5000   -17.9090   102.6870    23.2170     5.4620     5.5650     6.5710     2.2220 
  110.6250   -17.9390    99.3750    23.1290     5.4950     5.6470     6.7010     2.2240 
  110.7500   -17.9690    95.9970    22.9960     5.4290     5.7200     6.7970     2.2100 
  110.8750   -18.0050    92.9490    22.8950     5.3180     5.7720     6.8360     2.1850 
  111.0000   -18.0530    90.5700    22.8140     5.2340     5.8070     6.8310     2.1600 
  111.1250   -18.1100    90.4040    22.7840     5.1860     5.8270     6.8020     2.1450 
  111.2500   -18.1730    93.3140    22.7870     5.2000     5.8400     6.7740     2.1440 
  111.3750   -18.2390    97.1740    22.8700     5.3090     5.8600     6.7770     2.1500 
  111.5000   -18.3190    99.9720    22.9170     5.4630     5.8920     6.8160     2.1550 
  111.6250   -18.4240   101.8340    22.9290     5.5720     5.9290     6.8790     2.1570 
  111.7500   -18.5590   102.0880    22.9810     5.5790     5.9550     6.9390     2.1570 
  111.8750   -18.7220    98.4810    23.0950     5.5170     5.9310     6.9340     2.1590 
  112.0000   -18.9030    92.6650    23.1650     5.4820     5.8370     6.8260     2.1610 
  112.1250   -19.1070    88.7180    23.1980     5.5010     5.6570     6.5920     2.1600 
  112.2500   -19.3390    89.5990    23.2460     5.5270     5.3930     6.2470     2.1580 
  112.3750   -19.5950    95.9050    23.3950     5.4510     5.0610     5.8260     2.1700 
  112.5000   -19.8480   105.3640    23.6630     5.2150     4.7140     5.4050     2.2020 
  112.6250   -20.0720   115.6320    23.9440     4.8730     4.3970     5.0410     2.2430 
  112.7500   -20.2510   123.3200    24.1250     4.5810     4.1460     4.7730     2.2730 
  112.8750   -20.3770   124.6330    24.1440     4.4520     3.9970     4.6360     2.2820 
  113.0000   -20.4680   121.8710    24.1380     4.3710     3.9390     4.5990     2.2850 
  113.1250   -20.5300   117.8500    24.1240     4.2960     3.9600     4.6360     2.2870 
  113.2500   -20.5710   113.7350    24.0550     4.3170     4.0340     4.7190     2.2860 
  113.3750   -20.5920   110.4410    23.9580     4.5030     4.1340     4.8150     2.2870 
  113.5000   -20.6020   109.8500    23.8700     4.7360     4.2280     4.8860     2.3000 
  113.6250   -20.6040   112.9440    23.8590     4.9530     4.2950     4.9140     2.3190 
  113.7500   -20.6070   117.5900    23.9320     5.1220     4.3280     4.8990     2.3270 
  113.8750   -20.6240   119.2240    24.0620     5.1980     4.3200     4.8540     2.3130 
  114.0000   -20.6620   117.4210    24.1160     5.1700     4.2900     4.8100     2.2920 
  114.1250   -20.7200   115.5020    24.0820     5.1150     4.2540     4.7840     2.2750 
  114.2500   -20.7790   115.2630    24.0280     5.0750     4.2260     4.7840     2.2630 
  114.3750   -20.8110   113.9100    24.0830     5.0700     4.2130     4.8110     2.2560 
  114.5000   -20.8070   110.4790    24.1250     5.0700     4.2090     4.8420     2.2550 
  114.6250   -20.7750   108.8760    24.1450     5.1060     4.2080     4.8560     2.2590 
  114.7500   -20.7320   111.0420    24.1640     5.1800     4.1990     4.8410     2.2610 
  114.8750   -20.6920   112.7620    24.1870     5.2640     4.1830     4.8010     2.2580 
  115.0000   -20.6510   110.7620    24.1430     5.2740     4.1790     4.7750     2.2590 
  115.1250   -20.5930   107.5970    24.0700     5.1540     4.2080     4.7970     2.2730 
