~V
VERS. 2.00: Ver 2.00
~W
STRT.M 58.0000:
STOP.M 240.0000:
STEP.M 0.1250:
NULL. -999.2500:
UWI. DF5049:
~C
DEPT.M :
GR.API :
RML.OHMM :
RI. :
RXO.OHMM :
CALI.CM :
DEN.GM/CC :
SP.MV :
~A
# ...
  193.0000    66.6310   145.4650   139.5610   146.6740    25.5990     2.1530   -14.2580 
  193.1250    66.0470   143.2930   137.8880   150.6690    25.7880     2.1670   -14.3010 
  193.2500    62.4810   142.4590   137.2430   146.9780    25.8200     2.1790   -14.3290 
  193.3750    58.8760   144.8420   139.5520   144.6530    25.7530     2.1860   -14.3700 
  193.5000    58.0900   151.1540   145.6960   152.7040    25.7040     2.1890   -14.4180 
  193.6250    59.8270   160.7010   155.1850   164.0400    25.6870     2.1890   -14.4760 
  193.7500    61.3120   170.1030   164.7930   184.6870    25.6780     2.1910   -14.4600 
  193.8750    62.1550   175.8410   171.2520   217.4020    25.6660     2.1950   -14.4630 
  194.0000    63.1490   174.1420   171.1360   238.6830    25.6610     2.1990   -14.4180 
  194.1250    63.0970   160.7030   160.2640   211.8230    25.6500     2.2070   -14.3110 
  194.2500    62.3340   139.4960   141.4260   174.2070    25.6170     2.2260   -14.1970 
  194.3750    63.2560   116.4970   119.5000   149.5860    25.5910     2.2580   -13.9970 
  194.5000    66.9010    97.3160    99.9240   124.9580    25.6000     2.2950   -13.7130 
  194.6250    71.0590    86.2430    87.5150    88.9060    25.6240     2.3200   -13.3530 
  194.7500    72.3210    82.7220    82.4810    64.8840    25.5310     2.3210   -13.0180 
  194.8750    71.3650    86.2530    84.5760    66.3400    25.2650     2.2980   -12.6250 
  195.0000    69.1490    95.7180    92.7800    94.1190    24.9690     2.2610   -12.2780 
  195.1250    67.0800   109.1620   105.3190   144.0800    24.8930     2.2280   -12.0020 
  195.2500    65.5640   121.9860   117.8210   140.1320    24.9020     2.2070   -11.7200 
  195.3750    64.8260   130.6600   126.9440   125.8200    24.9300     2.1970   -11.4820 
  195.5000    65.5690   134.2380   131.4790   120.7680    24.9470     2.1950   -11.3290 
  195.6250    67.1390   135.4190   133.3610   122.2900    24.9640     2.1920   -11.2670 
  195.7500    66.3810   138.4600   136.4670   119.6360    24.9980     2.1830   -11.2270 
  195.8750    63.5780   144.7620   142.2930   117.1770    25.0430     2.1710   -11.2110 
  196.0000    62.0360   153.2570   150.1150   125.7280    25.0590     2.1590   -11.1630 
  196.1250    62.7880   159.3950   156.0580   144.9970    25.0390     2.1600   -11.0950 
  196.2500    61.1870   157.4790   154.9960   165.7390    25.0380     2.1760   -10.9450 
  196.3750    56.9390   144.4430   143.7980   170.1310    25.0740     2.2010   -10.8090 
  196.5000    56.5030   122.7490   123.9680   156.8810    25.1450     2.2280   -10.6310 
  196.6250    61.8830    99.4690   101.4650   122.1550    25.2750     2.2410   -10.4420 
  196.7500    65.3300    80.5470    82.4980    81.2610    25.3710     2.2350   -10.2050 
  196.8750    66.3260    67.6240    69.2100    51.3230    25.4290     2.2130    -9.9530 
  197.0000    67.8060    60.4690    61.6580    39.2520    25.5010     2.1830    -9.7080 
  197.1250    69.2650    58.8450    59.6340    35.7940    25.6890     2.1580    -9.5080 
  197.2500    68.1160    60.8190    61.2140    36.2410    25.9020     2.1460    -9.4230 
  197.3750    68.3030    65.3630    65.4750    38.0460    25.9940     2.1460    -9.3950 
  197.5000    69.6400    71.2630    71.3290    45.6520    25.9480     2.1550    -9.4320 
  197.6250    67.0280    76.7660    77.1210    66.6080    25.9190     2.1640    -9.4050 
  197.7500    64.1760    80.4000    81.2230    77.7500    25.9230     2.1680    -9.3970 
  197.8750    64.9450    81.5600    82.8520    73.9340    25.9260     2.1690    -9.4320 
  198.0000    67.5600    80.4240    82.0250    71.8910    25.9090     2.1680    -9.4770 
  198.1250    68.3470    77.5570    79.2230    71.2700    25.8930     2.1690    -9.4820 
  198.2500    67.7180    74.2350    75.8240    66.4760    25.8870     2.1750    -9.4960 
  198.3750    65.9860    71.2810    72.7480    64.7000    25.8810     2.1860    -9.5300 
  198.5000    64.1430    69.3610    70.6720    66.5430    25.8660     2.2010    -9.5730 
  198.6250    64.0400    69.3850    70.4250    66.8910    25.8340     2.2180    -9.7030 
  198.7500    63.3430    71.5500    72.2020    65.1530    25.8190     2.2320    -9.8620 
  198.8750    62.2470    75.8650    76.1120    66.7710    25.8200     2.2410    -9.9770 
  199.0000    63.8200    81.8550    81.8260    75.5820    25.8410     2.2380   -10.0860 
  199.1250    66.8550    88.7660    88.6940    93.4290    25.8700     2.2230   -10.2000 
  199.2500    66.1880    95.7600    95.7380   114.9500    25.8200     2.2130   -10.2780 
  199.3750    62.1750   102.0310   102.0770   124.1880    25.6470     2.2270   -10.3090 
  199.5000    59.6740   105.2580   105.4810   102.2160    25.4490     2.2830   -10.2080 
  199.6250    60.0180   100.1800   100.9310    89.6270    25.4490     2.3810   -10.0490 
  199.7500    60.3960    87.0670    88.5610   100.3670    25.4850     2.4810    -9.8260 
  199.8750    60.5870    70.2860    72.3920   130.4690    25.4390     2.5530    -9.5650 
  200.0000    62.8580    55.5540    57.8230   109.5060    25.3300     2.5800    -9.3040 
  200.1250    67.3120    47.4160    49.1900    48.7310    25.2750     2.5650    -9.0240 
  200.2500    69.2830    45.3550    46.2030    29.9240    25.2220     2.5310    -8.7690 
  200.3750    67.1100    48.3280    48.1100    42.4490    25.1300     2.4830    -8.5340 
  200.5000    62.8680    54.9010    53.8480   101.9610    25.0420     2.4200    -8.4450 
  200.6250    60.4520    63.5840    62.3410   200.0020    24.9880     2.3420    -8.4850 
  200.7500    61.4850    72.7090    71.7420   144.3000    25.0080     2.2660    -8.6470 
  200.8750    64.7880    82.7820    82.1660    71.7310    25.0640     2.2080    -8.9100 
  201.0000    67.2530    95.9790    95.5120    61.6260    25.1100     2.1740    -9.2080 
  201.1250    65.6830   115.0120   114.2930   100.4320    25.1740     2.1610    -9.5700 
  201.2500    63.4030   136.4060   135.0900   156.5940    25.2550     2.1580    -9.9420 
  201.3750    63.1470   151.6840   150.0340   185.7260    25.3100     2.1590   -10.3180 
  201.5000    63.8360   151.4420   150.6120   200.9630    25.3040     2.1600   -10.6820 
  201.6250    64.5740   134.1920   134.7160   160.8310    25.2060     2.1590   -10.9560 
  201.7500    65.9260   113.4030   114.3340   112.2880    25.0630     2.1550   -11.1720 
  201.8750    66.5680    96.2020    96.7060    86.4700    24.9580     2.1480   -11.3930 
  202.0000    66.1030    84.2950    84.1680    77.9390    24.9300     2.1400   -11.5730 
  202.1250    65.9090    77.6860    76.9740    77.7680    24.9970     2.1440   -11.7510 
  202.2500    66.0580    74.7510    73.4650    71.2760    25.1580     2.1610   -11.8900 
  202.3750    65.5550    74.7830    72.9010    64.2580    25.4050     2.1870   -12.0290 
  202.5000    66.3770    76.8560    74.3860    64.0400    25.5520     2.2100   -12.0790 
  202.6250    69.8270    79.5660    76.6660    74.3980    25.3690     2.2130   -12.0740 
  202.7500    70.3040    81.2750    78.2190    80.0600    24.8830     2.1980   -12.0310 
  202.8750    67.4170    81.2360    78.3080    83.2790    24.4240     2.1770   -11.9010 
  203.0000    66.3570    79.7260    77.0400    79.4870    24.2060     2.1640   -11.7840 
  203.1250    69.3520    77.9220    75.3020    69.8760    24.3660     2.1670   -11.5940 
  203.2500    72.7720    76.8200    74.0300    60.7810    24.8220     2.1810   -11.4000 
  203.3750    73.8230    76.1980    73.1500    62.9980    25.2410     2.2030   -11.1340 
  203.5000    72.1530    75.0610    71.8930    71.6450    25.4180     2.2340   -10.9000 
  203.6250    71.1710    72.4540    69.4540    79.5610    25.4390     2.2820   -10.7160 
  203.7500    72.8180    69.3420    66.5580    69.9110    25.4620     2.3390   -10.5410 
  203.8750    73.9460    67.4120    64.5600    55.6490    25.4610     2.3900   -10.4240 
  204.0000    71.7450    68.2290    64.8070    46.7920    25.4520     2.4220   -10.2720 
  204.1250    68.7470    72.5900    68.1160    52.6520    25.5060     2.4290   -10.1440 
