~V
VERS. 2.00: Ver 2.00
~W
STRT.M 60.0000:
STOP.M 268.0000:
STEP.M 0.1250:
NULL. -999.2500:
UWI. DF5039:
~C
DEPT.M :
DEN.GM/CC :
GR.API :
CALI.CM :
RXO.OHMM :
RI. :
RML.OHMM :
SP.MV :
~A
# ...
   82.5000     2.2600   107.8570    24.2370     4.7580     4.0470     4.4680   -32.1210 
   82.6250     2.2590   105.6370    24.5350     4.6740     3.9880     4.4420   -32.3480 
   82.7500     2.2680   105.4170    24.6870     4.6460     3.9850     4.4700   -32.6380 
   82.8750     2.2860   106.2720    24.6470     4.6460     4.0450     4.5660   -32.9890 
   83.0000     2.3030   106.1380    24.4350     4.6720     4.1710     4.7380   -33.3900 
   83.1250     2.3090   105.5900    24.1140     4.8360     4.3720     4.9980   -33.8490 
   83.2500     2.3000   103.7350    23.7150     5.2530     4.6310     5.3180   -34.3430 
   83.3750     2.2780    99.3500    23.2820     5.5780     4.9330     5.6800   -34.8430 
   83.5000     2.2510    93.2990    22.9540     5.5710     5.2670     6.0740   -35.3710 
   83.6250     2.2210    88.6860    22.9540     5.6540     5.6260     6.4970   -35.8800 
   83.7500     2.1920    84.9490    23.2000     6.1350     5.9850     6.9130   -36.3610 
   83.8750     2.1670    80.0580    23.5310     6.6620     6.3000     7.2610   -36.8100 
   84.0000     2.1500    74.7930    23.8380     6.9740     6.5180     7.4740   -37.1960 
   84.1250     2.1440    70.8840    24.0900     7.0560     6.5740     7.4800   -37.5150 
   84.2500     2.1460    69.1650    24.2700     7.0150     6.4990     7.3490   -37.7540 
   84.3750     2.1500    70.4310    24.3120     6.8750     6.3640     7.1980   -37.9660 
   84.5000     2.1510    72.6510    24.2410     6.6970     6.2820     7.1810   -38.1140 
   84.6250     2.1480    72.0150    24.2470     6.8390     6.4000     7.4810   -38.2350 
   84.7500     2.1410    68.9150    24.3860     7.1540     6.7600     8.1040   -38.3430 
   84.8750     2.1330    67.1580    24.5390     7.6790     7.3580     8.9940   -38.4240 
   85.0000     2.1280    67.0150    24.6230     8.0390     8.1200     9.9910   -38.5280 
   85.1250     2.1320    65.6140    24.7240     8.1340     8.8460    10.7810   -38.6190 
   85.2500     2.1440    63.5110    24.9260     8.1390     9.3030    11.1360   -38.7050 
   85.3750     2.1550    62.3610    25.0340     8.1300     9.3740    10.9970   -38.7900 
   85.5000     2.1580    62.0100    24.8410     8.0650     9.1060    10.5010   -38.8520 
   85.6250     2.1480    61.3890    24.5710     8.0280     8.6640     9.9050   -38.8880 
   85.7500     2.1320    60.6680    24.5840     7.9190     8.2610     9.4410   -38.9450 
   85.8750     2.1210    60.2760    24.7990     7.9030     7.9890     9.1850   -39.0190 
   86.0000     2.1190    61.2190    24.9170     7.9350     7.8640     9.1150   -39.1010 
   86.1250     2.1260    62.6270    24.8280     7.9330     7.8560     9.1500   -39.2050 
   86.2500     2.1340    62.3910    24.7190     7.8910     7.8730     9.1770   -39.3390 
   86.3750     2.1400    61.1960    24.6300     7.9190     7.8610     9.1380   -39.4640 
   86.5000     2.1420    61.0560    24.5110     7.9970     7.7960     9.0170   -39.6210 
   86.6250     2.1440    62.6450    24.2730     7.9890     7.6750     8.8320   -39.8020 
   86.7500     2.1470    64.6970    23.9720     7.8740     7.5390     8.6420   -39.9210 
   86.8750     2.1480    66.5060    23.7330     7.7160     7.4130     8.4900   -40.0130 
   87.0000     2.1460    66.9980    23.6200     7.6150     7.3200     8.4000   -40.0540 
   87.1250     2.1420    65.5330    23.5900     7.6250     7.2720     8.3860   -40.1010 
   87.2500     2.1350    63.5320    23.5700     7.7360     7.2580     8.4180   -40.1350 
   87.3750     2.1300    60.9740    23.5570     7.8540     7.2640     8.4690   -40.1440 
   87.5000     2.1280    59.1530    23.5550     7.8950     7.2780     8.5160   -40.1490 
   87.6250     2.1320    61.0450    23.5560     7.8990     7.2890     8.5460   -40.1620 
   87.7500     2.1400    65.3150    23.5580     7.8710     7.2920     8.5610   -40.1940 
   87.8750     2.1480    67.7860    23.5600     7.9330     7.2860     8.5620   -40.2480 
   88.0000     2.1510    66.2510    23.5680     8.0160     7.2660     8.5490   -40.3060 
   88.1250     2.1480    63.2730    23.5900     8.0270     7.2320     8.5190   -40.3330 
   88.2500     2.1410    60.9950    23.6130     7.9300     7.1940     8.4800   -40.3160 
   88.3750     2.1350    58.1050    23.6250     7.8850     7.1470     8.4210   -40.2720 
   88.5000     2.1320    58.4880    23.6250     7.8230     7.1300     8.3980   -40.1820 
   88.6250     2.1310    60.4540    23.6260     7.7900     7.1360     8.4170   -40.0530 
   88.7500     2.1290    61.5570    23.6250     7.7980     7.1520     8.4590   -39.8560 
   88.8750     2.1250    62.2460    23.6250     7.8500     7.1720     8.5120   -39.6320 
   89.0000     2.1210    62.6870    23.6320     7.9400     7.1920     8.5590   -39.3800 
   89.1250     2.1200    61.3520    23.6510     8.0300     7.2050     8.5870   -39.1010 
   89.2500     2.1210    60.4230    23.6670     8.0200     7.2150     8.6060   -38.7900 
   89.3750     2.1230    63.4950    23.6690     7.9530     7.2280     8.6250   -38.4820 
   89.5000     2.1260    67.6940    23.6720     7.8890     7.2450     8.6420   -38.1780 
   89.6250     2.1280    66.5530    23.7160     7.8190     7.2570     8.6400   -37.9180 
   89.7500     2.1270    62.2310    23.7960     7.8440     7.2550     8.6110   -37.6600 
   89.8750     2.1170    59.3670    23.8710     7.8720     7.2450     8.5740   -37.3590 
   90.0000     2.1050    59.7770    23.9210     7.8240     7.2450     8.5670   -37.0500 
   90.1250     2.1020    63.5950    24.0020     7.6630     7.2910     8.6340   -36.7340 
   90.2500     2.1150    67.9450    24.1060     7.6070     7.3840     8.7590   -36.4320 
   90.3750     2.1390    68.6070    24.0620     7.6070     7.5000     8.8900   -36.1060 
   90.5000     2.1640    65.2380    23.7790     7.6010     7.5860     8.9480   -35.7660 
   90.6250     2.1710    63.6220    23.4670     7.6290     7.5520     8.8260   -35.3800 
   90.7500     2.1610    65.0200    23.3490     7.6050     7.3890     8.5540   -35.0340 
   90.8750     2.1450    64.7350    23.3340     7.6230     7.1380     8.2110   -34.7520 
   91.0000     2.1350    62.8300    23.2100     7.5680     6.8720     7.8920   -34.4920 
   91.1250     2.1330    67.2090    22.9510     7.1200     6.6710     7.6840   -34.2580 
   91.2500     2.1340    76.2100    22.7670     6.7370     6.5590     7.5800   -34.0730 
   91.3750     2.1340    84.2010    22.7370     6.7660     6.5270     7.5400   -33.9400 
   91.5000     2.1280    87.6240    22.7650     6.8990     6.5430     7.5180   -33.8760 
   91.6250     2.1170    86.9410    22.6850     6.7530     6.5800     7.4960   -33.8490 
   91.7500     2.1030    84.0510    22.5370     6.6470     6.6270     7.4900   -33.8060 
   91.8750     2.0900    80.1700    22.4410     6.7310     6.6910     7.5110   -33.7570 
   92.0000     2.0840    76.7460    22.4280     6.9400     6.7620     7.5400   -33.7130 
   92.1250     2.0900    72.4020    22.4620     7.1190     6.7840     7.4960   -33.6780 
   92.2500     2.1060    67.9390    22.5490     7.1860     6.6870     7.2940   -33.6290 
   92.3750     2.1300    66.3300    22.7420     7.2550     6.4110     6.8870   -33.5650 
   92.5000     2.1590    69.6620    22.9830     7.1520     5.9520     6.2980   -33.4190 
   92.6250     2.1880    77.8430    23.1630     6.1930     5.3720     5.6240   -33.2020 
   92.7500     2.2160    87.3410    23.3630     5.1910     4.8000     5.0090   -33.0270 
   92.8750     2.2400    95.6290    23.6440     4.7070     4.3150     4.5380   -32.8640 
   93.0000     2.2590   100.5350    23.9010     4.5440     3.9660     4.2480   -32.7550 
   93.1250     2.2690   101.2190    23.9790     4.4670     3.7950     4.1610   -32.6720 
   93.2500     2.2680   100.7020    23.9970     4.4260     3.7580     4.2070   -32.6350 
   93.3750     2.2570   100.2140    24.0860     4.5480     3.8240     4.3450   -32.6620 
   93.5000     2.2370   100.0740    24.1980     4.8930     3.9690     4.5500   -32.7810 
   93.6250     2.2160   100.1500    24.1950     5.2100     4.1920     4.8320   -32.9890 
