~V
VERS. 2.00: Ver 2.00
~W
STRT.M 50.0000:
STOP.M 258.0000:
STEP.M 0.1250:
NULL. -999.2500:
UWI. DF5038:
~C
DEPT.M :
GR.API :
CALI.CM :
RXO.OHMM :
RI. :
RML.OHMM :
DEN.GM/CC :
SP.MV :
~A
# ...
  128.7500    61.9810    25.5550     8.9760     7.2610     8.4630     2.1390   -37.3750 
  128.8750    62.1560    25.6630     8.5510     7.1370     8.2980     2.1330   -37.2790 
  129.0000    62.2870    25.6860     8.1770     6.8730     7.9390     2.1350   -37.1670 
  129.1250    61.8080    25.6800     7.9170     6.5160     7.4710     2.1470   -37.0290 
  129.2500    63.1790    25.6800     7.4410     6.1960     7.0850     2.1650   -36.9360 
  129.3750    66.9510    25.6800     6.9840     6.0150     6.9200     2.1890   -36.8790 
  129.5000    71.5170    25.6800     7.1610     6.0320     7.0460     2.2250   -36.8260 
  129.6250    72.9220    25.6800     8.0630     6.2820     7.4690     2.2710   -36.8710 
  129.7500    70.1810    25.6840     8.7060     6.6580     8.0080     2.3010   -36.9230 
  129.8750    66.8190    25.6660     9.1940     7.0470     8.4910     2.2950   -36.9110 
  130.0000    66.4680    25.5890     9.3380     7.3320     8.7710     2.2570   -37.0210 
  130.1250    68.6830    25.4720     9.2370     7.4200     8.7680     2.2150   -37.1290 
  130.2500    69.6290    25.3920     8.9350     7.3730     8.6200     2.1910   -37.2100 
  130.3750    69.5180    25.3700     8.8630     7.2660     8.4450     2.1860   -37.1990 
  130.5000    70.3740    25.3720     8.9990     7.1630     8.3170     2.1840   -37.1370 
  130.6250    70.5840    25.3690     9.3270     7.0900     8.2460     2.1750   -37.0480 
  130.7500    67.9710    25.3680     9.2680     7.0280     8.1840     2.1650   -36.9420 
  130.8750    64.7640    25.3690     8.9090     6.9560     8.1040     2.1580   -36.8300 
  131.0000    63.7440    25.3690     8.6400     6.8670     8.0040     2.1560   -36.6180 
  131.1250    64.8430    25.3690     8.4600     6.7720     7.9000     2.1550   -36.3590 
  131.2500    65.8130    25.3680     8.2650     6.6830     7.8040     2.1520   -36.0910 
  131.3750    66.2640    25.3690     8.1770     6.6070     7.7110     2.1460   -35.8630 
  131.5000    66.4330    25.3720     8.2320     6.5370     7.6110     2.1330   -35.6360 
  131.6250    66.5270    25.3750     8.2010     6.4610     7.4820     2.1170   -35.3690 
  131.7500    67.5820    25.3750     7.9270     6.3750     7.3340     2.1110   -35.0050 
  131.8750    69.0250    25.3750     7.6580     6.2940     7.1930     2.1160   -34.6820 
  132.0000    69.7530    25.3660     7.2660     6.2420     7.1000     2.1230   -34.2450 
  132.1250    68.8790    25.3160     7.0250     6.2600     7.1090     2.1220   -33.8320 
  132.2500    66.2040    25.2410     7.0470     6.3540     7.2160     2.1240   -33.4220 
  132.3750    63.7550    25.1820     7.3370     6.5110     7.3880     2.1470   -32.9800 
  132.5000    64.1670    25.1640     7.5480     6.6780     7.5450     2.1970   -32.4640 
  132.6250    68.9160    25.1660     7.4120     6.7330     7.5340     2.2660   -31.8650 
  132.7500    74.0850    25.1670     6.7860     6.6040     7.2930     2.3220   -31.2780 
  132.8750    77.9190    25.1670     6.3190     6.2780     6.8340     2.3410   -30.7000 
  133.0000    80.2620    25.1670     5.9160     5.8140     6.2510     2.3250   -30.2560 
  133.1250    80.9800    25.1670     5.2900     5.3240     5.6900     2.2960   -29.8690 
  133.2500    80.4010    25.1670     4.9020     4.9070     5.2520     2.2780   -29.4690 
  133.3750    80.4200    25.1670     4.9010     4.5980     4.9570     2.2760   -29.1660 
  133.5000    83.1680    25.1670     4.9060     4.3950     4.7830     2.2890   -29.0300 
  133.6250    88.3900    25.1670     4.8200     4.2880     4.7060     2.3090   -29.0300 
  133.7500    93.3750    25.1670     4.5930     4.2310     4.6810     2.3180   -29.1550 
  133.8750    95.5500    25.1670     4.5670     4.1990     4.6830     2.3120   -29.3490 
  134.0000    94.9530    25.1670     4.6940     4.1760     4.6920     2.2970   -29.5360 
  134.1250    94.2290    25.1670     4.8510     4.1550     4.6870     2.2890   -29.8530 
  134.2500    92.8650    25.1670     4.9210     4.1330     4.6620     2.2940   -30.2590 
  134.3750    90.8370    25.1670     4.9120     4.1250     4.6430     2.3060   -30.7010 
  134.5000    88.3880    25.1670     4.7660     4.1630     4.6860     2.3090   -31.1470 
  134.6250    86.7430    25.1670     4.8420     4.3180     4.8960     2.2870   -31.7050 
  134.7500    85.3540    25.1670     5.1890     4.6170     5.3050     2.2470   -32.2750 
  134.8750    83.7600    25.1670     5.9320     5.0720     5.9170     2.2090   -32.8960 
  135.0000    82.5410    25.1670     6.8350     5.6610     6.6820     2.1930   -33.5440 
  135.1250    79.9150    25.1670     7.4830     6.3070     7.4730     2.2110   -34.0610 
  135.2500    75.9250    25.1670     7.7990     6.8870     8.1290     2.2370   -34.5500 
  135.3750    73.4400    25.1670     8.0260     7.3150     8.5650     2.2450   -34.9670 
  135.5000    74.5150    25.1670     8.2210     7.5580     8.7740     2.2260   -35.3070 
  135.6250    75.2520    25.1670     8.4300     7.6220     8.8040     2.1950   -35.4380 
  135.7500    71.7630    25.1670     8.6380     7.5990     8.7770     2.1700   -35.5720 
  135.8750    65.9890    25.1670     8.5900     7.5480     8.7620     2.1560   -35.5280 
  136.0000    61.7470    25.1670     8.4770     7.5110     8.8020     2.1480   -35.4290 
  136.1250    60.4310    25.1670     8.4830     7.5260     8.9240     2.1560   -35.2290 
  136.2500    60.7820    25.1670     8.7180     7.5870     9.0980     2.1810   -34.9710 
  136.3750    62.4400    25.1670     8.9930     7.6710     9.2710     2.2150   -34.6590 
  136.5000    65.1960    25.1670     9.2220     7.7480     9.3860     2.2390   -34.2700 
  136.6250    68.8840    25.1670     9.3140     7.7950     9.4080     2.2410   -33.9070 
  136.7500    70.5670    25.1670     9.0630     7.8500     9.4190     2.2340   -33.4430 
  136.8750    68.4080    25.1680     8.8610     8.0080     9.5990     2.2390   -32.9200 
  137.0000    65.1130    25.1630     9.1450     8.4140    10.1780     2.2720   -32.3790 
  137.1250    64.2570    25.1650     9.8270     9.2400    11.3450     2.3340   -31.8420 
  137.2500    63.6360    25.2500    10.7540    10.3240    12.7530     2.4020   -31.2170 
  137.3750    61.8120    25.4960    12.3630    11.2880    13.7920     2.4520   -30.5500 
  137.5000    60.8860    25.8610    16.0810    11.5630    13.7400     2.4610   -29.9020 
  137.6250    62.9520    26.1500    18.0350    10.6080    12.0920     2.4200   -29.2740 
  137.7500    67.1930    26.2700    14.7760     8.9410     9.7220     2.3610   -28.6460 
  137.8750    74.6610    26.2840     8.9290     7.1750     7.4720     2.3140   -28.2140 
  138.0000    85.2850    26.2730     5.3500     5.7220     5.8140     2.2900   -27.8100 
  138.1250    92.8270    26.2220     4.9160     4.7800     4.8950     2.2890   -27.5860 
  138.2500    93.4880    26.1150     4.7270     4.2230     4.4380     2.2980   -27.5050 
  138.3750    90.7530    25.9950     4.5370     3.9460     4.2660     2.3110   -27.5250 
  138.5000    90.6320    25.9160     4.4040     3.8400     4.2320     2.3210   -27.6630 
  138.6250    93.5620    25.8840     4.3560     3.8370     4.2640     2.3300   -27.8110 
  138.7500    94.8160    25.8400     4.3950     3.8930     4.3430     2.3420   -28.0810 
  138.8750    94.1340    25.7740     4.4250     4.0000     4.4770     2.3470   -28.3700 
  139.0000    93.0120    25.7120     4.7050     4.1440     4.6540     2.3480   -28.7370 
  139.1250    91.9680    25.6850     6.1310     4.3060     4.8450     2.3330   -29.0220 
  139.2500    91.4680    25.6800     6.5180     4.4730     5.0330     2.3130   -29.3410 
  139.3750    92.5080    25.6810     5.8210     4.6610     5.2470     2.2950   -29.7150 
  139.5000    94.4840    25.6810     5.4240     4.9060     5.5420     2.2750   -30.0970 
  139.6250    94.0000    25.6800     5.9120     5.2570     5.9920     2.2420   -30.4680 
  139.7500    91.0430    25.6800     6.8690     5.7010     6.5730     2.2010   -30.8260 
  139.8750    85.0380    25.6800     7.8130     6.1980     7.2140     2.1700   -31.0110 
