~V
VERS. 2.00: Ver 2.00
~W
STRT.M 61.0000:
STOP.M 247.0000:
STEP.M 0.1250:
NULL. -999.2500:
UWI. DF5042:
~C
DEPT.M :
SP.MV :
GR.API :
CALI.CM :
RXO.OHMM :
RI. :
RML.OHMM :
DEN.GM/CC :
~A
# ...
  128.5000   -28.1190    71.9830    25.2720    15.5980     6.9210     7.7910     2.3240 
  128.6250   -27.9960    77.5610    25.3760    12.4550     6.2800     7.0250     2.3590 
  128.7500   -27.8180    83.8290    25.4330     6.7860     5.8270     6.5650     2.3620 
  128.8750   -27.5840    87.2980    25.4160     5.7790     5.6680     6.4900     2.3300 
  129.0000   -27.3710    85.1430    25.3580     6.8950     5.8120     6.7380     2.2870 
  129.1250   -27.1480    81.3210    25.3180     7.1330     6.2090     7.1630     2.2460 
  129.2500   -26.9670    80.9560    25.3230     6.5250     6.6480     7.5170     2.2140 
  129.3750   -26.8280    83.0440    25.3720     6.3220     6.9300     7.6250     2.1960 
  129.5000   -26.7960    84.0700    25.4520     6.5250     6.9180     7.4210     2.1880 
  129.6250   -26.8220    82.4250    25.5220     6.4660     6.5840     6.9620     2.1910 
  129.7500   -26.9160    82.0850    25.5590     6.1870     6.1070     6.4380     2.2060 
  129.8750   -27.0470    84.7220    25.6010     5.6170     5.6170     5.9690     2.2310 
  130.0000   -27.1540    87.7770    25.6800     4.9420     5.2180     5.6440     2.2580 
  130.1250   -27.2760    87.5770    25.7600     4.7890     4.9970     5.5300     2.2780 
  130.2500   -27.3570    85.8860    25.7830     4.8980     4.9120     5.5460     2.2850 
  130.3750   -27.3710    86.3750    25.7060     5.0900     4.8960     5.6110     2.2750 
  130.5000   -27.2940    87.9610    25.5290     5.3300     4.8940     5.6680     2.2550 
  130.6250   -27.1240    88.4510    25.3580     5.4530     4.9050     5.7310     2.2370 
  130.7500   -26.8930    90.0960    25.3280     5.0370     4.9670     5.8610     2.2340 
  130.8750   -26.6020    93.3850    25.4270     4.8090     5.1120     6.1040     2.2560 
  131.0000   -26.3630    95.5430    25.5330     5.8150     5.3450     6.4590     2.2920 
  131.1250   -26.1230    92.9850    25.5640     8.7930     5.6280     6.8530     2.3270 
  131.2500   -25.9070    89.3700    25.5660    10.2820     5.8750     7.1660     2.3430 
  131.3750   -25.7120    87.6070    25.5290     8.4930     6.0410     7.3520     2.3190 
  131.5000   -25.5350    86.9570    25.4100     5.9690     6.1360     7.4570     2.2720 
  131.6250   -25.4060    85.0470    25.2470     6.1500     6.2330     7.6110     2.2180 
  131.7500   -25.3150    80.8480    25.1450     6.4490     6.4180     7.9060     2.1730 
  131.8750   -25.2970    75.3800    25.1230     6.9450     6.7280     8.3480     2.1450 
  132.0000   -25.2690    71.2870    25.1270     8.6400     7.1160     8.8300     2.1290 
  132.1250   -25.2480    69.6120    25.1250    10.8280     7.4180     9.1250     2.1200 
  132.2500   -25.2270    69.5920    25.1740    11.7380     7.5100     9.1280     2.1140 
  132.3750   -25.2420    71.5360    25.3010    10.5800     7.3790     8.8570     2.1130 
  132.5000   -25.2800    75.9820    25.4680     8.7610     7.0840     8.4080     2.1230 
  132.6250   -25.3730    79.6340    25.5980     6.6190     6.7080     7.9030     2.1490 
  132.7500   -25.4290    80.5140    25.6780     6.2160     6.3390     7.4490     2.1920 
  132.8750   -25.4370    80.6760    25.7350     7.4430     6.0000     7.0680     2.2430 
  133.0000   -25.3820    82.4090    25.7820     7.8290     5.6900     6.7470     2.2870 
  133.1250   -25.2880    87.0010    25.8330     6.7000     5.4150     6.4870     2.3100 
  133.2500   -25.1660    93.4610    25.8710     5.1920     5.1870     6.2840     2.3110 
  133.3750   -25.0280    97.9270    25.8560     4.9200     5.0130     6.1310     2.2950 
  133.5000   -24.8620    95.8490    25.7950     4.8180     4.8920     6.0130     2.2770 
  133.6250   -24.6470    88.9920    25.7490     4.9240     4.8230     5.9160     2.2610 
  133.7500   -24.4690    87.0130    25.7510     4.9710     4.7770     5.8170     2.2530 
  133.8750   -24.3150    91.1310    25.7730     4.8710     4.7310     5.7060     2.2560 
  134.0000   -24.2310    97.3560    25.7870     4.7410     4.6670     5.5920     2.2630 
  134.1250   -24.1930   100.6900    25.7910     4.7410     4.5920     5.4970     2.2700 
  134.2500   -24.1590   100.7110    25.7930     4.8200     4.5260     5.4340     2.2730 
  134.3750   -24.0950    98.8460    25.7990     4.8480     4.4830     5.4120     2.2740 
  134.5000   -24.0250    96.9070    25.8130     4.7350     4.4710     5.4330     2.2810 
  134.6250   -23.9270    97.0310    25.8260     4.9920     4.4970     5.5000     2.2920 
  134.7500   -23.7930    98.7500    25.8190     5.5890     4.5480     5.5920     2.3050 
  134.8750   -23.6310   100.7770    25.7980     5.7380     4.6130     5.6930     2.3060 
  135.0000   -23.4510   100.2480    25.7820     5.2400     4.6820     5.7830     2.2970 
  135.1250   -23.2530    97.3820    25.7820     4.9930     4.7330     5.8350     2.2780 
  135.2500   -23.0870    94.4880    25.7830     5.0040     4.7520     5.8410     2.2570 
  135.3750   -22.9480    92.4440    25.7830     5.1650     4.7370     5.8060     2.2410 
  135.5000   -22.8350    91.5970    25.7840     5.3160     4.6980     5.7450     2.2330 
  135.6250   -22.7800    93.0190    25.7870     5.0640     4.6560     5.6870     2.2320 
  135.7500   -22.7760    95.2750    25.7900     4.9550     4.6380     5.6710     2.2350 
  135.8750   -22.8510    96.1310    25.7880     4.9740     4.6750     5.7350     2.2370 
  136.0000   -22.9650    96.8820    25.7850     5.0410     4.7950     5.9030     2.2350 
  136.1250   -23.1190    99.0500    25.7840     5.1950     5.0150     6.1650     2.2290 
  136.2500   -23.2410    97.8310    25.7760     5.2630     5.2680     6.4180     2.2230 
  136.3750   -23.3390    92.2170    25.7580     5.4820     5.4590     6.5450     2.2160 
  136.5000   -23.4380    87.4560    25.7560     5.8750     5.4850     6.4470     2.2120 
  136.6250   -23.4510    89.2940    25.8060     5.7570     5.2580     6.0740     2.2090 
  136.7500   -23.4240    93.0560    25.8830     5.2040     4.8700     5.5690     2.2110 
  136.8750   -23.3260    96.8370    25.9330     4.5960     4.4320     5.0730     2.2200 
  137.0000   -23.1740   103.9910    25.9530     4.1670     4.0550     4.7050     2.2330 
  137.1250   -22.9670   111.4840    26.0660     3.9470     3.8410     4.5590     2.2450 
  137.2500   -22.7640   110.9280    26.2850     3.8690     3.7830     4.5900     2.2520 
  137.3750   -22.5760   105.6530    26.4690     3.8860     3.8550     4.7430     2.2550 
  137.5000   -22.3850   103.7730    26.4280     4.1120     4.0030     4.9430     2.2590 
  137.6250   -22.2560   106.6470    26.1510     4.5050     4.1540     5.1040     2.2680 
  137.7500   -22.1720   106.9680    25.8960     4.7360     4.2610     5.2010     2.2840 
  137.8750   -22.1550   105.2960    25.8020     4.6740     4.3360     5.2900     2.3000 
  138.0000   -22.1990   103.8110    25.8380     4.5690     4.4530     5.4960     2.3090 
  138.1250   -22.2470   100.2950    25.8550     4.7880     4.7710     6.0070     2.3140 
  138.2500   -22.3350    95.8940    25.8110     5.3630     5.3490     6.8170     2.3220 
  138.3750   -22.4850    93.0440    25.7570     7.0470     6.1630     7.8050     2.3430 
  138.5000   -22.6600    91.0840    25.7400    10.6380     7.0540     8.7090     2.3740 
  138.6250   -22.8380    86.6070    25.7360    15.5150     7.6710     9.1300     2.4010 
  138.7500   -23.0170    82.0810    25.7190    15.4000     7.8510     9.0560     2.4070 
  138.8750   -23.1620    80.4760    25.7420    11.9790     7.7080     8.7500     2.3810 
  139.0000   -23.3080    82.2070    25.7940     9.3020     7.5350     8.6000     2.3370 
  139.1250   -23.4880    84.6630    25.7880     9.0100     7.6670     8.9560     2.2870 
  139.2500   -23.6410    84.9470    25.7340     9.1040     8.1660     9.7170     2.2380 
  139.3750   -23.7290    83.0290    25.7200    10.2830     8.9050    10.5920     2.1950 
  139.5000   -23.8050    80.6540    25.7660    11.8770     9.5420    11.1290     2.1630 
  139.6250   -23.9030    80.1060    25.7920    11.5240     9.5710    10.8420     2.1450 
