~V
VERS. 2.00: Ver 2.00
~W
STRT.M 61.0000:
STOP.M 236.0000:
STEP.M 0.1250:
NULL. -999.2500:
UWI. DF5057:
~C
DEPT.M :
GR.API :
RML.OHMM :
RI. :
RXO.OHMM :
CALI.CM :
DEN.GM/CC :
SP.MV :
~A
   61.0000    66.2470     2.4470     0.9550     5.9770    22.2770     2.2970     8.5920 
   61.1250    67.8730     3.8020     1.7330     6.5970    22.6520     2.2120     2.5930 
   61.2500    69.3060     4.7130     2.6400     7.0630    23.0060     2.1630    -3.3270 
   61.3750    70.5000     4.9600     3.4700     7.4530    23.2320     2.1440    -8.9070 
   61.5000    71.9840     4.8780     4.1050     7.7040    23.3170     2.1430   -13.9280 
   61.6250    73.4290     4.9180     4.5470     7.8360    23.2960     2.1470   -17.7410 
   61.7500    73.1950     5.1630     4.8880     7.8510    23.2140     2.1510   -20.3370 
   61.8750    70.9380     5.5160     5.1540     7.7140    23.0990     2.1530   -22.0780 
   62.0000    69.7080     5.8620     5.3520     7.5800    23.0870     2.1550   -23.3210 
   62.1250    72.2390     6.1030     5.4850     7.6760    23.2020     2.1540   -24.1960 
   62.2500    75.4940     6.2340     5.5700     7.8480    23.3130     2.1520   -24.8790 
   62.3750    76.3760     6.2830     5.6130     8.0400    23.3890     2.1480   -25.5060 
   62.5000    74.0780     6.2810     5.6210     8.1550    23.4390     2.1450   -26.0590 
   62.6250    70.1040     6.2610     5.6010     8.1780    23.4490     2.1460   -26.6180 
   62.7500    67.8610     6.2540     5.5730     8.2140    23.4210     2.1530   -27.1730 
   62.8750    68.3760     6.2760     5.5520     8.1940    23.3750     2.1620   -27.6510 
   63.0000    70.5520     6.3300     5.5500     8.0110    23.3440     2.1690   -28.0690 
   63.1250    71.3860     6.4080     5.5750     7.6960    23.3330     2.1710   -28.3590 
   63.2500    71.5820     6.4750     5.6070     7.6040    23.3320     2.1670   -28.5480 
   63.3750    72.1880     6.4900     5.6220     7.6400    23.3180     2.1620   -28.5000 
   63.5000    73.3840     6.4360     5.6100     7.6890    23.2230     2.1640   -28.1500 
   63.6250    75.9540     6.3340     5.5780     7.6860    22.9480     2.1790   -27.3510 
   63.7500    80.0020     6.2340     5.5420     7.3040    22.6920     2.2020   -26.2220 
   63.8750    83.9970     6.1590     5.5120     6.6630    22.7970     2.2220   -24.9870 
   64.0000    86.6350     6.1100     5.4950     6.1780    23.2260     2.2320   -23.7220 
   64.1250    87.6550     6.0720     5.4980     6.3910    23.4850     2.2270   -22.5540 
   64.2500    89.3970     6.0450     5.5240     6.2680    23.4130     2.2120   -21.5090 
   64.3750    92.0480     6.0680     5.5940     6.0340    23.3250     2.1940   -20.6520 
   64.5000    92.8820     6.1760     5.7270     5.9310    23.2850     2.1730   -20.0910 
   64.6250    89.5780     6.3670     5.9310     6.5930    23.2380     2.1510   -19.9130 
   64.7500    84.9850     6.5470     6.1490     6.9660    23.1830     2.1340   -19.9880 
   64.8750    82.3850     6.6170     6.3100     7.0140    23.1930     2.1310   -20.1310 
   65.0000    84.0390     6.4980     6.3370     6.8610    23.2800     2.1490   -20.1940 
   65.1250    89.8270     6.1590     6.1620     6.4880    23.7580     2.1900   -19.9840 
   65.2500    97.9660     5.7270     5.8600     5.6690    24.4260     2.2390   -19.5130 
   65.3750   106.0990     5.3180     5.5160     4.8570    24.8760     2.2860   -18.8270 
   65.5000   112.3500     5.0140     5.2040     4.4570    25.0310     2.3260   -17.9830 
   65.6250   115.7980     4.8690     4.9810     4.4060    25.0760     2.3570   -17.0300 
   65.7500   118.4410     4.8380     4.8350     4.4410    25.1680     2.3810   -16.0560 
   65.8750   120.9190     4.8610     4.7410     4.5130    25.3570     2.4010   -15.1380 
   66.0000   121.5460     4.8490     4.6530     4.5280    25.5000     2.4140   -14.3350 
   66.1250   118.3350     4.6930     4.5020     4.5130    25.5560     2.4170   -13.7540 
   66.2500   113.7630     4.4120     4.2900     4.4590    25.5770     2.4090   -13.3900 
   66.3750   109.8970     4.1270     4.0900     4.4550    25.6040     2.3900   -13.2150 
   66.5000   107.9530     4.0530     4.0370     4.3900    25.6260     2.3650   -13.1260 
   66.6250   109.5450     4.5650     4.3610     4.4230    25.6690     2.3510   -13.1350 
   66.7500   110.6780     5.8370     5.1850     5.3480    25.7140     2.3640   -13.2470 
   66.8750   105.1630     7.9620     6.6410     8.3150    25.7180     2.4080   -13.4910 
   67.0000    92.5180    10.7420     8.7280    15.3880    25.6930     2.4740   -13.8710 
   67.1250    78.3500    13.3340    10.9910    22.8340    25.6790     2.5290   -14.4410 
   67.2500    68.4100    14.6200    12.3980    25.8980    25.6700     2.5420   -15.1540 
   67.3750    63.9220    14.1840    12.3640    20.8610    25.7130     2.4990   -16.0040 
   67.5000    64.0530    12.6080    11.2400    14.0650    25.8970     2.4130   -16.9410 
   67.6250    65.1430    10.9860     9.9050     9.8370    26.1610     2.3110   -17.9200 
   67.7500    64.8090     9.9750     8.9330     8.5170    26.3010     2.2270   -18.8850 
   67.8750    65.4790     9.6350     8.4130     8.3430    26.3250     2.1740   -19.7300 
   68.0000    68.2150     9.7780     8.2740     8.3660    26.2920     2.1510   -20.4630 
   68.1250    70.3070    10.1560     8.4090     8.4270    26.2490     2.1470   -20.9850 
   68.2500    69.9650    10.5220     8.6290     8.5050    26.2100     2.1480   -21.3200 
   68.3750    69.7140    10.7810     8.8370     8.4610    26.2120     2.1510   -21.4790 
   68.5000    70.9530    10.9060     8.9890     8.3370    26.1960     2.1540   -21.5740 
   68.6250    72.5490    10.8870     9.0670     8.4010    26.0660     2.1570   -21.5990 
   68.7500    72.1120    10.7750     9.0900     8.5710    25.8320     2.1590   -21.5940 
   68.8750    69.3700    10.6190     9.0700     8.6610    25.5750     2.1580   -21.6250 
   69.0000    66.9030    10.4750     9.0230     8.6060    25.3670     2.1540   -21.6430 
   69.1250    67.5550    10.4030     8.9730     8.5110    25.3240     2.1520   -21.7160 
   69.2500    71.0710    10.4300     8.9560     8.5100    25.2900     2.1540   -21.7980 
   69.3750    74.9720    10.5790     9.0070     8.6790    25.0610     2.1550   -21.8750 
   69.5000    76.9030    10.8480     9.1460     8.8960    24.6790     2.1530   -21.8890 
   69.6250    75.2610    11.2030     9.3660     9.1440    24.3630     2.1500   -21.8390 
   69.7500    72.0350    11.5310     9.5910     9.1240    24.1270     2.1590   -21.6920 
   69.8750    68.9980    11.7170     9.7420     8.8960    23.8520     2.1840   -21.4500 
   70.0000    66.5810    11.6720     9.7480     8.6500    23.4760     2.2200   -21.1910 
   70.1250    66.0650    11.3680     9.5730     8.5970    23.1720     2.2480   -20.9360 
   70.2500    67.8890    10.9600     9.3080     8.6840    23.1100     2.2540   -20.7150 
   70.3750    70.6330    10.5760     9.0400     8.6570    23.2400     2.2370   -20.5760 
   70.5000    71.3930    10.3180     8.8430     8.6750    23.3810     2.2080   -20.4860 
   70.6250    69.8730    10.2510     8.7760     8.7850    23.4560     2.1800   -20.3970 
   70.7500    68.1530    10.2780     8.7920     8.9070    23.4840     2.1620   -20.3140 
   70.8750    66.2130    10.2650     8.8020     9.0260    23.5260     2.1550   -20.1760 
   71.0000    64.0050    10.0670     8.6910     9.1560    23.6230     2.1600   -19.8960 
   71.1250    65.0320     9.5560     8.3480     9.0710    23.8060     2.1740   -19.3520 
   71.2500    70.8450     8.8250     7.8250     8.1770    24.0390     2.1890   -18.5530 
   71.3750    80.1750     8.0160     7.2210     6.6670    24.3850     2.2020   -17.5690 
   71.5000    89.3150     7.2790     6.6490     5.5730    24.7950     2.2120   -16.5460 
   71.6250    94.7660     6.7550     6.2150     5.4150    24.8840     2.2180   -15.5730 
   71.7500    95.9670     6.4360     5.9290     5.6800    24.7200     2.2260   -14.6560 
   71.8750    94.6910     6.2920     5.7780     5.7830    24.5490     2.2380   -13.8070 
   72.0000    94.6060     6.2760     5.7360     5.5160    24.5090     2.2530   -13.0630 
   72.1250    98.2100     6.3620     5.7780     5.2430    24.6750     2.2710   -12.5320 
