~V
VERS. 2.00: Ver 2.00
~W
STRT.M 55.0000:
STOP.M 278.0000:
STEP.M 0.1250:
NULL. -999.2500:
UWI. DF5019:
~C
DEPT.M :
DEN.GM/CC :
GR.API :
CALI.CM :
RXO.OHMM :
RI. :
RML.OHMM :
SP.MV :
~A
# ...
  257.5000     2.4000    65.3350    24.2530     6.0470     5.2720     7.1830   -10.2850 
  257.6250     2.3930    66.2750    24.2530     6.1860     5.5620     7.4850   -10.2340 
  257.7500     2.3870    66.4490    24.2530     6.2760     5.8570     7.7920   -10.1840 
  257.8750     2.3800    65.2950    24.2530     6.2690     6.0960     8.0400   -10.1110 
  258.0000     2.3670    65.1190    24.2530     6.1500     6.1800     8.1270   -10.0410 
  258.1250     2.3540    65.8820    24.2530     5.9650     6.0400     7.9810    -9.9860 
  258.2500     2.3460    65.4800    24.2530     5.7730     5.7740     7.7040    -9.9370 
  258.3750     2.3420    65.2800    24.2530     5.5980     5.4760     7.3950    -9.9290 
  258.5000     2.3380    65.5630    24.2530     5.4610     5.2450     7.1550    -9.8940 
  258.6250     2.3360    64.9420    24.2530     5.3750     5.1550     7.0610    -9.7720 
  258.7500     2.3360    64.6260    24.2530     5.3170     5.1610     7.0670    -9.6500 
  258.8750     2.3410    65.9990    24.2530     5.3120     5.2190     7.1280    -9.5600 
  259.0000     2.3390    68.7420    24.2530     5.4020     5.2740     7.1850    -9.5100 
  259.1250     2.3270    70.2050    24.2530     5.5240     5.2340     7.1440    -9.4600 
  259.2500     2.3150    70.6550    24.2530     5.5150     5.0620     6.9640    -9.3850 
  259.3750     2.3200    70.3320    24.2530     5.3740     4.8230     6.7160    -9.2280 
  259.5000     2.3410    69.1570    24.2550     5.2270     4.6590     6.5460    -9.0830 
  259.6250     2.3530    67.6520    24.2600     5.1610     4.7050     6.5940    -8.9820 
  259.7500     2.3530    65.8160    24.2640     5.1280     4.8890     6.7840    -8.8660 
  259.8750     2.3630    64.5130    24.2650     5.0980     5.0960     7.0000    -8.7140 
  260.0000     2.3830    63.7650    24.2670     5.0870     5.2060     7.1140    -8.5220 
  260.1250     2.3870    63.6820    24.2680     5.1140     5.1540     7.0600    -8.3110 
  260.2500     2.3650    64.9330    24.2820     5.1660     5.0320     6.9330    -8.1530 
  260.3750     2.3430    67.3950    24.3030     5.2360     4.9130     6.8100    -8.0950 
  260.5000     2.3450    71.5940    24.3410     5.3140     4.8180     6.7110    -8.0280 
  260.6250     2.3580    75.2460    24.4010     5.4040     4.7450     6.6350    -7.9790 
  260.7500     2.3630    74.7470    24.4750     5.4930     4.7110     6.6000    -7.9570 
  260.8750     2.3600    69.8270    24.5230     5.5730     4.7640     6.6550    -7.9500 
  261.0000     2.3610    65.6820    24.5090     5.6560     4.9270     6.8240    -7.9360 
  261.1250     2.3750    67.4620    24.3710     5.7600     5.1710     7.0780    -7.9480 
  261.2500     2.3950    71.6710    24.2820     5.8760     5.4000     7.3160    -7.9760 
  261.3750     2.4090    72.5060    24.2640     5.9900     5.5420     7.4640    -7.9390 
  261.5000     2.4070    69.5830    24.2900     6.0690     5.5800     7.5030    -7.9240 
  261.6250     2.3930    68.6080    24.3030     6.0940     5.5360     7.4570    -7.9930 
  261.7500     2.3750    71.2670    24.2900     6.0880     5.4670     7.3860    -8.0370 
  261.8750     2.3590    74.3910    24.2530     6.1030     5.4180     7.3350    -8.0170 
  262.0000     2.3550    74.0870    24.2050     6.1420     5.4050     7.3220    -8.0030 
  262.1250     2.3630    70.9770    24.1700     6.1800     5.3980     7.3140    -8.0260 
  262.2500     2.3780    68.4040    24.1650     6.2120     5.3650     7.2790    -7.9880 
  262.3750     2.3910    66.3610    24.1950     6.2490     5.3100     7.2230    -7.9360 
  262.5000     2.3920    65.7270    24.2660     6.2240     5.2670     7.1780    -7.9120 
  262.6250     2.3880    66.6890    24.2810     6.1350     5.2730     7.1840    -7.8670 
  262.7500     2.3860    68.4760    24.2480     6.0400     5.3090     7.2210    -7.8450 
  262.8750     2.3930    69.9840    24.1850     5.9710     5.3340     7.2470    -7.8720 
  263.0000     2.4020    69.9270    24.1360     5.9320     5.3000     7.2120    -7.8810 
  263.1250     2.4020    69.3420    24.1030     5.9960     5.1860     7.0930    -7.7910 
  263.2500     2.3950    70.3430    24.0920     6.1990     5.0520     6.9540    -7.7290 
  263.3750     2.3900    71.4650    24.0900     6.4300     4.9480     6.8460    -7.7070 
  263.5000     2.3970    71.0060    24.0910     6.4970     4.9160     6.8120    -7.6680 
  263.6250     2.4020    69.1490    24.0930     6.3240     4.9590     6.8570    -7.5750 
  263.7500     2.3980    67.0000    24.1010     6.1430     5.0500     6.9520    -7.4760 
  263.8750     2.3890    64.8690    24.1080     6.1360     5.2000     7.1080    -7.3810 
  264.0000     2.3850    61.5250    24.1040     6.3550     5.3990     7.3150    -7.3020 
  264.1250     2.3870    58.7240    24.1070     6.8010     5.5990     7.5230    -7.2440 
  264.2500     2.3890    58.9360    24.1130     7.1530     5.7320     7.6610    -7.1800 
  264.3750     2.3860    61.5400    24.1060     7.1520     5.7660     7.6970    -7.0610 
  264.5000     2.3790    64.0210    24.1070     6.9120     5.7140     7.6430    -6.9240 
  264.6250     2.3720    64.9770    24.1290     6.8330     5.6300     7.5560    -6.7760 
  264.7500     2.3720    67.0830    24.1550     6.8640     5.6080     7.5320    -6.6250 
  264.8750     2.3760    69.4720    24.1440     7.0280     5.6680     7.5950    -6.5010 
  265.0000     2.3840    69.4260    24.1120     7.3640     5.7630     7.6930    -6.3930 
  265.1250     2.3970    68.0440    24.1080     7.6630     5.8180     7.7510    -6.3210 
  265.2500     2.4180    68.9960    24.1200     7.5100     5.7780     7.7090    -6.2980 
  265.3750     2.4390    71.2130    24.1300     7.1490     5.6420     7.5680    -6.3710 
  265.5000     2.4470    70.9550    24.1250     6.9880     5.4780     7.3980    -6.4900 
  265.6250     2.4430    68.0880    24.1120     6.9240     5.4000     7.3160    -6.5860 
  265.7500     2.4350    66.9440    24.0930     6.8150     5.4280     7.3450    -6.6520 
  265.8750     2.4320    67.6650    24.0850     6.6950     5.5040     7.4240    -6.6670 
  266.0000     2.4300    68.6430    24.0850     6.6470     5.5620     7.4850    -6.6610 
  266.1250     2.4250    70.2110    24.0760     6.8070     5.5690     7.4920    -6.6000 
  266.2500     2.4210    71.4750    24.0720     6.9730     5.5620     7.4850    -6.4870 
  266.3750     2.4200    70.6360    24.0750     7.0080     5.6080     7.5320    -6.3100 
  266.5000     2.4170    69.0080    24.0870     6.9900     5.7340     7.6630    -6.1060 
  266.6250     2.4070    69.0070    24.0860     7.0080     5.8920     7.8270    -5.9350 
  266.7500     2.3970    69.0070    24.0820     6.9400     5.9930     7.9330    -5.7980 
  266.8750     2.3950    69.0070    24.0680     6.8380     5.9960     7.9360    -5.6930 
  267.0000     2.4070    69.0070    24.0290     7.0010     5.9150     7.8520    -5.6000 
  267.1250     2.4180    69.0070    24.0090     7.8380     5.8200     7.7530    -5.5680 
  267.2500     2.4170    69.0070    24.0050     9.2100     5.7810     7.7120    -5.5750 
  267.3750     2.4000    69.0070    24.0140    10.3490     5.8070     7.7390    -5.6240 
  267.5000     2.3820    69.0070    24.0450    10.3230     5.8500     7.7840    -5.6910 
  267.6250     2.3740    69.0070    24.1270     9.0410     5.8570     7.7910    -5.7920 
  267.7500     2.3800    69.0070    24.2180     7.7890     5.8400     7.7740    -5.8960 
  267.8750     2.3940    69.0070    24.2670     6.9910     5.8230     7.7550    -5.9990 
  268.0000     2.4070    69.0070    24.2830     6.5620     5.8180     7.7510    -6.0940 
  268.1250     2.4180    69.0070    24.2840     6.3730     5.8020     7.7340    -6.1500 
  268.2500     2.4310    69.0070    24.2750     6.3920     5.7440     7.6740    -6.1640 
  268.3750     2.4440    69.0070    24.2740     6.6050     5.6730     7.6000    -6.1140 
  268.5000     2.4490    69.0070    24.2760     6.9930     5.6550     7.5810    -6.0390 
  268.6250     2.4440    69.0070    24.2800     7.4030     5.7420     7.6720    -5.9220 
