~V
VERS. 2.00: Ver 2.00
~W
STRT.M 55.0000:
STOP.M 268.0000:
STEP.M 0.1250:
NULL. -999.2500:
UWI. DF5007:
~C
DEPT.M :
SP.MV :
GR.API :
RML.OHMM :
RI. :
RXO.OHMM :
CALI.CM :
DEN.GM/CC :
~A
# ...
  212.5000   -10.6200    89.6010    10.0250     7.5260     7.4310    22.1270     2.3960 
  212.6250   -10.8100    86.4900    10.4500     7.7970     7.9820    22.1520     2.3930 
  212.7500   -11.0880    82.9370    10.7300     7.9830     8.4390    22.1100     2.3950 
  212.8750   -11.3290    82.3020    10.8110     8.0580     8.7620    21.9370     2.4010 
  213.0000   -11.5790    85.2840    10.7270     8.0310     8.7820    21.7500     2.4060 
  213.1250   -11.8540    87.4210    10.6260     7.9690     8.5160    21.6250     2.4060 
  213.2500   -12.1320    86.3130    10.7360     8.0160     8.4520    21.5280     2.4020 
  213.3750   -12.4100    85.9070    11.3170     8.3640     8.6740    21.4770     2.3940 
  213.5000   -12.6360    88.2920    12.6500     9.2790     9.1570    21.5020     2.3820 
  213.6250   -12.8910    87.7750    15.3470    11.3720    10.8500    21.6340     2.3620 
  213.7500   -13.1580    82.4480    19.8050    15.0640    15.3560    21.8730     2.3360 
  213.8750   -13.4070    74.6890    26.5990    20.8520    24.2530    22.2630     2.3070 
  214.0000   -13.6860    68.2730    36.0180    28.9300    37.9050    22.5920     2.2790 
  214.1250   -13.8180    65.2450    47.9090    39.1140    61.4950    22.7290     2.2580 
  214.2500   -14.0070    64.0860    60.2780    49.7620    84.5130    22.7510     2.2430 
  214.3750   -14.1180    63.4820    70.9830    59.2180    94.8280    22.7390     2.2330 
  214.5000   -14.1630    63.5860    78.1790    66.0780    90.6750    22.6970     2.2250 
  214.6250   -14.1580    63.3670    81.0500    69.5650    84.3050    22.6070     2.2180 
  214.7500   -14.0380    61.8830    81.9160    71.2310    78.6100    22.5130     2.2100 
  214.8750   -13.9310    60.4040    82.5600    72.3940    74.6350    22.4520     2.2000 
  215.0000   -13.7360    59.3590    84.0770    74.0430    72.9900    22.3910     2.1870 
  215.1250   -13.5990    59.2430    86.7280    76.6010    75.0530    22.2220     2.1740 
  215.2500   -13.3490    60.1180    89.3160    79.3780    79.1490    21.9520     2.1700 
  215.3750   -13.1630    62.7240    90.7040    81.5080    84.1360    21.6030     2.1800 
  215.5000   -12.9680    65.3530    90.0750    82.0850    86.3380    21.2560     2.2060 
  215.6250   -12.7150    66.0750    86.4600    80.0230    80.4050    21.0330     2.2420 
  215.7500   -12.5190    66.3660    80.9630    75.4590    73.8280    20.8700     2.2720 
  215.8750   -12.2920    66.1470    74.3810    68.8020    70.3560    20.6210     2.2880 
  216.0000   -12.1500    64.0040    67.7070    61.0700    64.2080    20.2590     2.2870 
  216.1250   -11.9400    61.1000    61.9170    53.6240    52.0930    19.9740     2.2730 
  216.2500   -11.7870    60.3310    54.9770    47.3860    43.8620    20.0860     2.2580 
  216.3750   -11.6990    63.4090    50.2230    42.8380    39.5190    20.5890     2.2480 
  216.5000   -11.6140    67.1240    47.7150    40.2010    32.6720    21.2130     2.2440 
  216.6250   -11.6410    68.0150    47.6610    39.7340    28.2150    21.4710     2.2440 
  216.7500   -11.6780    68.3020    49.4590    40.9300    30.3660    21.5170     2.2450 
  216.8750   -11.7700    68.9910    52.7250    43.5090    37.0870    21.4570     2.2450 
  217.0000   -11.9200    68.4440    56.8730    47.0120    42.7290    21.3960     2.2420 
  217.1250   -12.0860    65.4020    61.1830    50.8950    44.6220    21.3930     2.2330 
  217.2500   -12.3680    62.1490    65.0710    54.6170    45.2380    21.4060     2.2220 
  217.3750   -12.5730    60.7990    68.1970    57.8390    45.1710    21.3950     2.2140 
  217.5000   -12.8110    60.9360    70.4800    60.3690    46.8680    21.3830     2.2130 
  217.6250   -13.0740    62.1100    72.2060    62.2470    48.0970    21.4160     2.2260 
  217.7500   -13.3060    62.4410    73.8320    63.8360    46.6580    21.4400     2.2440 
  217.8750   -13.5650    60.9460    75.3130    65.1560    45.1970    21.4440     2.2590 
  218.0000   -13.7090    60.6880    76.4360    66.1010    45.2780    21.4380     2.2610 
  218.1250   -13.9620    64.7040    76.7800    66.4270    45.7460    21.4570     2.2480 
  218.2500   -14.0600    68.6280    76.2660    66.0860    46.6960    21.5220     2.2280 
  218.3750   -14.1260    69.0730    74.9660    65.0790    49.0810    21.6050     2.2120 
  218.5000   -14.2280    67.0460    73.2140    63.6490    49.8020    21.6530     2.2060 
  218.6250   -14.1980    65.8040    71.6870    62.3010    46.3480    21.6650     2.2120 
  218.7500   -14.1950    64.9440    71.1600    61.6450    44.0740    21.6650     2.2230 
  218.8750   -14.1370    63.6810    72.3370    62.3100    44.6280    21.6630     2.2300 
  219.0000   -14.0210    62.6010    75.9020    64.9930    46.7260    21.6620     2.2310 
  219.1250   -13.9030    62.0110    83.0200    70.8940    49.2800    21.6670     2.2230 
  219.2500   -13.7930    62.9350    93.9010    80.1290    54.4870    21.6830     2.2100 
  219.3750   -13.6740    64.2660   109.1580    92.9660    64.9320    21.7170     2.1980 
  219.5000   -13.5890    64.3430   129.0910   109.3220    80.0640    21.7550     2.1900 
  219.6250   -13.5420    62.4500   153.6760   128.8820    95.5080    21.8080     2.1900 
  219.7500   -13.4610    61.5820   180.3210   149.7840   113.7300    21.8950     2.1960 
  219.8750   -13.4170    62.7040   206.6790   170.5400   136.4680    22.0130     2.2020 
  220.0000   -13.4240    63.9650   230.0840   189.6000   158.6430    22.1650     2.2040 
  220.1250   -13.4370    63.2970   246.9630   204.9460   183.0360    22.3700     2.1990 
  220.2500   -13.4160    62.1690   256.4910   216.1030   207.8960    22.5380     2.1920 
  220.3750   -13.4220    61.2220   257.3360   222.1780   224.6210    22.6280     2.1860 
  220.5000   -13.3400    59.6970   247.8210   221.7370   223.7540    22.6380     2.1830 
  220.6250   -13.2710    57.9350   224.9840   211.5460   224.2370    22.5970     2.1800 
  220.7500   -13.2360    57.8870   192.6370   192.4420   222.7860    22.5740     2.1730 
  220.8750   -13.1190    59.4310   155.3890   165.8910   208.5370    22.5680     2.1640 
  221.0000   -13.0960    59.6320   119.0930   135.1830   185.1690    22.5480     2.1590 
  221.1250   -12.9540    58.5780    89.4550   105.1350   150.9260    22.4300     2.1670 
  221.2500   -12.9100    59.7550    67.0260    79.4670   102.1760    22.2180     2.1890 
  221.3750   -12.8710    62.9910    51.0810    59.6340    57.3440    22.0130     2.2190 
  221.5000   -12.7910    66.7680    40.2070    45.5320    33.6210    21.8470     2.2510 
  221.6250   -12.8160    69.9660    33.5900    36.9570    26.3890    21.8340     2.2730 
  221.7500   -12.7580    73.0310    29.7500    31.9790    23.4990    22.0550     2.2810 
  221.8750   -12.7870    75.3920    28.2240    29.7720    22.7690    22.3060     2.2690 
  222.0000   -12.8290    76.3410    28.8400    29.9190    23.1410    22.3580     2.2360 
  222.1250   -12.9130    74.7630    32.0760    32.8250    24.3350    22.1220     2.1840 
  222.2500   -13.0730    73.8270    37.7040    38.2400    27.3390    21.8760     2.1330 
  222.3750   -13.2150    75.1890    45.6920    46.0580    35.0330    21.7350     2.0990 
  222.5000   -13.4580    74.7150    55.7520    55.8320    53.4950    21.6950     2.0880 
  222.6250   -13.7300    69.0540    67.2290    66.7190    70.7870    21.8700     2.0950 
  222.7500   -13.9980    63.6010    78.5420    77.1210    77.6860    22.1610     2.1020 
  222.8750   -14.2760    62.6970    88.4280    85.8670    82.3490    22.4450     2.1020 
  223.0000   -14.5330    63.4660    96.1290    92.3460    84.5190    22.5570     2.0970 
  223.1250   -14.7620    63.8230   101.2250    96.2070    84.3930    22.5650     2.0970 
  223.2500   -14.9820    65.3190   104.7960    98.5010    83.2580    22.5910     2.1080 
  223.3750   -15.1780    66.4490   107.5600    99.8980    87.8630    22.6180     2.1250 
  223.5000   -15.3630    65.9180   109.6040   100.5960    98.0710    22.6520     2.1420 
  223.6250   -15.4750    64.7310   110.0120    99.9960   107.1670    22.7190     2.1530 
