~V
VERS. 2.00: Ver 2.00
~W
STRT.M 59.0000:
STOP.M 275.0000:
STEP.M 0.1250:
NULL. -999.2500:
UWI. DF5021:
~C
DEPT.M :
SP.MV :
GR.API :
CALI.CM :
RXO.OHMM :
RI. :
RML.OHMM :
DEN.GM/CC :
~A
# ...
  239.0000   -26.4650    79.3960    24.2430    60.5050    51.0050    54.6210     2.2680 
  239.1250   -26.5410    80.7410    24.2160    55.0080    49.8800    53.4220     2.2860 
  239.2500   -26.6440    81.1090    24.2190    52.8110    50.0020    53.5520     2.3000 
  239.3750   -26.7900    80.4400    24.2500    52.9120    51.6400    55.2970     2.2980 
  239.5000   -26.8720    79.4650    24.2570    54.4590    54.3390    58.1710     2.2880 
  239.6250   -27.0230    78.2080    24.2460    59.7400    57.6230    61.6690     2.2780 
  239.7500   -27.1670    76.9990    24.2150    71.6090    60.8300    65.0840     2.2690 
  239.8750   -27.2840    76.5830    24.2130    84.7620    63.0950    67.4960     2.2620 
  240.0000   -27.3560    76.4320    24.2380    89.3400    64.1910    68.6640     2.2630 
  240.1250   -27.4740    75.7960    24.2620    83.4620    64.2870    68.7660     2.2680 
  240.2500   -27.5630    75.6890    24.2570    73.5470    63.8680    68.3200     2.2710 
  240.3750   -27.6370    77.8750    24.2360    67.2560    63.6330    68.0690     2.2690 
  240.5000   -27.7770    80.3700    24.2520    65.2820    64.1080    68.5750     2.2680 
  240.6250   -27.7950    80.4300    24.2830    66.7740    65.4930    70.0500     2.2660 
  240.7500   -27.9170    77.5890    24.3010    72.1980    67.6330    72.3290     2.2560 
  240.8750   -27.9870    74.6940    24.2970    81.3520    69.9820    74.8310     2.2380 
  241.0000   -28.0150    74.3690    24.2870    88.4540    71.8290    76.7980     2.2270 
  241.1250   -28.1000    75.9590    24.2620    88.9750    72.7890    77.8200     2.2340 
  241.2500   -28.0860    77.0630    24.1840    82.9210    72.8370    77.8720     2.2530 
  241.3750   -28.1290    76.5840    24.0150    76.8320    72.2880    77.2870     2.2740 
  241.5000   -28.0580    76.3750    23.8700    72.1840    71.8960    76.8700     2.2840 
  241.6250   -28.0100    76.8850    23.7580    65.8150    72.3220    77.3230     2.2790 
  241.7500   -27.9100    76.9580    23.6280    55.3940    74.1200    79.2380     2.2630 
  241.8750   -27.7370    75.9460    23.4470    45.5090    77.8120    83.1700     2.2480 
  242.0000   -27.6300    74.7280    23.3110    44.8140    82.8310    88.5140     2.2390 
  242.1250   -27.3790    73.2280    23.2770    57.9420    88.3760    94.4200     2.2300 
  242.2500   -27.1910    71.7200    23.3700    84.6930    93.2350    99.5950     2.2170 
  242.3750   -26.9300    72.4160    23.4840   105.3140    95.4910   101.9980     2.2160 
  242.5000   -26.6690    75.6440    23.4130   105.5190    94.3670   100.8010     2.2310 
  242.6250   -26.4270    79.3740    23.1820    88.8870    89.6750    95.8040     2.2550 
  242.7500   -26.1070    81.8390    22.9570    70.9830    82.0670    87.7010     2.2740 
  242.8750   -25.8830    83.0740    22.9980    61.4980    72.8530    77.8890     2.2870 
  243.0000   -25.5460    83.6850    23.3210    56.8440    63.9710    68.4290     2.2990 
  243.1250   -25.3230    83.3800    23.7070    54.4890    56.5800    60.5580     2.3040 
  243.2500   -25.0760    82.3770    23.9380    52.8670    51.3770    55.0160     2.3000 
  243.3750   -24.8550    81.4170    24.0030    50.3870    49.1200    52.6130     2.2900 
  243.5000   -24.6970    80.1870    24.0120    48.0970    49.5860    53.1090     2.2840 
  243.6250   -24.4680    78.3130    24.0030    48.0420    53.0270    56.7740     2.2830 
  243.7500   -24.3610    76.4740    23.9970    51.9820    59.7640    63.9480     2.2770 
  243.8750   -24.1750    75.6260    24.0030    61.5650    70.5210    75.4050     2.2620 
  244.0000   -24.0660    74.7450    24.0130    75.2480    84.2760    90.0540     2.2450 
  244.1250   -23.8980    72.7000    24.0180    92.2400    99.4500   106.2150     2.2300 
  244.2500   -23.6910    70.0130    24.0440   115.2870   113.1870   120.8440     2.2170 
  244.3750   -23.4580    69.1900    24.1630   150.7660   120.7400   128.8880     2.2180 
  244.5000   -23.1260    71.0320    24.3570   180.5940   120.3880   128.5140     2.2420 
  244.6250   -22.8470    74.2570    24.5150   184.3650   112.3360   119.9380     2.2850 
  244.7500   -22.4280    77.2860    24.5880   158.1020    99.0210   105.7570     2.3320 
  244.8750   -22.0720    79.7580    24.5930   117.8850    84.0950    89.8610     2.3710 
  245.0000   -21.6530    82.3420    24.5510    83.4700    70.9600    75.8720     2.3960 
  245.1250   -21.2510    85.1400    24.4450    59.5830    61.0690    65.3390     2.4010 
  245.2500   -20.8780    88.1360    24.2730    47.1670    54.7700    58.6300     2.3840 
  245.3750   -20.5040    90.5500    24.0200    44.0980    51.9790    55.6570     2.3590 
  245.5000   -20.2150    90.8200    23.7740    43.3900    51.4180    55.0600     2.3470 
  245.6250   -19.8450    89.2150    23.6520    42.3230    52.7430    56.4710     2.3530 
  245.7500   -19.6080    88.3330    23.7360    43.6970    55.8960    59.8300     2.3800 
  245.8750   -19.2980    89.3990    23.9370    52.3410    61.3060    65.5910     2.4240 
  246.0000   -19.0570    88.7700    24.1350    63.8240    68.6870    73.4510     2.4730 
  246.1250   -18.7930    84.6980    24.2490    74.4780    77.6350    82.9810     2.5200 
  246.2500   -18.5380    79.3520    24.2920    98.5670    87.1430    93.1070     2.5630 
  246.3750   -18.2890    76.7630    24.3210   171.8090    95.2720   101.7640     2.5990 
  246.5000   -18.0120    76.5150    24.3850   265.0210   100.4240   107.2520     2.6240 
  246.6250   -17.8240    76.5530    24.4940   305.7790   101.8140   108.7320     2.6290 
  246.7500   -17.5420    75.9650    24.5660   259.1060    99.9690   106.7670     2.6130 
  246.8750   -17.3390    75.6170    24.5660   169.5270    96.5610   103.1370     2.5860 
  247.0000   -17.0510    75.9580    24.5310   107.8150    93.7740   100.1700     2.5650 
  247.1250   -16.8420    76.2760    24.5130    80.5950    92.3720    98.6760     2.5620 
  247.2500   -16.5990    76.5220    24.5530    72.6540    91.6910    97.9510     2.5770 
  247.3750   -16.3760    78.6620    24.5710    80.5100    89.1450    95.2400     2.6050 
  247.5000   -16.1600    82.1580    24.5530   109.7220    82.5700    88.2370     2.6430 
  247.6250   -15.8940    83.5490    24.5280   157.5050    71.4450    76.3890     2.6830 
  247.7500   -15.7180    79.9360    24.5410   187.4490    57.2440    61.2650     2.7010 
  247.8750   -15.4640    73.4990    24.5740   161.6410    42.8900    45.9780     2.6640 
  248.0000   -15.3320    70.0530    24.5670   104.0170    30.8190    33.1230     2.5930 
  248.1250   -15.1480    70.7860    24.5070    52.2580    21.8910    23.6140     2.5280 
  248.2500   -15.0340    73.0430    24.4560    22.3200    16.0040    17.3450     2.4900 
  248.3750   -14.9680    74.0530    24.4500    12.0480    12.8270    13.9600     2.4680 
  248.5000   -14.8970    74.5320    24.4640     9.4050    11.1240    12.1480     2.4450 
  248.6250   -14.9500    76.1040    24.4660     9.1690    10.3270    11.2980     2.4260 
  248.7500   -14.9150    79.4540    24.4320     9.3970    10.0600    11.0140     2.4160 
  248.8750   -14.9960    82.6820    24.4450     9.5850    10.1080    11.0650     2.4120 
  249.0000   -15.0240    82.5710    24.4940     9.7560    10.2540    11.2210     2.4060 
  249.1250   -15.0450    78.4010    24.5320     9.9600    10.4080    11.3850     2.4020 
  249.2500   -15.0870    73.1670    24.4890    10.1970    10.5260    11.5100     2.4070 
  249.3750   -15.0660    71.4700    24.3590    10.4870    10.5880    11.5770     2.4200 
  249.5000   -15.1290    73.2980    24.2590    10.7770    10.6080    11.5970     2.4310 
  249.6250   -15.0710    76.3670    24.1610    10.8650    10.5890    11.5770     2.4340 
  249.7500   -15.1290    78.3940    24.0510    10.6890    10.5360    11.5210     2.4340 
  249.8750   -15.1290    77.9610    23.9720    10.5590    10.4580    11.4380     2.4360 
  250.0000   -15.1150    76.2440    23.9840    10.6470    10.3750    11.3500     2.4370 
  250.1250   -15.2100    74.9190    23.9850    10.8340    10.3050    11.2750     2.4390 
