~V
VERS. 2.00: Ver 2.00
~W
STRT.M 59.0000:
STOP.M 243.0000:
STEP.M 0.1250:
NULL. -999.2500:
UWI. DF5058:
~C
DEPT.M :
GR.API :
CALI.CM :
RXO.OHMM :
RI. :
RML.OHMM :
DEN.GM/CC :
SP.MV :
~A
# ...
  137.7500    57.6660    24.6150    18.9530    18.4270    20.5310     2.4540   -22.9500 
  137.8750    60.5680    24.4900    18.1210    18.5030    20.4960     2.4430   -23.0280 
  138.0000    61.8990    24.4510    17.4940    18.3850    20.1990     2.4440   -23.0260 
  138.1250    62.7000    24.5680    17.1980    17.9960    19.5970     2.4550   -23.1430 
  138.2500    64.2170    24.6880    16.7740    17.4110    18.8140     2.4630   -23.2060 
  138.3750    63.2860    24.7060    15.8590    16.7360    17.9940     2.4640   -23.3750 
  138.5000    59.3860    24.6650    14.9790    16.1270    17.3210     2.4610   -23.3900 
  138.6250    56.7860    24.6660    13.8240    15.7880    17.0240     2.4620   -23.4850 
  138.7500    58.2330    24.7090    13.0150    15.7810    17.1400     2.4690   -23.6300 
  138.8750    60.8420    24.7650    13.6090    16.1190    17.6380     2.4790   -23.6130 
  139.0000    62.5110    24.8080    16.3500    16.7220    18.3630     2.4840   -23.7120 
  139.1250    63.1760    24.8180    18.1520    17.3730    18.9950     2.4770   -23.7870 
  139.2500    62.3460    24.8090    18.2040    17.7820    19.2380     2.4660   -23.8710 
  139.3750    60.7140    24.7880    16.8160    17.7660    18.9570     2.4580   -23.9730 
  139.5000    58.0710    24.7170    15.9130    17.2980    18.2070     2.4570   -24.0480 
  139.6250    54.8350    24.5730    15.2850    16.5080    17.2140     2.4610   -24.1470 
  139.7500    53.8920    24.4410    14.4880    15.7150    16.3350     2.4650   -24.2190 
  139.8750    56.3110    24.3750    13.8920    15.1240    15.7810     2.4680   -24.2600 
  140.0000    59.7630    24.3410    13.3390    14.8460    15.6390     2.4690   -24.3340 
  140.1250    59.7830    24.2810    13.4600    14.9370    15.9090     2.4700   -24.3970 
  140.2500    56.6160    24.2270    13.9880    15.2280    16.3270     2.4720   -24.4640 
  140.3750    52.6760    24.2260    14.6970    15.5230    16.6390     2.4740   -24.5040 
  140.5000    50.3110    24.2710    15.0090    15.6170    16.6290     2.4770   -24.5490 
  140.6250    51.6860    24.3140    14.8810    15.3450    16.1940     2.4790   -24.6200 
  140.7500    54.8940    24.3100    13.8890    14.8560    15.5880     2.4810   -24.6120 
  140.8750    57.8620    24.2900    12.7240    14.3540    15.0840     2.4830   -24.7480 
  141.0000    57.8730    24.2940    12.3650    14.0450    14.9100     2.4830   -24.7970 
  141.1250    54.0670    24.3010    12.6000    14.1260    15.2510     2.4840   -24.8150 
  141.2500    50.1820    24.2810    13.2940    14.5660    15.9810     2.4870   -24.8930 
  141.3750    48.4610    24.2430    14.2840    15.2770    16.9240     2.4910   -24.8450 
  141.5000    48.6420    24.2330    15.3610    16.0710    17.8280     2.4930   -24.9780 
  141.6250    51.2000    24.3310    15.8220    16.6580    18.3700     2.4890   -24.9860 
  141.7500    57.2570    24.5230    16.9110    16.9020    18.4850     2.4810   -25.0390 
  141.8750    62.9060    24.7280    17.1800    16.8250    18.2640     2.4700   -25.1080 
  142.0000    62.3610    24.8550    16.1160    16.5720    17.9220     2.4590   -25.1340 
  142.1250    57.1440    24.8870    14.3530    16.3600    17.7360     2.4530   -25.2330 
  142.2500    54.7830    24.8710    14.8060    16.3380    17.8250     2.4510   -25.2220 
  142.3750    56.6880    24.8240    15.3220    16.5390    18.1560     2.4540   -25.3330 
  142.5000    58.9870    24.7690    15.7030    16.8930    18.5840     2.4600   -25.3070 
  142.6250    58.0740    24.7270    15.8900    17.2250    18.8710     2.4690   -25.3760 
  142.7500    56.1250    24.6340    16.1530    17.3650    18.8880     2.4790   -25.4450 
  142.8750    54.5470    24.4590    16.0370    17.2480    18.6350     2.4880   -25.3820 
  143.0000    53.5620    24.2870    15.0510    16.9330    18.2290     2.4970   -25.4460 
  143.1250    53.0330    24.2650    14.3320    16.5640    17.8510     2.5060   -25.3910 
  143.2500    53.0410    24.3680    14.7650    16.2770    17.6100     2.5170   -25.4050 
  143.3750    53.8640    24.5050    15.8920    16.1090    17.5120     2.5300   -25.3580 
  143.5000    56.1170    24.5950    16.0480    16.0370    17.4950     2.5410   -25.3330 
  143.6250    58.6600    24.5720    15.3820    15.9800    17.4420     2.5480   -25.3240 
  143.7500    58.9150    24.4820    14.2390    15.8580    17.2830     2.5520   -25.2190 
  143.8750    56.4360    24.4380    13.7080    15.6760    17.0620     2.5510   -25.2540 
  144.0000    53.2440    24.5020    13.5800    15.5080    16.8950     2.5430   -25.1530 
  144.1250    52.4060    24.5790    13.5170    15.4680    16.9150     2.5290   -25.0860 
  144.2500    52.7350    24.5750    13.3550    15.5500    17.0790     2.5130   -24.9960 
  144.3750    53.1590    24.5180    13.8130    15.6770    17.2610     2.5010   -24.9610 
  144.5000    54.6800    24.4780    15.1120    15.7300    17.3150     2.4980   -24.9580 
  144.6250    57.5750    24.4850    15.5790    15.5990    17.1490     2.5010   -24.8910 
  144.7500    59.3740    24.4980    14.6800    15.3650    16.9080     2.5030   -24.9980 
  144.8750    57.3900    24.4930    13.3750    15.1690    16.7810     2.5040   -24.9980 
  145.0000    54.6690    24.4760    12.9760    15.1470    16.9170     2.5070   -25.0860 
  145.1250    56.2060    24.4750    14.1610    15.4010    17.3730     2.5170   -25.2050 
  145.2500    59.3950    24.4810    15.6640    15.8250    17.9550     2.5310   -25.3330 
  145.3750    60.5620    24.4580    16.1450    16.2810    18.4700     2.5430   -25.5160 
  145.5000    59.5350    24.4100    15.4240    16.6250    18.7720     2.5480   -25.6060 
  145.6250    59.5980    24.3740    15.2950    16.7440    18.7910     2.5450   -25.7600 
  145.7500    60.2390    24.3720    15.4130    16.7010    18.6550     2.5390   -25.8870 
  145.8750    59.0260    24.4110    15.5270    16.5690    18.4500     2.5310   -25.9800 
  146.0000    55.7160    24.4820    15.9590    16.3840    18.1940     2.5230   -26.1290 
  146.1250    53.4410    24.5590    15.7800    16.0940    17.7920     2.5200   -26.2820 
  146.2500    52.8140    24.6150    14.6780    15.6370    17.1690     2.5200   -26.4660 
  146.3750    53.3200    24.6490    13.7810    14.9670    16.2980     2.5200   -26.5720 
  146.5000    54.0660    24.6710    13.3230    14.0950    15.2270     2.5180   -26.7010 
  146.6250    52.4120    24.6550    12.1360    13.1090    14.0940     2.5090   -26.8890 
  146.7500    48.9570    24.5830    10.8020    12.1780    13.0860     2.4950   -26.9800 
  146.8750    46.8400    24.4580     9.6880    11.4210    12.3220     2.4810   -27.1690 
  147.0000    47.9740    24.3180     8.8670    10.9100    11.8730     2.4710   -27.3480 
  147.1250    49.2160    24.2030     8.5100    10.7350    11.8230     2.4640   -27.4930 
  147.2500    48.1550    24.1040     9.0930    10.8590    12.1110     2.4600   -27.6510 
  147.3750    47.2830    24.0130    10.0690    11.2730    12.7080     2.4620   -27.7370 
  147.5000    48.4130    23.9520    10.9220    11.9350    13.5450     2.4670   -27.9780 
  147.6250    50.9490    23.9390    11.1940    12.7630    14.4840     2.4750   -28.0750 
  147.7500    52.1350    23.9050    11.9740    13.5470    15.2820     2.4810   -28.1660 
  147.8750    51.0810    23.8240    13.5390    14.0760    15.7130     2.4810   -28.2920 
  148.0000    47.9350    23.7730    14.5090    14.1690    15.6250     2.4740   -28.4350 
  148.1250    44.3020    23.8300    13.5190    13.7200    14.9660     2.4630   -28.5540 
  148.2500    43.3000    23.9290    11.7650    12.9830    14.0600     2.4520   -28.7190 
  148.3750    45.7430    24.0110    10.2720    12.1860    13.1770     2.4440   -28.8100 
  148.5000    49.5990    24.1260     9.5620    11.5140    12.5200     2.4380   -29.0380 
  148.6250    51.8110    24.3420     9.2590    11.1070    12.2210     2.4350   -29.1550 
  148.7500    50.9370    24.5690     9.4590    10.9220    12.1790     2.4330   -29.4050 
  148.8750    48.2020    24.7060     9.7800    10.9000    12.3070     2.4310   -29.5790 
