~V
VERS. 2.00: Ver 2.00
~W
STRT.M 55.0000:
STOP.M 250.0000:
STEP.M 0.1250:
NULL. -999.2500:
UWI. DF5052:
~C
DEPT.M :
SP.MV :
GR.API :
CALI.CM :
RXO.OHMM :
RI. :
RML.OHMM :
DEN.GM/CC :
~A
# ...
  167.5000   -32.1890    82.6280    24.4420    22.3510    25.8180    30.6450     2.2430 
  167.6250   -32.1010    82.3930    24.3950    22.2830    24.4070    28.6590     2.2410 
  167.7500   -32.0110    78.8110    24.5130    23.2650    23.7920    27.6840     2.2340 
  167.8750   -31.9350    75.0940    24.6520    24.4490    23.6790    27.3160     2.2250 
  168.0000   -31.8880    74.2660    24.7190    26.0800    23.7640    27.1590     2.2120 
  168.1250   -31.8770    77.2610    24.6950    28.6960    23.7590    26.8660     2.2000 
  168.2500   -31.8890    81.6330    24.6580    31.2720    23.4910    26.2800     2.2050 
  168.3750   -31.9160    84.4410    24.6620    32.3300    22.8730    25.3440     2.2310 
  168.5000   -31.9430    83.9790    24.6660    31.2780    21.9050    24.0910     2.2640 
  168.6250   -31.9490    81.8110    24.6260    28.5260    20.6310    22.5860     2.2800 
  168.7500   -31.9260    80.9900    24.5840    25.6840    19.2190    20.9760     2.2730 
  168.8750   -31.8710    82.0310    24.6270    24.2790    17.7670    19.3490     2.2570 
  169.0000   -31.7910    83.8410    24.6880    24.5020    16.3880    17.8120     2.2480 
  169.1250   -31.7070    85.9870    24.6780    24.5420    15.2680    16.5650     2.2620 
  169.2500   -31.6450    89.1780    24.6080    22.0050    14.5300    15.7570     2.2890 
  169.3750   -31.6210    93.6340    24.5430    18.5140    14.2850    15.5300     2.3170 
  169.5000   -31.6440    97.6250    24.5170    16.5600    14.6050    15.9740     2.3300 
  169.6250   -31.7180    97.5950    24.5300    17.2760    15.5970    17.1880     2.3200 
  169.7500   -31.8260    93.2710    24.5460    19.6510    17.1170    18.9570     2.2980 
  169.8750   -31.9510    86.2570    24.5510    23.3640    19.0420    21.1090     2.2770 
  170.0000   -32.0740    79.6210    24.5420    28.0680    21.0800    23.3280     2.2640 
  170.1250   -32.1710    77.7350    24.5250    32.2580    22.5940    24.9630     2.2600 
  170.2500   -32.2350    80.3600    24.5170    34.1740    23.1720    25.6080     2.2580 
  170.3750   -32.2680    83.7480    24.5190    33.3520    22.7630    25.1920     2.2560 
  170.5000   -32.2820    83.9260    24.5380    31.3320    21.6520    23.9890     2.2540 
  170.6250   -32.2950    81.1220    24.5740    32.6750    20.3470    22.5620     2.2620 
  170.7500   -32.3230    79.4670    24.5950    35.0560    19.4690    21.6920     2.2770 
  170.8750   -32.3800    80.4920    24.5640    33.6810    19.4670    21.9780     2.2900 
  171.0000   -32.4700    82.2590    24.4800    28.2260    20.6910    23.8270     2.2940 
  171.1250   -32.5990    80.9490    24.4070    27.1770    23.7200    27.8140     2.2840 
  171.2500   -32.7460    76.9420    24.3610    35.6640    28.4940    33.7110     2.2590 
  171.3750   -32.8950    73.1020    24.3030    48.3380    34.9690    41.3270     2.2270 
  171.5000   -33.0260    71.1820    24.1750    58.3200    42.8180    50.2090     2.2050 
  171.6250   -33.1240    70.5880    23.9340    62.6530    51.2220    59.4470     2.2030 
  171.7500   -33.1940    70.6240    23.6740    65.1760    58.6640    67.5010     2.2060 
  171.8750   -33.2440    71.7040    23.5780    70.6670    63.9970    73.1230     2.2050 
  172.0000   -33.2870    72.9500    23.8040    80.9190    66.9330    75.9740     2.2040 
  172.1250   -33.3420    73.1360    24.2650    93.8020    67.8070    76.6070     2.2040 
  172.2500   -33.4170    74.0470    24.5800   102.2120    67.6580    76.2880     2.2040 
  172.3750   -33.5160    77.9420    24.7070   103.4820    67.0080    75.5740     2.2030 
  172.5000   -33.6330    83.0670    24.7350    96.8800    66.3400    74.9270     2.2080 
  172.6250   -33.7490    83.6460    24.7350    85.9060    66.2130    74.9070     2.2180 
  172.7500   -33.8460    79.1960    24.7280    79.0730    66.8090    75.6820     2.2230 
  172.8750   -33.9130    73.4810    24.7190    80.9480    68.0380    77.1420     2.2180 
  173.0000   -33.9480    69.8850    24.6890    88.7470    69.4940    78.8040     2.2060 
  173.1250   -33.9560    69.1590    24.6610    94.6680    70.4570    79.7750     2.2010 
  173.2500   -33.9520    69.7730    24.6560    97.1730    70.4760    79.5180     2.2050 
  173.3750   -33.9510    70.7770    24.6950    98.7740    69.4250    77.9190     2.2140 
  173.5000   -33.9590    71.5510    24.7230    99.3530    67.5700    75.3730     2.2210 
  173.6250   -33.9850    72.4730    24.6930    95.0250    65.6090    72.8030     2.2200 
  173.7500   -34.0260    74.3040    24.6340    85.8070    64.3790    71.1880     2.2140 
  173.8750   -34.0760    76.5090    24.5810    75.2640    64.3550    71.0370     2.2100 
  174.0000   -34.1290    77.2940    24.5010    68.4020    65.6330    72.4180     2.2140 
  174.1250   -34.1820    75.7490    24.4560    69.8140    68.0490    75.1160     2.2220 
  174.2500   -34.2330    74.4410    24.4290    77.8270    70.8400    78.2370     2.2220 
  174.3750   -34.2880    74.8450    24.4160    89.7520    73.4020    81.0610     2.2150 
  174.5000   -34.3500    76.1100    24.3980    99.7330    75.2080    82.9540     2.2070 
  174.6250   -34.4200    76.5220    24.3750   100.2440    75.8600    83.3900     2.1990 
  174.7500   -34.4960    76.7840    24.3720    93.2310    75.6790    82.7910     2.1860 
  174.8750   -34.5720    77.8630    24.3690    84.1520    75.0780    81.6830     2.1720 
  175.0000   -34.6410    80.0410    24.3640    79.4460    74.5240    80.6500     2.1680 
  175.1250   -34.6940    82.5740    24.3600    81.9310    74.4080    80.1800     2.1800 
  175.2500   -34.7290    83.6650    24.3590    86.0080    74.7010    80.2140     2.1940 
  175.3750   -34.7450    82.0550    24.3540    87.7660    75.1850    80.4500     2.2020 
  175.5000   -34.7430    78.1420    24.3370    86.4430    75.3550    80.2650     2.2050 
  175.6250   -34.7200    74.0530    24.3010    84.8930    74.2870    78.5660     2.2080 
  175.7500   -34.6770    71.2730    24.2670    87.1480    71.7730    75.2460     2.2060 
  175.8750   -34.6130    70.2380    24.2270    91.7800    68.0360    70.8480     2.1920 
  176.0000   -34.5310    71.1050    24.1760    94.1610    63.5810    66.3450     2.1670 
  176.1250   -34.4390    74.1060    24.0890    89.7790    59.0650    61.8160     2.1420 
  176.2500   -34.3480    77.6590    23.9330    79.5000    55.0690    57.7370     2.1330 
  176.3750   -34.2630    80.2160    23.7110    65.4890    51.8190    54.3480     2.1490 
  176.5000   -34.1830    82.2160    23.5020    53.9200    49.2990    51.7180     2.1810 
  176.6250   -34.1120    86.7560    23.4500    51.0570    47.3390    49.6750     2.2070 
  176.7500   -34.0520    92.8140    23.3070    54.4460    45.4550    47.7100     2.2200 
  176.8750   -34.0070    96.9840    23.0510    56.6720    43.3900    45.5560     2.2280 
  177.0000   -33.9820    98.9010    22.8070    52.7070    41.1600    43.2300     2.2390 
  177.1250   -33.9800   101.0540    22.6230    42.5240    39.1000    41.0810     2.2540 
  177.2500   -34.0020   102.1100    22.4610    33.8800    37.5910    39.5070     2.2710 
  177.3750   -34.0490    99.3180    22.3720    29.6870    36.9490    38.8370     2.2840 
  177.5000   -34.1260    94.1990    22.4280    29.7680    37.3760    39.2840     2.2870 
  177.6250   -34.2450    91.0680    22.5570    31.5130    39.0310    41.0090     2.2770 
  177.7500   -34.4010    89.5200    22.7240    33.1490    41.4320    43.5140     2.2640 
  177.8750   -34.5970    87.1610    22.8840    36.3670    44.1540    46.3530     2.2460 
  178.0000   -34.8330    83.8490    22.9580    43.8680    46.7820    49.0930     2.2220 
  178.1250   -35.1140    81.3810    22.9180    53.1750    48.9810    51.3870     2.1990 
  178.2500   -35.4280    80.2890    22.8760    57.3880    50.9090    53.3980     2.1900 
  178.3750   -35.7630    80.0700    22.8510    54.3520    53.0030    55.5820     2.1950 
  178.5000   -36.1040    80.3060    22.8180    47.6800    55.8850    58.5880     2.2050 
  178.6250   -36.4320    80.1250    22.7760    44.4690    60.4360    63.3340     2.2070 
