~V
VERS. 2.00: Ver 2.00
~W
STRT.M 55.0000:
STOP.M 277.0000:
STEP.M 0.1250:
NULL. -999.2500:
UWI. DF5040:
~C
DEPT.M :
GR.API :
CALI.CM :
RXO.OHMM :
RI. :
RML.OHMM :
DEN.GM/CC :
SP.MV :
~A
# ...
  201.2500    51.0680    24.7470     3.8540     4.8470     5.5060     2.2220   -19.6810 
  201.3750    50.7420    24.9790     4.0000     4.8230     5.4800     2.2130   -20.0670 
  201.5000    51.4970    25.3810     4.0830     4.8030     5.4590     2.1810   -20.5080 
  201.6250    52.4960    25.6900     4.1230     4.8250     5.4830     2.1230   -20.9980 
  201.7500    54.0880    26.0370     4.1770     4.9110     5.5720     2.0740   -21.5160 
  201.8750    56.6400    26.1920     4.3170     5.0800     5.7490     2.0620   -22.0540 
  202.0000    60.9910    26.0190     4.6280     5.3490     6.0280     2.0900   -22.6020 
  202.1250    68.6080    25.6510     5.2420     5.7450     6.4410     2.1490   -23.1460 
  202.2500    77.5750    25.3530     6.0750     6.2400     6.9560     2.2220   -23.6700 
  202.3750    85.1110    25.2030     6.9170     6.8050     7.5440     2.2960   -24.1620 
  202.5000    90.3470    25.0800     7.5430     7.3900     8.1530     2.3610   -24.6090 
  202.6250    94.2200    24.8960     8.1450     7.9020     8.6860     2.4030   -24.9910 
  202.7500    96.9330    24.7070     9.3270     8.2590     9.0570     2.4300   -25.3140 
  202.8750    98.2720    24.5370    10.9740     8.4020     9.2060     2.4490   -25.5830 
  203.0000   100.2200    24.4060    12.0780     8.3180     9.1190     2.4570   -25.8100 
  203.1250   105.0140    24.4000    11.6040     8.0330     8.8230     2.4580   -26.0180 
  203.2500   110.0670    24.4250    10.2480     7.6730     8.4470     2.4660   -26.2370 
  203.3750   112.7650    24.4280     8.9950     7.3300     8.0900     2.4820   -26.4860 
  203.5000   113.2580    24.3860     8.1950     7.0740     7.8240     2.4940   -26.7780 
  203.6250   112.8750    24.3600     8.0270     6.9710     7.7170     2.4870   -27.1220 
  203.7500   111.4150    24.4250     8.4680     7.0030     7.7510     2.4720   -27.4980 
  203.8750   108.2780    24.5290     9.2700     7.1430     7.8960     2.4530   -27.8880 
  204.0000   104.3150    24.5910     9.9910     7.3400     8.1010     2.4310   -28.2680 
  204.1250   100.5980    24.5860    10.2640     7.5500     8.3200     2.4080   -28.6000 
  204.2500    97.0330    24.5500    10.2180     7.7600     8.5380     2.3980   -28.8620 
  204.3750    93.3960    24.4880    10.0570     7.9820     8.7690     2.4030   -29.0330 
  204.5000    89.8020    24.3990     9.9840     8.2280     9.0260     2.4080   -29.1020 
  204.6250    86.7420    24.3070    10.0070     8.5110     9.3200     2.4040   -29.0520 
  204.7500    84.5710    24.2150    10.1000     8.8010     9.6220     2.4170   -28.9170 
  204.8750    83.6060    24.0900    10.6250     9.0530     9.8840     2.4520   -28.7170 
  205.0000    83.9050    23.9410    11.9040     9.2090    10.0470     2.4800   -28.4760 
  205.1250    84.8830    23.7620    13.3050     9.2050    10.0430     2.4650   -28.2170 
  205.2500    85.2690    23.7210    13.6000     9.0640     9.8960     2.4310   -27.9610 
  205.3750    84.8270    23.9010    12.4240     8.8270     9.6490     2.4110   -27.7220 
  205.5000    84.5930    24.2240    10.8610     8.5500     9.3610     2.4120   -27.5050 
  205.6250    85.5120    24.3910    10.0730     8.3130     9.1130     2.4190   -27.3150 
  205.7500    87.0800    24.4230    10.0080     8.1750     8.9700     2.4300   -27.1360 
  205.8750    89.0610    24.3760     9.9020     8.1870     8.9830     2.4470   -26.9540 
  206.0000    91.2910    24.3340     9.7760     8.3690     9.1720     2.4590   -26.7490 
  206.1250    91.9290    24.3250    10.0200     8.7040     9.5210     2.4410   -26.4940 
  206.2500    90.3360    24.3540    10.4150     9.0750     9.9070     2.4000   -26.1830 
  206.3750    88.9610    24.4000    10.8280     9.3760    10.2200     2.3680   -25.8100 
  206.5000    90.5310    24.4110    11.4170     9.4990    10.3490     2.3760   -25.3750 
  206.6250    93.5740    24.3590    12.4450     9.3000    10.1410     2.4250   -24.8720 
  206.7500    93.5380    24.2820    13.3150     8.7950     9.6160     2.4670   -24.3220 
  206.8750    89.6310    24.1680    12.7850     8.0610     8.8510     2.4700   -23.7420 
  207.0000    84.4480    23.9470    10.5450     7.2370     7.9930     2.4310   -23.1540 
  207.1250    80.8040    23.6680     7.8400     6.4920     7.2180     2.3680   -22.5810 
  207.2500    78.1100    23.4950     6.0940     5.9120     6.6140     2.3090   -22.0350 
  207.3750    74.8950    23.6000     5.1970     5.5270     6.2130     2.2430   -21.5240 
  207.5000    71.1930    24.2070     4.7180     5.3300     6.0090     2.1470   -21.0560 
  207.6250    69.1640    25.7730     4.3750     5.3090     5.9860     2.0220   -20.6520 
  207.7500    70.1470    28.1790     4.0880     5.3780     6.0580     1.9200   -20.3210 
  207.8750    73.6750    30.6870     3.9160     5.4810     6.1660     1.8880   -20.0780 
  208.0000    78.0260    31.7850     3.9040     5.5790     6.2680     1.9380   -19.9340 
  208.1250    81.1560    30.6760     4.0440     5.6520     6.3440     2.0490   -19.9220 
  208.2500    82.4580    28.4780     4.2290     5.7010     6.3940     2.1720   -20.0330 
  208.3750    82.4150    26.7930     4.3800     5.7240     6.4190     2.2800   -20.2680 
  208.5000    81.7490    25.6890     4.5350     5.7240     6.4180     2.3580   -20.6150 
  208.6250    82.3000    24.7720     4.8420     5.6960     6.3890     2.3940   -21.0580 
  208.7500    85.7200    24.0940     5.2610     5.6470     6.3390     2.4020   -21.5430 
  208.8750    91.1980    23.7720     5.5730     5.6010     6.2900     2.4010   -22.0350 
  209.0000    95.9170    23.6590     5.7030     5.5810     6.2700     2.4020   -22.5070 
  209.1250    97.1120    23.5950     5.7230     5.6290     6.3200     2.4050   -22.9370 
  209.2500    95.8210    23.5370     5.8250     5.7720     6.4680     2.4020   -23.3250 
  209.3750    93.2750    23.4830     6.1660     6.0510     6.7590     2.3940   -23.6790 
  209.5000    90.5660    23.4540     7.0060     6.5150     7.2420     2.3880   -24.0130 
  209.6250    88.4840    23.4530     8.6720     7.2630     8.0210     2.3910   -24.3440 
  209.7500    86.7330    23.4320    10.6160     8.2980     9.0980     2.3970   -24.6840 
  209.8750    85.1250    23.3680    11.9850     9.6350    10.4900     2.3930   -25.0300 
  210.0000    83.8200    23.2800    12.9870    11.2570    12.1780     2.3790   -25.3700 
  210.1250    82.0950    23.2090    15.7700    13.1250    14.1230     2.3650   -25.6760 
  210.2500    79.0880    23.2380    20.5060    15.0760    16.1540     2.3580   -25.9300 
  210.3750    75.6530    23.3040    25.0320    17.0090    18.1740     2.3510   -26.1190 
  210.5000    73.8520    23.3440    26.8510    18.9040    20.1730     2.3380   -26.2410 
  210.6250    75.3780    23.3570    25.5630    20.9290    22.3390     2.3140   -26.2970 
  210.7500    78.1200    23.3630    24.6010    23.3340    24.8900     2.2910   -26.3180 
  210.8750    79.5240    23.3650    26.2100    26.3550    28.0780     2.2750   -26.3250 
  211.0000    78.2530    23.3680    31.2080    30.1530    32.0810     2.2610   -26.3380 
  211.1250    75.6520    23.3680    38.9930    34.8600    37.0430     2.2390   -26.3820 
  211.2500    74.2890    23.3750    47.9530    40.0600    42.5230     2.2180   -26.4650 
  211.3750    74.2970    23.4160    56.6080    45.2250    47.9670     2.2060   -26.5910 
  211.5000    74.4350    23.5570    63.1650    49.7510    52.7380     2.2030   -26.7540 
  211.6250    74.1130    23.8470    65.9560    53.0530    56.2180     2.2030   -26.9450 
  211.7500    73.8590    24.1290    66.3520    55.3400    58.6280     2.2070   -27.1430 
  211.8750    73.8670    24.2670    66.8230    56.9190    60.2930     2.2180   -27.3340 
  212.0000    74.0520    24.2950    69.0850    58.1280    61.5670     2.2310   -27.5090 
  212.1250    73.8570    24.2770    73.3480    59.1810    62.6760     2.2340   -27.6570 
  212.2500    72.9720    24.2410    79.9600    60.1610    63.7100     2.2300   -27.7770 
  212.3750    72.5090    24.1870    88.2300    61.0770    64.6750     2.2250   -27.8650 
