~V
VERS. 2.00: Ver 2.00
~W
STRT.M 60.0000:
STOP.M 268.0000:
STEP.M 0.1250:
NULL. -999.2500:
UWI. DF5039:
~C
DEPT.M :
DEN.GM/CC :
GR.API :
CALI.CM :
RXO.OHMM :
RI. :
RML.OHMM :
SP.MV :
~A
# ...
  172.5000     2.1860    58.5840    24.3070    68.5820   107.7650   115.1150   -35.7190 
  172.6250     2.2110    60.4190    24.3880    61.0090    91.5380    96.7500   -35.7580 
  172.7500     2.2300    62.4450    24.4280    45.8040    77.9050    82.7350   -35.8240 
  172.8750     2.2370    66.6090    24.4310    36.4020    69.0040    74.5320   -35.8590 
  173.0000     2.2310    69.1730    24.4280    36.5880    65.2680    71.9350   -35.8570 
  173.1250     2.2210    67.3790    24.4370    38.7170    66.4510    74.2510   -35.8560 
  173.2500     2.2160    65.0290    24.4540    42.6380    70.1740    78.7390   -35.8270 
  173.3750     2.2190    63.6280    24.4730    51.2380    74.5450    83.1940   -35.8070 
  173.5000     2.2230    61.5320    24.4860    58.5580    77.6400    85.5640   -35.7640 
  173.6250     2.2240    60.5830    24.4890    53.9850    77.9470    84.5710   -35.7220 
  173.7500     2.2180    64.2070    24.4900    47.8220    76.4420    81.8650   -35.7370 
  173.8750     2.2100    68.7780    24.5050    44.5070    74.4330    79.0910   -35.7490 
  174.0000     2.2020    67.9150    24.5450    44.2100    72.9950    77.3620   -35.8070 
  174.1250     2.1990    63.2180    24.5910    44.2720    72.7910    77.1790   -35.9110 
  174.2500     2.1980    61.3700    24.6170    44.5920    73.3740    77.7950   -36.0130 
  174.3750     2.1930    61.6390    24.6240    44.1420    74.0440    78.3750   -36.1300 
  174.5000     2.1820    61.8600    24.6180    43.6790    74.0480    78.1080   -36.2710 
  174.6250     2.1700    63.7800    24.5950    42.8010    72.5600    76.1260   -36.4900 
  174.7500     2.1650    66.1830    24.5550    41.0570    69.6100    72.5740   -36.5970 
  174.8750     2.1700    66.8970    24.4850    37.7050    65.6080    68.0470   -36.7520 
  175.0000     2.1810    66.9090    24.3580    34.3530    61.4730    63.6820   -36.8940 
  175.1250     2.1910    69.2560    24.1590    32.4590    58.6720    61.1630   -37.0270 
  175.2500     2.1930    70.9190    23.9370    31.7200    58.0570    61.2630   -37.1410 
  175.3750     2.1830    69.8230    23.7420    32.5490    60.1460    64.3340   -37.2650 
  175.5000     2.1660    68.6530    23.6180    36.4220    64.9580    70.0900   -37.3520 
  175.6250     2.1470    69.5600    23.5830    41.3030    71.8120    77.4040   -37.3750 
  175.7500     2.1370    70.3770    23.5640    42.3500    78.3590    83.7280   -37.4240 
  175.8750     2.1370    70.2420    23.5080    39.9010    82.4240    86.9020   -37.4540 
  176.0000     2.1470    69.2240    23.4240    36.4170    82.6430    85.8920   -37.4980 
  176.1250     2.1580    66.1570    23.3590    31.4670    79.0100    81.3430   -37.5580 
  176.2500     2.1610    64.3400    23.3260    28.2680    74.1380    76.2100   -37.7070 
  176.3750     2.1540    65.6070    23.3170    26.5960    69.8920    72.3360   -37.7930 
  176.5000     2.1410    68.1580    23.3190    25.8380    67.4990    70.7790   -37.8870 
  176.6250     2.1290    69.0430    23.3060    25.4750    68.0280    72.4610   -37.9240 
  176.7500     2.1230    68.8950    23.2800    25.2950    71.2280    76.8810   -38.0200 
  176.8750     2.1210    69.0050    23.2800    25.9110    76.8380    83.5620   -38.1520 
  177.0000     2.1220    68.7240    23.3470    28.0260    84.1120    91.5370   -38.3350 
  177.1250     2.1220    67.2920    23.4970    31.1090    91.5750    99.0810   -38.5210 
  177.2500     2.1200    65.6940    23.6870    36.5070    97.5170   104.5970   -38.6450 
  177.3750     2.1190    64.8780    23.8900    44.3880   101.0070   107.3630   -38.7620 
  177.5000     2.1220    66.9680    24.0680    51.1300   101.9640   107.6090   -38.9030 
  177.6250     2.1320    69.9470    24.1620    51.2930   100.8720   106.1490   -39.0770 
  177.7500     2.1480    69.3480    24.1900    49.0380    99.1030   104.3880   -39.2020 
  177.8750     2.1630    66.1830    24.1970    48.3810    97.3950   102.9950   -39.3330 
  178.0000     2.1650    64.3260    24.1730    48.6510    96.1470   102.2760   -39.4180 
  178.1250     2.1460    63.8330    24.0510    45.1930    95.7690   102.6220   -39.5040 
  178.2500     2.1160    62.8420    23.9120    44.3030    96.5900   104.3550   -39.5040 
  178.3750     2.0900    62.7250    23.8890    47.4730    99.1840   108.0980   -39.5250 
  178.5000     2.0760    63.3680    24.0090    50.9330   104.1950   114.5260   -39.4550 
  178.6250     2.0790    62.1970    24.1370    52.4500   112.6800   124.6910   -39.3940 
  178.7500     2.0890    60.0000    24.1530    54.5700   124.1950   137.9780   -39.3470 
  178.8750     2.0980    59.2370    24.0780    59.5130   138.0610   153.4990   -39.2540 
  179.0000     2.1020    60.1490    23.9960    65.3020   152.7740   169.3990   -39.1150 
  179.1250     2.1020    61.5850    24.0210    67.0510   164.9200   181.4640   -38.9120 
  179.2500     2.1040    64.7730    24.0800    64.3420   170.6590   185.4960   -38.7430 
  179.3750     2.1120    68.9800    24.0400    60.5220   167.0250   178.7370   -38.5280 
  179.5000     2.1240    71.5950    23.8870    57.9720   154.1830   162.5190   -38.3580 
  179.6250     2.1390    70.3890    23.7950    57.9300   136.0280   142.4750   -38.2100 
  179.7500     2.1520    65.8940    23.8700    53.2650   119.1800   125.4880   -38.0350 
  179.8750     2.1560    61.4700    24.0280    46.7800   107.0410   114.5840   -37.8990 
  180.0000     2.1520    62.1180    24.1560    42.2480   101.1630   110.8740   -37.7860 
  180.1250     2.1390    68.2280    24.2380    47.9460   103.1660   115.7270   -37.7470 
  180.2500     2.1270    72.1850    24.3230    55.5070   111.7930   127.5330   -37.6420 
  180.3750     2.1210    70.5310    24.4140    57.7800   126.3220   145.3860   -37.6740 
  180.5000     2.1210    66.0790    24.4690    54.0080   145.1080   167.4140   -37.7380 
  180.6250     2.1250    61.8390    24.4780    55.7920   164.8400   189.7440   -37.8140 
  180.7500     2.1280    58.4880    24.4790    62.3840   180.9580   207.2550   -37.9040 
  180.8750     2.1270    57.1570    24.4800    67.6040   190.4930   216.5990   -37.9150 
  181.0000     2.1250    56.9450    24.4780    69.0630   192.7160   217.2220   -37.8980 
  181.1250     2.1250    55.8550    24.4860    67.3290   188.2630   210.4100   -37.7650 
  181.2500     2.1270    54.5720    24.5290    64.4690   180.6550   200.5280   -37.7830 
  181.3750     2.1310    54.9530    24.5970    62.7400   171.9820   189.7170   -37.6860 
  181.5000     2.1340    56.9430    24.6540    63.7230   162.8190   177.9240   -37.5790 
  181.6250     2.1400    58.3590    24.6690    65.0730   150.7090   161.7610   -37.4170 
  181.7500     2.1500    60.6300    24.6670    62.1710   133.8790   140.1050   -37.2920 
  181.8750     2.1660    63.5220    24.6670    58.2950   113.1730   115.2090   -37.1950 
  182.0000     2.1850    65.4630    24.6640    55.9950    91.9750    91.5970   -37.1060 
  182.1250     2.1990    66.3070    24.6340    44.9460    74.9080    74.1280   -37.0270 
  182.2500     2.2030    66.8700    24.5730    32.8110    63.3360    63.0360   -36.9250 
  182.3750     2.2000    66.8910    24.5010    27.7490    57.0620    57.4730   -36.8170 
  182.5000     2.1950    65.7810    24.4560    30.1250    54.9800    55.9960   -36.7170 
  182.6250     2.1940    66.0450    24.4540    33.5190    55.9670    57.2260   -36.6240 
  182.7500     2.1980    66.8440    24.4560    34.3390    57.9660    59.0510   -36.4920 
  182.8750     2.2030    67.3930    24.4260    32.9540    59.5710    60.1930   -36.3590 
  183.0000     2.2080    68.1060    24.3410    30.7380    59.8820    60.0840   -36.2130 
  183.1250     2.2140    68.8050    24.1990    28.6670    58.9930    59.2430   -36.1850 
  183.2500     2.2210    68.8590    24.0460    26.0360    58.3240    59.1560   -36.0340 
  183.3750     2.2270    67.8240    23.9470    24.8380    59.0580    60.9530   -35.9380 
  183.5000     2.2270    67.1070    23.9260    26.5070    61.9690    65.2350   -35.7510 
  183.6250     2.2180    67.2310    23.9610    30.6630    67.4690    72.1170   -35.5940 
