~V
VERS. 2.00: Ver 2.00
~W
STRT.M 58.0000:
STOP.M 256.0000:
STEP.M 0.1250:
NULL. -999.2500:
UWI. DF5024:
~C
DEPT.M :
SP.MV :
GR.API :
CALI.CM :
RXO.OHMM :
RI. :
RML.OHMM :
DEN.GM/CC :
~A
   58.0000    31.7540    52.7720    25.5070    -0.9570     0.0480     0.2770     2.3920 
   58.1250    25.2420    54.3250    25.5070    -0.9570     0.0400     0.2530     2.3570 
   58.2500    18.2660    56.0630    25.5070    -0.9570     0.0360     0.2400     2.3130 
   58.3750    10.9580    58.7530    25.5070    -0.9570     0.0480     0.2320     2.2600 
   58.5000     3.5080    62.6710    25.5070    -0.5730     0.0960     0.2370     2.1910 
   58.6250    -3.8000    66.0580    25.5070     0.8450     0.2310     0.2660     2.1300 
   58.7500   -10.7170    66.9850    25.6100     3.3830     0.5020     0.3230     2.1050 
   58.8750   -17.0360    65.9860    26.0660     5.9820     0.9760     0.4520     2.1010 
   59.0000   -22.5950    65.0770    26.9140     8.3970     1.6990     0.7640     2.0810 
   59.1250   -27.1270    65.6140    26.6580    10.2560     2.6620     1.4070     2.0460 
   59.2500   -30.7400    66.7910    25.1230    12.4020     3.6810     2.2710     2.0320 
   59.3750   -33.4780    68.8950    23.5090    14.8870     4.5810     3.1290     2.0460 
   59.5000   -35.4440    72.6840    22.6040    16.9670     5.2320     3.7460     2.0730 
   59.6250   -36.7070    76.9020    22.3770    17.6220     5.5600     4.0130     2.0950 
   59.7500   -37.5430    79.1980    22.3380    17.2670     5.6970     4.1040     2.1100 
   59.8750   -38.0810    79.4470    22.3690    16.6720     5.7540     4.1450     2.1160 
   60.0000   -38.4210    78.6180    22.4040    16.4800     5.8280     4.2230     2.1150 
   60.1250   -38.6180    76.2200    22.4170    16.7750     6.0010     4.4030     2.1070 
   60.2500   -38.7420    72.3900    22.4040    16.9310     6.2890     4.6890     2.0980 
   60.3750   -38.8280    69.0920    22.4060    17.1490     6.6810     5.0720     2.1030 
   60.5000   -38.9040    68.5630    22.5110    19.8620     7.1230     5.5020     2.1400 
   60.6250   -38.9990    70.6290    22.7430    29.4180     7.5010     5.8790     2.2200 
   60.7500   -39.1240    72.1760    22.9350    42.3320     7.7290     6.1330     2.3060 
   60.8750   -39.2890    72.1940    23.0210    46.5270     7.7720     6.2280     2.3510 
   61.0000   -39.4980    71.3710    23.0270    37.3920     7.6520     6.1820     2.3290 
   61.1250   -39.7560    70.2340    23.0630    25.3080     7.4510     6.0590     2.2560 
   61.2500   -40.0390    68.2860    23.1160    20.1190     7.2730     5.9540     2.1860 
   61.3750   -40.3230    65.6310    23.2080    19.6640     7.1570     5.9090     2.1400 
   61.5000   -40.5850    63.2090    23.2710    19.9680     7.1150     5.9320     2.1190 
   61.6250   -40.7980    62.0120    23.3210    19.2410     7.1410     6.0080     2.1210 
   61.7500   -40.9540    62.2190    23.3380    18.0590     7.1740     6.0780     2.1310 
   61.8750   -41.0450    63.5770    23.3380    17.1570     7.1700     6.1050     2.1350 
   62.0000   -41.0650    65.6410    23.3090    16.4480     7.1230     6.0900     2.1200 
   62.1250   -41.0090    67.7620    23.2960    15.9190     7.0590     6.0660     2.0890 
   62.2500   -40.8970    69.5580    23.2880    15.5270     7.0220     6.0720     2.0670 
   62.3750   -40.7350    70.3780    23.2600    15.2760     7.0400     6.1320     2.0640 
   62.5000   -40.5280    69.4240    23.2310    15.1620     7.1330     6.2630     2.0720 
   62.6250   -40.2700    67.3330    23.1870    15.2210     7.3150     6.4780     2.0760 
   62.7500   -39.9730    66.0350    23.1480    15.4230     7.5580     6.7490     2.0780 
   62.8750   -39.6400    65.9410    23.1210    15.6280     7.8360     7.0550     2.0870 
   63.0000   -39.2720    66.0480    23.0860    15.8190     8.1090     7.3500     2.1040 
   63.1250   -38.8640    65.5090    23.0340    16.2650     8.3170     7.5580     2.1140 
   63.2500   -38.4220    65.2000    22.9930    17.0630     8.4280     7.6370     2.1090 
   63.3750   -37.9480    66.0740    22.9970    17.8440     8.4190     7.5730     2.0960 
   63.5000   -37.4390    67.4980    23.0250    18.0170     8.2710     7.3760     2.0860 
   63.6250   -36.8850    68.1220    23.0660    17.2600     7.9960     7.0950     2.0880 
   63.7500   -36.2880    68.1180    23.0850    16.3140     7.7090     6.8560     2.1030 
   63.8750   -35.6480    68.2040    23.0950    15.5480     7.5320     6.7790     2.1300 
   64.0000   -34.9630    68.8750    23.0910    14.9730     7.5660     6.9550     2.1560 
   64.1250   -34.2260    70.7710    23.0710    14.7160     7.8920     7.4530     2.1630 
   64.2500   -33.4610    73.4400    23.0960    15.3100     8.4300     8.1510     2.1600 
   64.3750   -32.6970    75.7910    23.1720    18.3940     9.0620     8.8730     2.1780 
   64.5000   -31.9680    77.2300    23.3920    25.1730     9.5940     9.3830     2.2440 
   64.6250   -31.3150    78.9370    23.7270    32.8170     9.7350     9.3950     2.3500 
   64.7500   -30.7450    82.3530    23.9980    32.6470     9.4560     8.9690     2.4340 
   64.8750   -30.2680    88.4490    24.0550    24.3500     8.8630     8.2840     2.4480 
   65.0000   -29.8860    96.5030    23.9310    15.0430     8.1590     7.5730     2.3860 
   65.1250   -29.5990   102.3190    23.7690    10.0380     7.5710     7.0640     2.2980 
   65.2500   -29.3720   102.5710    23.6550     8.5560     7.1840     6.7910     2.2420 
   65.3750   -29.1770    97.9910    23.5910     8.3850     6.9950     6.7120     2.2270 
   65.5000   -28.9930    92.4400    23.5270     8.8950     6.9440     6.7310     2.2280 
   65.6250   -28.8070    90.6640    23.4180     9.5880     6.9250     6.7150     2.2200 
   65.7500   -28.6140    93.6180    23.3940     9.5300     6.8220     6.5750     2.2130 
   65.8750   -28.4190    99.8970    23.5490     8.5150     6.5960     6.3020     2.2210 
   66.0000   -28.2340   106.9290    23.8890     7.1570     6.2780     5.9550     2.2420 
   66.1250   -28.0800   112.0300    24.2220     6.3080     5.9400     5.6330     2.2590 
   66.2500   -27.9660   114.3420    24.2810     5.9830     5.6550     5.4030     2.2660 
   66.3750   -27.8990   114.4190    24.1560     5.9350     5.4660     5.3030     2.2670 
   66.5000   -27.8820   114.4160    24.0970     5.9570     5.3930     5.3370     2.2620 
   66.6250   -27.9150   116.4590    24.1450     5.9970     5.4410     5.4970     2.2510 
   66.7500   -27.9790   118.2480    24.1570     6.0820     5.5530     5.7160     2.2430 
   66.8750   -28.0620   116.3360    24.0540     6.2870     5.6780     5.9400     2.2420 
   67.0000   -28.1550   110.5420    23.8450     6.6370     5.7630     6.1020     2.2440 
   67.1250   -28.2620   104.8100    23.7650     7.0570     5.7440     6.1260     2.2400 
   67.2500   -28.3850   102.5780    23.8050     7.3850     5.6340     6.0430     2.2340 
   67.3750   -28.5290   104.4560    23.8960     7.4960     5.4890     5.9280     2.2320 
   67.5000   -28.7010   109.4310    23.9990     7.2620     5.3960     5.8950     2.2380 
   67.6250   -28.9170   113.9990    24.1120     6.7920     5.4700     6.0930     2.2520 
   67.7500   -29.1810   113.7710    24.1750     6.6690     5.7480     6.5390     2.2670 
   67.8750   -29.4900   107.2270    24.2010     8.0700     6.2360     7.1980     2.2880 
   68.0000   -29.8300    96.8580    24.1970    12.2540     6.8810     7.9670     2.3250 
   68.1250   -30.1690    87.8860    24.1190    18.9350     7.5430     8.6570     2.3740 
   68.2500   -30.4760    83.3130    23.8970    21.9500     8.0460     9.0920     2.4010 
   68.3750   -30.7220    82.7600    23.5240    19.1830     8.2870     9.1940     2.3790 
   68.5000   -30.8830    84.2170    23.1760    13.9850     8.2630     8.9950     2.3060 
   68.6250   -30.9160    85.2800    23.0190    11.0420     8.0680     8.6440     2.2210 
   68.7500   -30.8290    84.3020    22.9760    10.4250     7.8840     8.3630     2.1610 
   68.8750   -30.6250    81.0270    22.9680    10.5550     7.7970     8.2610     2.1290 
   69.0000   -30.3180    76.9780    22.9630    10.6730     7.8260     8.3370     2.1100 
   69.1250   -29.9240    74.9880    23.0200    10.9360     7.9130     8.4840     2.0970 
