~V
VERS. 2.00: Ver 2.00
~W
STRT.M 55.0000:
STOP.M 250.0000:
STEP.M 0.1250:
NULL. -999.2500:
UWI. DF5052:
~C
DEPT.M :
SP.MV :
GR.API :
CALI.CM :
RXO.OHMM :
RI. :
RML.OHMM :
DEN.GM/CC :
~A
# ...
  212.5000   -26.7930    69.8010    23.5680    60.9660    61.8430    65.9150     2.2160 
  212.6250   -26.8100    70.3870    23.8560    67.6590    62.9740    67.3540     2.2400 
  212.7500   -26.8240    71.6560    24.1440    74.3490    63.9100    68.5340     2.2500 
  212.8750   -26.8440    72.3310    24.3260    79.4910    64.3910    69.1500     2.2460 
  213.0000   -26.8800    71.9490    24.3880    82.0500    64.3040    69.0630     2.2320 
  213.1250   -26.9330    71.5880    24.3610    81.3400    63.6540    68.2860     2.2120 
  213.2500   -26.9860    71.4360    24.3080    76.2650    62.6960    67.1740     2.1960 
  213.3750   -27.0250    70.5930    24.2580    69.1110    61.5260    65.8950     2.1890 
  213.5000   -27.0370    69.1760    24.2190    64.3240    60.1340    64.4760     2.1910 
  213.6250   -27.0210    69.2080    24.2040    64.3420    58.3750    62.7860     2.1930 
  213.7500   -26.9940    71.7020    24.2320    65.3550    56.2410    60.7600     2.1910 
  213.8750   -26.9670    76.3950    24.2890    64.1280    53.7990    58.4040     2.1880 
  214.0000   -26.9440    81.4500    24.3410    60.1700    51.2180    55.8450     2.1870 
  214.1250   -26.9140    82.6400    24.3520    54.9040    48.7810    53.3320     2.1850 
  214.2500   -26.8640    78.5730    24.3410    50.0850    46.7160    51.1310     2.1780 
  214.3750   -26.7890    72.1110    24.3330    45.9070    45.1870    49.4500     2.1690 
  214.5000   -26.6990    68.1610    24.3410    42.8170    44.2700    48.4240     2.1710 
  214.6250   -26.6090    69.5530    24.3610    41.2880    44.0280    48.1630     2.1920 
  214.7500   -26.5290    72.5890    24.3670    40.7430    44.2300    48.4190     2.2140 
  214.8750   -26.4550    73.6050    24.3630    40.8600    44.7100    49.0170     2.2230 
  215.0000   -26.3700    71.5800    24.3610    41.3380    45.2640    49.7420     2.2120 
  215.1250   -26.2470    69.5410    24.3610    41.8890    45.5940    50.2730     2.1920 
  215.2500   -26.0800    70.2520    24.3650    42.2200    45.5070    50.3740     2.1810 
  215.3750   -25.8680    72.5660    24.3670    41.3790    44.9110    49.9110     2.1900 
  215.5000   -25.6230    73.8170    24.3650    38.4990    43.8300    48.8850     2.2260 
  215.6250   -25.3570    73.0450    24.3580    34.2720    42.3690    47.3940     2.2830 
  215.7500   -25.0830    72.9230    24.3300    31.6400    40.8470    45.8120     2.3270 
  215.8750   -24.8090    75.0060    24.2490    31.3740    39.5200    44.4510     2.3270 
  216.0000   -24.5360    78.4530    24.0790    32.8640    38.6250    43.6010     2.2840 
  216.1250   -24.2740    80.4430    23.9020    34.9340    38.5050    43.6740     2.2340 
  216.2500   -24.0330    80.1160    23.7430    36.5970    39.2120    44.7320     2.2120 
  216.3750   -23.8240    78.4860    23.5810    37.7420    40.8370    46.8790     2.2200 
  216.5000   -23.6560    77.1580    23.4400    38.9520    43.4790    50.2300     2.2390 
  216.6250   -23.5370    76.5430    23.3480    40.9310    47.4700    55.1510     2.2500 
  216.7500   -23.4420    75.6220    23.2800    44.5280    52.6720    61.4670     2.2510 
  216.8750   -23.3520    74.1160    23.2170    51.3370    58.9050    69.0200     2.2440 
  217.0000   -23.2460    72.5410    23.2050    61.9230    65.6850    77.3340     2.2380 
  217.1250   -23.1090    71.6730    23.3320    73.7190    71.9430    85.1950     2.2470 
  217.2500   -22.9400    71.0250    23.5960    83.9160    76.4550    90.9140     2.2650 
  217.3750   -22.7430    70.4290    23.9060    95.3440    78.2080    92.9600     2.2740 
  217.5000   -22.5180    70.2790    24.1530   108.7150    76.6890    90.5250     2.2610 
  217.6250   -22.2580    71.0520    24.2700   113.2150    71.8360    83.7070     2.2310 
  217.7500   -21.9670    72.7980    24.3030   100.9760    65.4290    75.1090     2.2090 
  217.8750   -21.6550    75.5960    24.3040    79.4620    58.9720    66.7550     2.2160 
  218.0000   -21.3390    78.9240    24.3170    60.2160    53.7790    60.2250     2.2590 
  218.1250   -21.0390    81.0300    24.3380    48.3890    51.3060    57.0450     2.3250 
  218.2500   -20.7580    81.3300    24.3520    40.6520    51.6720    57.0760     2.3720 
  218.3750   -20.4900    80.4790    24.3580    37.2120    54.4150    59.7420     2.3830 
  218.5000   -20.2190    78.9750    24.3530    38.8770    57.7910    63.2410     2.3750 
  218.6250   -19.9360    76.4670    24.3400    46.8090    58.3610    63.8530     2.3820 
  218.7500   -19.6490    73.0390    24.2910    65.4940    54.1570    59.2130     2.4180 
  218.8750   -19.3770    69.0530    24.1860   100.4370    45.3670    49.2800     2.4790 
  219.0000   -19.1460    65.6240    24.0830   143.5240    34.2550    36.5270     2.5440 
  219.1250   -18.9910    65.9840    23.9870   151.3240    23.9740    24.8520     2.5630 
  219.2500   -18.9230    72.5300    23.8570   111.8080    16.0860    16.2600     2.5200 
  219.3750   -18.9500    83.4380    23.6750    55.2390    10.8030    10.7700     2.4410 
  219.5000   -19.0730    92.4970    23.4530    17.6970     7.7660     7.7230     2.3690 
  219.6250   -19.3010    94.2840    23.3340     6.5990     6.5280     6.5430     2.3410 
  219.7500   -19.6040    93.8470    23.4010     4.7800     6.1850     6.2980     2.3460 
  219.8750   -19.9710    97.0640    23.6180     5.2730     6.3780     6.5850     2.3620 
  220.0000   -20.3890   105.3850    23.8880     6.1020     6.8640     7.1130     2.3690 
  220.1250   -20.8510   115.2750    24.1020     6.6120     7.4150     7.6330     2.3620 
  220.2500   -21.3350   122.3720    24.2040     6.8910     7.8330     7.9830     2.3530 
  220.3750   -21.8240   124.8730    24.2310     7.0700     8.0520     8.1310     2.3490 
  220.5000   -22.3090   123.2140    24.2250     7.2630     8.1120     8.1540     2.3500 
  220.6250   -22.7800   120.0580    24.2050     7.4250     8.1290     8.2140     2.3560 
  220.7500   -23.2420   118.4160    24.1810     7.5230     8.2430     8.4620     2.3630 
  220.8750   -23.6980   118.2880    24.1690     7.6900     8.5420     8.9970     2.3660 
  221.0000   -24.1520   117.3820    24.1660     8.1940     9.0980     9.8880     2.3640 
  221.1250   -24.6100   113.1060    24.1690     9.4470    10.0010    11.2310     2.3600 
  221.2500   -25.0800   107.8630    24.1860    11.4330    11.2110    12.9500     2.3560 
  221.3750   -25.5670   105.5440    24.2190    13.7770    12.7050    14.9970     2.3460 
  221.5000   -26.0690   105.6130    24.2590    15.8280    14.4200    17.2830     2.3320 
  221.6250   -26.5740   102.1330    24.2560    17.2870    16.2420    19.6420     2.3210 
  221.7500   -27.0590    94.2990    24.2520    19.0590    17.9840    21.8350     2.3180 
  221.8750   -27.5010    86.9630    24.1890    21.5400    19.4960    23.6880     2.3150 
  222.0000   -27.8790    83.8710    24.0270    24.3030    20.6730    25.0920     2.3030 
  222.1250   -28.1710    83.9210    23.8590    26.0990    21.4430    25.9800     2.2810 
  222.2500   -28.3950    84.4590    23.8230    26.4360    21.9420    26.5400     2.2660 
  222.3750   -28.5680    85.6610    23.9030    25.5020    22.2860    26.9210     2.2670 
  222.5000   -28.7120    87.5160    23.9880    23.9530    22.5930    27.2680     2.2800 
  222.6250   -28.8470    88.1400    24.0210    23.2610    22.9940    27.7320     2.2890 
  222.7500   -28.9870    86.3910    24.0260    24.2420    23.5480    28.3740     2.2890 
  222.8750   -29.1340    83.2930    24.0410    26.1450    24.2560    29.1870     2.2870 
  223.0000   -29.2800    81.0840    24.0940    27.7080    25.0650    30.0950     2.2910 
  223.1250   -29.4100    81.8890    24.2100    28.7840    25.8960    30.9750     2.2980 
  223.2500   -29.5160    85.2170    24.2870    29.5690    26.6580    31.7170     2.3040 
  223.3750   -29.5960    88.8940    24.3070    30.1320    27.2830    32.2430     2.3100 
  223.5000   -29.6510    89.6750    24.2860    30.7130    27.7290    32.5250     2.3130 
  223.6250   -29.6910    86.0460    24.2680    31.9950    27.9750    32.5710     2.3020 
