~V
VERS. 2.00: Ver 2.00
~W
STRT.M 50.0000:
STOP.M 277.0000:
STEP.M 0.1250:
NULL. -999.2500:
UWI. DF5031:
~C
DEPT.M :
DEN.GM/CC :
GR.API :
CALI.CM :
RXO.OHMM :
RI. :
RML.OHMM :
SP.MV :
~A
# ...
  196.2500     2.2140    63.0670    25.9160   134.4940   153.8120   151.8760   -23.0670 
  196.3750     2.2150    62.3900    25.5210   158.1780   177.1020   172.5970   -22.8090 
  196.5000     2.2310    60.4970    25.3550   198.4210   201.0720   192.8490   -22.5210 
  196.6250     2.2760    57.5480    25.3300   234.3640   207.0950   199.3480   -22.1090 
  196.7500     2.3490    55.9480    25.2270   241.9640   184.3330   184.1790   -21.5880 
  196.8750     2.4360    56.3930    25.0590   226.7140   143.1330   150.1520   -21.0480 
  197.0000     2.4950    57.4380    24.9090   191.1140   103.8030   110.7490   -20.5570 
  197.1250     2.4860    60.0900    24.8390   135.7550    78.0980    80.6460   -19.9710 
  197.2500     2.4550    65.0430    24.8320    79.1490    60.9140    61.6060   -19.3610 
  197.3750     2.4540    69.2360    24.8630    50.2850    49.1130    50.9790   -18.7510 
  197.5000     2.4960    69.3060    24.8890    45.9440    41.4910    43.9310   -18.0870 
  197.6250     2.5570    66.5570    24.8280    55.5420    35.0510    37.6880   -17.4050 
  197.7500     2.6120    65.6480    24.6140    57.1500    29.0420    31.6750   -16.6740 
  197.8750     2.6500    67.0800    24.2990    43.3540    23.9280    26.4230   -15.9030 
  198.0000     2.6700    68.7260    24.0670    25.4500    20.0990    22.4600   -15.1280 
  198.1250     2.6810    68.6950    24.0720    17.1520    17.5930    19.9100   -14.4690 
  198.2500     2.6860    68.2970    24.1040    15.9300    15.6610    17.9210   -13.8100 
  198.3750     2.6620    68.0880    24.1470    17.8350    13.7670    15.8190   -13.2250 
  198.5000     2.5910    66.8370    24.2030    19.7930    11.6190    13.2520   -12.7310 
  198.6250     2.4900    62.9790    24.3260    17.1900     9.3500    10.4660   -12.4060 
  198.7500     2.4040    59.0810    24.4430    11.2470     7.3700     8.0950   -12.1420 
  198.8750     2.3580    57.2090    24.6130     6.6310     5.8920     6.4290   -11.9560 
  199.0000     2.3590    58.3400    24.9080     4.9300     4.9310     5.4500   -11.8040 
  199.1250     2.3950    60.8870    24.9610     4.6730     4.4360     5.0490   -11.7410 
  199.2500     2.4220    61.8450    24.9220     4.5850     4.1970     4.9260   -11.7300 
  199.3750     2.4160    62.0500    24.9270     4.3250     4.1030     4.9280   -11.7100 
  199.5000     2.3710    63.3890    25.1120     4.0030     4.0820     4.9610   -11.6880 
  199.6250     2.2850    63.7280    25.3520     3.8920     4.1130     5.0020   -11.7100 
  199.7500     2.1820    61.8590    25.5240     3.9920     4.1780     5.0590   -11.7700 
  199.8750     2.0870    59.5580    25.6040     4.1530     4.2500     5.1210   -11.8290 
  200.0000     2.0300    58.8310    25.5350     4.2200     4.2860     5.1530   -11.8710 
  200.1250     2.0410    59.0870    25.4950     4.1280     4.2350     5.1140   -11.9150 
  200.2500     2.1050    58.0160    25.4020     3.9700     4.1200     5.0290   -11.9960 
  200.3750     2.1950    56.4220    25.1230     3.8920     3.9880     4.9430   -12.1360 
  200.5000     2.2700    55.6690    24.6810     3.9840     3.9020     4.9170   -12.3040 
  200.6250     2.3000    57.8120    24.3930     4.2380     3.9460     5.0460   -12.5100 
  200.7500     2.3040    62.5720    24.2560     4.5660     4.1460     5.3790   -12.8070 
  200.8750     2.3090    68.2700    24.1750     4.9290     4.5130     5.9560   -13.1550 
  201.0000     2.3400    73.8240    24.1440     5.5120     5.0380     6.7780   -13.6030 
  201.1250     2.3980    78.0150    24.1580     6.7560     5.7000     7.8050   -14.0760 
  201.2500     2.4480    82.0580    24.2000     8.5190     6.3820     8.8450   -14.6640 
  201.3750     2.4650    86.4430    24.2850     9.8550     6.9610     9.7090   -15.3170 
  201.5000     2.4520    91.1570    24.3720    10.1280     7.3230    10.2540   -16.0800 
  201.6250     2.4320    95.9770    24.4090     9.8790     7.3960    10.4190   -16.7550 
  201.7500     2.4130   100.4600    24.4180     9.5180     7.3080    10.3910   -17.4150 
  201.8750     2.3930   103.1780    24.4520     9.0810     7.1850    10.3310   -18.0710 
  202.0000     2.3740   103.0480    24.5400     9.0510     7.1280    10.3560   -18.6900 
  202.1250     2.3680   101.5730    24.6540     9.4850     7.1900    10.5030   -19.2420 
  202.2500     2.3740   101.9970    24.7030     9.8900     7.3150    10.7070   -19.6970 
  202.3750     2.3850   103.8950    24.7140     9.8700     7.4420    10.9110   -20.0550 
  202.5000     2.3960   105.3950    24.7060     9.7370     7.5200    11.0630   -20.3370 
  202.6250     2.4000   105.9850    24.6610     9.6960     7.5160    11.1230   -20.6160 
  202.7500     2.3920   104.2260    24.5850     9.7070     7.4620    11.1170   -20.8380 
  202.8750     2.3780    99.7590    24.5540     9.7030     7.4000    11.0860   -21.0180 
  203.0000     2.3650    95.8370    24.6150     9.6970     7.3840    11.0970   -21.1910 
  203.1250     2.3580    96.3070    24.7190     9.7220     7.4850    11.2560   -21.4050 
  203.2500     2.3510    96.5530    24.7720     9.8830     7.7310    11.6190   -21.5420 
  203.3750     2.3510    93.4240    24.7850    10.3370     8.1490    12.2340   -21.6380 
  203.5000     2.3570    90.4240    24.7750    11.2860     8.7580    13.1380   -21.6310 
  203.6250     2.3670    89.8500    24.7120    12.8450     9.5670    14.3260   -21.6020 
  203.7500     2.3770    89.2680    24.5990    14.1940    10.4010    15.5190   -21.4600 
  203.8750     2.3800    89.2580    24.5080    15.2180    11.0010    16.3250   -21.1720 
  204.0000     2.3630    90.9420    24.4770    15.8370    11.0890    16.3400   -20.7030 
  204.1250     2.3280    93.7860    24.4830    15.4590    10.4730    15.3020   -20.1210 
  204.2500     2.2980    96.7390    24.5080    12.8990     9.4870    13.7460   -19.4990 
  204.3750     2.2830    98.2920    24.5700     9.5540     8.4710    12.2030   -18.8580 
  204.5000     2.2830   100.4990    24.6050     7.6290     7.6830    11.0610   -18.2270 
  204.6250     2.3080   104.9440    24.4800     7.8210     7.3010    10.5800   -17.6370 
  204.7500     2.3540   109.3410    24.2800     8.6360     7.2610    10.6470   -17.1720 
  204.8750     2.3990   111.3460    24.2000     9.3480     7.5040    11.1380   -16.7840 
  205.0000     2.4250   111.8060    24.1870     9.9040     7.9510    11.8920   -16.5070 
  205.1250     2.4350   112.5810    24.1480    10.3040     8.5480    12.7810   -16.2230 
  205.2500     2.4450   109.7400    24.0800    10.6590     9.1950    13.6670   -15.9850 
  205.3750     2.4490   102.1420    24.0540    11.0110     9.7640    14.3680   -15.6740 
  205.5000     2.4300    93.4710    24.1340    11.5860    10.0460    14.5670   -15.3110 
  205.6250     2.3720    86.4890    24.2960    12.2920     9.7370    13.8390   -14.7500 
  205.7500     2.2910    78.7040    24.4320    11.7010     8.9190    12.3940   -14.0730 
  205.8750     2.2070    69.1000    24.5990     9.2290     7.8180    10.6320   -13.3860 
  206.0000     2.1250    61.1580    24.9720     6.2820     6.7250     9.0160   -12.7060 
  206.1250     2.0230    59.2610    25.7080     4.9500     5.9020     7.9090   -12.0600 
  206.2500     1.8950    60.0330    26.6510     4.7410     5.3830     7.2770   -11.4310 
  206.3750     1.7680    60.1760    27.9710     4.9310     5.1430     7.0330   -10.8990 
  206.5000     1.6760    61.5630    29.2910     5.0210     5.1190     7.0470   -10.5350 
  206.6250     1.6400    66.8600    29.3060     5.0240     5.2340     7.1790   -10.3610 
  206.7500     1.6360    74.2790    27.4660     5.0360     5.3790     7.3030   -10.3240 
  206.8750     1.6570    81.3430    25.7370     5.1130     5.5110     7.4030   -10.3650 
  207.0000     1.7150    85.0310    24.9450     5.2700     5.6110     7.4830   -10.5040 
  207.1250     1.8300    84.8530    24.6270     5.4560     5.6590     7.4910   -10.7270 
  207.2500     1.9770    84.8530    24.2880     5.5670     5.6540     7.3950   -11.0040 
  207.3750     2.1170    88.7410    23.9740     5.5990     5.5930     7.2090   -11.3510 
