~V
VERS. 2.00: Ver 2.00
~W
STRT.M 55.0000:
STOP.M 271.0000:
STEP.M 0.1250:
NULL. -999.2500:
UWI. DF5016:
~C
DEPT.M :
SP.MV :
GR.API :
CALI.CM :
RXO.OHMM :
RI. :
RML.OHMM :
DEN.GM/CC :
~A
# ...
  100.0000   -28.9090    76.6920    21.2910     8.8330     8.4190     9.1220     2.1760 
  100.1250   -28.9510    78.5020    21.3090     8.8330     8.2590     8.9530     2.1800 
  100.2500   -29.0110    77.4590    21.3660     8.8850     8.0370     8.7190     2.1850 
  100.3750   -29.0690    74.5420    21.4180     9.0270     7.8020     8.4710     2.1860 
  100.5000   -29.1110    71.9080    21.4110     9.1880     7.6040     8.2620     2.1870 
  100.6250   -29.1420    70.7180    21.3930     9.2990     7.4990     8.1520     2.1890 
  100.7500   -29.1840    70.1390    21.3730     9.2830     7.4740     8.1250     2.1840 
  100.8750   -29.2440    69.5050    21.3570     9.3490     7.5240     8.1770     2.1720 
  101.0000   -29.3080    68.8460    21.3580     9.5600     7.6420     8.3020     2.1580 
  101.1250   -29.3420    69.3270    21.3840     9.5880     7.8100     8.4800     2.1470 
  101.2500   -29.3290    71.7750    21.3780     9.5690     7.9810     8.6600     2.1430 
  101.3750   -29.2670    75.2990    21.3790     9.5700     8.1290     8.8160     2.1440 
  101.5000   -29.1680    76.9920    21.3490     9.5740     8.2510     8.9440     2.1460 
  101.6250   -29.0320    74.4360    21.3600     9.5520     8.3880     9.0900     2.1460 
  101.7500   -28.8610    70.3730    21.4060     9.3450     8.5700     9.2810     2.1410 
  101.8750   -28.6440    68.3740    21.4650     9.0730     8.7980     9.5220     2.1330 
  102.0000   -28.3860    69.6720    21.5230     8.8940     9.0520     9.7890     2.1240 
  102.1250   -28.1100    73.0730    21.6000     8.8010     9.2790    10.0290     2.1240 
  102.2500   -27.8590    76.1020    21.6680     8.7910     9.4500    10.2100     2.1370 
  102.3750   -27.6540    76.8530    21.6870     8.7970     9.5200    10.2840     2.1590 
  102.5000   -27.4920    74.7490    21.6760     8.7460     9.4460    10.2060     2.1810 
  102.6250   -27.3550    71.4710    21.6170     8.5530     9.1950     9.9410     2.1840 
  102.7500   -27.2230    69.4810    21.6250     8.3260     8.8300     9.5550     2.1700 
  102.8750   -27.1020    69.5170    21.7140     8.2040     8.4230     9.1260     2.1540 
  103.0000   -27.0090    71.4700    21.8270     8.2220     8.0440     8.7260     2.1520 
  103.1250   -26.9590    74.5840    21.9370     8.2850     7.7420     8.4080     2.1650 
  103.2500   -26.9350    76.9490    22.0050     8.3560     7.5340     8.1880     2.1750 
  103.3750   -26.9170    77.9670    21.9970     8.3710     7.4310     8.0800     2.1780 
  103.5000   -26.8980    78.3600    21.8850     8.3310     7.4500     8.0990     2.1780 
  103.6250   -26.8900    78.6480    21.7180     8.3760     7.5890     8.2460     2.1770 
  103.7500   -26.9130    78.4540    21.5990     8.5850     7.7960     8.4650     2.1740 
  103.8750   -26.9730    77.1020    21.5460     8.8720     8.0420     8.7250     2.1710 
  104.0000   -27.0630    74.1540    21.5260     9.0740     8.3080     9.0050     2.1660 
  104.1250   -27.1610    70.0200    21.5200     9.2390     8.5610     9.2720     2.1590 
  104.2500   -27.2530    66.6960    21.5210     9.3940     8.7600     9.4820     2.1550 
  104.3750   -27.3440    65.8390    21.5150     9.5200     8.8460     9.5720     2.1550 
  104.5000   -27.4490    68.0320    21.5130     9.6190     8.7860     9.5090     2.1590 
  104.6250   -27.5840    72.4350    21.5200     9.6710     8.5930     9.3050     2.1610 
  104.7500   -27.7390    76.4310    21.5200     9.6780     8.3460     9.0450     2.1610 
  104.8750   -27.9000    78.4260    21.5170     9.5550     8.0910     8.7760     2.1590 
  105.0000   -28.0500    78.4320    21.5230     9.2580     7.8650     8.5370     2.1590 
  105.1250   -28.1840    76.6080    21.5270     8.9690     7.6990     8.3620     2.1660 
  105.2500   -28.3130    73.1940    21.5520     9.0270     7.6190     8.2780     2.1810 
  105.3750   -28.4520    68.7740    21.6140     9.6040     7.6300     8.2890     2.1980 
  105.5000   -28.6020    65.4770    21.6780    10.5200     7.7050     8.3680     2.2050 
  105.6250   -28.7420    65.8820    21.6280    10.7990     7.8100     8.4790     2.1960 
  105.7500   -28.8480    68.1820    21.4760    10.3540     7.8960     8.5710     2.1770 
  105.8750   -28.9080    69.8920    21.3090     9.7280     7.9550     8.6320     2.1590 
  106.0000   -28.9250    69.8400    21.1890     9.5030     7.9960     8.6760     2.1460 
  106.1250   -28.9110    68.4770    21.1010     9.7220     8.0310     8.7130     2.1340 
  106.2500   -28.8720    66.9520    21.0510     9.9100     8.0990     8.7840     2.1240 
  106.3750   -28.7940    66.0050    21.0890     9.9930     8.2140     8.9060     2.1220 
  106.5000   -28.6580    66.2210    21.2490    10.0170     8.3930     9.0950     2.1300 
  106.6250   -28.4570    67.4240    21.4040    10.0090     8.6680     9.3850     2.1390 
  106.7500   -28.2230    68.9390    21.5910    10.0400     8.9830     9.7170     2.1370 
  106.8750   -27.9790    71.2280    21.7670    10.0200     9.2710    10.0210     2.1240 
  107.0000   -27.7400    74.1360    21.9100     9.8300     9.4680    10.2290     2.1090 
  107.1250   -27.5120    75.5690    21.9670     9.5420     9.4870    10.2480     2.1060 
  107.2500   -27.3020    74.1990    21.8480     9.3190     9.3500    10.1040     2.1150 
  107.3750   -27.1320    71.5620    21.6340     9.2140     9.0790     9.8190     2.1340 
  107.5000   -27.0230    70.3880    21.4330     9.1940     8.7250     9.4450     2.1570 
  107.6250   -26.9930    71.6080    21.3590     9.2640     8.3710     9.0720     2.1700 
  107.7500   -27.0140    72.7270    21.3250     9.4160     8.0790     8.7640     2.1670 
  107.8750   -27.0690    72.5440    21.3390     9.5630     7.8960     8.5700     2.1570 
  108.0000   -27.1450    71.7920    21.3350     9.6440     7.8250     8.4960     2.1540 
  108.1250   -27.2370    71.7070    21.2970     9.6550     7.8330     8.5040     2.1660 
  108.2500   -27.3290    71.9790    21.2670     9.6310     7.8760     8.5490     2.1800 
  108.3750   -27.4030    71.8370    21.2300     9.5830     7.9330     8.6090     2.1880 
  108.5000   -27.4420    70.7720    21.1790     9.5060     7.9910     8.6710     2.1870 
  108.6250   -27.4450    69.6350    21.1160     9.4560     8.0520     8.7350     2.1810 
  108.7500   -27.4310    70.2330    21.1090     9.4470     8.1010     8.7860     2.1810 
  108.8750   -27.4080    72.4210    21.1080     9.4530     8.1380     8.8250     2.1870 
  109.0000   -27.3720    73.9260    21.1670     9.4510     8.1680     8.8580     2.1910 
  109.1250   -27.3140    71.9930    21.3030     9.4630     8.1790     8.8690     2.1820 
  109.2500   -27.2460    68.2280    21.5400     9.5600     8.1800     8.8700     2.1700 
  109.3750   -27.1760    65.5610    21.8590     9.6840     8.1550     8.8440     2.1660 
  109.5000   -27.1040    66.2110    22.1170     9.7720     8.0940     8.7790     2.1700 
  109.6250   -27.0120    70.1430    22.2300     9.7970     8.0140     8.6940     2.1780 
  109.7500   -26.8940    73.6970    22.3430     9.7010     7.9340     8.6100     2.1880 
  109.8750   -26.7540    74.9490    22.4890     9.5340     7.8850     8.5590     2.1980 
  110.0000   -26.6050    74.6710    22.6020     9.3710     7.8760     8.5490     2.2060 
  110.1250   -26.4540    74.6370    22.5350     9.2720     7.9040     8.5790     2.2040 
  110.2500   -26.2960    74.5180    22.3530     9.3070     7.9510     8.6280     2.1920 
  110.3750   -26.1290    73.0960    22.2010     9.4840     8.0010     8.6810     2.1740 
  110.5000   -25.9570    70.2020    22.1350     9.6720     8.0410     8.7240     2.1550 
  110.6250   -25.7900    67.5180    22.1150     9.7700     8.0470     8.7300     2.1460 
  110.7500   -25.6230    66.6420    22.0930     9.7680     8.0100     8.6910     2.1490 
  110.8750   -25.4400    67.5950    22.0550     9.8070     7.9290     8.6050     2.1570 
  111.0000   -25.2240    69.7180    22.0750     9.9700     7.8180     8.4880     2.1580 
  111.1250   -24.9580    71.7040    22.1960    10.1840     7.6960     8.3590     2.1500 
