~V
VERS. 2.00: Ver 2.00
~W
STRT.M 50.0000:
STOP.M 277.0000:
STEP.M 0.1250:
NULL. -999.2500:
UWI. DF5031:
~C
DEPT.M :
DEN.GM/CC :
GR.API :
CALI.CM :
RXO.OHMM :
RI. :
RML.OHMM :
SP.MV :
~A
# ...
  162.5000     2.2660    76.0930    25.4480    44.5610    42.3390    45.7720   -24.5340 
  162.6250     2.2520    77.4640    25.4180    52.0470    47.6690    51.1610   -24.7930 
  162.7500     2.2400    79.3760    25.3840    59.1510    53.1070    56.5850   -25.0590 
  162.8750     2.2300    80.5540    25.3680    65.0810    59.1500    62.6350   -25.3240 
  163.0000     2.2210    80.7930    25.3620    71.1850    66.3880    70.0090   -25.5220 
  163.1250     2.2150    80.8640    25.3620    86.4950    75.3830    79.4020   -25.6440 
  163.2500     2.2120    79.6190    25.3740   106.8850    84.9870    89.5940   -25.7270 
  163.3750     2.2120    77.9470    25.3830   121.6930    92.9790    97.9220   -25.8140 
  163.5000     2.2120    77.4910    25.3880   122.8710    96.8130   101.1480   -25.9130 
  163.6250     2.2140    78.9920    25.3970   113.2380    94.7510    97.5170   -25.9430 
  163.7500     2.2190    81.0180    25.4040    98.7690    89.5250    90.9130   -25.9400 
  163.8750     2.2260    81.3690    25.4170    81.6060    83.9200    84.6150   -25.9550 
  164.0000     2.2300    79.6680    25.4130    69.0840    80.3710    80.9240   -26.0650 
  164.1250     2.2240    77.8470    25.3990    68.0990    80.9760    81.5910   -26.1920 
  164.2500     2.2120    76.7520    25.3800    79.4960    85.6130    86.2720   -26.2970 
  164.3750     2.2040    75.3780    25.3720    93.7320    94.4740    95.1030   -26.3980 
  164.5000     2.2040    75.1990    25.3710   112.2260   107.7070   108.1880   -26.5840 
  164.6250     2.2090    77.3940    25.3730   135.0540   125.1020   125.4430   -26.8520 
  164.7500     2.2100    77.8860    25.3760   155.4360   143.7620   144.1490   -27.1390 
  164.8750     2.2040    74.9040    25.3780   167.9850   160.6410   161.2870   -27.3480 
  165.0000     2.1950    72.4680    25.3780   174.8310   172.3170   173.0780   -27.5660 
  165.1250     2.1920    74.3440    25.3780   171.2300   174.4930   174.3660   -27.8080 
  165.2500     2.1990    75.5150    25.3780   162.1960   168.9190   167.4170   -28.0720 
  165.3750     2.2120    72.9860    25.3780   154.8600   158.8820   156.4620   -28.3130 
  165.5000     2.2180    69.1200    25.3790   146.1330   148.0100   145.3970   -28.4630 
  165.6250     2.2110    68.0430    25.3820   129.8280   139.2800   136.9690   -28.6060 
  165.7500     2.1990    69.4560    25.3910   118.3820   133.6960   131.8090   -28.7310 
  165.8750     2.1950    72.1080    25.3590   120.0710   131.4480   130.0220   -28.8740 
  166.0000     2.2010    74.2650    25.2470   131.3800   132.2940   131.3630   -28.9320 
  166.1250     2.2070    74.6690    25.0680   140.7030   136.1690   135.6830   -28.8900 
  166.2500     2.2070    74.3390    25.1270   141.8790   141.7500   141.5580   -28.8320 
  166.3750     2.2000    74.2490    25.2300   139.3170   147.8870   147.7540   -28.8290 
  166.5000     2.1930    73.8240    25.2560   141.2560   153.3410   152.9860   -28.8770 
  166.6250     2.1930    73.0950    25.2860   152.3260   156.5700   155.5840   -28.8410 
  166.7500     2.1980    71.8270    25.3340   159.1200   156.9770   154.9250   -28.8410 
  166.8750     2.2020    69.9440    25.3460   156.3720   154.2770   150.7800   -28.8870 
  167.0000     2.1990    68.0690    25.3200   147.0780   148.8410   143.7850   -28.9440 
  167.1250     2.1930    67.7800    25.2890   139.8340   141.4770   135.1520   -29.0210 
  167.2500     2.1930    69.4140    25.2730   133.7290   133.7220   126.4990   -29.0510 
  167.3750     2.2030    71.7350    25.2750   125.6840   126.3350   118.5150   -29.0220 
  167.5000     2.2180    73.6080    25.3120   116.2690   119.5410   111.3140   -28.9750 
  167.6250     2.2280    73.7170    25.3450   107.7500   113.0340   104.5670   -29.0250 
  167.7500     2.2330    71.1700    25.3840   101.2410   106.2230    97.6980   -28.9960 
  167.8750     2.2350    69.0540    25.4000    94.9290    98.9040    90.5130   -28.8900 
  168.0000     2.2370    71.6700    25.4000    87.0720    91.2840    83.2240   -28.7310 
  168.1250     2.2390    78.5460    25.3980    77.3220    82.9280    78.9010   -28.6490 
  168.2500     2.2380    82.8430    25.4030    68.4880    73.8240    80.4450   -28.5480 
  168.3750     2.2340    81.9150    25.4230    62.1380    71.8420    78.0470   -28.4060 
  168.5000     2.2230    78.5900    25.4570    58.6910    73.4270    79.5540   -28.2000 
  168.6250     2.2080    74.7830    25.5140    61.3280    80.1610    86.8390   -28.0050 
  168.7500     2.1950    71.1220    25.5750    76.3070    92.1220    99.8770   -27.8650 
  168.8750     2.1850    67.7040    25.6420   105.2890   109.6500   118.5650   -27.7470 
  169.0000     2.1770    65.2000    25.6820   139.1500   131.9390   141.2750   -27.6940 
  169.1250     2.1690    64.9940    25.6960   164.9130   155.2950   163.6190   -27.6220 
  169.2500     2.1660    66.1770    25.7090   178.4700   172.8940   179.9530   -27.6480 
  169.3750     2.1730    66.2870    25.7380   181.0600   179.8390   186.6450   -27.7290 
  169.5000     2.1900    64.9230    25.7680   178.7640   175.5470   183.1830   -27.8160 
  169.6250     2.2150    64.6330    25.7990   176.9550   162.2610   170.8700   -27.8300 
  169.7500     2.2370    66.2550    25.8260   165.9320   146.0570   154.8980   -27.8620 
  169.8750     2.2490    69.4090    25.8440   143.3070   130.7090   138.8060   -27.9580 
  170.0000     2.2510    74.1230    25.8640   120.5440   118.5220   125.2040   -28.0840 
  170.1250     2.2530    77.7930    25.9010   104.7720   110.5160   115.7050   -28.1520 
  170.2500     2.2590    77.8300    25.9220    93.7760   105.3640   109.3670   -28.1450 
  170.3750     2.2630    75.5540    25.9400    89.4350   102.2910   105.4920   -28.1710 
  170.5000     2.2550    72.7010    25.9720    90.0060   100.7220   103.4840   -28.2670 
  170.6250     2.2380    70.6990    26.0350    83.0640   100.7970   103.5220   -28.3310 
  170.7500     2.2270    69.8220    26.1280    72.9960   102.8580   105.8940   -28.3680 
  170.8750     2.2200    69.2970    26.1750    72.9360   107.6270   111.3350   -28.3820 
  171.0000     2.2090    68.9230    26.1230    90.0050   115.7000   120.3800   -28.4200 
  171.1250     2.1990    69.3990    25.9000   112.6310   127.4950   133.0300   -28.4930 
  171.2500     2.2030    70.4310    25.7620   127.7180   139.6650   145.4760   -28.5630 
  171.3750     2.2140    68.9610    25.7380   139.1060   145.9930   151.9670   -28.5100 
  171.5000     2.2170    64.4840    25.7980   156.0480   140.5640   147.4400   -28.4320 
  171.6250     2.2100    62.2890    25.8080   166.4520   123.8810   131.4250   -28.3940 
  171.7500     2.2080    64.7880    25.8240   143.2640   106.0490   112.8400   -28.3280 
  171.8750     2.2180    68.3190    25.8020    97.6970    92.5780    97.8800   -28.1990 
  172.0000     2.2290    68.9900    25.6400    64.4560    85.5470    89.6750   -27.9990 
  172.1250     2.2270    67.0770    25.4490    61.3320    85.7330    89.3410   -27.8360 
  172.2500     2.2090    66.4670    25.3710    78.7000    90.0600    93.1550   -27.7310 
  172.3750     2.1900    68.4190    25.5450   104.1570    94.8450    97.1550   -27.6850 
  172.5000     2.1920    72.0910    25.7140   122.3000    95.2760    97.0120   -27.5960 
  172.6250     2.2210    76.9400    25.7690   109.5400    87.9530    89.7980   -27.5160 
  172.7500     2.2500    80.4120    25.7340    79.0910    77.5530    79.4670   -27.4650 
  172.8750     2.2630    80.0880    25.6200    51.3000    68.6000    70.1890   -27.4790 
  173.0000     2.2640    79.1340    25.4430    40.6570    63.4590    64.5360   -27.4870 
  173.1250     2.2590    80.7620    25.2930    46.1870    63.2720    63.9040   -27.4230 
  173.2500     2.2470    81.1390    25.0630    57.8720    67.0820    67.3640   -27.3590 
  173.3750     2.2290    77.3730    24.7760    64.9320    74.4440    74.3890   -27.3450 
  173.5000     2.2150    71.7780    24.4630    68.2660    84.3540    83.7820   -27.3100 
  173.6250     2.2120    70.5860    24.3250    83.7670    94.4950    93.0350   -27.2400 
