~V
VERS. 2.00: Ver 2.00
~W
STRT.M 55.0000:
STOP.M 261.0000:
STEP.M 0.1250:
NULL. -999.2500:
UWI. DF5033:
~C
DEPT.M :
SP.MV :
GR.API :
CALI.CM :
RXO.OHMM :
RI. :
RML.OHMM :
DEN.GM/CC :
~A
# ...
  122.5000   -16.1240    85.7460    27.3270     5.3940     4.9850     5.5320     2.2330 
  122.6250   -16.3950    79.7700    27.5540     5.7580     5.2990     6.0650     2.2100 
  122.7500   -16.7260    72.9650    27.4840     6.3990     5.9520     7.1120     2.1980 
  122.8750   -17.1080    69.4790    27.1500     7.3440     7.0010     8.7300     2.2270 
  123.0000   -17.4980    69.1860    26.7200     8.4810     8.4440    10.8710     2.3120 
  123.1250   -17.8580    67.5960    26.4060     9.4660    10.1630    13.2680     2.4300 
  123.2500   -18.1620    65.7790    26.2460    10.1020    11.7690    15.3360     2.5200 
  123.3750   -18.3990    67.0010    26.1610    10.4690    12.9030    16.6040     2.5560 
  123.5000   -18.5740    69.5600    26.0580    10.7090    13.3620    16.8930     2.5410 
  123.6250   -18.6910    68.0670    25.9020    10.8100    13.1130    16.2910     2.4800 
  123.7500   -18.7690    66.2640    25.7420    10.7360    12.5120    15.3220     2.3970 
  123.8750   -18.8180    68.5960    25.6200    10.5030    11.7790    14.2750     2.3110 
  124.0000   -18.8730    73.1500    25.5440    10.1810    11.0550    13.3100     2.2410 
  124.1250   -18.9410    75.4720    25.4980     9.8570    10.4430    12.5270     2.1970 
  124.2500   -19.0380    76.0890    25.4540     9.5850     9.9740    11.9340     2.1750 
  124.3750   -19.1860    76.8120    25.4080     9.3820     9.6620    11.5460     2.1740 
  124.5000   -19.3690    78.4530    25.3620     9.2560     9.5010    11.3720     2.1850 
  124.6250   -19.5830    79.0550    25.3230     9.2450     9.4840    11.4160     2.1990 
  124.7500   -19.7960    76.8090    25.2940     9.3540     9.5460    11.5630     2.2100 
  124.8750   -19.9860    71.8180    25.2760     9.5570     9.6290    11.7010     2.2190 
  125.0000   -20.1370    67.3050    25.2660     9.7580     9.6680    11.7240     2.2240 
  125.1250   -20.2450    65.6790    25.2620     9.8130     9.5830    11.5350     2.2200 
  125.2500   -20.3290    66.6880    25.2610     9.6760     9.3690    11.1680     2.2140 
  125.3750   -20.3980    71.1260    25.2600     9.3680     9.0620    10.6880     2.2070 
  125.5000   -20.4790    74.6970    25.2600     8.9620     8.7360    10.2020     2.1990 
  125.6250   -20.6070    71.4190    25.2600     8.5820     8.4930     9.8600     2.1900 
  125.7500   -20.7990    66.8920    25.2620     8.3550     8.3850     9.7250     2.1830 
  125.8750   -21.0390    67.3730    25.2680     8.3550     8.4250     9.8060     2.1780 
  126.0000   -21.3070    70.0710    25.2740     8.4460     8.5110     9.9410     2.1790 
  126.1250   -21.5510    73.0610    25.2820     8.5530     8.6180    10.1000     2.1890 
  126.2500   -21.7040    76.3420    25.2970     8.6760     8.7920    10.3380     2.2050 
  126.3750   -21.7430    77.9050    25.3130     8.6920     8.8610    10.4110     2.2170 
  126.5000   -21.6660    78.0340    25.3260     8.5660     8.7380    10.2060     2.2230 
  126.6250   -21.4640    76.5040    25.3350     8.1580     8.3250     9.5940     2.2330 
  126.7500   -21.1940    75.6020    25.3410     7.6250     7.6760     8.6640     2.2510 
  126.8750   -20.9340    77.0050    25.3490     7.1720     6.8680     7.5480     2.2710 
  127.0000   -20.7310    79.5380    25.3630     6.6950     6.0280     6.4390     2.2860 
  127.1250   -20.6660    84.7390    25.3860     5.9080     5.3360     5.6100     2.3050 
  127.2500   -20.7560    91.3660    25.4130     5.0770     4.8980     5.1840     2.3270 
  127.3750   -20.9980    93.4310    25.4350     4.7040     4.7710     5.2260     2.3340 
  127.5000   -21.3410    87.5620    25.4450     5.1110     4.9740     5.7360     2.3100 
  127.6250   -21.7570    79.2580    25.4330     6.2850     5.5250     6.6970     2.2650 
  127.7500   -22.2130    75.3830    25.4080     7.5520     6.2840     7.8580     2.2250 
  127.8750   -22.6520    73.1560    25.3770     8.4100     7.1100     8.9750     2.1980 
  128.0000   -23.0540    69.4090    25.3480     8.9520     7.8470     9.8290     2.1760 
  128.1250   -23.3830    67.7240    25.3320    10.1450     8.3590    10.2990     2.1610 
  128.2500   -23.6370    69.4830    25.3360    12.0610     8.6940    10.5540     2.1610 
  128.3750   -23.8270    69.8370    25.3700    13.3100     8.9150    10.7170     2.1790 
  128.5000   -23.9760    66.0860    25.4380    12.7220     9.0670    10.8400     2.2060 
  128.6250   -24.0950    62.3650    25.5320    10.9960     9.1420    10.8850     2.2210 
  128.7500   -24.1550    62.6170    25.6230     9.8490     9.1350    10.8200     2.2150 
  128.8750   -24.1620    65.8330    25.6890     9.3980     9.0440    10.6520     2.1930 
  129.0000   -24.0910    69.9080    25.7180     9.2030     8.8950    10.4380     2.1700 
  129.1250   -23.9100    72.2240    25.7110     9.1270     8.7400    10.2820     2.1630 
  129.2500   -23.6280    71.6690    25.6880     9.1240     8.6390    10.2400     2.1740 
  129.3750   -23.2500    70.4330    25.6620     9.0600     8.5970    10.2930     2.1920 
  129.5000   -22.8100    70.7340    25.6410     9.0710     8.5630    10.3350     2.2000 
  129.6250   -22.3100    71.1170    25.6240     9.6120     8.4110    10.1660     2.1980 
  129.7500   -21.7960    74.0250    25.6070    10.1730     8.0720     9.7020     2.2010 
  129.8750   -21.2990    80.8090    25.5870     9.7120     7.5450     8.9580     2.2190 
  130.0000   -20.8380    87.2670    25.5660     8.0540     6.9020     8.0520     2.2450 
  130.1250   -20.4490    90.1920    25.5480     6.4490     6.2640     7.1750     2.2590 
  130.2500   -20.1420    92.9920    25.5440     5.7560     5.7340     6.4800     2.2560 
  130.3750   -19.9370    97.3400    25.5560     5.6160     5.3860     6.0730     2.2490 
  130.5000   -19.8040    99.8270    25.5790     5.4600     5.2780     6.0340     2.2470 
  130.6250   -19.7150    95.8280    25.5990     5.2510     5.4850     6.4510     2.2560 
  130.7500   -19.6210    87.3350    25.6050     5.4400     5.9160     7.1650     2.2730 
  130.8750   -19.5070    78.4570    25.6000     6.4080     6.4400     7.9510     2.3060 
  131.0000   -19.3940    76.0780    25.5950     8.0020     6.8380     8.4600     2.3560 
  131.1250   -19.3040    82.1800    25.6030     8.8380     6.8120     8.2400     2.4000 
  131.2500   -19.2410    90.2440    25.6190     8.0030     6.3900     7.4330     2.4060 
  131.3750   -19.1970    95.7790    25.6330     6.2280     5.7680     6.4350     2.3780 
  131.5000   -19.1770    97.6670    25.6350     4.8860     5.1930     5.6440     2.3430 
  131.6250   -19.1830    97.7410    25.6170     4.6260     4.8700     5.3380     2.3310 
  131.7500   -19.2240    96.9310    25.5890     4.9510     4.8040     5.4420     2.3320 
  131.8750   -19.2710    94.5230    25.5570     5.5790     4.9540     5.8340     2.3290 
  132.0000   -19.2920    91.7290    25.5280     6.3370     5.2270     6.3250     2.3160 
  132.1250   -19.2590    89.2050    25.5120     6.9980     5.4920     6.6830     2.2990 
  132.2500   -19.1570    86.4440    25.5140     7.3700     5.6460     6.8160     2.2840 
  132.3750   -18.9950    86.2200    25.5350     7.2260     5.6610     6.7380     2.2800 
  132.5000   -18.7790    91.4820    25.5740     6.5440     5.5550     6.5110     2.2960 
  132.6250   -18.5460    98.1610    25.6210     5.7130     5.3570     6.1970     2.3250 
  132.7500   -18.3250   101.2500    25.6610     5.1750     5.1250     5.8630     2.3380 
  132.8750   -18.1390   104.5660    25.6850     4.9090     4.8940     5.5580     2.3260 
  133.0000   -18.0020   109.1470    25.6900     4.7470     4.6930     5.3310     2.3020 
  133.1250   -17.9160   109.1690    25.6790     4.6200     4.5590     5.2260     2.2930 
  133.2500   -17.8830   104.5930    25.6640     4.5390     4.4900     5.2180     2.3000 
  133.3750   -17.8780   100.7330    25.6520     4.5000     4.4780     5.2790     2.3100 
  133.5000   -17.8910   101.7030    25.6450     4.4970     4.5030     5.3710     2.3130 
  133.6250   -17.9090   104.5450    25.6460     4.5280     4.5390     5.4540     2.3100 
