~V
VERS. 2.00: Ver 2.00
~W
STRT.M 60.0000:
STOP.M 248.0000:
STEP.M 0.1250:
NULL. -999.2500:
UWI. DF5054:
~C
DEPT.M :
SP.MV :
GR.API :
CALI.CM :
RXO.OHMM :
RI. :
RML.OHMM :
DEN.GM/CC :
~A
# ...
  138.7500    -8.9060   105.2970    23.6890     5.9410     5.5300     6.6280     2.3280 
  138.8750    -8.8480    97.2230    23.7130     6.5120     6.0620     7.3220     2.3430 
  139.0000    -8.7830    87.1760    23.7520     7.2030     6.8350     8.3130     2.3630 
  139.1250    -8.7110    79.0840    23.8480     9.5410     7.9310     9.6540     2.3950 
  139.2500    -8.6420    73.5810    23.9110    14.0000     9.3060    11.2620     2.4400 
  139.3750    -8.5850    70.1140    23.9620    18.5420    10.9180    13.0840     2.4930 
  139.5000    -8.5510    67.5490    24.0310    20.4330    12.6830    15.0340     2.5400 
  139.6250    -8.5550    65.8120    24.0850    19.7880    14.4830    16.9720     2.5640 
  139.7500    -8.5940    65.3580    24.1100    20.4390    16.1960    18.7660     2.5740 
  139.8750    -8.6600    65.5420    24.0800    22.8450    17.7270    20.3340     2.5760 
  140.0000    -8.7500    64.5690    23.9970    25.5560    19.0080    21.6200     2.5740 
  140.1250    -8.8700    61.5960    23.9460    27.4380    19.9870    22.5750     2.5680 
  140.2500    -9.0090    58.9900    23.9270    28.4900    20.7150    23.2560     2.5650 
  140.3750    -9.1570    58.0000    23.9390    28.7410    21.1830    23.6530     2.5700 
  140.5000    -9.3040    57.4700    23.9750    28.0190    21.3970    23.7810     2.5860 
  140.6250    -9.4450    55.2920    24.0300    27.4170    21.4010    23.6980     2.6080 
  140.7500    -9.5820    51.8700    24.0820    27.5110    21.3180    23.5490     2.6240 
  140.8750    -9.7200    48.8990    24.1080    27.3130    21.1990    23.3730     2.6250 
  141.0000    -9.8600    47.4030    24.0550    26.0250    21.0700    23.1760     2.6010 
  141.1250    -9.9860    47.5060    23.8710    24.4350    20.9310    22.9420     2.5610 
  141.2500   -10.0880    49.1000    23.6370    23.1060    20.7460    22.6330     2.5310 
  141.3750   -10.1610    52.4670    23.3820    22.5220    20.4690    22.1950     2.5250 
  141.5000   -10.2010    57.2360    23.1180    22.7380    20.0710    21.6000     2.5360 
  141.6250   -10.1990    61.6400    22.9100    23.5360    19.5460    20.8420     2.5390 
  141.7500   -10.1710    64.6410    22.7390    24.1060    18.9700    20.0240     2.5270 
  141.8750   -10.1260    66.6750    22.6540    23.7100    18.4290    19.2660     2.5150 
  142.0000   -10.0670    68.2390    22.6610    21.8950    18.0140    18.6900     2.5170 
  142.1250   -10.0030    68.8840    22.7910    19.6490    17.7880    18.3850     2.5320 
  142.2500    -9.9390    68.0650    23.0340    18.4900    17.6610    18.2390     2.5530 
  142.3750    -9.8760    65.6230    23.3600    18.9010    17.5220    18.1200     2.5720 
  142.5000    -9.8160    62.1110    23.7070    20.2820    17.2530    17.8920     2.5870 
  142.6250    -9.7680    59.8480    23.8810    21.7240    16.7260    17.4040     2.5940 
  142.7500    -9.7260    60.1680    23.9550    22.2840    15.9900    16.6760     2.5840 
  142.8750    -9.6830    62.2810    24.0030    21.1660    15.1520    15.8090     2.5580 
  143.0000    -9.6350    64.1900    24.0840    18.1380    14.3710    14.9730     2.5310 
  143.1250    -9.5880    64.3610    24.1410    14.9660    13.8410    14.4110     2.5250 
  143.2500    -9.5490    63.4610    24.1560    13.5760    13.6230    14.2080     2.5320 
  143.3750    -9.5240    62.3610    24.1130    13.8970    13.7270    14.3740     2.5410 
  143.5000    -9.5170    61.6180    24.0340    14.9320    14.1050    14.8330     2.5540 
  143.6250    -9.5360    60.9730    24.0170    16.0070    14.6760    15.4640     2.5690 
  143.7500    -9.5760    60.5780    24.0400    17.2120    15.2770    16.0830     2.5750 
  143.8750    -9.6310    61.4170    24.0540    18.6610    15.7890    16.5710     2.5670 
  144.0000    -9.6910    64.2310    24.0770    20.5460    16.1360    16.8560     2.5510 
  144.1250    -9.7550    68.0480    24.1290    21.4230    16.2810    16.9100     2.5330 
  144.2500    -9.8270    69.0400    24.1460    21.2520    16.2950    16.8280     2.5150 
  144.3750    -9.9060    65.7060    24.1370    20.4040    16.2340    16.6790     2.5050 
  144.5000    -9.9900    61.4700    24.1030    19.4020    16.1470    16.5310     2.5080 
  144.6250   -10.0800    63.5720    24.0190    18.3590    16.0790    16.4380     2.5140 
  144.7500   -10.1700    70.8300    23.9540    17.6890    16.0430    16.4050     2.5110 
  144.8750   -10.2570    75.9630    23.9010    18.0400    16.0290    16.4140     2.5080 
  145.0000   -10.3430    74.0360    23.8590    19.4840    16.0140    16.4330     2.5140 
  145.1250   -10.4270    67.4250    23.9500    20.6380    15.9570    16.4140     2.5230 
  145.2500   -10.4970    63.0850    24.0700    20.3920    15.8320    16.3270     2.5200 
  145.3750   -10.5510    61.9990    24.1450    18.9110    15.6280    16.1600     2.5110 
  145.5000   -10.5950    61.8470    24.1320    17.3690    15.3600    15.9260     2.5030 
  145.6250   -10.6280    61.5300    24.0880    17.0800    15.0670    15.6690     2.5010 
  145.7500   -10.6520    61.8020    24.0830    17.4310    14.8180    15.4600     2.5050 
  145.8750   -10.6730    63.1550    24.0820    17.5200    14.6760    15.3600     2.5200 
  146.0000   -10.6980    64.9530    24.0480    16.8050    14.6910    15.4180     2.5420 
  146.1250   -10.7250    66.8130    24.0030    15.9360    14.9090    15.6720     2.5540 
  146.2500   -10.7570    69.3340    23.9910    16.1620    15.2690    16.0460     2.5490 
  146.3750   -10.7990    72.3840    24.0300    17.6810    15.7100    16.4730     2.5300 
  146.5000   -10.8480    74.7810    24.0710    19.7890    16.1570    16.8810     2.5040 
  146.6250   -10.8960    75.3130    24.1150    21.4390    16.5090    17.1840     2.4820 
  146.7500   -10.9380    75.0350    24.1720    22.4530    16.7260    17.3600     2.4720 
  146.8750   -10.9690    74.6990    24.2100    22.3960    16.8100    17.4160     2.4720 
  147.0000   -10.9910    73.9050    24.1980    21.3760    16.7990    17.3900     2.4730 
  147.1250   -11.0080    71.7480    24.1850    20.6470    16.7480    17.3360     2.4740 
  147.2500   -11.0060    68.6120    24.1260    20.8480    16.7150    17.3140     2.4790 
  147.3750   -10.9770    65.7290    24.1010    21.4550    16.7240    17.3430     2.4870 
  147.5000   -10.9250    64.7320    24.1170    21.7460    16.7840    17.4260     2.4960 
  147.6250   -10.8600    66.5830    24.1380    21.3100    16.8870    17.5540     2.5030 
  147.7500   -10.7900    68.8900    24.1150    20.6750    16.9930    17.6870     2.5090 
  147.8750   -10.7180    69.4890    24.0660    20.2810    17.0650    17.7930     2.5170 
  148.0000   -10.6500    68.2950    24.0240    20.3980    17.0800    17.8440     2.5260 
  148.1250   -10.5940    67.5300    24.0160    21.1370    17.0160    17.8010     2.5360 
  148.2500   -10.5560    68.1350    24.0450    21.8040    16.8700    17.6580     2.5410 
  148.3750   -10.5490    68.7280    24.0660    21.8180    16.6270    17.4050     2.5410 
  148.5000   -10.5720    68.2280    24.0760    20.8930    16.2920    17.0510     2.5400 
  148.6250   -10.6180    66.4550    24.0790    19.3900    15.8960    16.6310     2.5420 
  148.7500   -10.6810    64.0280    24.0830    18.3960    15.5050    16.2180     2.5400 
  148.8750   -10.7620    61.8420    24.1010    18.1800    15.1540    15.8600     2.5220 
  149.0000   -10.8560    61.1320    24.1530    18.0230    14.8580    15.5790     2.4930 
  149.1250   -10.9620    62.0880    24.1850    17.1590    14.6380    15.3880     2.4730 
  149.2500   -11.0890    62.6720    24.1870    16.1810    14.4910    15.2670     2.4730 
  149.3750   -11.2590    61.5740    24.1580    15.8950    14.3990    15.1960     2.4880 
  149.5000   -11.4890    59.2900    24.1190    16.5110    14.3250    15.1450     2.5030 
  149.6250   -11.7870    58.2800    24.0930    16.8930    14.2210    15.0660     2.5120 
  149.7500   -12.1360    60.3950    24.0860    16.2690    14.0610    14.9230     2.5170 
  149.8750   -12.5320    65.0160    24.0960    15.1960    13.8380    14.7030     2.5170 
