~V
VERS. 2.00: Ver 2.00
~W
STRT.M 65.0000:
STOP.M 272.0000:
STEP.M 0.1250:
NULL. -999.2500:
UWI. DF5002:
~C
DEPT.M :
DEN.GM/CC :
GR.API :
CALI.CM :
RXO.OHMM :
RI. :
RML.OHMM :
SP.MV :
~A
# ...
   76.2500     2.2320    79.5420    23.6390    12.5900     9.4050    11.3920   -30.1340 
   76.3750     2.2280    76.9950    23.6170    12.3850     9.3080    11.0330   -30.5410 
   76.5000     2.2110    75.5740    23.6080    11.6760     9.0880    10.5690   -30.9880 
   76.6250     2.1910    78.9550    23.5950    11.1300     8.9260    10.2470   -31.3590 
   76.7500     2.1800    82.2700    23.5910    11.0910     8.9070    10.1570   -31.7960 
   76.8750     2.1760    81.6670    23.6260    11.6070     9.0350    10.2960   -32.3530 
   77.0000     2.1770    77.4060    23.7120    12.3540     9.2640    10.5890   -32.9030 
   77.1250     2.1790    73.8820    23.7700    12.8820     9.4920    10.8880   -33.4620 
   77.2500     2.1790    72.9900    23.8060    13.0290     9.6150    11.0450   -34.1750 
   77.3750     2.1750    72.6270    23.8200    12.8840     9.5830    10.9920   -34.9900 
   77.5000     2.1680    72.2270    23.8230    12.5400     9.4070    10.7480   -35.7460 
   77.6250     2.1580    71.1120    23.8280    12.1730     9.1350    10.3940   -36.4810 
   77.7500     2.1430    67.7020    23.8390    11.9350     8.8570    10.0670   -37.1890 
   77.8750     2.1190    64.5050    23.8500    11.8090     8.6250     9.8410   -37.7770 
   78.0000     2.0920    63.1940    23.8550    11.7410     8.4680     9.7440   -38.3260 
   78.1250     2.0760    64.3780    23.8550    11.7510     8.4020     9.7690   -38.7760 
   78.2500     2.0790    65.9790    23.8550    11.8590     8.3950     9.8420   -39.0830 
   78.3750     2.0940    67.4240    23.8560    12.1840     8.4200     9.9120   -39.1740 
   78.5000     2.1120    68.4250    23.8590    12.7710     8.4420     9.9490   -39.0890 
   78.6250     2.1230    68.2500    23.8650    13.1770     8.4260     9.9410   -39.0200 
   78.7500     2.1300    67.6650    23.8720    12.9190     8.3750     9.9120   -38.9150 
   78.8750     2.1350    68.7600    23.8770    12.3840     8.3050     9.8810   -38.6860 
   79.0000     2.1420    72.6600    23.8760    12.1350     8.2250     9.8580   -38.3810 
   79.1250     2.1500    75.4720    23.8390    12.0350     8.1350     9.8310   -38.1980 
   79.2500     2.1500    75.2410    23.8060    11.7980     8.0350     9.7920   -38.0460 
   79.3750     2.1340    73.3620    23.7950    11.5470     7.9310     9.7520   -37.8840 
   79.5000     2.1130    72.7830    23.7970    11.4260     7.8470     9.7420   -37.9050 
   79.6250     2.1070    74.9190    23.8160    11.4500     7.8230     9.8060   -38.0030 
   79.7500     2.1190    77.3240    23.8530    11.5690     7.8610     9.9320   -38.0580 
   79.8750     2.1330    77.7560    23.8750    11.7380     7.9390    10.0800   -38.2320 
   80.0000     2.1340    74.4700    23.8890    11.9010     8.0150    10.1960   -38.4610 
   80.1250     2.1240    68.9340    23.9100    12.0130     8.0510    10.2330   -38.5860 
   80.2500     2.1150    64.6020    23.9160    12.0990     8.0560    10.2170   -38.7440 
   80.3750     2.1090    63.4070    23.8700    12.0760     8.0630    10.1960   -38.9990 
   80.5000     2.1020    66.0520    23.8290    11.9060     8.0980    10.2090   -39.1680 
   80.6250     2.0940    69.0510    23.8330    11.7570     8.1740    10.2770   -39.2820 
   80.7500     2.0950    68.8220    23.8800    11.8420     8.2660    10.3700   -39.4430 
   80.8750     2.1100    68.1980    23.9620    12.1260     8.3440    10.4530   -39.4700 
   81.0000     2.1340    70.2940    24.0080    12.3920     8.3770    10.4810   -39.3330 
   81.1250     2.1530    73.1050    24.0280    12.5020     8.3260    10.3890   -39.1790 
   81.2500     2.1570    74.1500    24.0510    12.5150     8.2060    10.1930   -38.9270 
   81.3750     2.1460    74.2320    24.0920    12.4090     8.0510     9.9510   -38.5470 
   81.5000     2.1320    75.0500    24.1700    12.0460     7.9120     9.7520   -38.0950 
   81.6250     2.1360    74.4050    24.1980    11.4780     7.8650     9.7110   -37.5170 
   81.7500     2.1540    71.8460    24.1690    11.1990     7.9310     9.8350   -36.9750 
   81.8750     2.1730    68.9220    24.0280    11.5330     8.0880    10.0770   -36.5300 
   82.0000     2.1800    67.6090    23.8290    12.0980     8.2700    10.3150   -36.2460 
   82.1250     2.1780    68.2440    23.6760    11.9860     8.3600    10.3560   -36.0590 
   82.2500     2.1770    66.9780    23.6140    11.5000     8.3230    10.1690   -35.8100 
   82.3750     2.1770    64.0810    23.5950    10.8680     8.2440     9.9090   -35.5710 
   82.5000     2.1750    63.1160    23.6330    10.3650     8.3050     9.8660   -35.3680 
   82.6250     2.1710    66.8660    23.7660    10.3580     8.7460    10.3900   -34.9560 
   82.7500     2.1810    71.3080    24.0000    10.9900     9.5740    11.4720   -34.2000 
   82.8750     2.2290    74.6160    24.2130    12.7880    10.6620    12.9110   -33.1600 
   83.0000     2.3240    80.1380    24.2990    16.4400    11.6450    14.1460   -31.7690 
   83.1250     2.4460    91.0160    24.2650    18.7140    11.7950    14.1250   -29.9390 
   83.2500     2.5370   101.5260    24.2450    17.1740    10.9490    12.7830   -28.0170 
   83.3750     2.5640   109.1180    24.2610    13.4740     9.4370    10.7640   -26.1640 
   83.5000     2.5270   115.1080    24.2940    10.4240     7.7890     8.8200   -24.3270 
   83.6250     2.4580   120.4490    24.3710     8.2730     6.4560     7.4410   -22.7590 
   83.7500     2.4010   121.8320    24.4920     6.4540     5.5240     6.5780   -21.4780 
   83.8750     2.3690   117.8610    24.6590     5.4110     4.9520     6.1030   -20.4080 
   84.0000     2.3580   112.6430    24.7070     4.9570     4.6520     5.8810   -19.7150 
   84.1250     2.3590   110.7380    24.6260     4.8430     4.5910     5.8670   -19.5690 
   84.2500     2.3550   109.4700    24.3430     4.8620     4.7250     6.0340   -19.6790 
   84.3750     2.3320   105.6870    24.1880     4.9660     5.0690     6.4260   -19.9810 
   84.5000     2.2840    98.0670    24.2200     5.2130     5.6400     7.0920   -20.5330 
   84.6250     2.2400    90.2540    24.4220     5.9450     6.4640     8.1160   -21.3610 
   84.7500     2.2370    84.0770    24.4380     7.1640     7.4340     9.3900   -22.4050 
   84.8750     2.2800    78.7870    24.4820     8.5980     8.4150    10.7380   -23.7060 
   85.0000     2.3330    74.2890    24.6190     9.5660     9.2330    11.8880   -25.1870 
   85.1250     2.3410    71.7470    24.7540     9.9620     9.6840    12.4980   -26.7010 
   85.2500     2.3040    70.3730    24.6960    10.5720     9.8050    12.6140   -28.2890 
   85.3750     2.2530    69.4660    24.6240    11.7640     9.6980    12.3990   -29.8670 
   85.5000     2.2140    69.2810    24.6650    12.9910     9.4940    12.0670   -31.2870 
   85.6250     2.1930    71.3210    24.7540    13.5850     9.2900    11.7940   -32.4280 
   85.7500     2.1820    73.8550    24.7100    13.6090     9.1190    11.6260   -33.3090 
   85.8750     2.1790    75.8670    24.4190    13.4490     8.9810    11.5480   -33.8840 
   86.0000     2.1820    75.9530    23.8430    13.2940     8.8780    11.5400   -34.1600 
   86.1250     2.1900    74.2980    23.4330    13.3010     8.8280    11.6200   -34.1840 
   86.2500     2.1980    72.7490    23.2920    13.3370     8.8350    11.7780   -33.9500 
   86.3750     2.2010    72.4640    23.2820    13.3470     8.8920    11.9870   -33.4170 
   86.5000     2.1950    73.6090    23.3210    13.2660     8.9580    12.1830   -32.7140 
   86.6250     2.1810    76.1660    23.4210    12.9690     8.9290    12.2060   -31.7760 
   86.7500     2.1730    78.9210    23.5450    12.3670     8.7210    11.9340   -30.6890 
   86.8750     2.1800    81.1280    23.6360    11.3350     8.2950    11.3020   -29.4920 
   87.0000     2.2080    85.1050    23.7540     9.8420     7.6790    10.3640   -28.1390 
   87.1250     2.2460    90.3610    23.9230     8.3590     6.9760     9.3010   -26.6450 
   87.2500     2.2740    92.9770    24.1760     7.2870     6.3480     8.3880   -25.2660 
   87.3750     2.2800    93.2770    24.4010     6.7930     5.9130     7.8080   -24.0800 
