~V
VERS. 2.00: Ver 2.00
~W
STRT.M 60.0000:
STOP.M 249.0000:
STEP.M 0.1250:
NULL. -999.2500:
UWI. DF5060:
~C
DEPT.M :
GR.API :
CALI.CM :
RXO.OHMM :
RI. :
RML.OHMM :
DEN.GM/CC :
SP.MV :
~A
   60.0000    64.8500    24.3170     1.4600     0.7900     1.1100     2.5830     6.0330 
   60.1250    63.1660    24.3400     1.4300     0.8020     1.0880     2.5880     6.3460 
   60.2500    61.7840    24.3800     1.3440     0.8040     1.0300     2.5990     6.6370 
   60.3750    60.4040    24.4380     1.2670     0.7950     0.9310     2.6130     6.9100 
   60.5000    58.8570    24.4970     1.2400     0.7820     0.7890     2.6240     7.0390 
   60.6250    57.6030    24.5230     1.2510     0.7740     0.6220     2.6280     6.9980 
   60.7500    56.7330    24.5130     1.2810     0.7760     0.4810     2.6280     6.7250 
   60.8750    56.4750    24.4760     1.3410     0.7840     0.4060     2.6270     6.3150 
   61.0000    57.7300    24.4060     1.4230     0.7940     0.4210     2.6260     5.9720 
   61.1250    62.0000    24.2930     1.4890     0.8020     0.5320     2.6240     5.4200 
   61.2500    66.0950    24.1820     1.5370     0.8080     0.6860     2.6220     4.6210 
   61.3750    67.2220    24.1140     1.5810     0.8100     0.8220     2.6180     3.7990 
   61.5000    64.5550    24.0940     1.6070     0.8060     0.8530     2.6140     3.0620 
   61.6250    60.6000    24.0850     1.6110     0.7870     0.6590     2.6090     2.0890 
   61.7500    58.3500    24.0650     1.6390     0.7560     0.3620     2.6030     0.8850 
   61.8750    57.5230    24.0420     1.7050     0.7230     0.1300     2.6000    -0.4210 
   62.0000    57.0440    24.0200     1.7710     0.7000     0.0110     2.5990    -1.9090 
   62.1250    55.5560    23.9890     1.8660     0.6990    -0.0150     2.5900    -3.6420 
   62.2500    53.9590    23.9060     2.1890     0.7250     0.0190     2.5660    -5.7680 
   62.3750    55.1280    23.6960     3.3870     0.8000     0.1380     2.5220    -8.3870 
   62.5000    60.2830    23.3530     5.2160     0.9720     0.4210     2.4570   -11.2790 
   62.6250    66.2590    23.0240     6.4970     1.3570     1.0660     2.3780   -14.0960 
   62.7500    70.1650    22.8500     6.6490     1.9970     2.0580     2.3010   -16.7630 
   62.8750    72.6530    22.8250     6.6210     2.8250     3.0900     2.2290   -19.3840 
   63.0000    73.3220    22.8640     6.6950     3.6090     3.7270     2.1690   -21.8440 
   63.1250    70.8060    23.0740     6.9560     4.0960     3.8340     2.1340   -23.7690 
   63.2500    67.6380    23.6520     7.4290     4.3730     3.8180     2.1220   -25.2630 
   63.3750    66.0890    24.4920     7.9000     4.6130     3.9500     2.1210   -26.2000 
   63.5000    66.9420    25.1550     8.1990     5.0210     4.4040     2.1230   -26.8710 
   63.6250    70.9010    25.2210     8.5650     5.9650     5.4610     2.1300   -27.2810 
   63.7500    74.4920    24.9440     9.8400     7.7300     7.2840     2.1530   -27.4070 
   63.8750    73.3050    24.6620    14.9250    10.5690    10.0670     2.1980   -27.4330 
   64.0000    68.3490    24.5420    25.5850    14.2950    13.6580     2.2670   -27.4740 
   64.1250    65.3670    24.5440    31.7400    17.2650    16.3980     2.3510   -27.6350 
   64.2500    67.1860    24.4810    28.1180    17.4940    16.1660     2.4170   -27.7340 
   64.3750    70.4280    24.2780    19.2560    15.0900    13.3300     2.4280   -27.8370 
   64.5000    72.4570    23.9920    12.2150    11.8270    10.0460     2.3740   -27.9010 
   64.6250    72.9800    23.7190     9.5690     9.2380     7.7860     2.2870   -28.0290 
   64.7500    76.0840    23.5180     8.8570     7.5170     6.4420     2.2130   -28.2490 
   64.8750    82.7770    23.4330     8.4350     6.4850     5.7430     2.1670   -28.4000 
   65.0000    87.3130    23.4870     7.5710     5.9190     5.4420     2.1510   -28.4990 
   65.1250    86.2890    23.5220     6.5820     5.6830     5.3750     2.1630   -28.5940 
   65.2500    85.4940    23.6490     6.1280     5.6190     5.3940     2.1880   -28.6330 
   65.3750    86.3700    24.0280     6.1720     5.6620     5.4500     2.2150   -28.6910 
   65.5000    86.7250    24.3230     6.2130     5.7540     5.5110     2.2350   -28.7070 
   65.6250    86.8810    24.1070     6.2410     5.8230     5.5440     2.2470   -28.8120 
   65.7500    89.1390    23.8860     6.4350     5.8160     5.5210     2.2600   -28.9380 
   65.8750    92.8270    24.1280     6.7130     5.7170     5.4310     2.2770   -29.1150 
   66.0000    95.2560    24.6100     6.5230     5.5480     5.2930     2.2980   -29.3290 
   66.1250    94.7240    24.7650     5.8530     5.3660     5.1530     2.3150   -29.5640 
   66.2500    92.7720    24.7670     5.5400     5.2160     5.0450     2.3180   -29.8660 
   66.3750    91.9390    24.7830     5.4380     5.1070     4.9800     2.3080   -30.1490 
   66.5000    92.7880    24.8100     5.4990     5.0360     4.9640     2.2920   -30.5670 
   66.6250    92.9490    24.8140     5.6510     5.0170     5.0140     2.2810   -30.9960 
   66.7500    92.9660    24.8120     5.6940     5.0510     5.1300     2.2790   -31.5070 
   66.8750    94.0420    24.8340     5.6450     5.1500     5.3230     2.2820   -32.0810 
   67.0000    92.6730    24.8720     5.7520     5.3180     5.5990     2.2840   -32.6780 
   67.1250    85.9650    24.8540     6.4960     5.5580     5.9470     2.2750   -33.2940 
   67.2500    79.3640    24.7820     7.3230     5.8190     6.2920     2.2520   -33.8400 
   67.3750    75.6060    24.7140     7.7880     6.0510     6.5620     2.2210   -34.3860 
   67.5000    72.9210    24.6820     7.9570     6.2040     6.7050     2.1890   -34.7880 
   67.6250    69.8360    24.6330     7.9100     6.2290     6.6880     2.1650   -35.0780 
   67.7500    68.4450    24.5170     7.9020     6.1530     6.5800     2.1490   -35.2120 
   67.8750    67.2180    24.3600     7.7530     6.0140     6.4330     2.1390   -35.1680 
   68.0000    65.7140    24.2230     7.6050     5.8530     6.2860     2.1360   -34.9710 
   68.1250    66.0490    24.1560     7.7650     5.6960     6.1490     2.1390   -34.5920 
   68.2500    68.0330    24.1410     7.9790     5.5410     6.0150     2.1450   -34.1050 
   68.3750    70.8680    24.1630     7.7780     5.3820     5.8830     2.1560   -33.5270 
   68.5000    74.5690    24.2220     7.3490     5.2230     5.7540     2.1690   -32.8910 
   68.6250    81.6200    24.3210     6.6180     5.0800     5.6430     2.1870   -32.2870 
   68.7500    89.2920    24.3970     5.9240     4.9720     5.5630     2.2090   -31.7110 
   68.8750    94.8730    24.4110     5.5520     4.9090     5.5200     2.2310   -31.2120 
   69.0000    97.5640    24.3820     5.5050     4.8890     5.5100     2.2500   -30.8600 
   69.1250    96.6300    24.3380     5.5660     4.9090     5.5170     2.2570   -30.6750 
   69.2500    94.6850    24.2680     5.6500     4.9590     5.5320     2.2540   -30.6770 
   69.3750    92.6540    24.1390     5.8810     5.0380     5.5650     2.2450   -30.7650 
   69.5000    90.3030    23.9630     6.2950     5.1410     5.6300     2.2330   -31.0190 
   69.6250    88.2290    23.7690     6.6420     5.2530     5.7370     2.2180   -31.2730 
   69.7500    86.9810    23.5790     6.8480     5.3430     5.8630     2.2030   -31.5740 
   69.8750    86.6760    23.3950     7.0790     5.3900     5.9750     2.1920   -31.8830 
   70.0000    85.2830    23.2200     7.3690     5.3750     6.0300     2.1870   -32.1230 
   70.1250    83.2840    23.0950     7.5260     5.2750     5.9740     2.1870   -32.2780 
   70.2500    83.0290    23.0350     7.4770     5.1250     5.8410     2.1880   -32.3360 
   70.3750    83.8960    23.0220     7.2540     4.9690     5.6910     2.1870   -32.3440 
   70.5000    85.9000    23.0430     6.7380     4.8480     5.5990     2.1870   -32.2140 
   70.6250    87.5300    23.1830     6.0890     4.7990     5.6310     2.1980   -32.0840 
   70.7500    87.5980    23.4550     6.1410     4.8150     5.7580     2.2250   -31.9520 
   70.8750    86.5940    23.7280     7.3330     4.8750     5.9110     2.2630   -31.8150 
   71.0000    87.7700    23.8370     7.7790     4.9360     6.0060     2.3000   -31.7440 
   71.1250    90.3460    23.7280     7.2160     4.9580     5.9860     2.3140   -31.7340 
