~V
VERS. 2.00: Ver 2.00
~W
STRT.M 55.0000:
STOP.M 261.0000:
STEP.M 0.1250:
NULL. -999.2500:
UWI. DF5033:
~C
DEPT.M :
SP.MV :
GR.API :
CALI.CM :
RXO.OHMM :
RI. :
RML.OHMM :
DEN.GM/CC :
~A
# ...
  178.7500   -36.1630    63.5130    26.8820   306.5390   325.0690   353.7850     2.1890 
  178.8750   -35.7560    62.9370    26.7880   299.1380   288.4480   309.2840     2.1940 
  179.0000   -35.1380    59.9300    26.7310   285.5480   244.2670   257.9220     2.2080 
  179.1250   -34.3320    58.3430    26.7050   245.3100   201.9450   212.8560     2.2270 
  179.2500   -33.4320    59.2820    26.6750   191.4230   169.1830   180.9770     2.2410 
  179.3750   -32.4490    59.9700    26.6330   150.1700   149.7580   163.9580     2.2400 
  179.5000   -31.4360    59.1210    26.6000   144.4820   145.3610   161.7000     2.2250 
  179.6250   -30.4170    57.4030    26.6380   210.3720   160.2570   177.5310     2.2060 
  179.7500   -29.3860    56.7400    26.7690   346.2600   192.9690   211.2780     2.1910 
  179.8750   -28.3650    54.9560    26.9760   464.3280   241.7510   264.0470     2.1800 
  180.0000   -27.3450    51.4110    27.2050   493.3030   296.6270   327.5640     2.1730 
  180.1250   -26.3530    51.4190    27.3810   490.1420   327.3790   361.8940     2.1720 
  180.2500   -25.3700    55.0680    27.4790   504.5820   314.0200   338.4770     2.1750 
  180.3750   -24.4160    57.3950    27.5120   448.9770   265.7030   277.7980     2.1810 
  180.5000   -23.4890    55.6030    27.5050   309.5510   208.8690   216.4320     2.1870 
  180.6250   -22.5810    54.6920    27.4850   186.9310   164.3440   173.4310     2.1860 
  180.7500   -21.6920    56.9510    27.4670   127.6830   134.4680   146.1600     2.1800 
  180.8750   -20.7990    57.1670    27.4520   117.4870   117.8560   131.8860     2.1750 
  181.0000   -19.8900    54.8830    27.4370   127.2380   112.2380   128.0020     2.1760 
  181.1250   -18.9430    54.9900    27.4110   128.7430   114.8400   131.5650     2.2000 
  181.2500   -17.9600    55.9050    27.3600   131.2730   117.9480   133.8690     2.2610 
  181.3750   -16.9480    55.1160    27.2590   172.0230   113.9970   125.6130     2.3660 
  181.5000   -15.9060    54.1460    27.0980   223.2980    98.4670   103.6260     2.5020 
  181.6250   -14.8790    55.6600    26.8800   190.6700    74.4250    75.9480     2.6300 
  181.7500   -13.8840    57.6300    26.6590   104.1820    51.6700    52.4770     2.7080 
  181.8750   -12.9660    58.3740    26.4770    45.0670    34.3820    35.2950     2.7280 
  182.0000   -12.1480    59.2630    26.3610    24.0210    22.7990    23.5760     2.7110 
  182.1250   -11.4720    61.7730    26.3120    17.5430    15.8990    16.3240     2.6850 
  182.2500   -10.9310    64.0330    26.2960    13.1000    11.4240    11.5560     2.6600 
  182.3750   -10.5210    64.9630    26.2840     9.0120     8.4990     8.4540     2.6350 
  182.5000   -10.2390    64.7860    26.2560     6.1180     6.5680     6.4250     2.6100 
  182.6250   -10.0390    64.4370    26.1920     5.0270     5.3270     5.1150     2.5870 
  182.7500    -9.9090    64.3020    26.0960     4.5910     4.4520     4.1760     2.5690 
  182.8750    -9.8200    63.7740    25.9830     4.0560     3.8480     3.5210     2.5540 
  183.0000    -9.7650    64.6770    25.8710     3.3060     3.4750     3.1290     2.5330 
  183.1250    -9.7410    66.2500    25.7730     2.8270     3.3620     3.0760     2.4970 
  183.2500    -9.7310    65.9240    25.6900     2.9420     3.4740     3.3390     2.4550 
  183.3750    -9.7280    63.5170    25.6190     3.5510     3.7960     3.8780     2.4240 
  183.5000    -9.7230    61.0520    25.5570     4.2460     4.2630     4.5650     2.4150 
  183.6250    -9.7430    60.0030    25.5050     4.6090     4.7330     5.1570     2.4180 
  183.7500    -9.7550    57.1910    25.4580     4.6850     5.0440     5.4670     2.4140 
  183.8750    -9.7600    53.2360    25.4160     4.6280     5.1340     5.4710     2.3960 
  184.0000    -9.7530    51.1520    25.3850     4.5420     5.0500     5.2890     2.3720 
  184.1250    -9.7150    53.4800    25.3830     4.4660     4.9010     5.1030     2.3600 
  184.2500    -9.6440    56.6740    25.4140     4.3980     4.7800     5.0200     2.3630 
  184.3750    -9.5470    58.5630    25.4720     4.3500     4.7190     5.0650     2.3740 
  184.5000    -9.4450    59.0490    25.5470     4.3640     4.7220     5.2300     2.3900 
  184.6250    -9.3420    57.2580    25.6340     4.4810     4.7780     5.4910     2.4050 
  184.7500    -9.2640    55.6690    25.7330     4.6580     4.8590     5.7930     2.4120 
  184.8750    -9.2310    57.0100    25.8470     4.8430     4.9490     6.1080     2.4150 
  185.0000    -9.2620    62.5470    25.9690     5.0170     5.0410     6.4200     2.4230 
  185.1250    -9.3910    69.0240    26.0750     5.1810     5.1440     6.7200     2.4330 
  185.2500    -9.6290    74.2640    26.1450     5.3200     5.2670     7.0160     2.4340 
  185.3750    -9.9890    80.6490    26.1790     5.4560     5.4200     7.3220     2.4270 
  185.5000   -10.4660    87.3540    26.1960     5.6990     5.6050     7.6510     2.4230 
  185.6250   -11.0800    90.8400    26.2380     6.1870     5.8190     8.0090     2.4280 
  185.7500   -11.7790    92.1250    26.3230     6.8060     6.0490     8.3920     2.4360 
  185.8750   -12.5390    94.3090    26.4520     7.3490     6.2890     8.8000     2.4450 
  186.0000   -13.3220    98.9040    26.6140     7.6770     6.5420     9.2350     2.4520 
  186.1250   -14.0660   100.3440    26.7960     7.9190     6.8090     9.7100     2.4500 
  186.2500   -14.7510    97.1810    26.9810     8.3240     7.0810    10.2050     2.4420 
  186.3750   -15.3610    93.6990    27.1530     8.8440     7.3340    10.6650     2.4320 
  186.5000   -15.9100    95.2060    27.2900     9.2550     7.5360    11.0160     2.4240 
  186.6250   -16.3780    99.2810    27.3630     9.4160     7.6390    11.1710     2.4160 
  186.7500   -16.8090    97.9340    27.3770     9.3830     7.6420    11.1500     2.4100 
  186.8750   -17.2180    92.2610    27.3480     9.1350     7.5590    10.9970     2.4060 
  187.0000   -17.6310    87.9960    27.3010     8.7300     7.4240    10.7880     2.4010 
  187.1250   -18.0860    87.5340    27.2590     8.3680     7.2930    10.6180     2.3910 
  187.2500   -18.5790    89.3500    27.2300     8.1210     7.2200    10.5610     2.3820 
  187.3750   -19.0910    92.8950    27.2130     7.9760     7.2450    10.6730     2.3800 
  187.5000   -19.5820    96.6990    27.2020     7.9330     7.3930    10.9830     2.3870 
  187.6250   -20.0310    94.6560    27.1920     8.1150     7.6800    11.5050     2.3960 
  187.7500   -20.4020    87.0730    27.1800     8.7220     8.0500    12.1290     2.4040 
  187.8750   -20.6650    80.2610    27.1670     9.8210     8.4540    12.7590     2.4080 
  188.0000   -20.7910    80.2520    27.1520    10.9460     8.8540    13.3310     2.4130 
  188.1250   -20.7320    87.4120    27.1270    11.3180     9.2360    13.8560     2.4190 
  188.2500   -20.5110    93.2840    27.0820    11.0980     9.6100    14.4080     2.4230 
  188.3750   -20.1230    93.9860    27.0080    10.7030     9.9590    14.9750     2.4250 
  188.5000   -19.5690    91.4870    26.8960    10.2830    10.2110    15.4140     2.4270 
  188.6250   -18.8280    92.5140    26.7240     9.9310    10.1910    15.3470     2.4350 
  188.7500   -17.9680    97.7970    26.4950     9.7540     9.8120    14.5890     2.4320 
  188.8750   -17.0130   102.0660    26.2310     9.5900     9.0750    13.1860     2.4070 
  189.0000   -15.9870   100.5760    25.9870     9.1000     8.1160    11.4660     2.3680 
  189.1250   -14.9580    91.3860    25.8610     8.0710     7.1630     9.9020     2.3370 
  189.2500   -13.9800    80.2110    25.8880     6.8660     6.3940     8.7590     2.3320 
  189.3750   -13.0950    72.1880    26.0530     5.9130     5.8850     8.1120     2.3520 
  189.5000   -12.3280    68.8540    26.2930     5.5110     5.6420     7.9170     2.3900 
  189.6250   -11.7170    68.8270    26.5160     5.6900     5.6380     8.0640     2.4280 
  189.7500   -11.2170    67.8820    26.6680     6.0460     5.7280     8.2860     2.4580 
  189.8750   -10.8360    65.9500    26.7360     6.3460     5.8090     8.3980     2.4720 
