~V
VERS. 2.00: Ver 2.00
~W
STRT.M 50.0000:
STOP.M 276.0000:
STEP.M 0.1250:
NULL. -999.2500:
UWI. DF5011:
~C
DEPT.M :
DEN.GM/CC :
GR.API :
CALI.CM :
RXO.OHMM :
RI. :
RML.OHMM :
SP.MV :
~A
# ...
  207.5000     2.4150    49.9600    24.0000     5.0330     5.6650     7.3000   -18.6930 
  207.6250     2.4160    55.2420    24.0410     5.2050     5.7420     7.3270   -18.8000 
  207.7500     2.4140    60.5490    24.0600     5.4060     5.8240     7.3590   -19.0010 
  207.8750     2.4130    66.3590    24.0760     5.4710     5.9260     7.4310   -19.1750 
  208.0000     2.4150    71.8610    24.1160     5.4670     6.0620     7.5650   -19.3670 
  208.1250     2.4180    76.6610    24.2130     5.5490     6.2330     7.7560   -19.5260 
  208.2500     2.4250    79.0430    24.3600     5.9440     6.4190     7.9670   -19.7150 
  208.3750     2.4370    77.8540    24.4820     6.3760     6.5700     8.1220   -20.0260 
  208.5000     2.4460    74.9780    24.5390     6.5750     6.6430     8.1620   -20.3010 
  208.6250     2.4450    73.2790    24.5440     6.4880     6.6150     8.0730   -20.5570 
  208.7500     2.4320    73.3060    24.5410     6.2900     6.4910     7.8900   -20.8700 
  208.8750     2.4160    73.7030    24.5410     6.1800     6.3340     7.7050   -21.1820 
  209.0000     2.4020    74.4320    24.5410     6.0420     6.1840     7.5710   -21.5220 
  209.1250     2.3950    75.8900    24.5410     5.8350     6.0670     7.5060   -21.9290 
  209.2500     2.3920    77.0850    24.5410     5.8440     5.9940     7.5030   -22.3920 
  209.3750     2.3860    78.0780    24.5410     6.1010     5.9500     7.5280   -22.8990 
  209.5000     2.3770    78.5940    24.5410     6.3420     5.9260     7.5640   -23.3840 
  209.6250     2.3710    78.6420    24.5410     6.4570     5.9130     7.5970   -23.9730 
  209.7500     2.3670    78.1530    24.5410     6.4610     5.9230     7.6420   -24.6200 
  209.8750     2.3620    76.8010    24.5410     6.8260     5.9980     7.7780   -25.2840 
  210.0000     2.3610    75.0260    24.5410     7.3800     6.2210     8.1420   -26.0040 
  210.1250     2.3700    73.9890    24.5410     7.6140     6.7040     8.9210   -26.5840 
  210.2500     2.3830    73.0660    24.5410     8.4110     7.6920    10.5200   -27.2120 
  210.3750     2.3860    71.1620    24.5410    12.2280     9.3310    13.1200   -27.7460 
  210.5000     2.3790    68.8810    24.5410    17.8820    11.8190    16.8860   -28.2020 
  210.6250     2.3720    67.6090    24.5410    22.1310    15.2980    21.8130   -28.6640 
  210.7500     2.3640    66.9830    24.5410    26.2000    19.8660    27.7230   -28.8680 
  210.8750     2.3430    67.0510    24.5410    34.0220    24.9280    33.8150   -29.1060 
  211.0000     2.3090    68.1900    24.5410    38.8660    29.8190    39.3680   -29.2480 
  211.1250     2.2740    69.7630    24.5410    39.6910    33.9550    43.8730   -29.4630 
  211.2500     2.2500    69.1340    24.5400    41.6890    36.9520    47.0580   -29.5090 
  211.3750     2.2370    65.0810    24.5400    43.6960    39.0940    49.3560   -29.4690 
  211.5000     2.2340    59.8610    24.5370    44.7950    40.6410    51.0900   -29.5120 
  211.6250     2.2390    57.6480    24.5140    44.2330    41.8980    52.5790   -29.4390 
  211.7500     2.2430    58.9910    24.4660    44.5810    43.1030    54.0310   -29.5220 
  211.8750     2.2430    60.8180    24.4230    45.9450    44.4120    55.5810   -29.5000 
  212.0000     2.2410    61.4760    24.4040    47.0030    45.9700    57.4010   -29.4630 
  212.1250     2.2410    60.8720    24.4040    45.7640    47.9240    59.6820   -29.3960 
  212.2500     2.2410    59.8560    24.4040    44.1740    50.4280    62.6160   -29.3590 
  212.3750     2.2350    60.9770    24.3920    46.0940    53.1970    65.7870   -29.4840 
  212.5000     2.2220    64.5680    24.3680    51.5380    55.4940    68.1570   -29.5500 
  212.6250     2.2120    67.0350    24.3420    54.3390    56.0900    68.1020   -29.6400 
  212.7500     2.2180    64.3160    24.3290    53.0570    53.5390    63.9370   -29.7240 
  212.8750     2.2330    59.0690    24.3270    53.5440    48.8730    57.3610   -29.8380 
  213.0000     2.2470    56.0310    24.3280    48.6470    43.7810    50.7430   -29.9800 
  213.1250     2.2580    58.8790    24.3280    34.4890    39.9750    46.2550   -29.9940 
  213.2500     2.2650    65.6990    24.3280    23.9270    39.1010    45.8220   -30.2180 
  213.3750     2.2670    69.0260    24.3280    26.0030    41.2980    49.2580   -30.3750 
  213.5000     2.2590    66.3360    24.3280    40.4630    46.6800    56.4120   -30.4860 
  213.6250     2.2430    61.1290    24.3280    52.7900    55.0050    66.7280   -30.7200 
  213.7500     2.2210    58.7460    24.3280    54.2310    65.4990    79.0390   -30.8280 
  213.8750     2.1970    58.2990    24.3270    60.8890    75.9160    90.7710   -30.9970 
  214.0000     2.1760    58.4740    24.3260    74.2640    84.5630   100.0400   -31.1940 
  214.1250     2.1650    57.9490    24.3240    83.1400    90.6290   106.0630   -31.4390 
  214.2500     2.1710    57.1050    24.3200    80.5310    93.7290   108.6080   -31.6770 
  214.3750     2.1860    58.1350    24.3160    70.7520    94.5290   108.6350   -31.7930 
  214.5000     2.2010    59.9850    24.3150    66.2680    93.3230   106.5870   -31.9730 
  214.6250     2.2070    60.6310    24.3180    73.4760    90.6720   103.1600   -32.1590 
  214.7500     2.1990    59.9600    24.3200    82.7210    87.2880    99.1390   -32.3350 
  214.8750     2.1880    59.8080    24.3030    80.0640    84.0110    95.3540   -32.5890 
  215.0000     2.1860    60.4850    24.2600    69.3970    81.3960    92.4040   -32.8030 
  215.1250     2.1990    61.4540    24.2050    61.3130    79.9470    90.8650   -33.0620 
  215.2500     2.2150    62.1450    24.1730    66.7420    80.3470    91.5020   -33.2770 
  215.3750     2.2220    61.1330    24.1640    77.1370    82.4530    94.0710   -33.5070 
  215.5000     2.2190    59.0320    24.1650    83.7120    86.0830    98.3090   -33.8110 
  215.6250     2.2090    58.0850    24.1650    81.9980    91.0020   103.9370   -34.0810 
  215.7500     2.1960    58.4140    24.1660    77.7590    97.5420   111.3720   -34.3460 
  215.8750     2.1860    58.5360    24.1670    80.0420   106.0890   121.1020   -34.6210 
  216.0000     2.1820    57.9300    24.1660    90.0940   117.2350   133.8250   -34.8490 
  216.1250     2.1820    57.3990    24.1590   109.1710   131.0700   149.6470   -35.1120 
  216.2500     2.1730    56.6550    24.1400   132.5780   147.0170   167.8080   -35.4090 
  216.3750     2.1590    56.6520    24.1100   141.4580   163.4040   186.2020   -35.6270 
  216.5000     2.1560    56.8650    24.0700   137.4720   179.5770   203.9300   -35.7860 
  216.6250     2.1820    56.6400    24.0180   128.2420   195.5520   220.9360   -35.8680 
  216.7500     2.2240    56.1450    23.9750   129.8300   210.0750   235.3670   -36.0160 
  216.8750     2.2460    55.2120    23.9890   149.6020   219.1550   241.9220   -36.0510 
  217.0000     2.2340    54.4780    24.0820   204.4260   217.1300   233.6210   -36.1000 
  217.1250     2.2040    55.0260    24.2120   215.9560   200.8300   217.4990   -36.2340 
  217.2500     2.1830    57.4170    24.2940   178.7160   172.7740   187.1150   -36.1390 
  217.3750     2.1810    59.7710    24.3170   109.6390   143.8190   155.7560   -36.1850 
  217.5000     2.1890    61.7970    24.3150    82.3740   120.3820   130.3740   -36.2130 
  217.6250     2.2000    63.9000    24.3160    72.9060   104.9660   113.6780   -36.2160 
  217.7500     2.2100    63.6990    24.3190    67.2770    98.3560   106.5190   -36.2970 
  217.8750     2.2170    60.5210    24.3180    63.4640    97.6790   105.7860   -36.3070 
  218.0000     2.2190    57.4020    24.3160    60.7530   101.4680   109.8900   -36.4230 
  218.1250     2.2120    57.8580    24.3130    60.6060   108.4760   117.4800   -36.3320 
  218.2500     2.1970    60.4350    24.3130    62.7170   118.2140   128.0260   -36.3450 
  218.3750     2.1840    61.1490    24.3280    68.6830   130.2120   141.0190   -36.4470 
  218.5000     2.1770    59.4010    24.3830    80.5620   144.8860   156.9120   -36.4670 
  218.6250     2.1740    56.7780    24.4910    88.0650   162.5260   176.0160   -36.5940 
