~V
VERS. 2.00: Ver 2.00
~W
STRT.M 60.0000:
STOP.M 261.0000:
STEP.M 0.1250:
NULL. -999.2500:
UWI. DF5055:
~C
DEPT.M :
SP.MV :
GR.API :
RML.OHMM :
RI. :
RXO.OHMM :
CALI.CM :
DEN.GM/CC :
~A
   60.0000    84.8580    64.0150    -0.4380     0.0810     1.4180    26.3720     2.3910 
   60.1250    73.5610    70.4480    -0.3730     0.1450     1.8990    26.8230     2.2410 
   60.2500    61.2420    74.7130    -0.2060     0.3210     3.1160    27.8120     2.0270 
   60.3750    48.7130    78.5700     0.1480     0.6730     4.4850    28.7990     1.8510 
   60.5000    36.5180    86.4730     0.7640     1.2500     5.1760    28.5340     1.7910 
   60.6250    25.1490    98.0090     1.5290     1.9940     4.8270    27.2320     1.8680 
   60.7500    14.9100   105.3450     2.0620     2.6540     4.7070    26.4480     1.9980 
   60.8750     6.3820   105.9870     2.2810     3.1190     4.7610    26.1330     2.1240 
   61.0000    -0.0160   104.3400     2.3810     3.4570     4.8460    26.0170     2.2100 
   61.1250    -4.0170   105.1740     2.5890     3.8370     4.7990    25.9480     2.2480 
   61.2500    -6.6950   104.7790     2.9830     4.3750     4.7570    25.8130     2.2600 
   61.3750    -8.8360    99.3480     3.5920     5.1400     5.2000    25.4840     2.2570 
   61.5000   -10.7760    88.6630     4.3950     6.1390     6.4200    24.9800     2.2500 
   61.6250   -12.3980    77.8680     5.2450     7.2070     7.9740    24.6870     2.2470 
   61.7500   -13.7140    76.2870     5.8460     7.9610     8.5360    24.6160     2.2530 
   61.8750   -14.7670    84.9910     5.9640     8.0920     8.2890    24.6960     2.2640 
   62.0000   -15.5490    97.4250     5.5890     7.5760     7.3730    24.8210     2.2760 
   62.1250   -16.0180   104.6400     4.9740     6.7080     6.0720    24.9820     2.2810 
   62.2500   -16.2550   106.2430     4.4740     5.9280     5.5120    25.1200     2.2800 
   62.3750   -16.2970   105.0620     4.2250     5.4150     5.3000    25.2270     2.2730 
   62.5000   -16.2930   101.8610     4.2480     5.2100     5.2570    25.2790     2.2640 
   62.6250   -16.4990    99.1510     4.5140     5.3110     5.4700    25.2540     2.2560 
   62.7500   -16.9880    96.9910     4.9030     5.5970     6.3010    25.1710     2.2490 
   62.8750   -17.7620    93.4240     5.3980     6.0340     7.7300    25.0570     2.2440 
   63.0000   -18.7640    87.9800     6.0940     6.6790     8.7550    24.9400     2.2490 
   63.1250   -19.8150    80.6920     7.2960     7.7760     9.3780    24.9150     2.2830 
   63.2500   -20.8490    73.4580     9.1850     9.4740    11.5230    25.0040     2.3510 
   63.3750   -21.8770    68.1950    11.8200    11.8260    16.2330    25.1430     2.4440 
   63.5000   -22.9190    67.2040    14.8260    14.5030    24.5040    25.2460     2.5330 
   63.6250   -23.9250    69.0930    16.7750    16.2650    31.5720    25.2640     2.5680 
   63.7500   -24.9270    69.3780    16.5440    16.1270    29.3120    25.0800     2.5340 
   63.8750   -25.9340    68.7590    14.4500    14.2930    19.2980    24.5750     2.4400 
   64.0000   -26.8780    67.9140    11.1370    11.8630    11.9730    24.0210     2.3190 
   64.1250   -27.8410    66.0210     9.2090     9.8790     9.7950    23.6730     2.2150 
   64.2500   -28.9560    63.1220     8.1230     8.5790     9.5300    23.3370     2.1500 
   64.3750   -30.1170    60.9750     7.7480     7.9060     9.8100    23.0120     2.1220 
   64.5000   -31.1670    61.3790     7.8650     7.7190    10.0650    22.7930     2.1180 
   64.6250   -32.1140    64.6880     8.2630     7.8870    10.2180    22.6950     2.1240 
   64.7500   -32.8230    67.8970     8.6980     8.1820    10.4400    22.6390     2.1300 
   64.8750   -33.3320    68.5700     9.0620     8.4790    10.7680    22.6790     2.1350 
   65.0000   -33.7640    66.9840     9.2960     8.6910    11.0300    22.7350     2.1400 
   65.1250   -34.1150    66.4320     9.3340     8.7370    11.3130    22.7760     2.1460 
   65.2500   -34.3180    66.9070     9.2060     8.6320    11.3060    22.8230     2.1500 
   65.3750   -34.3430    68.2940     8.9730     8.4170    11.0340    22.9020     2.1510 
   65.5000   -34.2830    72.4850     8.7360     8.1660    10.5430    22.9590     2.1500 
   65.6250   -34.0640    76.5680     8.6100     7.9560    10.4900    23.0150     2.1530 
   65.7500   -33.7740    75.5630     8.6070     7.8110    10.4600    23.0880     2.1600 
   65.8750   -33.4740    73.3600     8.6890     7.7280    10.4240    23.1960     2.1720 
   66.0000   -33.1740    75.6910     8.7930     7.6900    10.2660    23.2610     2.1820 
   66.1250   -32.9300    80.1970     8.8450     7.6760    10.0030    23.1000     2.1830 
   66.2500   -32.7700    79.4400     8.8410     7.6670     9.7560    22.9580     2.1790 
   66.3750   -32.7160    76.9720     8.8160     7.6630     9.8430    22.9900     2.1720 
   66.5000   -32.7040    78.0130     8.8140     7.6720    10.5600    23.1880     2.1710 
   66.6250   -32.8320    79.3970     8.8530     7.6920    11.5760    23.3890     2.1760 
   66.7500   -33.0370    77.2180     8.9060     7.7070    11.4490    23.6390     2.1820 
   66.8750   -33.2060    72.1710     8.9460     7.7030    10.7330    23.7640     2.1820 
   67.0000   -33.3710    69.3390     8.9590     7.6710    10.3080    23.7760     2.1750 
   67.1250   -33.4410    69.9950     8.9590     7.6190    10.0800    23.7630     2.1620 
   67.2500   -33.3600    69.9880     8.9980     7.5770     9.9650    23.7580     2.1490 
   67.3750   -33.1790    67.8780     9.0930     7.5610     9.9010    23.7440     2.1370 
   67.5000   -32.9140    65.9320     9.1950     7.5420     9.7460    23.7080     2.1270 
   67.6250   -32.3480    66.4000     9.1400     7.4240     9.4980    23.7140     2.1240 
   67.7500   -31.5910    68.1370     8.7930     7.1270     9.4250    23.7270     2.1340 
   67.8750   -30.6930    71.7400     8.1160     6.6280     9.5690    23.7990     2.1630 
   68.0000   -29.6080    77.2420     7.2600     6.0240     9.5730    23.9280     2.2070 
   68.1250   -28.5340    80.3250     6.6780     5.5740     8.6560    24.2220     2.2470 
   68.2500   -27.5870    82.0400     6.7720     5.4980     7.0780    24.4760     2.2740 
   68.3750   -26.7180    83.9240     7.7480     5.9240     6.3010    24.7040     2.2950 
   68.5000   -25.9440    84.6480     9.5490     6.8890     6.8330    24.8310     2.3220 
   68.6250   -25.2880    82.7300    11.6960     8.2580    10.0180    24.7810     2.3640 
   68.7500   -24.6420    81.2510    13.1110     9.3750    15.1970    24.6490     2.4010 
   68.8750   -24.0550    82.2550    12.9900     9.5800    17.0670    24.6040     2.4140 
   69.0000   -23.5370    85.0100    11.3860     8.7480    11.0840    24.6630     2.3970 
   69.1250   -23.0160    89.8280     9.2740     7.4440     7.4200    24.7310     2.3630 
   69.2500   -22.5580    96.0210     7.6880     6.3600     6.1510    24.7590     2.3310 
   69.3750   -22.2580    99.4870     6.9400     5.7150     5.9030    24.7500     2.3030 
   69.5000   -22.1610    98.4430     6.9870     5.5380     5.9950    24.6920     2.2700 
   69.6250   -22.4590    94.1530     7.6390     5.8100     6.4880    24.4930     2.2250 
   69.7500   -23.1470    89.2620     8.4580     6.3110     7.3410    24.1880     2.1760 
   69.8750   -24.1140    83.6900     9.1630     6.8670     8.2960    23.9470     2.1360 
   70.0000   -25.2780    78.2050     9.5660     7.3180     8.6390    23.8100     2.1130 
   70.1250   -26.4740    74.8430     9.5550     7.5260     8.7300    23.7770     2.1120 
   70.2500   -27.5100    74.9460     9.3010     7.5280     8.6510    23.7730     2.1210 
   70.3750   -28.2980    77.2050     8.9730     7.4030     8.4390    23.8090     2.1350 
   70.5000   -28.7660    80.1610     8.7110     7.2480     8.1920    23.8450     2.1460 
   70.6250   -28.8200    81.5320     8.5940     7.1350     8.1260    23.8620     2.1520 
   70.7500   -28.6050    81.3230     8.5900     7.0770     8.2080    23.8710     2.1580 
   70.8750   -28.1890    80.9100     8.6590     7.0630     8.2510    23.8870     2.1690 
   71.0000   -27.5660    81.6090     8.7460     7.0670     8.1730    23.8910     2.1880 
   71.1250   -26.7590    86.1270     8.7400     7.0240     7.8950    23.9180     2.2170 
