~V
VERS. 2.00: Ver 2.00
~W
STRT.M 55.0000:
STOP.M 253.0000:
STEP.M 0.1250:
NULL. -999.2500:
UWI. DF5051:
~C
DEPT.M :
SP.MV :
GR.API :
RML.OHMM :
RI. :
RXO.OHMM :
CALI.CM :
DEN.GM/CC :
~A
# ...
   77.5000   -24.5390    60.2890    10.4580     9.0540     9.4250    24.8360     2.1490 
   77.6250   -24.8440    59.3660    10.7080     9.1240     9.3590    24.7720     2.1640 
   77.7500   -25.0760    60.0280    10.8780     9.1800     9.3110    24.7390     2.1760 
   77.8750   -25.2390    60.6320    10.9590     9.2030     9.2980    24.7780     2.1820 
   78.0000   -25.3570    58.9150    10.9860     9.2020     9.3340    24.8160     2.1830 
   78.1250   -25.4300    57.7220    11.0050     9.2020     9.4050    24.7800     2.1780 
   78.2500   -25.4850    61.1590    11.0400     9.2150     9.5250    24.7180     2.1720 
   78.3750   -25.5810    64.7920    11.0850     9.2320     9.6720    24.6540     2.1660 
   78.5000   -25.6310    64.6450    11.1130     9.2370     9.8250    24.5290     2.1600 
   78.6250   -25.6530    62.0450    11.0830     9.2020     9.9380    24.2250     2.1550 
   78.7500   -25.5640    62.4920    10.9880     9.1260     9.9210    23.7900     2.1530 
   78.8750   -25.4160    66.1550    10.8450     9.0220     9.7270    23.3830     2.1550 
   79.0000   -25.2710    68.1070    10.6900     8.9180     9.4260    23.1170     2.1620 
   79.1250   -25.0770    66.3270    10.5710     8.8500     9.2470    22.9980     2.1750 
   79.2500   -24.8650    64.6230    10.5030     8.8310     9.2180    22.9360     2.1880 
   79.3750   -24.6350    64.2540    10.4760     8.8570     9.3190    22.8860     2.1990 
   79.5000   -24.3980    64.1540    10.4720     8.9120     9.4650    22.8110     2.2040 
   79.6250   -24.1510    62.3160    10.4720     8.9760     9.6120    22.7040     2.2000 
   79.7500   -23.8830    59.8250    10.4610     9.0280     9.6140    22.6540     2.1930 
   79.8750   -23.5730    57.9520    10.4190     9.0460     9.5160    22.6650     2.1870 
   80.0000   -23.1530    56.9460    10.3100     8.9980     9.4390    22.6680     2.1880 
   80.1250   -22.6310    57.8380    10.0570     8.8220     9.3440    22.6200     2.2020 
   80.2500   -22.0060    61.0240     9.6490     8.5070     9.1080    22.5540     2.2230 
   80.3750   -21.2200    67.0540     9.1060     8.0680     8.6030    22.6200     2.2450 
   80.5000   -20.3760    76.7710     8.5020     7.5580     7.8780    22.9490     2.2630 
   80.6250   -19.5280    87.2040     7.9660     7.0750     7.2640    23.5760     2.2700 
   80.7500   -18.7860    92.0790     7.5890     6.7000     7.0090    24.1410     2.2690 
   80.8750   -18.1450    91.3670     7.4110     6.4750     7.0810    24.4390     2.2640 
   81.0000   -17.5990    92.3670     7.4160     6.4060     7.2260    24.5060     2.2600 
   81.1250   -17.2940    96.1270     7.5700     6.4880     7.2520    24.4640     2.2610 
   81.2500   -17.1750    96.3160     7.7910     6.6590     7.2810    24.3990     2.2640 
   81.3750   -17.2660    91.8590     8.0350     6.8810     7.3650    24.3070     2.2660 
   81.5000   -17.5080    87.6190     8.2760     7.1230     7.5490    24.1320     2.2640 
   81.6250   -17.7820    86.4930     8.4740     7.3410     7.8520    23.8620     2.2590 
   81.7500   -18.0450    86.0980     8.5990     7.4980     8.1520    23.6230     2.2540 
   81.8750   -18.2610    85.6540     8.6260     7.5650     8.2900    23.5570     2.2520 
   82.0000   -18.4110    85.2660     8.5500     7.5310     8.2760    23.7150     2.2540 
   82.1250   -18.4950    85.9060     8.3690     7.3870     8.0470    23.9890     2.2600 
   82.2500   -18.5630    88.3430     8.1240     7.1680     7.7090    24.1500     2.2660 
   82.3750   -18.5630    91.0470     7.8380     6.8980     7.5410    24.1240     2.2700 
   82.5000   -18.5090    90.7330     7.5440     6.6120     7.5300    24.0100     2.2740 
   82.6250   -18.4610    88.9690     7.2990     6.3640     7.4330    24.0690     2.2760 
   82.7500   -18.4990    89.6380     7.1650     6.2090     7.1060    24.2410     2.2760 
   82.8750   -18.6660    91.0470     7.2110     6.1960     6.9540    24.2960     2.2700 
   83.0000   -19.0150    87.5010     7.4850     6.3650     7.3500    24.1150     2.2540 
   83.1250   -19.3940    79.1460     8.0280     6.7590     8.1120    23.9150     2.2310 
   83.2500   -19.7350    74.2120     8.7220     7.3020     8.8760    23.8000     2.2100 
   83.3750   -20.0680    72.7830     9.4190     7.8900     9.5080    23.7340     2.2020 
   83.5000   -20.3580    70.1140     9.9280     8.3740    10.1360    23.7260     2.2130 
   83.6250   -20.6050    66.9230    10.0100     8.5540    10.5080    23.8360     2.2410 
   83.7500   -20.7670    69.0360     9.6900     8.4100    10.5700    24.0390     2.2710 
   83.8750   -20.9240    76.0200     9.1000     8.0160     9.9550    24.2030     2.2920 
   84.0000   -21.0720    81.3140     8.4750     7.5310     8.4210    24.2830     2.2950 
   84.1250   -21.3740    81.0020     8.1090     7.1730     7.8960    24.2710     2.2820 
   84.2500   -21.8200    78.7740     8.0830     7.0400     8.0010    24.1300     2.2590 
   84.3750   -22.3980    77.3360     8.3410     7.1340     8.5130    23.8790     2.2330 
   84.5000   -23.0800    76.3780     8.7300     7.3750     9.1290    23.6570     2.2070 
   84.6250   -23.7510    76.1340     9.0400     7.6310     9.4160    23.5780     2.1860 
   84.7500   -24.3980    75.0310     9.1590     7.7880     9.4350    23.5730     2.1770 
   84.8750   -24.9260    73.4020     9.0920     7.8160     9.3140    23.5950     2.1810 
   85.0000   -25.3080    72.7000     8.9230     7.7510     9.1620    23.6150     2.1950 
   85.1250   -25.5400    72.0740     8.7680     7.6690     9.0570    23.6250     2.2110 
   85.2500   -25.6560    69.2600     8.7040     7.6360     9.0280    23.6290     2.2220 
   85.3750   -25.6570    65.1420     8.7500     7.6770     9.1610    23.6160     2.2240 
   85.5000   -25.6010    63.4720     8.8860     7.7850     9.4760    23.5610     2.2190 
   85.6250   -25.5600    65.6050     9.0690     7.9320     9.6390    23.4530     2.2090 
   85.7500   -25.5370    67.7890     9.2390     8.0700     9.8260    23.3690     2.1990 
   85.8750   -25.5000    68.0460     9.3550     8.1640     9.9080    23.3080     2.1880 
   86.0000   -25.4240    66.3470     9.3910     8.1890     9.8880    23.2580     2.1750 
   86.1250   -25.2040    64.2440     9.3120     8.1120     9.8230    23.2400     2.1640 
   86.2500   -24.8350    63.1170     9.1210     7.9400     9.6500    23.2630     2.1580 
   86.3750   -24.3560    65.0800     8.8260     7.6750     9.3990    23.3330     2.1630 
   86.5000   -23.7090    72.1620     8.4630     7.3430     9.0320    23.4240     2.1820 
   86.6250   -22.9370    82.5100     8.1100     7.0010     8.5670    23.5350     2.2150 
   86.7500   -22.1280    89.6450     7.8570     6.7210     8.0060    23.6580     2.2520 
   86.8750   -21.4020    92.4370     7.7630     6.5560     7.5570    23.7290     2.2830 
   87.0000   -20.8640    92.0040     7.8520     6.5350     7.5430    23.7430     2.3010 
   87.1250   -20.4880    91.0810     8.1120     6.6730     7.8380    23.7040     2.2980 
   87.2500   -20.2940    90.5220     8.4390     6.9090     8.2080    23.6300     2.2790 
   87.3750   -20.3200    88.2460     8.7550     7.1960     8.4150    23.5510     2.2530 
   87.5000   -20.5530    82.0470     9.0140     7.4920     8.5820    23.4740     2.2280 
   87.6250   -20.9790    74.7380     9.2030     7.7730     8.7990    23.4400     2.2120 
   87.7500   -21.5020    72.6080     9.3680     8.0410     9.1490    23.4240     2.2080 
   87.8750   -21.9800    75.2990     9.5340     8.2980     9.4530    23.4100     2.2120 
   88.0000   -22.3050    78.5720     9.6990     8.5400     9.6880    23.3790     2.2220 
   88.1250   -22.5230    78.4700     9.8240     8.7340     9.8890    23.3640     2.2300 
   88.2500   -22.6040    74.8390     9.8830     8.8600    10.0370    23.3590     2.2320 
   88.3750   -22.4930    71.1120     9.8640     8.9050    10.0590    23.3590     2.2290 
   88.5000   -22.2070    70.9660     9.7710     8.8670     9.9000    23.3520     2.2200 
   88.6250   -21.7480    71.6610     9.5950     8.7380     9.5940    23.3370     2.2090 
