~V
VERS. 2.00: Ver 2.00
~W
STRT.M 61.0000:
STOP.M 236.0000:
STEP.M 0.1250:
NULL. -999.2500:
UWI. DF5057:
~C
DEPT.M :
GR.API :
RML.OHMM :
RI. :
RXO.OHMM :
CALI.CM :
DEN.GM/CC :
SP.MV :
~A
# ...
  106.0000    68.0040     8.8750     7.6680     8.1930    24.2120     2.1250   -15.9390 
  106.1250    71.5040     8.9120     7.7440     8.3510    24.1960     2.1280   -15.7340 
  106.2500    71.7310     8.9450     7.8350     8.5020    24.1510     2.1350   -15.5150 
  106.3750    70.6480     8.9500     7.9180     8.5490    24.0790     2.1430   -15.2960 
  106.5000    69.7410     8.9410     7.9900     8.5150    23.9920     2.1510   -15.0570 
  106.6250    68.3720     8.9750     8.0770     8.4710    23.8760     2.1610   -14.8120 
  106.7500    66.4670     9.0690     8.1920     8.3280    23.7680     2.1700   -14.5120 
  106.8750    66.0790     9.1720     8.3000     8.0250    23.7760     2.1770   -14.1360 
  107.0000    68.5180     9.1630     8.3140     7.7880    23.9130     2.1790   -13.6130 
  107.1250    73.1070     8.8540     8.0810     7.7680    24.0200     2.1820   -12.8900 
  107.2500    78.5200     8.2380     7.5920     7.1590    24.0330     2.1950   -12.0440 
  107.3750    86.1260     7.4050     6.9140     5.8890    24.0360     2.2240   -11.0770 
  107.5000    97.4510     6.5160     6.1730     4.9260    24.0970     2.2650   -10.0220 
  107.6250   105.9080     5.7450     5.5060     4.4770    24.2130     2.3090    -8.9540 
  107.7500   108.0420     5.1640     4.9750     4.3730    24.3050     2.3460    -7.9430 
  107.8750   107.0600     4.8000     4.6130     4.4030    24.4190     2.3750    -7.0650 
  108.0000   107.2400     4.6600     4.4340     4.3480    24.6280     2.3960    -6.4310 
  108.1250   105.3850     4.7880     4.4810     4.1880    24.8970     2.4050    -6.2260 
  108.2500    99.4200     5.1530     4.7250     4.1540    24.9690     2.3970    -6.3850 
  108.3750    92.9280     5.7400     5.1550     4.6760    24.6820     2.3690    -6.9180 
  108.5000    87.3810     6.4800     5.7350     5.7730    24.3060     2.3260    -7.7370 
  108.6250    82.6680     7.2230     6.3810     6.5340    24.0970     2.2810    -8.7420 
  108.7500    81.0360     7.7920     6.9500     6.8990    24.0260     2.2460    -9.8130 
  108.8750    82.9720     8.0950     7.3460     7.0060    24.0850     2.2240   -10.8540 
  109.0000    85.4190     8.1530     7.5390     7.1280    24.2280     2.2160   -11.8030 
  109.1250    83.8690     8.0720     7.5690     7.2520    24.3470     2.2170   -12.5520 
  109.2500    81.8040     8.0010     7.5410     7.2120    24.3750     2.2210   -13.1090 
  109.3750    81.0620     7.9780     7.4970     7.1390    24.3550     2.2250   -13.4640 
  109.5000    78.9090     7.9770     7.4370     7.1630    24.3370     2.2250   -13.6420 
  109.6250    75.8140     7.9130     7.3210     7.1860    24.3760     2.2230   -13.6160 
  109.7500    75.8180     7.7170     7.1140     6.9090    24.3960     2.2230   -13.4070 
  109.8750    79.1310     7.3820     6.8120     6.5960    24.3800     2.2300   -13.0600 
  110.0000    81.2090     6.9810     6.4620     6.2390    24.3280     2.2490   -12.6280 
  110.1250    81.6350     6.6820     6.1800     5.7830    24.3240     2.2770   -12.2100 
  110.2500    84.1140     6.6000     6.0520     5.4860    24.3530     2.3010   -11.8610 
  110.3750    86.4200     6.7540     6.1010     5.6090    24.3880     2.3090   -11.5890 
  110.5000    82.8120     7.0590     6.2800     6.3340    24.4160     2.2970   -11.3680 
  110.6250    73.2940     7.3310     6.4730     7.4760    24.4040     2.2710   -11.1630 
  110.7500    68.1090     7.4110     6.5470     7.8240    24.4210     2.2500   -11.0210 
  110.8750    70.2200     7.2490     6.4480     7.4060    24.5230     2.2420   -10.9360 
  111.0000    74.6070     6.8990     6.1970     6.4470    24.6710     2.2470   -10.8980 
  111.1250    77.9440     6.5150     5.8840     5.7050    24.7530     2.2570   -10.8770 
  111.2500    81.6940     6.2650     5.6370     5.8020    24.8080     2.2640   -10.8120 
  111.3750    84.8130     6.2370     5.5370     5.8570    24.8730     2.2690   -10.7180 
  111.5000    83.7220     6.4530     5.6200     5.7480    24.9260     2.2700   -10.6690 
  111.6250    79.4250     6.9060     5.9090     5.9600    24.8390     2.2660   -10.8180 
  111.7500    75.8220     7.4760     6.3220     6.8180    24.6170     2.2570   -11.1070 
  111.8750    73.7580     8.0740     6.7890     7.6450    24.4180     2.2440   -11.4780 
  112.0000    74.2690     8.6190     7.2380     7.9190    24.2780     2.2320   -11.8890 
  112.1250    77.9070     9.0300     7.5970     7.7280    24.2150     2.2260   -12.2800 
  112.2500    79.8820     9.3140     7.8580     7.7130    24.2070     2.2260   -12.6510 
  112.3750    76.3130     9.5050     8.0410     7.8840    24.2370     2.2270   -12.9830 
  112.5000    70.1230     9.6520     8.1770     8.0970    24.3000     2.2250   -13.2470 
  112.6250    69.4380     9.7710     8.2750     8.3270    24.3530     2.2170   -13.3480 
  112.7500    72.5090     9.8450     8.3300     8.5560    24.3880     2.2050   -13.3530 
  112.8750    73.6650     9.8570     8.3340     8.7350    24.3730     2.1930   -13.3270 
  113.0000    72.5840     9.8170     8.2970     8.5380    24.2880     2.1820   -13.3210 
  113.1250    71.4800     9.7710     8.2500     7.8820    24.1490     2.1740   -13.3580 
  113.2500    69.5650     9.7650     8.2240     7.7350    24.0440     2.1660   -13.4010 
  113.3750    66.7450     9.8060     8.2270     8.0170    24.0040     2.1560   -13.4570 
  113.5000    65.8890     9.8680     8.2450     8.3560    23.9990     2.1470   -13.5330 
  113.6250    68.4070     9.9010     8.2520     8.5000    24.0050     2.1400   -13.6730 
  113.7500    68.3600     9.8790     8.2290     8.3510    24.0080     2.1380   -13.8710 
  113.8750    65.2140     9.8060     8.1720     8.1090    24.0200     2.1400   -14.0990 
  114.0000    65.0710     9.7020     8.0930     7.9410    24.0440     2.1450   -14.2890 
  114.1250    70.8440     9.5940     8.0080     7.8830    24.0420     2.1490   -14.3840 
  114.2500    74.7430     9.4960     7.9310     7.8920    24.0370     2.1490   -14.4900 
  114.3750    72.7620     9.4200     7.8740     7.9230    24.0730     2.1450   -14.5870 
  114.5000    69.2140     9.3870     7.8530     7.9410    24.1230     2.1410   -14.6610 
  114.6250    67.4610     9.4430     7.9070     8.0560    24.1040     2.1410   -14.7260 
  114.7500    65.6460     9.5900     8.0400     8.4320    24.1010     2.1480   -14.8020 
  114.8750    65.0300     9.8080     8.2430     8.8690    24.1370     2.1580   -14.9080 
  115.0000    67.4580    10.0460     8.4810     9.1960    24.1920     2.1680   -15.0340 
  115.1250    71.2510    10.2250     8.6970     9.5340    24.2470     2.1740   -15.1410 
  115.2500    73.1070    10.3060     8.8480     9.6120    24.2770     2.1780   -15.1510 
  115.3750    73.6670    10.2810     8.9150     9.4270    24.2950     2.1800   -15.0580 
  115.5000    74.1010    10.1540     8.8910     9.0870    24.3620     2.1820   -14.8790 
  115.6250    75.0320     9.8880     8.7380     8.8410    24.4890     2.1820   -14.5480 
  115.7500    75.4320     9.4660     8.4430     8.6640    24.5980     2.1830   -14.0280 
  115.8750    73.9290     8.8710     7.9970     8.0880    24.6740     2.1880   -13.3280 
  116.0000    71.9100     8.1320     7.4200     6.8250    24.7790     2.2010   -12.5080 
  116.1250    72.6450     7.3400     6.7820     5.5910    25.0110     2.2230   -11.6430 
  116.2500    76.4910     6.6310     6.1940     5.1920    25.2510     2.2480   -10.7840 
  116.3750    81.8890     6.0870     5.7220     5.1150    25.3310     2.2710    -9.9200 
  116.5000    87.0060     5.7290     5.3950     5.1810    25.2630     2.2880    -9.1000 
  116.6250    87.8860     5.5570     5.2270     5.1360    25.2400     2.2950    -8.4250 
  116.7500    84.8980     5.4950     5.1660     5.2240    25.2650     2.2960    -7.8770 
  116.8750    84.0570     5.4920     5.1750     5.2680    25.3360     2.2960    -7.4620 
  117.0000    87.4290     5.5190     5.2230     5.3150    25.3810     2.2940    -7.1930 
  117.1250    90.1790     5.5730     5.2950     5.0570    25.3590     2.2910    -7.1210 
