~V
VERS. 2.00: Ver 2.00
~W
STRT.M 55.0000:
STOP.M 277.0000:
STEP.M 0.1250:
NULL. -999.2500:
UWI. DF5040:
~C
DEPT.M :
GR.API :
CALI.CM :
RXO.OHMM :
RI. :
RML.OHMM :
DEN.GM/CC :
SP.MV :
~A
# ...
  212.5000    73.9280    24.1190    94.8410    61.9610    65.6070     2.2230   -27.9180 
  212.6250    76.1950    24.0460    94.8120    62.8950    66.5910     2.2220   -27.9280 
  212.7500    76.5700    24.0590    87.3210    63.9370    67.6890     2.2260   -27.9020 
  212.8750    74.7770    24.1530    78.4000    65.1790    68.9990     2.2380   -27.8450 
  213.0000    72.3540    24.2410    73.6400    66.6510    70.5500     2.2590   -27.7640 
  213.1250    70.3020    24.2480    75.0200    68.1770    72.1590     2.2850   -27.6660 
  213.2500    68.3530    24.1730    79.2660    69.4460    73.4960     2.3080   -27.5680 
  213.3750    66.4500    24.0550    82.7310    70.2060    74.2970     2.3240   -27.4800 
  213.5000    65.3220    23.9250    83.3430    70.3050    74.4020     2.3250   -27.4170 
  213.6250    66.3790    23.9000    81.7890    69.6080    73.6670     2.3090   -27.3980 
  213.7500    69.6870    23.8940    79.4280    68.3380    72.3280     2.2860   -27.4260 
  213.8750    73.8430    23.9650    76.1040    66.6650    70.5650     2.2660   -27.5010 
  214.0000    76.6600    24.0950    73.1410    64.8040    68.6030     2.2520   -27.6180 
  214.1250    76.7660    24.2150    71.1710    63.1780    66.8890     2.2400   -27.7740 
  214.2500    76.3820    24.2760    69.4520    62.2720    65.9350     2.2280   -27.9530 
  214.3750    77.4220    24.2930    66.4800    62.5590    66.2380     2.2160   -28.1440 
  214.5000    79.6920    24.2580    62.5650    64.5080    68.2910     2.2020   -28.3380 
  214.6250    80.5960    24.1670    61.5350    68.9260    72.9480     2.1900   -28.5210 
  214.7500    79.2950    24.0550    68.7350    75.7100    80.0990     2.1870   -28.6860 
  214.8750    76.4940    24.0170    98.1130    84.7980    89.6770     2.1930   -28.8320 
  215.0000    72.9670    24.0810   164.7480    95.9390   101.4200     2.2000   -28.9590 
  215.1250    69.3680    24.2460   256.0970   108.9600   115.1430     2.1980   -29.0630 
  215.2500    66.7660    24.3710   286.6760   123.0440   129.9880     2.1850   -29.1410 
  215.3750    66.1420    24.4150   249.6250   137.6190   145.3500     2.1730   -29.1910 
  215.5000    67.1500    24.4080   216.5250   151.8570   160.3570     2.1710   -29.2090 
  215.6250    67.6670    24.3820   260.9530   164.0360   173.1940     2.1800   -29.1900 
  215.7500    66.1490    24.3260   346.5990   172.9550   182.5940     2.1960   -29.1470 
  215.8750    63.2730    24.2220   410.5870   177.6820   187.5770     2.2160   -29.0820 
  216.0000    61.4570    24.1030   410.7090   177.9480   187.8570     2.2340   -29.0020 
  216.1250    62.5970    24.0630   344.3800   173.8760   183.5650     2.2360   -28.9130 
  216.2500    64.9900    24.0280   264.6640   167.7220   177.0790     2.2180   -28.8350 
  216.3750    66.6610    23.9020   196.6720   161.1330   170.1340     2.1910   -28.7840 
  216.5000    66.6730    23.7050   148.5700   155.4520   164.1460     2.1710   -28.7770 
  216.6250    64.9970    23.6120   122.6160   151.5810   160.0660     2.1660   -28.8260 
  216.7500    62.9790    23.6940   114.2890   148.9510   157.2950     2.1730   -28.9120 
  216.8750    61.9720    23.8200   124.5080   146.8280   155.0570     2.1860   -29.0200 
  217.0000    62.4300    23.8610   143.9640   144.5870   152.6950     2.1980   -29.1370 
  217.1250    63.9100    23.8140   154.2200   142.1370   150.1120     2.2020   -29.2470 
  217.2500    65.6470    23.7850   147.4370   139.9850   147.8450     2.1970   -29.3340 
  217.3750    67.2120    23.8250   134.3550   138.5660   146.3490     2.1900   -29.3820 
  217.5000    67.7490    23.8370   130.7670   137.9510   145.7000     2.1870   -29.3790 
  217.6250    66.8250    23.7710   144.8120   137.8020   145.5430     2.1910   -29.3100 
  217.7500    65.5570    23.7660   164.6540   137.4330   145.1540     2.1980   -29.1990 
  217.8750    64.5260    23.8500   177.8040   136.3720   144.0360     2.2080   -29.0660 
  218.0000    64.3970    23.9430   179.8280   134.4750   142.0360     2.2190   -28.9300 
  218.1250    66.8280    24.0370   176.1850   131.8980   139.3210     2.2250   -28.8080 
  218.2500    70.7470    24.1610   168.8830   129.2600   136.5410     2.2200   -28.7090 
  218.3750    72.9830    24.2890   158.4930   126.8710   134.0230     2.2050   -28.6370 
  218.5000    71.2900    24.3520   147.4300   124.4810   131.5030     2.1860   -28.5970 
  218.6250    67.3900    24.3390   143.5380   120.9660   127.7980     2.1710   -28.5950 
  218.7500    65.5790    24.2950   149.7240   115.5970   122.1400     2.1620   -28.6230 
  218.8750    67.0270    24.2620   160.8120   108.2250   114.3690     2.1620   -28.6790 
  219.0000    69.6570    24.2230   167.7380    99.3210   104.9850     2.1670   -28.7600 
  219.1250    70.1420    24.0560   161.9840    89.9450    95.1020     2.1710   -28.8740 
  219.2500    69.3280    23.7250   146.0460    81.4840    86.1840     2.1750   -29.0190 
  219.3750    69.7390    23.4010   122.3260    74.8400    79.1820     2.1800   -29.1940 
  219.5000    71.5990    23.4970    95.1940    70.4700    74.5750     2.1890   -29.3920 
  219.6250    72.0720    23.8920    77.4260    68.6370    72.6430     2.1980   -29.6000 
  219.7500    70.7290    24.1570    71.9030    68.4070    72.4010     2.2050   -29.8030 
  219.8750    68.9940    24.2460    73.1330    69.1610    73.1960     2.2050   -29.9900 
  220.0000    67.6750    24.2600    74.2000    70.3980    74.5000     2.2030   -30.1480 
  220.1250    66.9970    24.2840    74.0540    71.7300    75.9040     2.2090   -30.2580 
  220.2500    67.7540    24.3350    74.5300    72.9290    77.1670     2.2230   -30.3130 
  220.3750    69.6640    24.3770    76.8340    73.9870    78.2830     2.2290   -30.3090 
  220.5000    70.7670    24.3890    80.3320    75.0280    79.3790     2.2170   -30.2450 
  220.6250    69.1750    24.3880    81.9420    76.2170    80.6330     2.2000   -30.1220 
  220.7500    66.5340    24.3850    80.8260    77.5890    82.0790     2.1960   -29.9640 
  220.8750    65.1110    24.3350    78.6340    79.0280    83.5950     2.2010   -29.7850 
  221.0000    66.2280    24.2120    77.3310    80.3530    84.9920     2.1980   -29.6000 
  221.1250    69.1310    24.1060    78.7550    81.3550    86.0490     2.1860   -29.4370 
  221.2500    71.1190    24.1260    79.8750    82.0830    86.8150     2.1800   -29.3170 
  221.3750    71.1260    24.2040    78.4520    82.6540    87.4170     2.1860   -29.2580 
  221.5000    69.8330    24.2590    74.6540    83.2580    88.0540     2.1900   -29.2670 
  221.6250    68.5850    24.2770    68.7490    84.0780    88.9180     2.1780   -29.3450 
  221.7500    67.5540    24.2920    61.0330    85.1330    90.0310     2.1670   -29.4620 
  221.8750    66.1240    24.3190    52.7180    86.3430    91.3060     2.1770   -29.5910 
  222.0000    64.1650    24.3240    48.7820    87.4990    92.5240     2.2060   -29.7060 
  222.1250    62.9760    24.1620    57.0840    88.2020    93.2650     2.2260   -29.7680 
  222.2500    63.8060    23.8320    72.2860    88.4090    93.4830     2.2200   -29.7650 
  222.3750    66.6250    23.5630    81.6180    88.3140    93.3830     2.1930   -29.6910 
  222.5000    70.0080    23.4680    76.1640    88.4080    93.4820     2.1660   -29.5580 
  222.6250    71.1710    23.3260    59.5060    89.6360    94.7760     2.1560   -29.3890 
  222.7500    69.7540    23.1610    48.6050    92.5550    97.8530     2.1620   -29.2170 
  222.8750    67.2900    23.1320    45.7920    97.4310   102.9920     2.1820   -29.0640 
  223.0000    65.3770    23.3560    48.5490   103.9580   109.8720     2.2000   -28.9440 
  223.1250    64.1470    23.6000    56.1970   110.9530   117.2450     2.1950   -28.8680 
  223.2500    63.5330    23.7000    71.8520   116.4340   123.0210     2.1730   -28.8250 
  223.3750    63.6410    23.6990   108.7790   118.7510   125.4630     2.1540   -28.7980 
  223.5000    63.2120    23.6750   176.8140   116.9640   123.5800     2.1480   -28.7630 
  223.6250    61.8200    23.6790   248.2420   110.7980   117.0810     2.1510   -28.6860 
