~V
VERS. 2.00: Ver 2.00
~W
STRT.M 72.0000:
STOP.M 259.0000:
STEP.M 0.1250:
NULL. -999.2500:
UWI. DF5020:
~C
DEPT.M :
DEN.GM/CC :
GR.API :
RML.OHMM :
RI. :
RXO.OHMM :
CALI.CM :
SP.MV :
~A
# ...
  105.7500     2.1760    58.4300     9.5930     7.5020     8.9700    23.5730   -43.7740 
  105.8750     2.1820    56.5920     9.4840     7.4660     8.8830    23.5700   -43.5010 
  106.0000     2.1860    60.7270     9.4270     7.4730     8.7220    23.5180   -43.1760 
  106.1250     2.1860    65.1200     9.4710     7.5490     8.6430    23.4460   -42.8400 
  106.2500     2.1840    66.3380     9.5920     7.6750     8.8290    23.4830   -42.3670 
  106.3750     2.1830    65.7160     9.7260     7.8130     9.0800    23.5410   -41.8490 
  106.5000     2.1830    65.3130     9.7690     7.8960     9.2350    23.5240   -41.2050 
  106.6250     2.1840    67.0320     9.5670     7.8160     9.0510    23.4550   -40.4040 
  106.7500     2.1880    70.6710     9.0980     7.5480     8.8010    23.4630   -39.5260 
  106.8750     2.1950    74.6970     8.4040     7.1050     8.4640    23.4960   -38.5250 
  107.0000     2.2050    77.3340     7.5990     6.5490     7.7710    23.4300   -37.4750 
  107.1250     2.2190    78.9530     6.8480     5.9810     7.2210    23.4980   -36.4620 
  107.2500     2.2340    82.1210     6.2650     5.4960     6.4030    23.6100   -35.5410 
  107.3750     2.2530    87.0300     5.9030     5.1440     5.9830    23.8800   -34.7520 
  107.5000     2.2770    91.4380     5.7750     4.9500     5.8250    24.2290   -34.1310 
  107.6250     2.3030    91.1380     5.8900     4.9340     5.7200    24.3520   -33.7160 
  107.7500     2.3230    88.7870     6.1420     5.0350     5.5500    24.2610   -33.4930 
  107.8750     2.3290    88.4180     6.4230     5.1930     5.6270    24.1610   -33.4760 
  108.0000     2.3170    89.7830     6.6050     5.3320     5.8500    24.1140   -33.5630 
  108.1250     2.2930    89.1480     6.5360     5.3630     6.1050    24.0200   -33.7340 
  108.2500     2.2700    87.0230     6.2490     5.2810     6.3390    23.9720   -33.9390 
  108.3750     2.2580    86.0940     5.8980     5.1500     6.4540    23.9510   -34.1800 
  108.5000     2.2600    88.0040     5.7540     5.1120     6.4000    23.9860   -34.4850 
  108.6250     2.2820    91.4850     6.1860     5.3930     6.3630    24.1310   -34.9060 
  108.7500     2.3220    91.7580     7.2110     6.0470     6.7370    24.2410   -35.3940 
  108.8750     2.3780    85.2180     8.6730     7.0240     8.0300    24.2100   -35.8960 
  109.0000     2.4400    75.2610    10.2160     8.1380    10.5450    24.1420   -36.5480 
  109.1250     2.4890    69.3280    11.2550     9.0380    14.4230    24.1850   -37.2540 
  109.2500     2.5020    67.7300    11.5260     9.4810    18.2680    24.2170   -38.0640 
  109.3750     2.4710    67.6380    11.1320     9.4380    18.7900    24.0700   -38.8430 
  109.5000     2.4070    67.6060    10.4900     9.1020    15.5060    23.8680   -39.5930 
  109.6250     2.3370    65.9090    10.0930     8.7840    14.2510    23.7160   -40.1600 
  109.7500     2.2880    64.9460    10.0570     8.6530    14.5740    23.5940   -40.6460 
  109.8750     2.2700    66.1800    10.2670     8.7000    12.9110    23.4710   -41.0050 
  110.0000     2.2830    66.9220    10.5230     8.8240    10.6660    23.3470   -41.1930 
  110.1250     2.3090    65.7580    10.6100     8.8870     9.8490    23.2730   -41.2400 
  110.2500     2.3230    64.8820    10.5050     8.8370     9.9430    23.2710   -41.1350 
  110.3750     2.3090    65.3480    10.2930     8.6960     9.9940    23.2940   -40.9610 
  110.5000     2.2710    65.8050    10.0820     8.5220     9.9280    23.2750   -40.7290 
  110.6250     2.2280    67.4690     9.9400     8.3630     9.6390    23.2550   -40.4950 
  110.7500     2.2040    70.0950     9.8370     8.2260     9.5390    23.2530   -40.2190 
  110.8750     2.2020    70.2250     9.7200     8.0900     9.5420    23.2700   -39.9700 
  111.0000     2.2160    68.5390     9.5530     7.9350     9.4140    23.3110   -39.7150 
  111.1250     2.2280    68.4590     9.3340     7.7480     9.3160    23.3150   -39.4970 
  111.2500     2.2280    69.2650     9.1100     7.5530     9.0920    23.2900   -39.2670 
  111.3750     2.2170    69.2670     8.9140     7.3750     8.8940    23.2660   -39.0590 
  111.5000     2.2030    68.3700     8.7540     7.2340     8.8630    23.2600   -38.8850 
  111.6250     2.1940    68.6530     8.6570     7.1600     8.9300    23.2120   -38.7510 
  111.7500     2.1870    70.3590     8.6820     7.1840     9.0140    23.0960   -38.6020 
  111.8750     2.1810    71.6440     8.9310     7.3590     9.1690    22.9990   -38.4200 
  112.0000     2.1760    71.5220     9.4750     7.7260     9.5330    23.0180   -38.2930 
  112.1250     2.1830    71.4860    10.2840     8.2760     9.7100    23.1940   -38.0490 
  112.2500     2.2080    72.5260    11.0680     8.8350    10.1780    23.4110   -37.8630 
  112.3750     2.2500    73.5290    11.5150     9.2100    11.2690    23.6590   -37.6360 
  112.5000     2.2950    73.6350    11.3830     9.2290    12.5320    23.7880   -37.4080 
  112.6250     2.3170    74.5310    10.5840     8.7790    13.3920    23.6410   -37.1840 
  112.7500     2.3070    77.0730     9.5460     8.0830    11.2510    23.3730   -37.0060 
  112.8750     2.2730    79.9740     8.6450     7.3760     9.0470    23.2260   -36.8770 
  113.0000     2.2330    81.2600     8.1200     6.8500     8.2380    23.2370   -36.7670 
  113.1250     2.2070    79.8270     8.0800     6.6420     8.0390    23.3420   -36.7870 
  113.2500     2.1970    77.5900     8.3380     6.6820     7.9990    23.3500   -36.8320 
  113.3750     2.1960    75.6090     8.7390     6.8850     7.9850    23.2220   -36.9030 
  113.5000     2.1980    75.0330     9.1450     7.1580     8.0870    23.0310   -37.0120 
  113.6250     2.1990    75.7200     9.4500     7.4100     8.5010    23.0320   -37.0990 
  113.7500     2.2000    76.0090     9.6400     7.5930     8.7760    23.2130   -37.1920 
  113.8750     2.2020    74.9570     9.7030     7.6830     8.6420    23.4800   -37.2570 
  114.0000     2.2030    73.1500     9.6170     7.6600     8.4050    23.7220   -37.2920 
  114.1250     2.2040    74.4040     9.3370     7.4930     8.4060    23.8090   -37.2910 
  114.2500     2.2030    79.1080     8.9200     7.2230     8.4940    23.8300   -37.3020 
  114.3750     2.2050    83.9730     8.4630     6.9050     8.3550    23.8270   -37.3310 
  114.5000     2.2110    87.9550     8.1010     6.6210     8.0430    23.8310   -37.3410 
  114.6250     2.2220    89.4320     8.0060     6.4830     7.4030    23.8620   -37.4770 
  114.7500     2.2310    86.3480     8.1870     6.5260     7.1060    23.8770   -37.6220 
  114.8750     2.2300    79.7060     8.5880     6.7450     7.2270    23.7940   -37.8130 
  115.0000     2.2180    72.3400     9.0930     7.0910     8.0600    23.6170   -37.9520 
  115.1250     2.1990    66.5870     9.5490     7.4810     8.9210    23.5490   -38.0870 
  115.2500     2.1830    62.3340     9.8780     7.8270     9.5020    23.6320   -38.0740 
  115.3750     2.1730    61.3820    10.0790     8.0880     9.5680    23.7550   -38.0230 
  115.5000     2.1700    63.4330    10.1940     8.2570     9.2730    23.8170   -37.8480 
  115.6250     2.1700    65.0080    10.2140     8.3150     9.1490    23.8280   -37.4130 
  115.7500     2.1700    64.8250    10.0730     8.2470     9.1720    23.8230   -36.8190 
  115.8750     2.1690    64.6200     9.6710     8.0070     9.0160    23.7820   -36.0290 
  116.0000     2.1720    65.7550     8.9690     7.5660     8.9410    23.7100   -35.1130 
  116.1250     2.1820    71.9210     8.0340     6.9380     8.6650    23.7370   -34.0560 
  116.2500     2.2010    82.5640     7.1150     6.2670     8.2540    23.9720   -33.0690 
  116.3750     2.2260    93.9800     6.4000     5.6790     7.3570    24.2990   -32.0860 
  116.5000     2.2510   103.1310     6.0100     5.2700     6.1050    24.5290   -31.2190 
  116.6250     2.2660   107.2990     6.0100     5.1230     5.6580    24.6040   -30.5180 
  116.7500     2.2710   105.5640     6.2500     5.1700     5.6300    24.5190   -29.9680 
  116.8750     2.2670   100.6430     6.5800     5.3350     5.5340    24.3540   -29.6020 
