~V
VERS. 2.00: Ver 2.00
~W
STRT.M 61.0000:
STOP.M 267.0000:
STEP.M 0.1250:
NULL. -999.2500:
UWI. DF5036:
~C
DEPT.M :
SP.MV :
GR.API :
RML.OHMM :
RI. :
RXO.OHMM :
CALI.CM :
DEN.GM/CC :
~A
# ...
  151.0000   -15.2790    60.9110    13.9920    13.0650    12.0180    24.2650     2.4050 
  151.1250   -15.4970    65.2240    14.1080    13.1650    12.6220    24.2230     2.4070 
  151.2500   -15.7600    72.7120    14.4330    13.3670    13.2760    24.1780     2.4090 
  151.3750   -16.0650    79.8070    14.9210    13.7030    13.9710    24.1460     2.4070 
  151.5000   -16.4010    81.8530    15.6320    14.2510    14.5840    24.1680     2.3980 
  151.6250   -16.7530    79.8680    16.6510    15.1050    15.2280    24.2420     2.3820 
  151.7500   -17.0900    80.7880    17.8760    16.1320    16.1680    24.2780     2.3630 
  151.8750   -17.4080    83.9160    18.9770    17.0910    17.3100    24.2860     2.3480 
  152.0000   -17.6870    85.5460    19.5300    17.6420    18.3420    24.2860     2.3430 
  152.1250   -17.9140    84.6670    19.0500    17.3450    18.5070    24.2750     2.3550 
  152.2500   -18.1020    83.5130    17.7560    16.3110    17.8950    24.2510     2.3780 
  152.3750   -18.2390    82.1620    16.1360    14.8910    16.5940    24.2270     2.4020 
  152.5000   -18.3450    79.4690    14.8710    13.6350    14.6650    24.2240     2.4170 
  152.6250   -18.4560    79.3620    14.7500    13.2220    13.6690    24.2470     2.4100 
  152.7500   -18.5640    82.7880    15.8280    13.8240    14.7660    24.2910     2.3870 
  152.8750   -18.6580    83.7450    17.9180    15.4210    18.3690    24.3420     2.3560 
  153.0000   -18.7340    79.4150    20.5410    17.7450    23.6630    24.3900     2.3290 
  153.1250   -18.7980    74.2610    22.9120    20.2290    28.8060    24.4110     2.3180 
  153.2500   -18.8560    74.2440    24.4120    22.1690    31.3540    24.4170     2.3200 
  153.3750   -18.9130    76.8810    24.8750    23.2000    30.6940    24.4080     2.3300 
  153.5000   -18.9650    79.0420    24.6390    23.4060    27.9920    24.3770     2.3390 
  153.6250   -18.9970    79.5260    24.4520    23.3190    25.5380    24.3600     2.3400 
  153.7500   -19.0130    78.3240    24.9120    23.5920    25.3820    24.3540     2.3340 
  153.8750   -19.0250    75.8210    26.1490    24.4850    27.0930    24.3540     2.3240 
  154.0000   -19.0550    73.5190    27.9300    25.9280    30.2820    24.3540     2.3150 
  154.1250   -19.0980    74.5570    29.6720    27.5290    33.3870    24.3540     2.3130 
  154.2500   -19.1460    78.2760    30.7580    28.7000    34.7390    24.3540     2.3150 
  154.3750   -19.2130    82.5480    30.8610    29.0610    33.8450    24.3530     2.3190 
  154.5000   -19.2860    85.0910    29.9610    28.5390    31.6570    24.3510     2.3240 
  154.6250   -19.3540    84.6590    28.6210    27.4680    30.3300    24.3520     2.3290 
  154.7500   -19.4440    82.4030    27.8040    26.6770    29.1420    24.3500     2.3320 
  154.8750   -19.5570    80.0370    28.4100    26.8360    29.5270    24.3470     2.3310 
  155.0000   -19.6690    80.1000    30.7990    28.4200    33.3140    24.3460     2.3240 
  155.1250   -19.7800    82.4910    35.7620    31.9160    41.5770    24.3430     2.3090 
  155.2500   -19.8940    82.6030    42.3960    36.9490    51.7450    24.3280     2.2900 
  155.3750   -20.0130    78.3070    49.6450    43.1490    61.5270    24.2920     2.2740 
  155.5000   -20.1190    72.5520    56.9350    49.9400    67.5320    24.2330     2.2640 
  155.6250   -20.2200    70.5560    63.8590    56.4690    67.6240    24.1710     2.2610 
  155.7500   -20.2930    71.2280    69.6620    61.9700    68.3740    24.1150     2.2620 
  155.8750   -20.3290    72.2840    73.8130    65.9290    70.8670    24.1040     2.2660 
  156.0000   -20.3500    72.3940    76.2070    68.2180    74.8470    24.1290     2.2690 
  156.1250   -20.3700    70.9460    77.3590    69.2000    77.2700    24.1440     2.2710 
  156.2500   -20.3800    69.1260    78.7950    70.2060    76.2830    24.1480     2.2710 
  156.3750   -20.3670    67.5680    81.6930    72.3140    72.6380    24.1480     2.2670 
  156.5000   -20.3490    68.4560    86.6060    76.1410    72.0760    24.1480     2.2600 
  156.6250   -20.3260    70.3020    93.2400    81.6740    79.4140    24.1480     2.2520 
  156.7500   -20.3240    68.3530    99.8940    87.5630    90.5060    24.1480     2.2450 
  156.8750   -20.3450    62.5380   105.1410    92.5880   102.1090    24.1480     2.2410 
  157.0000   -20.3840    57.0280   108.1380    95.8890   106.3780    24.1450     2.2400 
  157.1250   -20.4360    57.2800   108.8930    97.1880    97.5090    24.1070     2.2430 
  157.2500   -20.4990    60.9590   109.0660    97.6980    85.6270    24.0150     2.2470 
  157.3750   -20.5770    64.3650   109.9100    98.4980    79.9540    23.9030     2.2510 
  157.5000   -20.6820    65.4240   112.1610   100.3810    81.8620    23.8380     2.2540 
  157.6250   -20.8270    65.1580   116.2750   103.9210    88.3400    23.8270     2.2560 
  157.7500   -20.9930    66.0560   121.7050   108.8260    96.6270    23.8440     2.2530 
  157.8750   -21.1680    67.4590   128.2030   114.8930   104.1490    23.8960     2.2470 
  158.0000   -21.3280    66.6730   135.5350   121.7450   110.8350    23.9740     2.2370 
  158.1250   -21.5040    64.0700   142.3200   128.2770   116.0230    24.0090     2.2270 
  158.2500   -21.6930    62.9660   146.7400   132.5080   121.0650    24.0120     2.2200 
  158.3750   -21.8590    62.9390   146.2300   132.2090   126.5110    23.9830     2.2180 
  158.5000   -21.9980    62.1450   139.3470   126.0620   127.1510    23.9150     2.2240 
  158.6250   -22.0920    62.1710   127.4260   114.7900   120.3900    23.7670     2.2360 
  158.7500   -22.1310    65.1370   113.7590   103.3080   105.2660    23.6000     2.2490 
  158.8750   -22.1250    68.9940   105.4440    95.4530    83.0900    23.5190     2.2570 
  159.0000   -22.0940    69.8120   103.7260    93.1600    71.1410    23.5710     2.2610 
  159.1250   -22.0140    69.4210   107.6760    96.4880    80.6960    23.7430     2.2590 
  159.2500   -21.8980    70.6820   113.1940   101.9660   101.8170    23.9970     2.2560 
  159.3750   -21.7630    70.1130   117.4890   106.9470   121.2860    24.2340     2.2560 
  159.5000   -21.6110    65.4580   118.9370   109.6210   128.0410    24.3920     2.2590 
  159.6250   -21.4700    61.7110   117.3920   109.3010   118.6800    24.3990     2.2640 
  159.7500   -21.3780    63.0240   115.1200   107.7230   101.6480    24.3380     2.2680 
  159.8750   -21.3360    66.4490   113.8710   106.4980    89.6360    24.3250     2.2690 
  160.0000   -21.3220    65.5550   114.6340   106.7780    88.9250    24.4020     2.2650 
  160.1250   -21.3300    60.4020   117.8080   109.1920    99.3290    24.4510     2.2580 
  160.2500   -21.3640    57.9750   122.4190   112.9840   111.7190    24.4660     2.2530 
  160.3750   -21.4540    60.5830   127.6230   117.3820   121.3880    24.4610     2.2500 
  160.5000   -21.5840    64.4880   132.4790   121.4900   125.4770    24.4480     2.2520 
  160.6250   -21.7140    64.0570   135.9470   124.3070   123.2210    24.4060     2.2580 
  160.7500   -21.8210    61.5970   138.0950   125.8560   121.0640    24.3550     2.2630 
  160.8750   -21.9000    58.8440   139.7350   126.8370   122.2970    24.3050     2.2650 
  161.0000   -21.9790    57.1070   142.4870   128.6820   125.6050    24.2810     2.2620 
  161.1250   -22.0670    55.7450   149.4110   134.1040   129.8430    24.2940     2.2540 
  161.2500   -22.1200    52.1650   162.2220   144.7050   140.2470    24.3340     2.2450 
  161.3750   -22.1640    49.2700   181.8470   161.4620   161.9070    24.3850     2.2370 
  161.5000   -22.2120    51.6190   207.2470   183.7380   196.3650    24.4240     2.2340 
  161.6250   -22.2290    58.4400   234.0710   208.2440   239.1760    24.4650     2.2350 
  161.7500   -22.2330    61.6770   254.7550   228.5000   273.0100    24.5120     2.2370 
  161.8750   -22.2370    60.1170   262.6460   238.6090   283.6430    24.5630     2.2390 
  162.0000   -22.2230    57.4600   253.9840   234.6980   263.9510    24.5900     2.2430 
  162.1250   -22.1790    57.0600   228.3860   215.1140   213.6800    24.5950     2.2480 
