~V
VERS. 2.00: Ver 2.00
~W
STRT.M 58.0000:
STOP.M 261.0000:
STEP.M 0.1250:
NULL. -999.2500:
UWI. DF5035:
~C
DEPT.M :
DEN.GM/CC :
GR.API :
CALI.CM :
RXO.OHMM :
RI. :
RML.OHMM :
SP.MV :
~A
# ...
  238.0000     2.4560    70.4070    24.6720    54.9290    28.6600    29.8370   -31.2140 
  238.1250     2.4550    74.4160    24.7980    41.2460    27.4670    27.7330   -31.4090 
  238.2500     2.4440    76.8890    25.0370    26.8880    25.2920    24.9560   -31.5130 
  238.3750     2.4260    77.9560    25.1850    17.9210    23.0450    22.4030   -31.4790 
  238.5000     2.4040    79.2300    25.1100    15.8410    21.0450    20.2890   -31.5130 
  238.6250     2.3880    80.2580    24.9490    16.0100    19.0720    18.2910   -31.5170 
  238.7500     2.3770    80.8030    24.8680    15.4710    16.8320    16.0550   -31.4670 
  238.8750     2.3690    80.4800    24.7470    13.1890    14.3770    13.6290   -31.4580 
  239.0000     2.3570    80.1600    24.4580    10.4430    12.0390    11.3600   -31.3360 
  239.1250     2.3390    80.0710    24.1130     7.8590    10.2900     9.7720   -31.0890 
  239.2500     2.3230    78.7260    23.8920     7.0460     9.2190     8.9390   -30.8870 
  239.3750     2.3160    75.7370    23.7700     6.9330     8.8060     8.7950   -30.5900 
  239.5000     2.3170    72.9920    23.6700     7.2460     8.9590     9.1820   -30.2800 
  239.6250     2.3190    73.4490    23.7560     8.2510     9.5710     9.9040   -30.0970 
  239.7500     2.3190    73.9470    24.0950     9.4810    10.3260    10.6330   -29.7470 
  239.8750     2.3180    73.0900    24.5320     9.9610    10.9680    11.1510   -29.4420 
  240.0000     2.3180    73.6310    24.8760     9.6920    11.3160    11.3480   -29.2860 
  240.1250     2.3180    75.7140    25.0450     9.4660    11.2950    11.2270   -29.0630 
  240.2500     2.3170    74.7430    25.1120     9.4440    11.0750    10.9740   -28.9320 
  240.3750     2.3150    70.4720    25.1070     9.3430    10.7950    10.7250   -28.9430 
  240.5000     2.3100    67.2190    25.0900     9.2840    10.5730    10.5860   -28.8590 
  240.6250     2.3060    67.2980    25.1330     9.4000    10.4980    10.6300   -28.7720 
  240.7500     2.3020    67.3900    25.1180     9.4480    10.5480    10.8040   -28.9080 
  240.8750     2.2970    67.1380    24.9720     9.3240    10.6810    11.0420   -28.9380 
  241.0000     2.2960    67.6230    24.8340     9.4400    10.8440    11.2750   -28.9320 
  241.1250     2.2970    69.0420    24.9090    10.0720    10.9680    11.4320   -29.1410 
  241.2500     2.3010    71.1800    25.0920    10.8870    11.0220    11.5040   -29.1920 
  241.3750     2.3050    73.3320    25.2110    11.8230    11.0020    11.5130   -29.1370 
  241.5000     2.3110    74.4260    25.2230    12.8120    10.9400    11.4990   -29.2370 
  241.6250     2.3180    73.1430    25.2050    11.9140    10.8910    11.5180   -29.3200 
  241.7500     2.3230    69.5310    25.2080    11.0140    10.9020    11.6020   -29.2100 
  241.8750     2.3270    66.7050    25.2230    10.3500    10.9920    11.7600   -29.2240 
  242.0000     2.3320    67.6670    25.1950    10.3330    11.1470    11.9690   -29.2430 
  242.1250     2.3390    72.2780    25.0560    11.1480    11.3240    12.1750   -29.0440 
  242.2500     2.3510    75.6830    24.9290    11.7440    11.4690    12.3310   -28.9930 
  242.3750     2.3660    75.3640    24.9860    12.0930    11.5600    12.4290   -28.9890 
  242.5000     2.3800    72.5570    25.2370    12.4060    11.6110    12.4960   -28.8040 
  242.6250     2.3890    70.9590    25.4270    13.0670    11.6590    12.5820   -28.6850 
  242.7500     2.3870    71.9420    25.4600    13.9280    11.7420    12.7180   -28.6790 
  242.8750     2.3700    75.2270    25.4470    15.5210    11.8710    12.8960   -28.4810 
  243.0000     2.3440    79.5840    25.4750    16.6180    12.0310    13.0780   -28.3590 
  243.1250     2.3220    83.4350    25.4640    15.3500    12.1820    13.2040   -28.3450 
  243.2500     2.3100    85.7950    25.3240    14.7240    12.2880    13.2580   -28.1270 
  243.3750     2.3080    86.2830    25.0940    13.9230    12.3380    13.2480   -27.9870 
  243.5000     2.3140    84.4590    24.8730    11.9000    12.3390    13.2090   -28.0230 
  243.6250     2.3270    79.8590    24.7370    11.3740    12.3200    13.1920   -27.9140 
  243.7500     2.3410    75.6300    24.6410    11.2160    12.3210    13.2220   -27.7210 
  243.8750     2.3540    73.0780    24.6200    11.5990    12.3610    13.3000   -27.7120 
  244.0000     2.3620    71.9410    24.7920    12.2080    12.4450    13.4090   -27.6760 
  244.1250     2.3590    70.7000    25.1940    11.8220    12.5590    13.5160   -27.4990 
  244.2500     2.3500    70.6650    25.5720    11.4640    12.6630    13.5870   -27.4590 
  244.3750     2.3390    72.3910    25.7420    11.1760    12.7210    13.6040   -27.4520 
  244.5000     2.3320    73.5320    25.7050    11.1370    12.7120    13.5650   -27.2910 
  244.6250     2.3350    71.1080    25.5930    11.2160    12.6320    13.4700   -27.1680 
  244.7500     2.3450    68.1600    25.5110    11.3180    12.5200    13.3490   -27.1970 
  244.8750     2.3610    68.4410    25.4310    11.3110    12.4100    13.2320   -27.1300 
  245.0000     2.3820    70.5070    25.3010    10.9830    12.3360    13.1630   -27.0290 
  245.1250     2.4040    69.3420    25.1590    10.7360    12.3470    13.2070   -27.1310 
  245.2500     2.4230    66.7530    25.0610    10.8300    12.4560    13.3760   -27.1050 
  245.3750     2.4380    65.3070    24.9410    10.6640    12.6670    13.6630   -26.9930 
  245.5000     2.4460    64.8650    24.7360    10.1370    12.9670    14.0280   -27.0530 
  245.6250     2.4490    65.3310    24.5820     9.8910    13.3230    14.4120   -27.0790 
  245.7500     2.4480    67.2660    24.6460    10.1190    13.6780    14.7540   -26.9320 
  245.8750     2.4440    69.0050    24.8840    10.6170    13.9950    15.0310   -26.9070 
  246.0000     2.4360    69.5800    25.1080    10.9500    14.2510    15.2330   -26.9010 
  246.1250     2.4260    70.9030    25.2230    11.4440    14.4160    15.3430   -26.7300 
  246.2500     2.4180    72.8960    25.3210    11.7050    14.4970    15.3790   -26.7450 
  246.3750     2.4110    72.3630    25.4470    11.7430    14.5080    15.3500   -26.7200 
  246.5000     2.4060    69.6900    25.5790    11.6310    14.4710    15.2770   -26.5350 
  246.6250     2.4060    69.9840    25.6400    11.4380    14.4100    15.1810   -26.5210 
  246.7500     2.4060    72.5710    25.6110    11.1710    14.3480    15.0870   -26.6230 
  246.8750     2.4040    73.5930    25.5530    11.1600    14.2900    14.9970   -26.5290 
  247.0000     2.3960    71.7150    25.5460    11.2680    14.2320    14.9070   -26.4560 
  247.1250     2.3880    68.7650    25.6020    11.4910    14.1830    14.8340   -26.5940 
  247.2500     2.3860    68.2340    25.5720    11.4090    14.1740    14.8190   -26.5960 
  247.3750     2.3940    69.5230    25.3510    11.1670    14.2470    14.9040   -26.5610 
  247.5000     2.4120    71.9170    25.0070    11.0190    14.4250    15.1030   -26.6630 
  247.6250     2.4320    72.8960    24.6980    11.3900    14.7120    15.3990   -26.7770 
  247.7500     2.4500    72.1040    24.4550    12.1150    15.0270    15.6950   -26.7550 
  247.8750     2.4620    70.3860    24.2460    12.3610    15.2810    15.8900   -26.7730 
  248.0000     2.4660    69.2740    24.0980    11.9670    15.3820    15.9100   -26.8640 
  248.1250     2.4590    69.6420    24.0570    11.4070    15.2620    15.7180   -26.8350 
  248.2500     2.4460    69.5000    24.0550    11.1810    15.0030    15.4200   -26.7730 
  248.3750     2.4350    68.9000    24.0500    10.9310    14.7020    15.1210   -26.8840 
  248.5000     2.4320    69.4410    24.0450    11.1200    14.4650    14.9320   -26.9500 
  248.6250     2.4370    71.8260    24.1390    11.6180    14.4190    14.9770   -26.7680 
  248.7500     2.4440    74.0170    24.3900    12.2430    14.5970    15.2690   -26.6570 
  248.8750     2.4510    74.8380    24.6950    13.3910    15.0080    15.7920   -26.6920 
  249.0000     2.4600    74.4620    24.9030    15.1080    15.6160    16.4660   -26.6940 
  249.1250     2.4730    73.6490    24.9430    16.0140    16.3160    17.1330   -26.6040 
