~V
VERS. 2.00: Ver 2.00
~W
STRT.M 55.0000:
STOP.M 263.0000:
STEP.M 0.1250:
NULL. -999.2500:
UWI. DF5056:
~C
DEPT.M :
GR.API :
CALI.CM :
RXO.OHMM :
RI. :
RML.OHMM :
DEN.GM/CC :
SP.MV :
~A
# ...
   66.2500    63.7500    25.2980    11.7460     7.9430    12.9040     2.1520   -49.0500 
   66.3750    64.1650    25.2190    12.7650     8.0870    12.5000     2.1580   -48.5830 
   66.5000    64.0160    25.1440    13.3880     8.1700    11.2810     2.1600   -48.0680 
   66.6250    62.4200    25.1740    13.3400     8.1390    10.1630     2.1600   -47.5270 
   66.7500    61.9700    25.2860    12.8240     8.0240     9.5040     2.1580   -47.0220 
   66.8750    64.6670    25.4310    11.8250     7.8770     9.1960     2.1570   -46.4900 
   67.0000    68.1100    25.5990    10.7010     7.7370     9.0560     2.1570   -45.9390 
   67.1250    67.0240    25.7730     9.9690     7.5920     8.8500     2.1550   -45.4110 
   67.2500    62.9790    25.8910     9.8270     7.3740     8.4500     2.1520   -44.9450 
   67.3750    61.0170    25.9590     9.8070     7.0480     7.9040     2.1500   -44.5190 
   67.5000    64.4870    26.0780     9.2790     6.6670     7.3630     2.1520   -44.2560 
   67.6250    72.0230    26.3480     8.1440     6.3660     7.0120     2.1690   -44.0080 
   67.7500    77.8410    26.6630     6.9570     6.2500     6.9300     2.2000   -43.9350 
   67.8750    80.5940    26.8770     6.5450     6.3610     7.1270     2.2430   -44.0220 
   68.0000    82.8070    26.8500     7.2940     6.6730     7.5240     2.2840   -44.2920 
   68.1250    82.9020    26.4810     8.5220     7.0700     7.9280     2.2980   -44.6000 
   68.2500    77.9330    25.9690     9.3020     7.3660     8.1400     2.2770   -45.0420 
   68.3750    70.7610    25.5470     9.4590     7.4540     8.0880     2.2320   -45.4070 
   68.5000    66.1750    25.3530     9.2240     7.3280     7.8340     2.1860   -45.7560 
   68.6250    65.3700    25.3470     8.8900     7.0820     7.5430     2.1550   -46.0990 
   68.7500    64.6820    25.3710     8.7230     6.8750     7.3760     2.1380   -46.2320 
   68.8750    65.0000    25.3840     8.6980     6.7740     7.3780     2.1310   -46.2870 
   69.0000    67.7170    25.3860     8.7760     6.7800     7.5200     2.1300   -46.1530 
   69.1250    71.3550    25.3730     8.8170     6.8520     7.7280     2.1330   -46.0260 
   69.2500    71.4180    25.3590     9.0080     6.9110     7.8980     2.1360   -45.7260 
   69.3750    68.8170    25.3830     9.0360     6.8930     7.9390     2.1360   -45.5080 
   69.5000    67.4750    25.4480     8.6720     6.7470     7.7850     2.1320   -45.1770 
   69.6250    68.5310    25.4920     8.4080     6.4400     7.4000     2.1260   -44.8350 
   69.7500    69.0750    25.5000     8.4350     6.0520     6.9240     2.1220   -44.5450 
   69.8750    67.8530    25.5270     8.4680     5.7050     6.5520     2.1250   -44.1590 
   70.0000    66.2380    25.5900     8.6600     5.5620     6.5420     2.1390   -43.8770 
   70.1250    66.0310    25.6310     9.3050     5.9030     7.3430     2.1730   -43.4170 
   70.2500    66.3890    25.6420    10.6440     6.9220     9.1730     2.2270   -43.0260 
   70.3750    66.6150    25.6640    16.7600     8.8980    12.2130     2.3040   -42.5810 
   70.5000    65.7130    25.7080    31.9280    12.0240    16.3070     2.3980   -42.2240 
   70.6250    63.8910    25.7400    57.8800    15.9000    20.3050     2.4820   -41.9540 
   70.7500    64.0340    25.7480    65.9190    18.5840    22.1020     2.5210   -41.6660 
   70.8750    66.1180    25.7480    51.7740    18.4010    20.5210     2.4970   -41.5520 
   71.0000    67.9340    25.7320    32.6340    15.6580    16.5310     2.4220   -41.3520 
   71.1250    65.4270    25.6480    19.0560    12.2350    12.4340     2.3330   -41.3720 
   71.2500    61.2040    25.5210    12.4270     9.4990     9.5060     2.2560   -41.4040 
   71.3750    59.4160    25.4230     9.8150     7.6380     7.7820     2.2000   -41.4720 
   71.5000    59.9520    25.4000     9.1450     6.5200     6.9570     2.1660   -41.4980 
   71.6250    62.4810    25.4270     8.6850     6.0250     6.7480     2.1540   -41.4430 
   71.7500    66.2800    25.4440     8.4190     5.8620     6.7680     2.1530   -41.3760 
   71.8750    69.5290    25.4400     8.4540     5.8720     6.8490     2.1540   -41.2090 
   72.0000    69.8660    25.4280     8.6690     5.9630     6.9560     2.1540   -41.0350 
   72.1250    67.9290    25.4340     8.9500     6.1660     7.1950     2.1590   -40.6730 
   72.2500    66.6400    25.4640     9.1850     6.5120     7.6100     2.1780   -40.3060 
   72.3750    65.3970    25.5340     9.5700     6.9810     8.1400     2.2140   -39.8560 
   72.5000    64.0930    25.6470     9.9300     7.4680     8.6150     2.2650   -39.4430 
   72.6250    67.0360    25.7760    14.2260     7.7260     8.7390     2.3110   -38.9760 
   72.7500    75.2400    25.9110    16.3780     7.6050     8.4160     2.3270   -38.6280 
   72.8750    82.1440    26.0620    12.7990     7.1270     7.7390     2.3080   -38.2710 
   73.0000    81.8770    26.1920     7.7420     6.4820     6.9580     2.2700   -38.0460 
   73.1250    78.5370    26.2230     7.5280     5.9150     6.3640     2.2350   -37.9240 
   73.2500    79.2000    26.1930     7.3710     5.5560     6.0570     2.2110   -37.8350 
   73.3750    81.7270    26.1580     7.1680     5.4400     6.0270     2.1970   -37.8840 
   73.5000    81.0280    26.1150     7.3600     5.5350     6.1960     2.1860   -37.9300 
   73.6250    76.9850    26.0400     7.7380     5.7970     6.5200     2.1730   -38.0760 
   73.7500    72.6910    25.9580     8.1710     6.1920     6.9960     2.1630   -38.0910 
   73.8750    70.0650    25.9160     8.5530     6.7480     7.6450     2.1650   -38.1300 
   74.0000    70.1510    25.9530     8.5840     7.4440     8.3870     2.1860   -37.9540 
   74.1250    71.0460    26.0490     8.9500     8.0870     8.9300     2.2290   -37.7970 
   74.2500    70.0010    26.1450    11.1190     8.3630     8.9740     2.2870   -37.6250 
   74.3750    69.2180    26.2880    14.4870     8.0470     8.3780     2.3450   -37.3520 
   74.5000    75.8540    26.5890    13.6810     7.1890     7.2860     2.3830   -37.1310 
   74.6250    89.5960    27.1330     9.1720     6.1130     6.1100     2.3890   -36.8820 
   74.7500   101.4620    27.8110     5.2730     5.1840     5.2050     2.3780   -36.7830 
   74.8750   106.3030    28.4350     4.5670     4.5240     4.6600     2.3650   -36.7070 
   75.0000   104.5370    28.7750     4.5250     4.1350     4.4180     2.3580   -36.8750 
   75.1250   100.2670    28.6860     4.5950     3.9630     4.3530     2.3550   -37.0240 
   75.2500    97.5780    28.4550     4.6390     3.8780     4.3170     2.3530   -37.2890 
   75.3750    99.0600    28.3320     4.6800     3.8560     4.3280     2.3520   -37.6740 
   75.5000   102.8610    28.3460     4.7070     3.9620     4.5240     2.3560   -38.0880 
   75.6250   104.4710    28.2810     4.8110     4.3620     5.1660     2.3680   -38.6190 
   75.7500   102.6830    27.9770     5.6640     5.1270     6.3150     2.3840   -39.1380 
   75.8750    96.5230    27.4770    11.2060     6.2980     7.9160     2.3900   -39.7250 
   76.0000    86.6930    26.9400    18.7910     7.7620     9.6680     2.3720   -40.2290 
   76.1250    75.7730    26.5360    20.6090     9.0370    10.8640     2.3210   -40.9040 
   76.2500    66.5350    26.2950    15.1610     9.5940    11.0750     2.2620   -41.4040 
   76.3750    60.2640    26.1900    10.9590     9.3360    10.3990     2.2130   -41.8260 
   76.5000    57.5850    26.1640     9.5580     8.6090     9.3520     2.1800   -42.2550 
   76.6250    59.2080    26.1600     9.1150     7.8970     8.5350     2.1630   -42.5020 
   76.7500    63.1660    26.1410     8.5010     7.4430     8.1360     2.1550   -42.7520 
   76.8750    65.7870    26.1160     8.2940     7.2530     8.0880     2.1510   -42.9290 
   77.0000    64.5260    26.1080     8.8430     7.2500     8.2470     2.1480   -43.1330 
   77.1250    61.2400    26.1750     9.2310     7.3720     8.5270     2.1460   -43.1240 
   77.2500    59.5580    26.3080     9.0650     7.5930     8.9210     2.1460   -43.1970 
   77.3750    59.1450    26.4290     9.1350     7.9630     9.5050     2.1530   -43.3340 
