~V
VERS. 2.00: Ver 2.00
~W
STRT.M 59.0000:
STOP.M 275.0000:
STEP.M 0.1250:
NULL. -999.2500:
UWI. DF5021:
~C
DEPT.M :
SP.MV :
GR.API :
CALI.CM :
RXO.OHMM :
RI. :
RML.OHMM :
DEN.GM/CC :
~A
# ...
  182.7500   -29.3660    77.9090    25.1800    91.5120    94.6630   103.2040     2.2550 
  182.8750   -29.2800    79.7210    25.1500    91.2220    95.1970   103.7840     2.2650 
  183.0000   -29.0960    84.3050    25.0980    89.6760    94.7970   103.3500     2.2760 
  183.1250   -28.8990    88.5790    25.1070    89.0800    93.3060   101.7310     2.2840 
  183.2500   -28.7730    88.1250    25.1790    90.1500    90.4810    98.6620     2.2830 
  183.3750   -28.6470    83.5030    25.1940    90.9940    85.8570    93.6400     2.2800 
  183.5000   -28.4570    80.8480    25.1430    90.8020    79.9410    87.2160     2.2800 
  183.6250   -28.2720    81.7190    25.0780    90.8970    73.4890    80.2090     2.2830 
  183.7500   -28.1170    84.0380    25.0660    92.2720    67.4970    73.7010     2.2870 
  183.8750   -27.9470    85.8290    25.1160    93.5970    63.4640    69.3220     2.2900 
  184.0000   -27.7420    86.7370    25.1520    91.5790    62.3980    68.1640     2.2940 
  184.1250   -27.6160    85.6750    25.1160    86.0230    65.3420    71.3620     2.2940 
  184.2500   -27.5210    81.5660    25.0660    83.9150    72.7700    79.4280     2.2850 
  184.3750   -27.3320    75.4910    25.0780   106.1470    84.7560    92.4450     2.2680 
  184.5000   -27.1460    70.9770    25.1430   142.6150    98.8320   107.7310     2.2550 
  184.6250   -27.1330    70.0970    25.1940   171.0700   112.4370   122.5070     2.2490 
  184.7500   -27.1420    72.6670    25.1790   179.2300   122.7970   133.7580     2.2520 
  184.8750   -27.0460    76.1980    25.1070   172.5930   126.8250   138.1320     2.2610 
  185.0000   -26.9770    78.0640    25.0990   161.5570   125.2860   136.4610     2.2720 
  185.1250   -27.0470    78.2100    25.1520   144.0480   120.1940   130.9310     2.2760 
  185.2500   -27.0790    77.7760    25.1850   118.2030   114.7550   125.0240     2.2680 
  185.3750   -27.0370    77.2760    25.1460    93.2670   112.5750   122.6570     2.2560 
  185.5000   -27.0400    76.4690    25.0890    84.6670   114.4930   124.7400     2.2530 
  185.6250   -27.0740    75.4780    25.0920    96.7400   120.2350   130.9750     2.2580 
  185.7500   -27.0330    74.7020    25.1570   118.2020   128.8690   140.3520     2.2610 
  185.8750   -26.9400    73.6270    25.1710   133.9920   139.3260   151.7080     2.2500 
  186.0000   -26.8720    71.6820    25.1270   145.4430   149.9830   163.2820     2.2330 
  186.1250   -26.8190    70.1150    25.0850   154.1570   159.6820   173.8150     2.2170 
  186.2500   -26.7250    70.5740    25.1040   161.6250   167.7430   182.5690     2.2090 
  186.3750   -26.6620    72.0850    25.1850   169.0870   174.1180   189.4920     2.2120 
  186.5000   -26.6900    71.8600    25.2230   174.3330   179.8550   195.7220     2.2220 
  186.6250   -26.7880    69.7530    25.2260   178.5370   185.6980   202.0680     2.2340 
  186.7500   -26.9000    67.2390    25.2230   185.8760   192.3010   209.2380     2.2420 
  186.8750   -27.0650    65.5770    25.3100   196.9110   200.1420   217.7550     2.2380 
  187.0000   -27.3350    65.1830    25.4320   209.6050   208.7540   227.1060     2.2230 
  187.1250   -27.6190    65.7800    25.5090   223.0620   217.4590   236.5610     2.2020 
  187.2500   -27.8370    66.0370    25.5070   235.1340   225.3100   245.0870     2.1900 
  187.3750   -28.0700    65.1620    25.4470   242.7520   230.8900   251.1470     2.1960 
  187.5000   -28.3450    64.6640    25.4380   245.9930   233.9110   254.4280     2.2140 
  187.6250   -28.4710    65.5890    25.4800   244.2900   234.3930   254.9510     2.2300 
  187.7500   -28.4570    67.6710    25.4930   238.0760   232.7000   253.1120     2.2370 
  187.8750   -28.4640    69.0730    25.4210   231.4200   229.1930   249.3040     2.2350 
  188.0000   -28.4850    68.3880    25.3060   225.4440   224.6410   244.3600     2.2290 
  188.1250   -28.3150    66.1720    25.2410   220.5270   219.0150   238.2500     2.2240 
  188.2500   -28.0860    64.3990    25.2390   218.7370   211.8510   230.4700     2.2250 
  188.3750   -27.9300    64.9400    25.2370   217.9510   202.0240   219.7980     2.2360 
  188.5000   -27.7210    67.1590    25.2020   211.5290   189.4920   206.1890     2.2480 
  188.6250   -27.3680    69.8500    25.1560   197.1540   174.5320   189.9420     2.2480 
  188.7500   -27.0510    72.1080    25.1450   179.1290   157.8630   171.8390     2.2350 
  188.8750   -26.8230    73.7040    25.1980   160.7440   140.5040   152.9870     2.2280 
  189.0000   -26.5350    74.7960    25.1940   142.6500   123.8510   134.9020     2.2380 
  189.1250   -26.1710    75.5920    25.1240   124.7810   109.1200   118.9040     2.2550 
  189.2500   -25.8900    77.3410    25.0610   107.7500    97.4420   106.2220     2.2650 
  189.3750   -25.6620    81.1560    25.0720    93.3570    90.5350    98.7210     2.2700 
  189.5000   -25.3920    84.3610    25.1420    82.0760    88.6900    96.7170     2.2780 
  189.6250   -25.1250    84.9680    25.1960    72.8080    92.7200   101.0940     2.2840 
  189.7500   -24.9290    83.8630    25.1870    67.2920   102.9630   112.2180     2.2800 
  189.8750   -24.7380    82.0790    25.1330    79.3350   119.2550   129.9110     2.2630 
  190.0000   -24.5220    78.3610    25.1350   118.0710   137.9810   150.2470     2.2460 
  190.1250   -24.3030    72.2960    25.1610   176.1590   155.2880   169.0430     2.2400 
  190.2500   -24.0870    66.7320    25.1450   228.1080   166.7300   181.4680     2.2470 
  190.3750   -23.8450    66.2380    25.1650   244.3980   167.1300   181.9030     2.2580 
  190.5000   -23.5260    70.1730    25.1850   223.9480   157.9610   171.9460     2.2620 
  190.6250   -23.2070    75.2780    25.2730   177.9440   142.2340   154.8660     2.2560 
  190.7500   -22.9510    78.5770    25.4030   130.2250   124.3720   135.4680     2.2460 
  190.8750   -22.6420    78.9190    25.4990   104.7600   109.2090   119.0010     2.2380 
  191.0000   -22.2140    78.2570    25.5330    93.0550    98.3160   107.1720     2.2340 
  191.1250   -21.8930    78.2070    25.5360    86.8800    91.7160   100.0040     2.2390 
  191.2500   -21.6770    78.9970    25.5380    82.6990    89.1520    97.2190     2.2530 
  191.3750   -21.3720    78.7070    25.5460    79.7240    91.5320    99.8040     2.2660 
  191.5000   -21.0430    76.3330    25.5540    78.9680    98.9150   107.8210     2.2680 
  191.6250   -20.9040    73.3650    25.5540    82.7000   112.5390   122.6170     2.2590 
  191.7500   -20.8290    71.8200    25.5440    93.0780   134.0060   145.9300     2.2470 
  191.8750   -20.7220    71.7170    25.5400   116.6000   166.3540   181.0610     2.2420 
  192.0000   -20.7130    70.8600    25.5440   162.2180   208.0000   226.2880     2.2380 
  192.1250   -20.9110    68.8280    25.5500   237.3060   256.4910   278.9490     2.2290 
  192.2500   -21.1550    66.7700    25.5510   328.3850   306.6300   333.4000     2.2140 
  192.3750   -21.3990    65.8310    25.5430   390.8680   348.8130   379.2110     2.1940 
  192.5000   -21.7580    65.5090    25.5430   398.4910   376.4150   409.1860     2.1780 
  192.6250   -22.1630    65.4280    25.5500   362.7030   386.7290   420.3880     2.1700 
  192.7500   -22.3960    65.3520    25.5510   317.4140   382.1780   415.4450     2.1720 
  192.8750   -22.4460    64.4390    25.5440   292.2650   368.9420   401.0710     2.1810 
  193.0000   -22.3890    62.3460    25.5300   285.8990   355.3830   386.3460     2.1920 
  193.1250   -22.1950    60.1460    25.4960   283.7610   344.5240   374.5530     2.1970 
  193.2500   -21.8390    59.6660    25.4250   274.2830   336.6490   366.0010     2.1920 
  193.3750   -21.3930    61.5550    25.3250   252.4330   331.2120   360.0960     2.1770 
  193.5000   -20.9580    63.1320    25.2580   225.4380   327.2950   355.8420     2.1690 
  193.6250   -20.5320    63.1970    25.2070   199.8330   325.1260   353.4870     2.1800 
  193.7500   -20.1100    63.3540    25.1790   179.7570   325.5420   353.9380     2.2040 
  193.8750   -19.8660    65.6940    25.1890   166.7860   330.5460   359.3730     2.2170 
