~V
VERS. 2.00: Ver 2.00
~W
STRT.M 55.0000:
STOP.M 271.0000:
STEP.M 0.1250:
NULL. -999.2500:
UWI. DF5028:
~C
DEPT.M :
SP.MV :
GR.API :
RML.OHMM :
RI. :
RXO.OHMM :
CALI.CM :
DEN.GM/CC :
~A
# ...
  167.5000   -18.5690    62.6900    18.8770    16.6220    14.9140    23.1270     2.4770 
  167.6250   -18.4160    63.3980    18.8310    16.6640    14.9000    22.9260     2.4820 
  167.7500   -18.3180    63.3780    18.7450    16.6250    14.3730    22.7130     2.4830 
  167.8750   -18.1790    62.2680    18.6250    16.5260    13.7200    22.5770     2.4830 
  168.0000   -18.1350    61.1270    18.4740    16.3880    13.1570    22.5410     2.4850 
  168.1250   -17.9780    61.2350    18.3060    16.2230    12.7450    22.5740     2.4880 
  168.2500   -17.8850    61.7620    18.1500    16.0470    12.5290    22.6070     2.4880 
  168.3750   -17.8280    63.4820    18.0320    15.8730    12.5310    22.6100     2.4870 
  168.5000   -17.7690    65.2210    17.9760    15.7340    12.6560    22.5920     2.4880 
  168.6250   -17.7640    62.9430    18.0250    15.7070    12.5620    22.5770     2.4920 
  168.7500   -17.7110    59.4460    18.1770    15.8310    12.2940    22.5500     2.4990 
  168.8750   -17.7350    58.6340    18.4330    16.1160    12.2140    22.5100     2.5070 
  169.0000   -17.6840    60.6430    18.7700    16.5230    12.4030    22.4990     2.5120 
  169.1250   -17.7460    62.4110    19.1430    16.9410    12.6430    22.5640     2.5130 
  169.2500   -17.8300    62.4000    19.4750    17.2160    12.8630    22.6420     2.5120 
  169.3750   -17.9000    62.1860    19.7170    17.2190    13.2630    22.7030     2.5130 
  169.5000   -18.0070    61.3150    19.8660    16.8790    13.7390    22.7820     2.5180 
  169.6250   -18.0420    59.0530    19.8320    16.1910    13.5180    22.8820     2.5260 
  169.7500   -18.1350    57.0060    19.6080    15.3480    12.4960    22.9270     2.5310 
  169.8750   -18.1780    55.5600    19.1070    14.5170    11.1630    22.8960     2.5280 
  170.0000   -18.3120    54.6660    18.4570    13.8380    10.0580    22.8400     2.5160 
  170.1250   -18.3870    55.6290    17.5910    13.4390     9.4640    22.8190     2.4960 
  170.2500   -18.5230    57.3980    16.8620    13.2840     9.2600    22.8280     2.4750 
  170.3750   -18.6450    57.4580    16.6470    13.3130     9.3310    22.8550     2.4600 
  170.5000   -18.8000    56.6370    16.7870    13.4250     9.5680    22.8780     2.4520 
  170.6250   -18.9810    57.4730    16.8470    13.4900    10.0580    22.8840     2.4470 
  170.7500   -19.1910    58.6530    16.7480    13.4310    10.6820    22.9080     2.4420 
  170.8750   -19.5020    58.2460    16.5110    13.2420    10.9770    22.9630     2.4300 
  171.0000   -19.7950    59.4330    16.2420    12.9860    10.5800    23.0250     2.4120 
  171.1250   -20.2580    63.6950    16.2230    12.8530     9.9530    23.0660     2.3920 
  171.2500   -20.6830    66.3470    16.7350    13.0740     9.7310    23.0930     2.3780 
  171.3750   -21.2280    67.1230    18.0410    13.8890     9.8610    23.1100     2.3760 
  171.5000   -21.8030    67.8570    20.3700    15.5350    10.2720    23.1080     2.3810 
  171.6250   -22.4460    69.5890    24.0360    18.3650    11.4300    23.1450     2.3820 
  171.7500   -23.1830    68.3640    28.6820    22.1280    13.5800    23.3270     2.3690 
  171.8750   -23.8740    63.2640    33.8900    26.4680    17.0490    23.6320     2.3410 
  172.0000   -24.6170    58.5480    39.1200    30.9040    22.2940    23.8970     2.3090 
  172.1250   -25.2460    58.8460    43.7060    34.8630    29.8670    23.9640     2.2840 
  172.2500   -25.9290    60.5530    47.5250    38.2260    35.7040    23.9440     2.2720 
  172.3750   -26.5310    59.5470    51.0140    41.3470    35.7550    23.9420     2.2720 
  172.5000   -27.1260    57.5860    55.1150    45.0380    33.4260    23.9710     2.2780 
  172.6250   -27.7160    60.7290    61.3310    50.5700    30.2440    24.0120     2.2820 
  172.7500   -28.2210    66.8280    70.2270    58.2270    28.3610    24.0180     2.2790 
  172.8750   -28.7450    70.5070    81.8530    67.8990    32.8230    23.9430     2.2680 
  173.0000   -29.2250    69.6300    95.2040    78.7570    45.8240    23.8140     2.2530 
  173.1250   -29.7440    68.0000   108.0120    89.1370    70.0630    23.7300     2.2370 
  173.2500   -30.2020    68.1450   118.2630    97.7000   101.5050    23.7170     2.2270 
  173.3750   -30.6730    67.0120   125.1630   103.9540   122.0340    23.7350     2.2270 
  173.5000   -31.0870    63.4970   129.3140   108.2920   116.6650    23.7630     2.2390 
  173.6250   -31.5000    60.1390   132.7950   112.0460   101.2600    23.7890     2.2600 
  173.7500   -31.8310    58.5320   137.9770   116.9710    96.9550    23.7990     2.2780 
  173.8750   -32.1850    58.6110   145.6880   123.8820   101.9990    23.8250     2.2870 
  174.0000   -32.4910    59.9210   155.4970   132.5670   105.3910    23.8680     2.2820 
  174.1250   -32.7530    62.6390   165.9850   141.9840   112.3900    23.7960     2.2660 
  174.2500   -33.0190    65.6820   175.0880   150.5340   137.5400    23.5900     2.2480 
  174.3750   -33.1740    67.8390   181.1580   156.9960   187.7120    23.3500     2.2350 
  174.5000   -33.3510    68.3440   183.1990   160.5640   263.6570    23.1860     2.2290 
  174.6250   -33.3910    67.1830   180.8170   160.6290   269.4600    23.1180     2.2310 
  174.7500   -33.5070    64.9540   176.0460   158.4330   226.2800    23.0790     2.2340 
  174.8750   -33.5270    62.7850   170.3730   155.0150   209.0270    23.0570     2.2340 
  175.0000   -33.5280    63.1330   165.3230   151.6130   211.8170    23.0730     2.2320 
  175.1250   -33.5210    64.5200   162.8840   149.9800   217.9610    23.1460     2.2310 
  175.2500   -33.4370    63.2800   163.6440   150.9320   209.2750    23.2070     2.2340 
  175.3750   -33.3940    61.7820   167.8570   154.8160   189.5700    23.2060     2.2410 
  175.5000   -33.2350    62.5640   175.1600   161.3850   176.2810    23.1680     2.2510 
  175.6250   -33.1450    63.6670   184.4860   169.7610   183.0140    23.1610     2.2570 
  175.7500   -32.9540    62.0660   193.6500   178.0990   213.9520    23.1760     2.2560 
  175.8750   -32.8230    60.3900   201.2490   185.2160   277.3550    23.2100     2.2480 
  176.0000   -32.6370    60.1490   206.4650   190.4080   375.3750    23.2850     2.2350 
  176.1250   -32.4010    60.3520   208.9210   193.2440   454.7050    23.3560     2.2200 
  176.2500   -32.1270    60.1980   209.7530   194.5720   458.1880    23.3660     2.2070 
  176.3750   -31.8130    60.4330   208.9110   194.8360   384.9770    23.3250     2.1980 
  176.5000   -31.5570    62.6960   205.7560   193.6800   287.5420    23.2840     2.1920 
  176.6250   -31.2040    65.2040   198.0110   189.0990   265.1310    23.2620     2.1880 
  176.7500   -30.8400    63.4160   185.8010   180.1570   307.1120    23.2400     2.1880 
  176.8750   -30.3190    58.4820   170.2610   166.7050   406.5070    23.2280     2.1910 
  177.0000   -29.8360    56.1690   154.9720   149.9080   492.1640    23.2270     2.1980 
  177.1250   -29.2420    60.0370   141.1740   132.0480   367.1020    23.2450     2.2100 
  177.2500   -28.7430    64.6810   128.5380   115.8350   228.5030    23.2720     2.2240 
  177.3750   -28.2350    66.7150   115.6030   102.9900   134.3440    23.2930     2.2390 
  177.5000   -27.7300    65.8480   107.6180    94.4390    79.0660    23.3140     2.2510 
  177.6250   -27.3190    65.2360   104.4970    90.8530    58.9050    23.3570     2.2580 
  177.7500   -26.8970    65.6120   104.3310    90.5760    54.5110    23.4070     2.2620 
  177.8750   -26.6390    65.3200   105.9340    92.4540    58.5480    23.4400     2.2640 
  178.0000   -26.3440    63.3590   108.2530    95.4780    65.8570    23.4500     2.2650 
  178.1250   -26.1340    62.6840   110.3760    98.8540    70.8960    23.4370     2.2680 
  178.2500   -25.9390    65.7880   111.8900   101.9640    74.0350    23.4280     2.2700 
  178.3750   -25.7800    69.7510   112.7720   104.5700    77.2900    23.4710     2.2700 
  178.5000   -25.6790    71.5130   113.1200   106.6020    80.8210    23.5720     2.2670 
  178.6250   -25.5250    71.3580   112.5360   107.6640    82.8890    23.6770     2.2600 
