~V
VERS. 2.00: Ver 2.00
~W
STRT.M 58.0000:
STOP.M 240.0000:
STEP.M 0.1250:
NULL. -999.2500:
UWI. DF5049:
~C
DEPT.M :
GR.API :
RML.OHMM :
RI. :
RXO.OHMM :
CALI.CM :
DEN.GM/CC :
SP.MV :
~A
# ...
   91.7500    73.1990     9.7490     8.7210     9.3110    23.7670     2.2440   -22.6340 
   91.8750    76.1520     9.9640     8.8250     9.9670    23.7730     2.2370   -22.8180 
   92.0000    77.4320    10.1860     8.9370    10.2090    23.7690     2.2270   -23.0440 
   92.1250    77.8170    10.4600     9.0950    10.3660    23.7510     2.2220   -23.2330 
   92.2500    76.6600    10.7940     9.3250    10.6740    23.7210     2.2240   -23.4030 
   92.3750    73.9480    11.1680     9.6250    11.4110    23.6940     2.2290   -23.5250 
   92.5000    70.6920    11.5200     9.9540    11.9690    23.6450     2.2330   -23.5510 
   92.6250    68.8610    11.7730    10.2300    12.0670    23.5870     2.2350   -23.5650 
   92.7500    68.9700    11.9270    10.4020    12.0060    23.5540     2.2360   -23.6310 
   92.8750    69.0580    11.9960    10.4680    11.8210    23.5780     2.2370   -23.6340 
   93.0000    67.6230    11.9860    10.4540    11.6420    23.5850     2.2370   -23.5510 
   93.1250    66.8110    11.9010    10.3800    11.5580    23.5360     2.2340   -23.4190 
   93.2500    68.5200    11.7960    10.2720    11.4770    23.4730     2.2280   -23.1980 
   93.3750    71.5140    11.7110    10.1280    11.2660    23.4720     2.2200   -22.8710 
   93.5000    72.7020    11.6520     9.9480    11.0870    23.5340     2.2130   -22.5380 
   93.6250    71.8680    11.5720     9.7380    10.8770    23.6250     2.2090   -22.2300 
   93.7500    71.6660    11.4370     9.5300    10.6480    23.6870     2.2050   -21.9100 
   93.8750    72.9860    11.2700     9.3500    10.5540    23.7150     2.2020   -21.5990 
   94.0000    74.8450    11.1400     9.2180    10.4510    23.7300     2.2000   -21.3140 
   94.1250    74.5610    11.1570     9.1560    10.1860    23.7470     2.2020   -21.1230 
   94.2500    72.0630    11.3190     9.1510     9.8020    23.7460     2.2040   -21.0260 
   94.3750    71.3980    11.5760     9.1980     9.5690    23.7340     2.2050   -20.9860 
   94.5000    74.1600    11.8240     9.2810     9.5930    23.7240     2.2020   -21.0060 
   94.6250    76.1400    11.8850     9.3500     9.8050    23.7390     2.1970   -21.0510 
   94.7500    74.5890    11.6910     9.3430     9.9480    23.7850     2.1910   -21.1030 
   94.8750    70.6980    11.2620     9.2220    10.0580    23.8470     2.1840   -21.2310 
   95.0000    67.4850    10.7260     9.0030     9.9520    23.8950     2.1750   -21.3720 
   95.1250    67.1000    10.3180     8.7740     9.5920    23.9110     2.1680   -21.4420 
   95.2500    69.5750    10.1830     8.6450     9.3070    23.9070     2.1770   -21.5610 
   95.3750    72.3540    10.3290     8.6750     9.3420    23.8920     2.2100   -21.7270 
   95.5000    72.0160    10.6590     8.8610     9.5960    23.8720     2.2640   -21.9160 
   95.6250    70.2380    11.0200     9.1360     9.4490    23.8310     2.3150   -22.1470 
   95.7500    70.7790    11.2880     9.3710     9.6800    23.7450     2.3370   -22.3710 
   95.8750    73.2500    11.4460     9.4930     9.9070    23.6420     2.3220   -22.4560 
   96.0000    74.3500    11.5240     9.4850     9.9410    23.5830     2.2820   -22.4160 
   96.1250    72.3730    11.4840     9.3280    10.1430    23.5550     2.2410   -22.2220 
   96.2500    71.5890    11.2250     9.0220    10.7650    23.6160     2.2160   -21.7950 
   96.3750    75.6120    10.6530     8.5570    11.6140    23.6950     2.2070   -21.2130 
   96.5000    82.9820     9.7940     7.9660    10.5480    23.7890     2.2060   -20.5710 
   96.6250    87.0470     8.8320     7.3600     8.4510    23.8590     2.2050   -19.9600 
   96.7500    86.5950     8.0730     6.8840     7.1190    23.9010     2.1990   -19.3910 
   96.8750    86.6920     7.7250     6.6320     7.0990    23.9130     2.1930   -18.9190 
   97.0000    89.9600     7.8410     6.6370     8.2200    23.9130     2.1890   -18.6480 
   97.1250    92.6840     8.3510     6.9070     8.7530    23.9190     2.1910   -18.6590 
   97.2500    91.0170     8.9670     7.3280     8.8780    23.9090     2.1930   -18.8760 
   97.3750    83.8380     9.5140     7.8150     9.1650    23.8790     2.1910   -19.2600 
   97.5000    72.8970     9.9350     8.2960     9.4680    23.8560     2.1820   -19.6670 
   97.6250    66.1410    10.2820     8.7120     9.6480    23.8510     2.1710   -19.8140 
   97.7500    69.7100    10.5700     9.0060     9.5640    23.8510     2.1680   -19.7310 
   97.8750    80.1180    10.6720     9.0760     9.4410    23.8520     2.1740   -19.4840 
   98.0000    85.8450    10.4130     8.8220     9.3790    23.9050     2.1890   -18.9560 
   98.1250    83.1480     9.6280     8.1690     8.8700    24.1500     2.2080   -17.9780 
   98.2500    83.2760     8.5200     7.2970     7.5590    24.5900     2.2300   -16.7350 
   98.3750    90.2110     7.3590     6.3980     5.9810    24.9820     2.2530   -15.2850 
   98.5000    98.2680     6.4340     5.6570     5.0690    25.1990     2.2790   -13.7330 
   98.6250   104.3740     5.9990     5.2400     4.8300    25.2370     2.3110   -12.3350 
   98.7500   110.6900     5.9890     5.1260     4.7400    25.1980     2.3440   -11.1240 
   98.8750   114.1600     6.2880     5.2670     4.9950    25.0840     2.3680   -10.0430 
   99.0000   110.1100     6.6970     5.5430     5.6170    24.9310     2.3770    -9.2210 
   99.1250   102.7950     6.9430     5.7650     6.4860    24.7620     2.3670    -8.8030 
   99.2500    99.2800     6.9280     5.8180     6.0110    24.6980     2.3500    -8.6090 
   99.3750   100.5830     6.6890     5.7050     5.6000    24.7070     2.3370    -8.6170 
   99.5000   102.9530     6.3350     5.4920     5.4960    24.7780     2.3340    -8.7530 
   99.6250   105.0800     6.0110     5.2890     5.0150    24.8270     2.3390    -8.9210 
   99.7500   106.6950     5.8520     5.2030     4.8300    24.8360     2.3450    -9.1120 
   99.8750   106.3990     5.9280     5.2940     5.0620    24.7970     2.3470    -9.3600 
  100.0000   105.3150     6.2630     5.5820     5.4790    24.7200     2.3430    -9.6310 
  100.1250   105.2090     6.8760     6.0800     5.5680    24.6520     2.3310    -9.9830 
  100.2500   105.0580     7.6110     6.6750     6.3300    24.5340     2.3110   -10.4510 
  100.3750   103.2200     8.2710     7.2110     7.1320    24.4120     2.2830   -10.9620 
  100.5000    99.0750     8.6450     7.5220     7.2960    24.2970     2.2520   -11.5280 
  100.6250    94.6470     8.5640     7.4800     7.1940    24.2440     2.2290   -12.0390 
  100.7500    91.1610     8.1750     7.2050     7.2300    24.3380     2.2190   -12.4120 
  100.8750    90.3880     7.6450     6.8260     6.5610    24.6090     2.2260   -12.7040 
  101.0000    93.5130     7.1390     6.4660     5.9730    24.8790     2.2470   -12.8990 
  101.1250    97.7050     6.7760     6.2060     5.7690    24.9830     2.2720   -12.9680 
  101.2500    99.3980     6.5510     6.0310     5.7390    24.9470     2.2900   -12.9830 
  101.3750    98.2960     6.4590     5.9250     5.7100    24.8540     2.2910   -12.9920 
  101.5000    95.9310     6.5000     5.8860     5.8320    24.8260     2.2730   -13.0470 
  101.6250    93.7870     6.7190     5.9430     5.9630    24.8240     2.2390   -13.3130 
  101.7500    93.7120     7.1200     6.1160     6.1770    24.7460     2.2050   -13.8580 
  101.8750    94.9470     7.7010     6.4360     6.7100    24.5370     2.1770   -14.6140 
  102.0000    95.1970     8.3980     6.9070     7.3790    24.2900     2.1610   -15.5910 
  102.1250    90.5020     9.0690     7.4920     7.9330    24.0890     2.1570   -16.7670 
  102.2500    82.7830     9.5990     8.0660     8.5230    23.9350     2.1600   -17.9750 
  102.3750    78.3650     9.9570     8.5200     9.2270    23.8400     2.1650   -19.1880 
  102.5000    79.9620    10.1890     8.7970     9.2020    23.7920     2.1700   -20.3590 
  102.6250    84.2710    10.3680     8.9000     8.9290    23.7450     2.1710   -21.4470 
  102.7500    85.0500    10.5420     8.9400     8.9600    23.6620     2.1670   -22.4160 
  102.8750    80.0290    10.7090     8.9830     9.4730    23.5650     2.1550   -23.2410 
