~V
VERS. 2.00: Ver 2.00
~W
STRT.M 55.0000:
STOP.M 247.0000:
STEP.M 0.1250:
NULL. -999.2500:
UWI. DF5063:
~C
DEPT.M :
SP.MV :
GR.API :
RML.OHMM :
RI. :
RXO.OHMM :
CALI.CM :
DEN.GM/CC :
~A
   55.0000   251.3880    43.5560     0.0000     0.0000     1.1230    25.9100  -999.2500 
   55.1250   251.2790    43.7740     0.0000     0.0000     1.3600    25.9010  -999.2500 
   55.2500   250.8380    44.8710     0.0000     0.0000     1.5610    25.8920  -999.2500 
   55.3750   250.1350    44.8760     0.0000     0.0000     1.4720    25.8870  -999.2500 
   55.5000   249.2830    44.5700     0.5950     0.1160     1.2490    25.8830     0.0000 
   55.6250   248.5820    45.5820     0.5950     0.1160     1.1160    25.8650     0.0000 
   55.7500   248.1820    47.0090     0.5950     0.1160     0.9990    25.8470     1.0150 
   55.8750   248.0380    46.9950     0.6070     0.1160     0.9360    25.8320     2.0410 
   56.0000   248.1340    45.9510     0.5980     0.1160     0.9590    25.8180     2.0590 
   56.1250   248.4370    47.4820     0.5600     0.1180     1.0390    25.7840     2.0700 
   56.2500   248.9510    50.1340     0.5230     0.1200     1.0950    25.7510     2.0710 
   56.3750   249.6710    50.1950     0.5090     0.1230     1.1640    25.7670     2.0710 
   56.5000   250.6360    47.4510     0.4840     0.1260     1.3680    25.8360     2.0730 
   56.6250   251.8200    45.6400     0.4530     0.1270     1.6760    25.9120     2.0740 
   56.7500   253.0350    46.3500     0.4300     0.1270     2.0190    25.9380     2.0700 
   56.8750   254.0450    48.0590     0.4240     0.1240     1.8650    25.9490     2.0590 
   57.0000   254.5740    49.4500     0.4310     0.1190     1.8210    25.9560     2.0440 
   57.1250   254.3450    49.0300     0.4460     0.1150     1.8690    25.9500     2.0270 
   57.2500   253.2780    48.0910     0.4680     0.1120     1.9950    25.9440     2.0140 
   57.3750   251.2680    47.6420     0.5000     0.1110     2.1780    25.9470     2.0100 
   57.5000   248.3530    46.2730     0.5430     0.1130     2.3460    25.9510     2.0120 
   57.6250   244.6410    42.6780     0.5900     0.1160     2.4300    25.9450     2.0170 
   57.7500   240.4880    39.7500     0.6270     0.1200     2.5180    25.9400     2.0280 
   57.8750   236.0480    39.7420     0.6400     0.1230     2.6660    25.9430     2.0510 
   58.0000   231.4000    41.0370     0.6260     0.1250     2.8880    25.9440     2.0860 
   58.1250   226.5650    41.5110     0.5910     0.1240     2.9420    25.9390     2.1440 
   58.2500   221.8330    41.4900     0.5480     0.1220     2.9960    25.9360     2.2230 
   58.3750   217.4030    42.8160     0.5020     0.1190     2.9440    25.9340     2.3100 
   58.5000   213.0660    43.5850     0.4500     0.1170     2.8410    25.9220     2.3690 
   58.6250   208.4110    43.1990     0.3880     0.1170     2.7950    25.8990     2.3810 
   58.7500   203.2490    44.5730     0.3220     0.1190     2.8910    25.8860     2.3820 
   58.8750   197.2730    46.9370     0.2660     0.1200     3.0790    25.8870     2.3920 
   59.0000   190.3500    48.3910     0.2330     0.1210     3.3230    25.8770     2.4140 
   59.1250   183.0010    47.9300     0.2400     0.1220     3.4160    25.8480     2.4380 
   59.2500   175.5370    48.2050     0.2770     0.1250     3.4520    25.8050     2.4580 
   59.3750   167.5030    49.8390     0.3320     0.1280     3.4930    25.7310     2.4690 
   59.5000   158.5970    51.3750     0.3840     0.1330     3.5530    25.5340     2.4690 
   59.6250   148.7760    52.5040     0.4060     0.1390     3.3580    25.1560     2.4570 
   59.7500   138.6470    53.9190     0.3950     0.1430     3.1270    24.7760     2.4340 
   59.8750   128.8610    56.5290     0.3590     0.1450     3.0570    24.5820     2.4020 
   60.0000   119.7760    58.9510     0.3120     0.1450     3.3070    24.5600     2.3730 
   60.1250   110.8190    57.9610     0.2670     0.1440     3.3020    24.6540     2.3560 
   60.2500   101.7430    55.8390     0.2270     0.1440     3.2390    24.8150     2.3480 
   60.3750    93.1590    55.0950     0.1960     0.1460     3.0760    24.9620     2.3370 
   60.5000    85.6720    56.5070     0.1750     0.1510     2.7970    25.0320     2.3090 
   60.6250    79.5400    58.9770     0.1650     0.1560     2.3640    25.0210     2.2550 
   60.7500    73.9650    61.0970     0.1590     0.1610     2.0320    24.9770     2.1930 
   60.8750    68.4420    62.7870     0.1510     0.1650     1.9300    24.8790     2.1390 
   61.0000    62.8470    63.2690     0.1420     0.1670     2.2500    24.7550     2.0990 
   61.1250    57.6840    61.7960     0.1380     0.1670     3.0500    24.6480     2.0810 
   61.2500    53.0270    57.6070     0.1390     0.1630     3.8100    24.6050     2.0830 
   61.3750    48.6980    52.7460     0.1370     0.1560     3.5560    24.6100     2.0980 
   61.5000    44.4780    50.3940     0.1170     0.1470     2.3050    24.6160     2.1200 
   61.6250    40.3410    51.4420     0.0610     0.1380     1.6820    24.6200     2.1540 
   61.7500    36.5250    53.9430    -0.0230     0.1330     1.9950    24.6320     2.2170 
   61.8750    33.2010    57.5000    -0.1130     0.1300     2.6340    24.6340     2.3180 
   62.0000    30.2460    61.1640    -0.1850     0.1240     1.7910    24.6190     2.4460 
   62.1250    27.1530    64.1220    -0.2230     0.1130     1.3320    24.5400     2.5670 
   62.2500    23.6290    70.6530    -0.2230     0.1120     1.6370    24.3840     2.6350 
   62.3750    19.7610    83.4440    -0.1610     0.1530     2.4490    24.2340     2.6200 
   62.5000    15.8290    98.1630     0.0060     0.2890     3.8030    24.2390     2.5290 
   62.6250    11.9570   107.9000     0.3590     0.6270     4.6860    24.4450     2.4200 
   62.7500     8.1080   112.4830     0.9250     1.2380     4.8790    24.6230     2.3520 
   62.8750     4.3050   111.4700     1.7400     2.2040     5.0290    24.6190     2.3330 
   63.0000     0.7150   103.8700     2.8190     3.5670     5.5830    24.4600     2.3480 
   63.1250    -2.3950    94.1560     4.1510     5.2910     7.6990    24.2770     2.3800 
   63.2500    -5.0200    86.7920     5.5530     7.0540    12.2070    24.2020     2.4240 
   63.3750    -7.3690    81.3350     6.7770     8.4920    18.2260    24.1150     2.4670 
   63.5000    -9.6210    78.6540     7.5140     9.2490    16.6190    23.8730     2.4700 
   63.6250   -11.7560    81.0270     7.4340     9.0430    11.2690    23.5990     2.3980 
   63.7500   -13.7640    83.7860     6.8170     8.2720     8.3740    23.4860     2.3000 
   63.8750   -15.6180    82.4640     6.0560     7.3610     7.5820    23.4840     2.2220 
   64.0000   -17.2770    80.5540     5.4630     6.6380     7.6670    23.4910     2.1800 
   64.1250   -18.7180    81.5860     5.1890     6.2730     8.0340    23.4960     2.1660 
   64.2500   -19.9810    81.0670     5.1500     6.1580     7.7100    23.5210     2.1620 
   64.3750   -21.0700    78.3670     5.2710     6.1900     7.4820    23.5540     2.1590 
   64.5000   -22.0080    76.1660     5.4720     6.2760     7.4340    23.5690     2.1540 
   64.6250   -22.9000    73.9830     5.6670     6.3480     7.5680    23.5650     2.1520 
   64.7500   -23.7300    70.1020     5.7940     6.3730     7.7900    23.5520     2.1530 
   64.8750   -24.4170    68.0510     5.8230     6.3420     7.9690    23.5270     2.1590 
   65.0000   -24.9470    69.0860     5.7650     6.2590     7.9900    23.4990     2.1650 
   65.1250   -25.2650    69.6850     5.6720     6.1360     7.8380    23.4970     2.1660 
   65.2500   -25.4770    68.7140     5.6140     6.0080     7.5120    23.4990     2.1620 
   65.3750   -25.6070    68.1840     5.6160     5.8980     7.1310    23.4550     2.1570 
   65.5000   -25.6790    68.2240     5.6730     5.8190     7.0810    23.3410     2.1550 
   65.6250   -25.6580    68.2620     5.7550     5.7750     7.4270    23.2890     2.1520 
   65.7500   -25.5490    69.1420     5.8260     5.7460     7.5480    23.3760     2.1450 
   65.8750   -25.4450    70.5180     5.8720     5.7180     7.5260    23.5040     2.1380 
   66.0000   -25.3850    71.7760     5.8890     5.6780     7.4580    23.5700     2.1350 
   66.1250   -25.3370    74.5280     5.8780     5.6310     7.4930    23.5740     2.1390 
