~V
VERS. 2.00: Ver 2.00
~W
STRT.M 59.0000:
STOP.M 253.0000:
STEP.M 0.1250:
NULL. -999.2500:
UWI. DF5043:
~C
DEPT.M :
SP.MV :
GR.API :
CALI.CM :
RXO.OHMM :
RI. :
RML.OHMM :
DEN.GM/CC :
~A
# ...
  182.7500   -32.7760    69.3970    23.9110   209.8700   171.0270   178.4890     2.2100 
  182.8750   -32.7800    68.5190    24.1240   205.5240   162.5760   169.6920     2.2160 
  183.0000   -32.8480    68.1020    24.2390   180.8560   153.0440   159.7690     2.2330 
  183.1250   -32.9860    68.9420    24.3030   149.2030   143.9110   150.2610     2.2520 
  183.2500   -33.1980    70.3950    24.3130   123.5780   136.2120   142.2470     2.2620 
  183.3750   -33.4920    71.1790    24.2840   110.1250   130.6730   136.4800     2.2560 
  183.5000   -33.8420    71.1700    24.2710   104.1900   126.7920   132.4410     2.2430 
  183.6250   -34.2240    71.6280    24.2660   102.8480   124.1480   129.6880     2.2300 
  183.7500   -34.6110    73.8110    24.2510   103.9640   122.2900   127.7540     2.2220 
  183.8750   -34.9650    77.4660    24.2150   106.3960   121.0840   126.4990     2.2230 
  184.0000   -35.2590    80.1670    24.1430   108.5370   120.6400   126.0360     2.2240 
  184.1250   -35.4720    80.7810    24.1020   108.5590   121.3030   126.7260     2.2200 
  184.2500   -35.5820    79.8500    24.0950   106.0310   123.2010   128.7020     2.2080 
  184.3750   -35.5570    77.9510    24.1410   104.8980   125.9770   131.5930     2.2000 
  184.5000   -35.4220    75.5880    24.2200   108.7870   128.4660   134.1830     2.2020 
  184.6250   -35.1970    73.9850    24.2690   118.5220   129.5220   135.2820     2.2070 
  184.7500   -34.9170    74.3330    24.2530   132.0220   128.3290   134.0400     2.2120 
  184.8750   -34.6210    75.3830    24.2120   141.2280   124.6910   130.2530     2.2140 
  185.0000   -34.3480    75.0260    24.1280   136.8590   120.2430   125.6230     2.2170 
  185.1250   -34.1210    73.8050    23.9740   119.1800   116.8260   122.0660     2.2190 
  185.2500   -33.9600    72.9110    23.7810    98.5940   116.5780   121.8070     2.2190 
  185.3750   -33.8950    72.3220    23.5830    87.8040   122.3090   127.7740     2.2150 
  185.5000   -33.9130    72.0530    23.3990    89.8150   133.7120   139.6440     2.2080 
  185.6250   -34.0080    73.1980    23.3910   106.4940   149.6560   156.2420     2.2070 
  185.7500   -34.1620    75.9360    23.6240   133.5410   167.6380   174.9610     2.2160 
  185.8750   -34.3590    77.4210    23.9050   167.4370   182.9790   190.9310     2.2260 
  186.0000   -34.5690    75.2330    24.1450   195.1000   191.5570   199.8610     2.2240 
  186.1250   -34.7740    70.1220    24.2660   207.9790   191.1190   199.4050     2.2050 
  186.2500   -34.9520    65.9910    24.2870   203.0950   182.0960   190.0120     2.1790 
  186.3750   -35.0740    68.8220    24.2950   187.0970   167.3420   174.6530     2.1630 
  186.5000   -35.1300    76.7670    24.3060   170.6320   152.5860   159.2930     2.1640 
  186.6250   -35.1150    82.5280    24.2900   155.4360   141.1840   147.4220     2.1790 
  186.7500   -35.0270    80.4290    24.2840   141.9710   134.8290   140.8070     2.2030 
  186.8750   -34.8610    72.8070    24.3000   130.1520   134.7110   140.6840     2.2270 
  187.0000   -34.6380    67.1840    24.3060   129.4220   139.4770   145.6460     2.2420 
  187.1250   -34.3710    64.7150    24.3200   150.0350   148.3300   154.8620     2.2430 
  187.2500   -34.0740    62.6530    24.3220   188.2880   159.6190   166.6130     2.2310 
  187.3750   -33.7570    60.1020    24.2320   222.7570   168.9480   176.3250     2.2170 
  187.5000   -33.4280    59.3610    23.9760   238.0310   170.0420   177.4630     2.2070 
  187.6250   -33.0920    62.9690    23.6080   237.8990   158.1720   165.1070     2.2040 
  187.7500   -32.7460    69.3230    23.4630   232.6060   133.6750   139.6060     2.2070 
  187.8750   -32.3860    71.7020    23.7080   238.8340   102.7460   107.4090     2.2250 
  188.0000   -32.0060    69.1910    24.0540   240.8010    74.2040    77.6970     2.2630 
  188.1250   -31.5960    67.0940    24.1590   210.2720    51.5500    54.1140     2.3150 
  188.2500   -31.1480    70.8360    24.0750   142.8330    35.4390    37.3420     2.3620 
  188.3750   -30.6510    80.9180    24.0130    74.8030    25.8240    27.3320     2.3930 
  188.5000   -30.1110    91.6520    24.1560    36.0010    20.2550    21.5350     2.4060 
  188.6250   -29.5330    99.1000    24.3960    23.6650    17.4060    18.5700     2.3980 
  188.7500   -28.9240   101.5910    24.5190    24.2220    16.2880    17.4060     2.3700 
  188.8750   -28.2970    99.3890    24.4660    24.3950    16.5450    17.6740     2.3420 
  189.0000   -27.6730    95.1160    24.3660    20.0640    17.7840    18.9630     2.3300 
  189.1250   -27.0700    89.8350    24.2070    16.3510    19.8090    21.0710     2.3220 
  189.2500   -26.4980    84.1590    23.9210    19.6760    22.2260    23.5870     2.3030 
  189.3750   -25.9730    78.7890    23.6740    33.2460    24.2870    25.7330     2.2650 
  189.5000   -25.4940    74.9650    23.5730    48.2430    25.3770    26.8670     2.2310 
  189.6250   -25.0680    73.6890    23.7050    55.2180    25.2280    26.7120     2.2220 
  189.7500   -24.7030    74.8400    23.9700    50.0880    23.9770    25.4100     2.2410 
  189.8750   -24.4170    77.8970    24.1630    37.1810    21.9980    23.3500     2.2730 
  190.0000   -24.1960    81.6800    24.2090    25.4730    19.8990    21.1650     2.3040 
  190.1250   -24.0340    84.0660    24.2000    18.3590    17.9330    19.1180     2.3380 
  190.2500   -23.9190    82.7170    24.1900    15.6630    16.1390    17.2510     2.3840 
  190.3750   -23.8440    77.8200    24.0980    17.6090    14.3790    15.4190     2.4510 
  190.5000   -23.7940    74.2820    24.0440    22.0070    12.5290    13.4920     2.5320 
  190.6250   -23.7650    75.4070    24.0630    25.1720    10.6290    11.5150     2.5980 
  190.7500   -23.7570    81.0400    24.1080    22.7020     8.8480     9.6610     2.6250 
  190.8750   -23.7780    88.3120    24.1950    15.3950     7.4400     8.1950     2.6080 
  191.0000   -23.8230    94.7140    24.3250     8.6880     6.4660     7.1810     2.5780 
  191.1250   -23.8900   100.2420    24.4550     5.7340     5.9300     6.6230     2.5450 
  191.2500   -23.9740   104.5650    24.5520     5.1790     5.7850     6.4720     2.5090 
  191.3750   -24.0690   105.7660    24.5190     5.2970     5.9870     6.6830     2.4730 
  191.5000   -24.1710   104.0680    24.3810     5.5160     6.3660     7.0770     2.4410 
  191.6250   -24.2790   101.3110    24.2840     5.9140     6.8010     7.5300     2.4140 
  191.7500   -24.3900    99.6590    24.3900     6.4280     7.1810     7.9250     2.3900 
  191.8750   -24.5020   100.5480    24.6680     6.6030     7.4060     8.1590     2.3740 
  192.0000   -24.6080   103.1860    24.8160     6.4000     7.4870     8.2440     2.3790 
  192.1250   -24.7060   106.1460    24.7530     6.1440     7.4650     8.2210     2.4070 
  192.2500   -24.7960   107.6510    24.5610     6.2090     7.4060     8.1600     2.4400 
  192.3750   -24.8760   105.7540    24.4040     6.6000     7.3920     8.1450     2.4570 
  192.5000   -24.9460   101.4240    24.3330     7.1600     7.4540     8.2100     2.4600 
  192.6250   -25.0030    97.1270    24.3260     7.9590     7.5880     8.3490     2.4490 
  192.7500   -25.0430    94.8400    24.3360     8.9740     7.7610     8.5290     2.4190 
  192.8750   -25.0640    94.2220    24.3410    10.0220     7.9260     8.7010     2.3860 
  193.0000   -25.0700    93.5410    24.3450    10.8060     8.0510     8.8310     2.3770 
  193.1250   -25.0660    93.5580    24.3520    11.2130     8.1300     8.9130     2.3990 
  193.2500   -25.0600    95.8560    24.3520    11.0340     8.1820     8.9670     2.4280 
  193.3750   -25.0590    99.3550    24.3470    10.3630     8.2480     9.0360     2.4380 
  193.5000   -25.0640   100.6110    24.3260     9.7580     8.3620     9.1540     2.4280 
  193.6250   -25.0760    98.6130    24.2910     9.9770     8.5260     9.3250     2.4120 
  193.7500   -25.0920    95.0460    24.2730    11.1940     8.7080     9.5150     2.4090 
  193.8750   -25.1080    93.0030    24.2740    12.6990     8.8380     9.6500     2.4310 
