~V
VERS. 2.00: Ver 2.00
~W
STRT.M 58.0000:
STOP.M 276.0000:
STEP.M 0.1250:
NULL. -999.2500:
UWI. DF5012:
~C
DEPT.M :
SP.MV :
GR.API :
CALI.CM :
RXO.OHMM :
RI. :
RML.OHMM :
DEN.GM/CC :
~A
# ...
  204.2500   -33.3490    86.0770    25.4380    15.4050    10.9100    15.0980     2.3230 
  204.3750   -32.9920    87.1100    25.4860    14.9120    10.6240    14.7640     2.3260 
  204.5000   -32.6410    89.6080    25.5470    13.7290    10.3580    14.4490     2.3300 
  204.6250   -32.3280    91.8760    25.5860    11.6330    10.2460    14.4610     2.3390 
  204.7500   -32.0340    93.8120    25.6030    11.4560    10.3850    14.9620     2.3530 
  204.8750   -31.7670    94.9210    25.6070    13.8620    10.8120    15.9380     2.3670 
  205.0000   -31.5250    94.9900    25.5980    16.2360    11.4770    17.1830     2.3780 
  205.1250   -31.3400    94.3080    25.5770    16.7080    12.2270    18.3050     2.3830 
  205.2500   -31.1590    93.8390    25.5550    16.2160    12.8340    18.9800     2.3890 
  205.3750   -31.0230    94.8610    25.5430    15.9500    13.1540    19.0920     2.3990 
  205.5000   -30.8780    97.7920    25.5380    16.1840    13.1710    18.7460     2.4120 
  205.6250   -30.6910    98.3380    25.5030    16.0770    12.9800    18.2040     2.4250 
  205.7500   -30.4090    94.8840    25.3940    15.8400    12.7800    17.7810     2.4330 
  205.8750   -30.0670    91.6380    25.1930    15.5550    12.6840    17.6390     2.4310 
  206.0000   -29.6580    91.6430    24.9570    15.5430    12.7600    17.8290     2.4200 
  206.1250   -29.1960    91.7020    24.8110    15.7660    12.9900    18.1920     2.4030 
  206.2500   -28.7160    91.2050    24.7940    16.6750    13.1280    18.2460     2.3890 
  206.3750   -28.1990    92.0070    24.8250    17.4290    12.8560    17.5220     2.3820 
  206.5000   -27.6820    92.0820    24.7260    17.2880    11.9510    15.8060     2.3810 
  206.6250   -27.1480    88.1340    24.4120    15.0530    10.4550    13.3210     2.3800 
  206.7500   -26.7150    82.4240    24.0910    11.2820     8.8640    10.8650     2.3740 
  206.8750   -26.3640    75.3320    23.9380     7.3920     7.5080     8.9340     2.3620 
  207.0000   -26.1200    66.8930    24.0190     5.8300     6.5450     7.7100     2.3410 
  207.1250   -25.9460    60.4560    24.2920     5.6390     6.0480     7.2030     2.3100 
  207.2500   -25.8730    58.3290    24.6010     5.6450     5.8710     7.0920     2.2800 
  207.3750   -25.8870    60.0030    24.8680     5.8120     5.9100     7.1760     2.2610 
  207.5000   -25.9800    64.4300    25.1100     6.1110     6.0500     7.2850     2.2590 
  207.6250   -26.1630    73.3070    25.3620     6.2240     6.1780     7.2910     2.2760 
  207.7500   -26.4160    82.5550    25.5490     6.1450     6.2410     7.1930     2.3030 
  207.8750   -26.6550    86.2220    25.5750     6.0280     6.2400     7.0380     2.3340 
  208.0000   -26.9380    83.9530    25.3020     5.9370     6.2000     6.8870     2.3620 
  208.1250   -27.2500    81.6640    24.7560     5.8400     6.1630     6.8020     2.3820 
  208.2500   -27.5600    84.0370    24.4710     5.8890     6.1560     6.7980     2.3940 
  208.3750   -27.8420    86.2040    24.7250     6.0790     6.1850     6.8630     2.4000 
  208.5000   -28.0970    83.6880    25.2440     6.2330     6.2380     6.9640     2.4030 
  208.6250   -28.3450    76.9360    25.4970     6.3520     6.2820     7.0510     2.4040 
  208.7500   -28.5510    73.0970    25.4910     6.5280     6.2860     7.0800     2.4020 
  208.8750   -28.7610    76.5970    25.4360     6.6730     6.2360     7.0320     2.3960 
  209.0000   -28.9510    84.1990    25.3970     6.7910     6.1360     6.9140     2.3900 
  209.1250   -29.0800    89.0990    25.3850     6.8380     6.0210     6.7860     2.3840 
  209.2500   -29.2130    88.8870    25.3850     6.7420     5.9560     6.7600     2.3790 
  209.3750   -29.3500    88.3280    25.3860     6.6740     6.0150     6.9610     2.3760 
  209.5000   -29.4810    88.9060    25.3850     6.6610     6.2810     7.5110     2.3740 
  209.6250   -29.6280    87.6420    25.3850     7.3410     6.8680     8.5200     2.3730 
  209.7500   -29.7920    86.7750    25.3850     8.9160     7.7190     9.8030     2.3750 
  209.8750   -29.9430    87.8910    25.3860    11.8640     8.7090    11.0880     2.3790 
  210.0000   -30.0790    91.2010    25.3870    14.6270     9.5910    12.0220     2.3840 
  210.1250   -30.2240    94.0560    25.3910    15.1210    10.0050    12.2500     2.3900 
  210.2500   -30.3440    94.3400    25.3930    12.6310     9.9750    11.9890     2.3960 
  210.3750   -30.4190    92.9030    25.3920    10.6200     9.7140    11.5880     2.4030 
  210.5000   -30.5120    91.1390    25.3770    10.1810     9.4600    11.3490     2.4110 
  210.6250   -30.5790    89.8880    25.2860    10.5300     9.3940    11.4500     2.4180 
  210.7500   -30.6130    87.0170    25.1150    11.4880     9.5410    11.8310     2.4200 
  210.8750   -30.6690    84.1760    24.9400    13.2100     9.9110    12.4590     2.4150 
  211.0000   -30.7010    85.7760    24.8450    13.5430    10.5150    13.3640     2.4040 
  211.1250   -30.7010    88.4500    24.8390    13.0920    11.4950    14.8040     2.3910 
  211.2500   -30.7100    86.6900    24.8440    16.6170    12.9510    16.9200     2.3820 
  211.3750   -30.7100    81.4090    24.8450    23.1040    14.9980    19.7680     2.3780 
  211.5000   -30.6830    77.4200    24.8490    27.4990    17.6500    23.1990     2.3760 
  211.6250   -30.6200    77.5630    24.8570    28.3390    20.7430    26.7610     2.3730 
  211.7500   -30.5850    79.7740    24.8610    29.1780    23.6500    29.6900     2.3680 
  211.8750   -30.5090    82.1420    24.8620    29.1060    25.6650    31.2650     2.3600 
  212.0000   -30.4390    81.8890    24.8620    29.0440    26.2000    30.9860     2.3510 
  212.1250   -30.4410    79.2380    24.8610    29.5350    24.7600    28.5170     2.3430 
  212.2500   -30.4390    79.8710    24.8600    27.8680    22.0050    24.7660     2.3380 
  212.3750   -30.4600    83.7280    24.8580    22.7650    18.7650    20.7220     2.3400 
  212.5000   -30.4820    86.6900    24.8560    16.7880    15.9280    17.4320     2.3480 
  212.6250   -30.5290    85.8160    24.8540    12.9490    14.2770    15.9530     2.3640 
  212.7500   -30.5640    83.6830    24.8540    12.6580    13.9140    16.4400     2.3820 
  212.8750   -30.6590    81.9050    24.8540    17.5670    15.0340    19.0780     2.3980 
  213.0000   -30.7740    80.3000    24.8540    24.8480    17.9100    23.8970     2.4060 
  213.1250   -30.8680    79.0230    24.8540    30.9720    22.9600    30.7000     2.3980 
  213.2500   -30.9700    77.9640    24.8530    35.8050    29.1600    37.8170     2.3760 
  213.3750   -31.1220    76.0560    24.8510    40.2040    34.9340    43.4470     2.3460 
  213.5000   -31.3230    72.7770    24.8510    36.9110    38.7360    46.3960     2.3190 
  213.6250   -31.5640    70.8310    24.8530    34.8830    40.1330    47.0330     2.3040 
  213.7500   -31.7900    72.0020    24.8530    30.1730    40.9090    47.7710     2.2970 
  213.8750   -32.0110    73.9480    24.8520    37.5300    42.5180    50.2410     2.2900 
  214.0000   -32.2200    73.5460    24.8510    54.8390    45.9200    55.3350     2.2760 
  214.1250   -32.4470    72.2010    24.8500    65.2930    51.9650    63.9270     2.2550 
  214.2500   -32.6500    72.5270    24.8490    63.6740    60.5380    75.7290     2.2330 
  214.3750   -32.8530    72.3500    24.8470    64.2490    71.9470    91.0430     2.2150 
  214.5000   -33.0380    69.7030    24.8460    80.5370    86.6130   110.3340     2.2030 
  214.6250   -33.2130    68.0970    24.8470   110.0610   105.6510   135.1160     2.1970 
  214.7500   -33.3670    69.7450    24.8480   138.5750   128.5610   165.1060     2.1960 
  214.8750   -33.5120    71.6560    24.8480   173.3330   154.1910   199.0320     2.1980 
  215.0000   -33.6660    69.5530    24.8480   211.4730   179.7330   232.7500     2.1990 
  215.1250   -33.8370    65.7120    24.8370   234.0670   200.8000   259.1590     2.1980 
  215.2500   -34.0410    65.0620    24.8750   227.2800   216.0580   276.4420     2.1970 
  215.3750   -34.2680    67.0820    25.0400   205.2820   225.9760   285.8760     2.1970 
