~V
VERS. 2.00: Ver 2.00
~W
STRT.M 61.0000:
STOP.M 247.0000:
STEP.M 0.1250:
NULL. -999.2500:
UWI. DF5042:
~C
DEPT.M :
SP.MV :
GR.API :
CALI.CM :
RXO.OHMM :
RI. :
RML.OHMM :
DEN.GM/CC :
~A
   61.0000     6.7010    56.4400    24.6460     0.6920     0.1040     0.2630     2.3720 
   61.1250     5.7920    55.2710    24.6430     0.6990     0.0820     0.1960     2.3540 
   61.2500     5.0020    53.9670    24.6430     0.7130     0.0720     0.1690     2.3210 
   61.3750     4.0750    53.2430    24.6400     0.8000     0.0750     0.1720     2.2810 
   61.5000     3.1170    56.3720    24.5630     1.1670     0.1090     0.2110     2.2430 
   61.6250     2.2810    65.1080    24.3170     2.8910     0.2370     0.3500     2.2070 
   61.7500     1.4140    71.2430    24.0240     4.9570     0.5320     0.6920     2.1740 
   61.8750     0.5190    72.6900    23.8390     6.2260     1.0840     1.3870     2.1520 
   62.0000    -0.4240    73.3300    23.8110     6.5210     1.9260     2.4740     2.1320 
   62.1250    -1.5590    75.3490    23.8450     6.5230     2.9920     3.6430     2.1170 
   62.2500    -2.8990    75.5610    23.8620     6.6010     4.1240     4.5810     2.1090 
   62.3750    -4.3190    72.5600    23.8920     6.7810     5.3280     5.4200     2.1090 
   62.5000    -6.0220    68.8150    23.9740     7.2390     6.6670     6.4040     2.1230 
   62.6250    -7.8290    67.9540    24.1580     9.0640     8.0900     7.6340     2.1540 
   62.7500    -9.6820    69.3470    24.4370    13.8880     9.2510     8.7630     2.1940 
   62.8750   -11.4920    71.3810    24.7220    18.9630     9.7420     9.2640     2.2200 
   63.0000   -13.1470    72.4530    24.8610    17.9950     9.3960     8.8740     2.2150 
   63.1250   -14.8080    72.5450    24.7930    11.0730     8.4680     7.9620     2.1840 
   63.2500   -16.3360    72.2400    24.7060     7.7580     7.5370     7.1770     2.1440 
   63.3750   -17.5500    72.1090    24.7040     7.3040     6.8540     6.7240     2.1160 
   63.5000   -18.5300    72.4490    24.7510     7.3430     6.4940     6.6140     2.1040 
   63.6250   -19.4410    73.2300    24.7700     7.3250     6.4490     6.7770     2.1020 
   63.7500   -20.3330    73.6810    24.7550     7.2820     6.5480     7.0170     2.1040 
   63.8750   -21.1000    74.2140    24.7420     7.3190     6.6810     7.2110     2.1060 
   64.0000   -21.8940    76.1190    24.7630     7.4910     6.7840     7.3150     2.1060 
   64.1250   -22.5090    78.5160    24.8190     7.6160     6.8360     7.3470     2.1040 
   64.2500   -22.9910    77.4900    24.8660     7.6680     6.8580     7.3680     2.1020 
   64.3750   -23.5580    75.3510    24.8820     7.6810     6.8730     7.4130     2.1010 
   64.5000   -24.0750    76.8520    24.8810     7.7020     6.9000     7.4940     2.1020 
   64.6250   -24.4670    80.2180    24.8840     7.7600     6.9510     7.6080     2.1060 
   64.7500   -24.6710    79.3450    24.9020     7.8630     7.0130     7.7250     2.1120 
   64.8750   -24.7480    76.2940    24.9350     8.0000     7.0710     7.8190     2.1160 
   65.0000   -24.8510    76.4030    24.9740     8.1500     7.1080     7.8750     2.1170 
   65.1250   -25.0250    79.3690    24.9970     8.1810     7.1130     7.8920     2.1150 
   65.2500   -25.1900    80.5430    25.0040     8.1240     7.1000     7.8950     2.1120 
   65.3750   -25.2780    80.3410    25.0030     8.0400     7.0800     7.9010     2.1090 
   65.5000   -25.3460    80.5520    25.0020     7.9930     7.0550     7.9050     2.1070 
   65.6250   -25.3970    80.6450    25.0020     7.9660     7.0090     7.8780     2.1080 
   65.7500   -25.5410    80.1490    24.9990     7.9420     6.9230     7.7910     2.1130 
   65.8750   -25.7790    78.3750    25.0020     7.8200     6.7920     7.6370     2.1240 
   66.0000   -25.8560    75.7420    25.0210     7.4600     6.6330     7.4430     2.1370 
   66.1250   -25.8820    74.5600    25.0490     6.9110     6.4870     7.2670     2.1470 
   66.2500   -25.9720    75.8470    25.0470     6.8560     6.3840     7.1520     2.1500 
   66.3750   -26.0770    77.9110    24.9910     7.3600     6.3360     7.1070     2.1440 
   66.5000   -26.1670    77.6740    24.8970     7.8020     6.3280     7.1110     2.1320 
   66.6250   -26.2640    74.9990    24.8030     7.6760     6.3330     7.1250     2.1200 
   66.7500   -26.3050    73.2620    24.7290     7.5520     6.3240     7.1190     2.1110 
   66.8750   -26.3580    73.1350    24.6760     7.3760     6.2980     7.0960     2.1080 
   67.0000   -26.4770    74.4190    24.6370     7.0680     6.2640     7.0700     2.1120 
   67.1250   -26.5720    75.9930    24.5560     6.7180     6.2350     7.0470     2.1180 
   67.2500   -26.5930    76.4360    24.3790     6.5500     6.1980     7.0010     2.1240 
   67.3750   -26.6200    76.1500    24.1370     6.6900     6.1260     6.9020     2.1280 
   67.5000   -26.5610    76.2010    23.9420     6.9510     6.0070     6.7520     2.1320 
   67.6250   -26.5110    75.4210    23.9070     6.9960     5.8630     6.6050     2.1410 
   67.7500   -26.4690    73.9800    24.0530     6.6540     5.7440     6.5220     2.1570 
   67.8750   -26.4740    76.6900    24.3670     6.0220     5.6790     6.5240     2.1750 
   68.0000   -26.4240    84.5370    24.7330     5.6690     5.6730     6.5910     2.1890 
   68.1250   -26.3820    90.5080    24.9940     5.9980     5.7010     6.6710     2.1970 
   68.2500   -26.3780    91.3940    25.1900     6.1120     5.7160     6.7070     2.1990 
   68.3750   -26.4130    90.9700    25.4000     5.9110     5.6990     6.6900     2.2000 
   68.5000   -26.4860    92.4830    25.5910     5.7820     5.6580     6.6500     2.2050 
   68.6250   -26.5620    94.0910    25.6680     5.8390     5.6360     6.6530     2.2150 
   68.7500   -26.6340    95.3210    25.6560     5.8740     5.6700     6.7360     2.2260 
   68.8750   -26.6510    95.5830    25.5520     6.1350     5.7770     6.9020     2.2280 
   69.0000   -26.6920    93.0640    25.3570     6.5340     5.9420     7.1170     2.2170 
   69.1250   -26.7210    87.3420    25.1630     6.9930     6.1180     7.3140     2.1940 
   69.2500   -26.7360    82.8290    25.0560     7.2790     6.2550     7.4440     2.1680 
   69.3750   -26.7550    81.5240    25.0200     7.4790     6.3300     7.4930     2.1480 
   69.5000   -26.8720    82.1150    25.0060     7.5340     6.3470     7.4770     2.1360 
   69.6250   -27.0110    81.3900    24.9970     7.4420     6.3250     7.4280     2.1280 
   69.7500   -27.1720    79.3630    24.9860     7.4070     6.3060     7.3910     2.1240 
   69.8750   -27.4320    79.1650    24.9650     7.4710     6.3130     7.3940     2.1220 
   70.0000   -27.6740    79.2590    24.9470     7.6820     6.3580     7.4480     2.1240 
   70.1250   -27.8980    76.5010    24.9420     7.8500     6.4360     7.5440     2.1280 
   70.2500   -28.1410    73.7290    24.9430     7.9370     6.5050     7.6230     2.1330 
   70.3750   -28.3830    75.1680    24.9430     7.9270     6.5110     7.6150     2.1360 
   70.5000   -28.5570    78.6590    24.9430     7.8760     6.3960     7.4550     2.1390 
   70.6250   -28.7190    76.1650    24.9410     7.6800     6.1150     7.1050     2.1460 
   70.7500   -28.8800    71.8580    24.9600     7.2890     5.7300     6.6560     2.1590 
   70.8750   -28.9440    73.7440    25.0620     6.4010     5.3150     6.1980     2.1810 
   71.0000   -28.9990    82.8840    25.2590     5.3650     4.9480     5.8230     2.2080 
   71.1250   -28.9630    94.1900    25.4440     4.9530     4.7140     5.6280     2.2340 
   71.2500   -28.8670   100.6390    25.5020     4.9680     4.6260     5.6070     2.2500 
   71.3750   -28.6940   102.1270    25.4470     4.9070     4.6860     5.7380     2.2470 
   71.5000   -28.4750   102.1370    25.3360     4.9830     4.8680     5.9720     2.2320 
   71.6250   -28.2000   100.0350    25.1970     5.5250     5.1310     6.2320     2.2110 
   71.7500   -27.8890    93.5870    25.0730     6.2750     5.3940     6.4420     2.1910 
   71.8750   -27.6210    84.6180    25.0070     6.7840     5.6130     6.5760     2.1740 
   72.0000   -27.3890    78.1100    24.9940     6.8580     5.7800     6.6500     2.1590 
   72.1250   -27.2820    76.1170    24.9820     6.7900     5.9070     6.6970     2.1470 
