~V
VERS. 2.00: Ver 2.00
~W
STRT.M 61.0000:
STOP.M 236.0000:
STEP.M 0.1250:
NULL. -999.2500:
UWI. DF5057:
~C
DEPT.M :
GR.API :
RML.OHMM :
RI. :
RXO.OHMM :
CALI.CM :
DEN.GM/CC :
SP.MV :
~A
# ...
  128.5000    74.3100    10.9140     9.4100    10.4070    24.6100     2.1150    -8.6760 
  128.6250    76.9610    10.2740     8.8300     9.4480    24.6420     2.1200    -8.6850 
  128.7500    81.6340     9.3080     8.0630     8.3210    24.7270     2.1360    -8.5700 
  128.8750    88.8690     8.1300     7.1670     7.0490    24.8900     2.1610    -8.3440 
  129.0000    97.2670     6.9890     6.2910     5.4880    25.1320     2.1880    -8.0750 
  129.1250   101.5720     6.1560     5.6140     4.9750    25.2780     2.2110    -7.7810 
  129.2500   101.8430     5.6630     5.1730     4.7760    25.1680     2.2300    -7.4590 
  129.3750   100.5170     5.4640     4.9540     4.7500    24.9240     2.2450    -7.1710 
  129.5000    99.4980     5.4520     4.8990     4.6590    24.8020     2.2610    -6.9640 
  129.6250   100.4500     5.4870     4.9170     4.4690    24.7810     2.2760    -6.8790 
  129.7500   101.4860     5.4360     4.8950     4.5000    24.6550     2.2890    -6.8750 
  129.8750   101.4820     5.2450     4.7750     4.5990    24.6110     2.3030    -6.8960 
  130.0000   101.9260     4.9180     4.5460     4.5260    24.7050     2.3200    -6.8600 
  130.1250   106.2480     4.5050     4.2400     4.0580    24.8300     2.3430    -6.7390 
  130.2500   111.1090     4.1140     3.9380     3.7450    24.8050     2.3670    -6.6140 
  130.3750   110.3960     3.8310     3.7030     3.5530    24.8130     2.3860    -6.4600 
  130.5000   107.1420     3.7160     3.5820     3.5300    25.0010     2.3930    -6.2760 
  130.6250   109.0940     3.8050     3.6170     3.4960    25.2480     2.3860    -6.0630 
  130.7500   111.8100     4.0230     3.7640     3.6860    25.3520     2.3720    -5.8350 
  130.8750   107.2130     4.3040     3.9830     4.2650    25.3370     2.3570    -5.6590 
  131.0000    96.0350     4.5930     4.2270     4.8760    25.3110     2.3450    -5.5600 
  131.1250    89.4230     4.8710     4.4630     4.8290    25.2290     2.3360    -5.5860 
  131.2500    89.9830     5.1550     4.6890     4.6920    25.1000     2.3260    -5.7120 
  131.3750    91.4360     5.4320     4.8990     4.9040    25.0180     2.3120    -5.9030 
  131.5000    87.7550     5.6190     5.0450     5.4750    24.9210     2.2950    -6.0870 
  131.6250    81.9930     5.5640     5.0240     6.1090    25.0030     2.2800    -6.1890 
  131.7500    81.6450     5.3000     4.8550     6.3900    25.2500     2.2720    -6.2620 
  131.8750    87.9760     4.9960     4.6440     6.2130    25.5000     2.2730    -6.3220 
  132.0000    96.9980     4.9280     4.5600     5.2250    25.6230     2.2760    -6.3910 
  132.1250   100.8880     5.4750     4.8310     4.8340    25.6330     2.2670    -6.3680 
  132.2500    96.6430     6.6550     5.5090     5.9270    25.6530     2.2400    -6.2360 
  132.3750    86.5890     8.2730     6.5530     9.6500    25.7200     2.2020    -6.0700 
  132.5000    77.9770     9.7970     7.6910    13.5290    25.7400     2.1700    -5.8980 
  132.6250    76.7390    10.2580     8.2460    13.2800    25.7500     2.1640    -5.7650 
  132.7500    79.4230     9.4930     7.9340    10.6350    25.7810     2.1830    -5.6430 
  132.8750    83.7120     8.0460     7.0620     8.2810    25.7960     2.2170    -5.5220 
  133.0000    88.9700     6.7490     6.1860     7.2870    25.7580     2.2530    -5.3830 
  133.1250    93.8090     6.3070     5.7760     6.3650    25.6900     2.2850    -5.2370 
  133.2500    92.2900     6.7210     5.9070     6.5130    25.6400     2.3180    -5.1080 
  133.3750    83.1710     7.8560     6.5820     9.2210    25.5970     2.3540    -4.9700 
  133.5000    71.5810     9.4460     7.7260    13.8230    25.5390     2.3950    -4.8440 
  133.6250    64.6520    11.0760     9.1540    15.3760    25.4930     2.4370    -4.7560 
  133.7500    62.2240    12.3520    10.4880    15.8940    25.3680     2.4730    -4.7040 
  133.8750    61.5240    13.1390    11.4900    16.9650    25.2610     2.5010    -4.6910 
  134.0000    61.4940    13.5000    12.0920    15.4180    25.2230     2.5200    -4.6670 
  134.1250    59.7990    13.5230    12.3060    16.1030    25.2500     2.5290    -4.6710 
  134.2500    57.2900    13.3040    12.2430    16.0570    25.2680     2.5360    -4.6870 
  134.3750    55.5540    12.8590    11.9330    15.7370    25.2050     2.5420    -4.6940 
  134.5000    54.8820    12.2800    11.4620    14.0630    25.0950     2.5500    -4.7130 
  134.6250    54.6120    11.7850    10.9970    12.6400    25.0270     2.5550    -4.7500 
  134.7500    54.3840    11.5430    10.6890    12.1920    25.0330     2.5540    -4.7730 
  134.8750    54.6760    11.6160    10.6060    13.8690    25.0300     2.5450    -4.7360 
  135.0000    53.6280    11.9600    10.7500    14.0840    24.9680     2.5280    -4.7070 
  135.1250    52.3060    12.4550    11.0810    14.3040    25.0340     2.5050    -4.7080 
  135.2500    54.5680    12.9280    11.4700    14.0110    25.1840     2.4850    -4.6780 
  135.3750    59.7170    13.2920    11.8330    14.3850    25.2390     2.4750    -4.6350 
  135.5000    64.0710    13.5250    12.1130    14.6500    25.2160     2.4770    -4.5980 
  135.6250    63.9460    13.6290    12.2740    15.0610    25.2480     2.4880    -4.5940 
  135.7500    62.5910    13.6360    12.3360    14.8490    25.3460     2.4990    -4.6520 
  135.8750    62.9430    13.5270    12.3020    14.4110    25.3910     2.5030    -4.7540 
  136.0000    64.4200    13.3030    12.1750    14.2570    25.3460     2.4970    -4.8440 
  136.1250    64.4260    13.0120    11.9740    13.8070    25.3370     2.4800    -4.9350 
  136.2500    64.2820    12.7350    11.7480    13.2030    25.3180     2.4560    -5.0910 
  136.3750    64.3620    12.4840    11.5150    12.8870    25.3250     2.4290    -5.2680 
  136.5000    63.7500    12.1990    11.2580    12.5940    25.2700     2.4060    -5.3940 
  136.6250    62.8170    11.7470    10.9160    12.3490    25.2530     2.3990    -5.4140 
  136.7500    65.4880    11.1120    10.4660    11.7170    25.1420     2.4100    -5.3480 
  136.8750    70.9300    10.3820     9.9440    10.9430    25.0300     2.4310    -5.2570 
  137.0000    73.3140     9.7200     9.4450    10.3540    25.0000     2.4510    -5.1880 
  137.1250    70.8220     9.3700     9.1400     9.6300    25.0530     2.4560    -5.0760 
  137.2500    68.6890     9.4130     9.1090     9.0940    25.0460     2.4460    -4.8960 
  137.3750    67.3340     9.8340     9.3670     9.7020    25.0010     2.4290    -4.6640 
  137.5000    65.7660    10.4790     9.8330    11.3510    24.9440     2.4180    -4.4550 
  137.6250    65.7820    11.0070    10.2740    13.5290    24.9580     2.4220    -4.3330 
  137.7500    67.7120    11.1010    10.4050    14.4780    24.9910     2.4330    -4.2970 
  137.8750    68.2550    10.6460    10.0930    13.8350    25.0170     2.4440    -4.2960 
  138.0000    65.8680     9.7990     9.4320    11.4350    25.0220     2.4480    -4.2600 
  138.1250    65.9010     8.9450     8.7180    10.1180    25.0980     2.4440    -4.2360 
  138.2500    69.4960     8.4090     8.2240     9.2170    25.1750     2.4420    -4.2400 
  138.3750    73.1370     8.2900     8.0440     8.9450    25.1680     2.4460    -4.2790 
  138.5000    73.9590     8.5230     8.1560     9.7100    25.0720     2.4570    -4.3120 
  138.6250    72.3910     8.9290     8.4550    10.7610    25.0990     2.4670    -4.2840 
  138.7500    70.1150     9.2530     8.7410    11.6060    25.1870     2.4670    -4.2290 
  138.8750    67.4420     9.3720     8.8950    11.0580    25.1740     2.4540    -4.1640 
  139.0000    64.0650     9.2910     8.8890     9.6260    25.1020     2.4330    -4.0940 
  139.1250    61.6280     9.1100     8.7690     9.4860    25.0560     2.4140    -4.0280 
  139.2500    60.1670     8.9510     8.6300    10.0660    25.1220     2.4060    -3.9940 
  139.3750    59.0780     8.8400     8.5030    10.2810    25.2330     2.4110    -3.9900 
  139.5000    58.4190     8.7410     8.3780    10.1610    25.3460     2.4260    -4.0370 
  139.6250    59.3000     8.6000     8.2210     9.7070    25.3730     2.4410    -4.1360 
