~V
VERS. 2.00: Ver 2.00
~W
STRT.M 61.0000:
STOP.M 267.0000:
STEP.M 0.1250:
NULL. -999.2500:
UWI. DF5036:
~C
DEPT.M :
SP.MV :
GR.API :
RML.OHMM :
RI. :
RXO.OHMM :
CALI.CM :
DEN.GM/CC :
~A
# ...
  173.5000   -20.2770    66.4960    87.2940    82.1930    63.0290    24.4120     2.2330 
  173.6250   -20.1930    69.9680    83.5020    76.9360    60.1670    24.4160     2.2450 
  173.7500   -20.0930    66.7300    86.8770    78.7810    70.2770    24.5160     2.2450 
  173.8750   -19.9110    61.9910    96.6100    86.9710    85.8640    24.5680     2.2330 
  174.0000   -19.7140    59.7750   111.9870   100.7730    98.0030    24.6210     2.2140 
  174.1250   -19.5790    58.3200   132.4320   119.6580   104.0600    24.7950     2.1930 
  174.2500   -19.4200    55.2780   154.9960   140.7490   115.8990    25.0120     2.1760 
  174.3750   -19.2340    51.7420   177.3490   161.7060   126.4810    25.1000     2.1670 
  174.5000   -19.0660    50.7900   197.9270   180.7530   132.3750    25.1090     2.1660 
  174.6250   -18.8930    54.1240   216.2870   197.0330   130.9430    25.1290     2.1710 
  174.7500   -18.7140    57.8960   233.0270   211.3340   128.3570    25.1450     2.1750 
  174.8750   -18.5310    60.1830   246.7410   223.1440   123.6520    25.1140     2.1760 
  175.0000   -18.3320    59.9250   253.1320   229.7310   114.4820    25.0250     2.1750 
  175.1250   -18.1290    57.0650   242.2150   223.3040   103.3660    24.9640     2.1760 
  175.2500   -17.9590    53.9140   211.7210   200.7330    92.7470    24.9880     2.1840 
  175.3750   -17.7980    53.8230   166.5690   163.9220    80.7510    24.9670     2.2040 
  175.5000   -17.6290    58.0780   120.0170   122.1330    65.1040    24.8540     2.2330 
  175.6250   -17.4680    62.2610    86.9410    88.7320    47.1150    24.7190     2.2630 
  175.7500   -17.3290    64.8810    67.8330    67.6610    32.0720    24.6240     2.2820 
  175.8750   -17.2170    67.3570    59.2050    57.2980    25.0790    24.5530     2.2840 
  176.0000   -17.1330    69.0400    56.9920    54.1300    26.8790    24.4870     2.2730 
  176.1250   -17.0610    69.6090    57.9140    54.9200    36.7750    24.4360     2.2590 
  176.2500   -16.9860    68.4560    58.8730    56.2740    49.3510    24.3730     2.2500 
  176.3750   -16.9200    66.4260    58.5750    56.6840    59.9100    24.3090     2.2500 
  176.5000   -16.9000    65.8780    56.7670    55.5970    62.4720    24.2580     2.2550 
  176.6250   -16.8840    67.3640    54.2290    53.4100    58.9170    24.1740     2.2610 
  176.7500   -16.8470    68.8850    52.3910    51.4790    52.3750    24.0550     2.2640 
  176.8750   -16.8240    67.9990    52.0500    50.6810    47.4810    23.9930     2.2620 
  177.0000   -16.8500    65.9210    53.3900    51.3590    48.1520    23.9900     2.2590 
  177.1250   -16.9030    66.1900    56.2320    53.4940    54.5370    23.9670     2.2570 
  177.2500   -16.9350    67.5120    59.7240    56.3390    59.5090    23.8870     2.2570 
  177.3750   -16.9890    69.2130    63.3580    59.4100    61.2140    23.8210     2.2580 
  177.5000   -17.1050    69.9130    66.7880    62.3550    61.0120    23.9030     2.2580 
  177.6250   -17.2230    69.3910    69.7680    64.8960    61.7100    24.0200     2.2560 
  177.7500   -17.3090    70.4130    72.3150    67.0140    63.6970    24.0960     2.2510 
  177.8750   -17.4120    71.4940    74.4340    68.7060    66.5050    24.1470     2.2460 
  178.0000   -17.5370    71.6850    76.1560    70.0160    68.6420    24.1670     2.2420 
  178.1250   -17.6300    70.3730    77.5640    71.0260    69.2330    24.1370     2.2410 
  178.2500   -17.7100    68.4470    78.9300    71.9800    68.2450    24.0900     2.2440 
  178.3750   -17.7950    67.2880    80.4430    73.0420    67.0290    24.0420     2.2500 
  178.5000   -17.8530    68.2820    82.1500    74.2700    67.0920    24.0160     2.2560 
  178.6250   -17.8770    72.7530    83.8150    75.5010    68.7780    23.9990     2.2600 
  178.7500   -17.9190    76.9670    85.0160    76.3850    70.3380    23.9530     2.2580 
  178.8750   -17.9480    77.4170    85.4150    76.6290    71.0440    23.8500     2.2510 
  179.0000   -17.9550    74.2280    84.9340    76.1320    70.3270    23.6980     2.2380 
  179.1250   -17.9140    70.8860    83.8080    75.0640    68.9050    23.5860     2.2240 
  179.2500   -17.8480    70.3370    82.6720    73.9700    67.9080    23.5490     2.2160 
  179.3750   -17.7960    72.8520    81.8760    73.1840    67.2920    23.5510     2.2190 
  179.5000   -17.7280    76.0970    81.5340    72.8290    67.3310    23.5590     2.2340 
  179.6250   -17.6380    75.9930    81.6820    72.9500    67.8250    23.5190     2.2530 
  179.7500   -17.5870    73.7170    82.2880    73.4870    68.6710    23.4610     2.2680 
  179.8750   -17.5640    71.8070    83.5300    74.5670    69.2140    23.3980     2.2700 
  180.0000   -17.5440    69.8710    85.6310    76.3700    69.6010    23.3620     2.2620 
  180.1250   -17.5600    66.1260    88.8810    79.1510    69.8330    23.3730     2.2470 
  180.2500   -17.6100    62.3310    92.9990    82.7000    72.2390    23.4320     2.2350 
  180.3750   -17.7020    62.1600    97.6900    86.7920    77.2310    23.5190     2.2280 
  180.5000   -17.8050    64.5940   102.5840    91.1240    81.2310    23.6120     2.2260 
  180.6250   -17.9080    66.3540   107.2940    95.3740    85.2830    23.7030     2.2280 
  180.7500   -18.0060    67.4350   111.5840    99.3320    88.0120    23.7980     2.2320 
  180.8750   -18.1080    67.9570   115.1820   102.7990    90.0080    23.8880     2.2370 
  181.0000   -18.2190    66.6780   117.5940   105.4040    90.2780    23.9410     2.2420 
  181.1250   -18.3050    62.3840   117.6340   106.1870    89.1740    23.9390     2.2450 
  181.2500   -18.3740    59.8640   114.9820   104.7580    87.7540    23.8760     2.2490 
  181.3750   -18.4050    61.3180   109.8550   101.1220    85.7390    23.8340     2.2550 
  181.5000   -18.4490    63.4790   103.3820    96.0690    80.4080    23.8440     2.2610 
  181.6250   -18.5070    64.8120    97.3540    91.0450    73.2590    23.8730     2.2650 
  181.7500   -18.5280    68.1350    92.7620    87.1160    67.3110    23.8100     2.2630 
  181.8750   -18.5400    73.2440    89.4860    84.3750    64.8670    23.6700     2.2570 
  182.0000   -18.5520    76.1080    86.7510    82.2530    66.5120    23.4700     2.2510 
  182.1250   -18.5640    73.3950    83.5720    79.8450    65.7080    23.2660     2.2510 
  182.2500   -18.5760    69.5110    79.7200    76.7590    62.5590    23.1400     2.2590 
  182.3750   -18.6010    68.3360    75.6290    73.2410    57.0450    23.0930     2.2720 
  182.5000   -18.6360    70.9920    72.0500    69.9240    53.8690    23.0840     2.2850 
  182.6250   -18.6770    73.1860    69.9430    67.7170    52.9160    23.0840     2.2900 
  182.7500   -18.7540    72.0720    69.4910    66.9470    54.5900    23.0870     2.2870 
  182.8750   -18.8640    69.4570    70.8440    67.8420    58.2640    23.1050     2.2800 
  183.0000   -18.9890    69.8840    74.1620    70.5960    63.6170    23.1510     2.2730 
  183.1250   -19.1520    74.7730    80.0690    75.8370    68.8390    23.2310     2.2670 
  183.2500   -19.3510    78.4020    88.4420    83.4640    75.4230    23.3780     2.2610 
  183.3750   -19.5780    77.0230    99.3640    93.5560    83.5710    23.6120     2.2530 
  183.5000   -19.8170    71.8310   112.6990   105.9730    96.8140    23.8580     2.2430 
  183.6250   -20.0660    67.2900   128.1410   120.4240   115.6530    24.0320     2.2320 
  183.7500   -20.3110    64.6200   144.0910   135.4650   132.9160    24.1500     2.2230 
  183.8750   -20.5520    61.5260   158.6330   149.4390   148.0700    24.2400     2.2170 
  184.0000   -20.7990    58.8950   169.2120   160.1300   157.4410    24.3590     2.2150 
  184.1250   -21.0470    58.5020   171.7690   163.9080   161.0980    24.4220     2.2170 
  184.2500   -21.2800    59.2100   166.0180   160.2330   154.8050    24.4440     2.2210 
  184.3750   -21.4770    59.1300   153.0660   149.7100   142.8710    24.4090     2.2270 
  184.5000   -21.6890    59.2020   135.9450   134.6990   127.8400    24.3170     2.2350 
  184.6250   -21.9340    62.7490   118.9070   118.8330   108.0450    24.1730     2.2460 
