~V
VERS. 2.00: Ver 2.00
~W
STRT.M 59.0000:
STOP.M 264.0000:
STEP.M 0.1250:
NULL. -999.2500:
UWI. DF5022:
~C
DEPT.M :
GR.API :
CALI.CM :
RXO.OHMM :
RI. :
RML.OHMM :
SP.MV :
DEN.GM/CC :
~A
# ...
  149.0000    91.7890    24.3810     3.8880     4.3930     4.5680   -28.3160     2.3380 
  149.1250    96.3840    24.3810     3.7070     4.3350     4.6400   -28.3860     2.3520 
  149.2500    97.9280    24.3810     3.8570     4.5870     5.0740   -28.5020     2.3700 
  149.3750    94.7220    24.3810     4.9830     5.1260     5.8020   -28.6910     2.4070 
  149.5000    88.5890    24.3810     8.4710     5.8360     6.6320   -28.8290     2.4530 
  149.6250    83.5380    24.3810    11.0250     6.4310     7.1680   -28.9600     2.4750 
  149.7500    82.2430    24.3810     9.6980     6.6520     7.1970   -29.0420     2.4600 
  149.8750    83.5280    24.3810     6.6680     6.4790     6.8070   -29.1150     2.4190 
  150.0000    85.4980    24.3810     5.3180     6.1170     6.3040   -29.2310     2.3770 
  150.1250    85.0130    24.3810     4.9240     5.8730     6.0610   -29.3440     2.3580 
  150.2500    81.7750    24.3810     5.2260     5.9310     6.2390   -29.4170     2.3660 
  150.3750    77.5030    24.3820     6.2740     6.3730     6.8940   -29.4540     2.4010 
  150.5000    74.1070    24.3800     7.6230     7.2200     8.0130   -29.3960     2.4590 
  150.6250    70.7480    24.3820     9.5320     8.5020     9.6070   -29.3230     2.5250 
  150.7500    67.5690    24.3990    10.8520    10.0790    11.5280   -29.2620     2.5750 
  150.8750    63.5060    24.4310    12.4650    11.8600    13.6810   -29.1960     2.6020 
  151.0000    58.3770    24.4600    14.9470    13.7430    15.9450   -29.1880     2.6160 
  151.1250    52.7540    24.4680    17.1950    15.6270    18.1690   -29.1960     2.6330 
  151.2500    48.3880    24.4670    19.1040    17.3980    20.1950   -29.1670     2.6510 
  151.3750    44.8860    24.4670    21.2650    18.9040    21.8420   -29.1560     2.6640 
  151.5000    41.0900    24.4670    22.8670    19.9710    22.9320   -29.2430     2.6640 
  151.6250    38.6420    24.4670    23.8960    20.3980    23.2860   -29.3610     2.6520 
  151.7500    39.2870    24.4670    24.2550    20.3530    23.1340   -29.4900     2.6310 
  151.8750    42.1850    24.4670    21.9100    20.0370    22.7240   -29.6020     2.6100 
  152.0000    45.0420    24.4670    19.4530    19.6810    22.3320   -29.6640     2.5940 
  152.1250    45.0490    24.4670    18.9360    19.5120    22.2310   -29.6290     2.5870 
  152.2500    44.3140    24.4690    19.8690    19.5680    22.4210   -29.6890     2.5840 
  152.3750    44.5660    24.4720    19.8960    19.7790    22.7670   -29.7120     2.5820 
  152.5000    45.7490    24.4750    20.4460    20.0150    23.0620   -29.7620     2.5820 
  152.6250    45.9200    24.4790    21.4750    20.1230    23.0790   -29.6900     2.5820 
  152.7500    44.1070    24.4830    21.3930    20.0830    22.8530   -29.5910     2.5810 
  152.8750    41.5430    24.4860    20.0900    19.9690    22.5450   -29.4550     2.5770 
  153.0000    40.0660    24.4860    18.9400    19.9180    22.3810   -29.3590     2.5710 
  153.1250    40.9390    24.4830    20.5160    20.1040    22.6050   -29.2920     2.5680 
  153.2500    42.4520    24.4820    22.4710    20.5610    23.2320   -29.2280     2.5750 
  153.3750    42.6240    24.4830    23.6480    21.2780    24.2190   -29.1370     2.5850 
  153.5000    42.5290    24.4840    24.3340    22.1820    25.4130   -29.0300     2.5860 
  153.6250    43.7310    24.4840    27.6280    23.1120    26.5120   -28.9890     2.5760 
  153.7500    45.8920    24.4840    30.4560    23.8750    27.2530   -29.0090     2.5690 
  153.8750    47.3870    24.4840    31.9050    24.3650    27.5370   -29.0790     2.5680 
  154.0000    47.3550    24.4840    31.6820    24.5510    27.4160   -29.1340     2.5710 
  154.1250    45.9290    24.4840    28.6140    24.4110    26.9950   -29.1700     2.5720 
  154.2500    45.1270    24.4840    25.1430    24.0440    26.4230   -29.2010     2.5700 
  154.3750    46.0150    24.4840    23.2820    23.4640    25.6650   -29.2130     2.5660 
  154.5000    47.6350    24.4840    22.7810    22.6360    24.6220   -29.2740     2.5620 
  154.6250    48.7450    24.4840    22.6660    21.5160    23.2240   -29.2630     2.5570 
  154.7500    49.5820    24.4840    21.1540    20.2610    21.6840   -29.1790     2.5430 
  154.8750    50.2190    24.4840    19.4570    19.0440    20.2370   -29.0730     2.5220 
  155.0000    50.9200    24.4840    18.2930    18.0450    19.1160   -29.0060     2.5060 
  155.1250    51.8200    24.4840    16.7110    17.4840    18.5770   -28.9930     2.5050 
  155.2500    52.6770    24.4840    16.3500    17.3510    18.5670   -28.9540     2.5120 
  155.3750    53.4910    24.4840    17.4950    17.5900    18.9790   -28.9280     2.5140 
  155.5000    54.8100    24.4840    18.6930    18.0750    19.6460   -28.8230     2.5090 
  155.6250    57.6440    24.4840    20.2240    18.6340    20.3360   -28.7950     2.4990 
  155.7500    60.9940    24.4840    20.9090    19.0920    20.8400   -28.8440     2.4920 
  155.8750    62.4080    24.4840    19.8630    19.3850    21.0800   -28.9380     2.4900 
  156.0000    60.0570    24.4840    18.4860    19.5340    21.0950   -28.9630     2.4960 
  156.1250    55.6970    24.4840    19.1590    19.5750    20.9640   -28.9870     2.5040 
  156.2500    52.4110    24.4840    19.0670    19.5370    20.7670   -28.9540     2.5140 
  156.3750    50.8750    24.4840    18.8690    19.3950    20.5040   -28.9200     2.5260 
  156.5000    51.3850    24.4840    18.5870    19.1200    20.1500   -28.8530     2.5340 
  156.6250    53.8110    24.4840    17.9270    18.6780    19.6440   -28.8120     2.5190 
  156.7500    55.4170    24.4840    16.8390    18.0910    18.9690   -28.7190     2.4900 
  156.8750    54.4270    24.4840    16.1330    17.3350    18.0870   -28.5980     2.4680 
  157.0000    52.8090    24.4840    15.4600    16.3950    16.9800   -28.4930     2.4670 
  157.1250    54.5420    24.4840    14.8720    15.2990    15.6980   -28.3920     2.4780 
  157.2500    57.3670    24.4840    14.0850    14.1930    14.4280   -28.2670     2.4810 
  157.3750    57.1300    24.4840    12.4470    13.2010    13.3220   -28.1840     2.4750 
  157.5000    53.8100    24.4840    10.9350    12.4180    12.4820   -28.1700     2.4740 
  157.6250    50.7270    24.4840    10.7470    11.9540    12.0140   -28.1770     2.4810 
  157.7500    48.7370    24.4840    11.3270    11.7900    11.8850   -28.2280     2.4850 
  157.8750    46.8190    24.4840    11.6410    11.9290    12.1030   -28.2870     2.4830 
  158.0000    45.9350    24.4820    11.0220    12.3530    12.6520   -28.3590     2.4840 
  158.1250    46.5450    24.4840    11.5440    13.0430    13.5160   -28.3680     2.4960 
  158.2500    46.9750    24.5050    13.4270    13.8540    14.5140   -28.4810     2.5160 
  158.3750    47.6820    24.5440    15.1620    14.6420    15.4560   -28.5710     2.5360 
  158.5000    49.6250    24.5780    15.9690    15.2400    16.1320   -28.6580     2.5500 
  158.6250    51.2880    24.5880    15.8650    15.4550    16.3330   -28.7230     2.5480 
  158.7500    52.0680    24.5870    15.7200    15.3440    16.1570   -28.7740     2.5350 
  158.8750    53.0480    24.5860    14.3100    15.0320    15.7620   -28.8470     2.5210 
  159.0000    54.0750    24.5860    13.6810    14.6830    15.3440   -28.8770     2.5150 
  159.1250    53.0600    24.5860    13.9210    14.4570    15.1010   -28.9840     2.5210 
  159.2500    50.7830    24.5890    14.2860    14.4050    15.0920   -29.0150     2.5390 
  159.3750    48.9060    24.6030    14.2950    14.5380    15.3210   -29.0540     2.5640 
  159.5000    48.1350    24.6240    14.5130    14.8180    15.7180   -29.0730     2.5880 
  159.6250    48.1850    24.6340    15.0620    15.1270    16.1020   -29.1030     2.6010 
  159.7500    48.8040    24.6270    15.6130    15.2670    16.2360   -29.1210     2.6040 
  159.8750    50.5120    24.5620    15.9740    15.0870    15.9680   -29.1030     2.5970 
  160.0000    52.7340    24.3820    15.2910    14.5570    15.2910   -29.1280     2.5790 
  160.1250    53.7660    24.1120    13.2640    13.8240    14.3960   -29.1530     2.5570 
