~V
VERS. 2.00: Ver 2.00
~W
STRT.M 55.0000:
STOP.M 262.0000:
STEP.M 0.1250:
NULL. -999.2500:
UWI. DF5047:
~C
DEPT.M :
GR.API :
CALI.CM :
RXO.OHMM :
RI. :
RML.OHMM :
DEN.GM/CC :
SP.MV :
~A
# ...
  212.5000    61.5710    22.6990    91.8490   106.7780   102.7140     2.1740   -33.0800 
  212.6250    62.7600    23.1210    83.9550   103.1720    98.8570     2.1690   -33.1090 
  212.7500    65.0960    23.5710    81.4550    98.0210    93.6090     2.1660   -33.0410 
  212.8750    66.9960    23.9600    82.7030    92.0070    87.6360     2.1660   -33.1550 
  213.0000    66.4350    24.2450    80.7060    85.7710    81.5780     2.1680   -33.2330 
  213.1250    64.4850    24.3810    69.7930    80.1100    76.2970     2.1720   -33.3410 
  213.2500    63.8500    24.3870    58.3570    75.7760    72.5470     2.1770   -33.4040 
  213.3750    63.6090    24.3280    53.2010    73.5310    71.0640     2.1820   -33.3430 
  213.5000    63.0230    24.2750    52.2530    73.9500    72.2980     2.1850   -33.3060 
  213.6250    63.4820    24.2250    54.5960    77.5610    76.4430     2.1840   -33.2470 
  213.7500    64.4710    24.2070    63.8880    82.9020    81.7370     2.1820   -33.3820 
  213.8750    64.5300    24.2790    80.2530    87.8880    85.9860     2.1790   -33.4130 
  214.0000    62.2480    24.4160    91.4640    89.9560    86.8490     2.1790   -33.3850 
  214.1250    59.6920    24.4960    88.0760    86.9340    82.7680     2.1810   -33.4840 
  214.2500    60.3280    24.4600    74.5460    80.8630    76.3220     2.1830   -33.4520 
  214.3750    63.9270    24.3270    58.5100    74.3950    70.2960     2.1850   -33.4890 
  214.5000    66.4900    24.1420    46.5660    69.9040    66.8580     2.1840   -33.4950 
  214.6250    65.9590    24.0000    42.9440    69.3250    67.5460     2.1790   -33.5440 
  214.7500    65.7610    23.9690    47.5940    72.1630    71.4160     2.1690   -33.6050 
  214.8750    66.7770    24.0270    55.7890    77.5500    77.3410     2.1590   -33.6890 
  215.0000    67.4130    24.1000    61.1050    83.9500    83.6770     2.1500   -33.6840 
  215.1250    66.1790    24.1400    65.0320    88.9770    88.1380     2.1470   -33.7060 
  215.2500    64.7430    24.1740    75.4560    91.2300    89.7790     2.1500   -33.8790 
  215.3750    64.7740    24.2350    86.6870    90.6250    88.8500     2.1580   -33.9800 
  215.5000    65.8740    24.3140    84.6680    88.1640    86.5420     2.1690   -34.1660 
  215.6250    64.0270    24.3820    72.2730    85.4640    84.5980     2.1800   -34.3690 
  215.7500    62.8660    24.4270    62.8670    84.0730    84.4210     2.1900   -34.5110 
  215.8750    66.2620    24.4570    61.9360    85.0090    86.9450     2.1970   -34.7070 
  216.0000    72.2590    24.4650    65.0680    89.0390    92.7940     2.2050   -34.9590 
  216.1250    74.1000    24.4680    74.6480    97.1100   102.6390     2.2130   -35.1440 
  216.2500    72.3280    24.5060    93.3240   108.0590   115.0030     2.2220   -35.1850 
  216.3750    70.9040    24.5770   118.5970   120.2280   127.9840     2.2260   -35.3770 
  216.5000    70.1780    24.6350   137.8890   131.2390   139.0340     2.2240   -35.7090 
  216.6250    68.0670    24.5340   142.8210   138.1820   145.2030     2.2140   -35.8950 
  216.7500    65.1540    24.2510   130.8470   141.0970   147.1430     2.2050   -36.0050 
  216.8750    63.2110    23.9130   112.4620   141.4640   146.8990     2.2010   -36.1330 
  217.0000    61.8550    23.7030   107.0150   141.7100   147.1250     2.2000   -36.2520 
  217.1250    59.5980    23.6930   111.8390   144.0050   149.7490     2.2020   -36.3960 
  217.2500    57.7430    23.7200   120.9820   147.4360   153.3030     2.2060   -36.6490 
  217.3750    57.1540    23.7150   125.2760   149.1950   154.5760     2.2140   -36.9520 
  217.5000    58.5660    23.6920   136.4700   146.0100   150.0420     2.2240   -37.0270 
  217.6250    61.2010    23.6760   139.4190   135.4440   137.4880     2.2340   -37.1660 
  217.7500    62.7510    23.6600   132.4580   120.8270   121.2100     2.2350   -37.3750 
  217.8750    62.9630    23.6670   105.8690   105.7080   105.2570     2.2260   -37.3690 
  218.0000    62.4600    23.7790    76.5890    92.7610    92.2320     2.2090   -37.4660 
  218.1250    62.9260    24.0270    60.4610    83.5700    83.4300     2.1920   -37.5330 
  218.2500    63.5270    24.2430    59.8360    77.4170    77.8060     2.1800   -37.4390 
  218.3750    63.7650    24.2960    58.8820    73.8300    74.7550     2.1720   -37.2160 
  218.5000    64.1890    24.2130    53.5010    72.3180    73.7060     2.1650   -36.9230 
  218.6250    64.6790    24.1390    48.9360    72.5910    74.3580     2.1550   -36.6560 
  218.7500    64.7490    24.1160    49.1140    73.9460    76.0330     2.1490   -36.3470 
  218.8750    63.7850    24.1280    54.8830    75.9270    78.2550     2.1510   -36.0600 
  219.0000    62.7450    24.1820    61.6690    77.8110    80.2840     2.1620   -35.7830 
  219.1250    64.0370    24.2890    62.2750    78.4950    81.0670     2.1730   -35.3020 
  219.2500    65.2670    24.3990    61.5160    77.7810    80.5300     2.1780   -34.8370 
  219.3750    64.7200    24.4810    63.8070    76.1250    79.2440     2.1750   -34.4630 
  219.5000    62.9370    24.5110    64.0500    74.4270    78.1710     2.1690   -34.1480 
  219.6250    61.6480    24.4700    57.7820    73.7980    78.3620     2.1670   -33.8810 
  219.7500    59.8260    24.4420    51.1960    74.3910    79.7500     2.1720   -33.5040 
  219.8750    57.6980    24.4830    51.4500    75.7700    81.7300     2.1800   -33.1550 
  220.0000    57.3320    24.5350    59.2720    77.1410    83.4180     2.1870   -32.7570 
  220.1250    59.5880    24.5070    65.9300    77.6630    83.9690     2.1910   -32.3620 
  220.2500    62.3450    24.4570    65.6190    77.3460    83.6160     2.1920   -32.1560 
  220.3750    64.2470    24.4190    57.8690    76.6460    83.0140     2.1910   -31.8450 
  220.5000    65.6600    24.3230    49.2860    76.2470    82.9540     2.1900   -31.5310 
  220.6250    64.2410    24.1240    44.7240    76.8160    84.0880     2.1900   -31.2350 
  220.7500    59.8860    23.9280    44.4930    78.1440    86.0030     2.1930   -30.8870 
  220.8750    57.1090    23.8280    47.6700    79.7420    88.0340     2.1960   -30.6360 
  221.0000    58.3690    23.8140    49.9390    81.0470    89.5060     2.1950   -30.4390 
  221.1250    61.4690    23.8840    50.4110    81.5870    89.9010     2.1870   -30.2760 
  221.2500    64.1650    23.9780    50.6090    81.4910    89.4750     2.1740   -30.0640 
  221.3750    65.3530    23.9690    53.0590    81.0130    88.5610     2.1610   -29.8880 
  221.5000    64.4140    23.8450    55.8390    80.5130    87.6460     2.1530   -29.7070 
  221.6250    61.6060    23.7900    57.9420    80.8390    87.9860     2.1580   -29.5940 
  221.7500    61.0570    23.8950    58.1760    83.3260    91.2150     2.1780   -29.6060 
  221.8750    63.4170    24.0740    57.6750    89.7710    98.9370     2.2160   -29.4770 
  222.0000    64.0670    24.2240    59.4680   100.7700   110.9480     2.2710   -29.3530 
  222.1250    61.0670    24.3170    61.7160   110.8890   119.8800     2.3430   -29.3060 
  222.2500    57.6920    24.2530    65.5240   107.6440   112.3340     2.4200   -29.3040 
  222.3750    56.4790    23.9680    71.4540    85.2800    84.8240     2.4870   -29.3070 
  222.5000    56.9520    23.5380    67.7630    54.6170    51.6300     2.5200   -29.3110 
  222.6250    57.3900    23.1730    44.3750    31.8520    29.1270     2.5130   -29.3360 
  222.7500    60.2200    22.9880    19.4070    18.7230    16.8680     2.4930   -29.3200 
  222.8750    65.9400    22.9370     7.1620    12.1980    11.1410     2.4730   -29.4770 
  223.0000    71.2570    22.9330     5.2460     9.3460     8.9360     2.4530   -29.7310 
  223.1250    72.1050    22.9550     7.0630     8.5710     8.6620     2.4350   -30.0180 
  223.2500    69.3910    23.0320     8.9080     8.7420     9.1210     2.4190   -30.2410 
  223.3750    66.4190    23.1700     9.4200     9.4160     9.7960     2.4060   -30.4130 
  223.5000    65.6750    23.3830     9.1290    10.1530    10.2790     2.3950   -30.7070 
  223.6250    68.2490    23.6970     9.2050    10.5520    10.3120     2.3890   -30.8800 
