~V
VERS. 2.00: Ver 2.00
~W
STRT.M 64.0000:
STOP.M 243.0000:
STEP.M 0.1250:
NULL. -999.2500:
UWI. DF5061:
~C
DEPT.M :
GR.API :
RML.OHMM :
RI. :
RXO.OHMM :
CALI.CM :
DEN.GM/CC :
SP.MV :
~A
# ...
   75.2500    64.8390     9.9450     9.1250     9.4120    23.2620     2.2250   -22.8140 
   75.3750    60.5320    10.0590     8.9520     9.6570    23.2390     2.2170   -23.3630 
   75.5000    57.7370    10.5230     9.1130     9.8770    23.2750     2.2080   -23.8370 
   75.6250    59.0850    11.0930     9.4420     9.9680    23.2950     2.2010   -24.2330 
   75.7500    63.2790    11.5770     9.7870    10.1000    23.3130     2.1970   -24.5700 
   75.8750    65.6570    11.8140    10.0200    10.2810    23.3590     2.2010   -24.8640 
   76.0000    64.8290    11.8190    10.1100    10.3880    23.4300     2.2130   -25.1480 
   76.1250    62.8170    11.6440    10.0650    10.4380    23.4980     2.2300   -25.4110 
   76.2500    62.9280    11.3680     9.9180    10.5460    23.5350     2.2450   -25.6630 
   76.3750    66.0920    11.0820     9.7110    10.7420    23.4900     2.2500   -25.8930 
   76.5000    68.7860    10.8520     9.4980    10.9000    23.3730     2.2430   -26.1020 
   76.6250    69.2420    10.7020     9.3050    10.8990    23.2500     2.2260   -26.2890 
   76.7500    69.1090    10.6320     9.1500    10.7330    23.2120     2.2050   -26.4660 
   76.8750    70.4990    10.6350     9.0510    10.4970    23.2880     2.1910   -26.6660 
   77.0000    69.7890    10.6820     9.0060    10.2960    23.4150     2.1880   -26.8960 
   77.1250    63.6040    10.7680     9.0200    10.2110    23.5240     2.1950   -27.1710 
   77.2500    56.5010    10.8940     9.0920    10.3130    23.5630     2.2100   -27.4870 
   77.3750    56.6480    11.0570     9.2140    10.4160    23.5520     2.2260   -27.8360 
   77.5000    61.3820    11.2240     9.3450    10.3150    23.5550     2.2380   -28.1990 
   77.6250    61.9330    11.3430     9.4420    10.0830    23.6150     2.2440   -28.5660 
   77.7500    57.4110    11.3580     9.4570     9.7730    23.6790     2.2450   -28.9170 
   77.8750    55.2090    11.2140     9.3430     9.2790    23.7360     2.2460   -29.2420 
   78.0000    59.2010    10.9510     9.1280     9.0310    23.8090     2.2490   -29.5420 
   78.1250    64.8620    10.6290     8.8590     9.1690    23.9170     2.2520   -29.8260 
   78.2500    66.7140    10.3170     8.5930     9.2620    24.0600     2.2510   -30.1110 
   78.3750    65.0980    10.1060     8.4040     9.2350    24.1690     2.2350   -30.4270 
   78.5000    64.7380    10.0310     8.3190     9.5100    24.2610     2.2070   -30.7740 
   78.6250    65.8140    10.1040     8.3570    10.1500    24.3840     2.1730   -31.1610 
   78.7500    65.4680    10.3150     8.5170    10.7100    24.4990     2.1440   -31.5700 
   78.8750    61.0880    10.6310     8.7860    11.1310    24.5320     2.1320   -31.9780 
   79.0000    57.6570    10.9560     9.0880    11.6020    24.5480     2.1380   -32.3720 
   79.1250    56.7700    11.2060     9.3510    12.1610    24.5810     2.1580   -32.7480 
   79.2500    57.8880    11.3030     9.5040    12.5220    24.6480     2.1800   -33.0900 
   79.3750    58.3900    11.1720     9.4690    12.3950    24.7450     2.1940   -33.3530 
   79.5000    56.8770    10.8760     9.2790    11.7790    24.8370     2.1980   -33.5340 
   79.6250    54.8640    10.5000     8.9850    11.2300    24.9300     2.1940   -33.6380 
   79.7500    54.3390    10.1570     8.6670    11.1500    24.9760     2.1880   -33.6670 
   79.8750    57.5550     9.9710     8.4210    11.1520    24.9540     2.1860   -33.6140 
   80.0000    62.6230     9.9600     8.2890    11.0680    24.8610     2.1900   -33.4960 
   80.1250    66.9010    10.0970     8.2850    10.8800    24.7390     2.1970   -33.3200 
   80.2500    68.5070    10.3220     8.3880    10.8450    24.6810     2.2030   -33.0950 
   80.3750    65.3930    10.5560     8.5840    11.1580    24.6760     2.2020   -32.8580 
   80.5000    60.0520    10.7430     8.8030    11.5240    24.6650     2.1940   -32.6480 
   80.6250    56.1970    10.8710     9.0230    11.6440    24.6700     2.1800   -32.4600 
   80.7500    55.3540    10.9570     9.2230    11.6020    24.7060     2.1650   -32.2870 
   80.8750    54.7850    11.0180     9.2870    11.5530    24.7200     2.1530   -32.1180 
   81.0000    54.2570    11.0520     9.2870    11.6380    24.6980     2.1480   -31.9550 
   81.1250    55.4890    11.0300     9.2370    11.7890    24.6400     2.1510   -31.7970 
   81.2500    58.0990    10.9240     9.1250    11.8730    24.5300     2.1610   -31.6380 
   81.3750    60.7610    10.7240     8.9390    11.8270    24.3270     2.1730   -31.4700 
   81.5000    62.8090    10.4980     8.7430    11.6420    24.0430     2.1810   -31.2760 
   81.6250    63.8590    10.3270     8.6270    11.3220    23.7150     2.1860   -31.0540 
   81.7500    62.2290    10.2880     8.5920    10.9910    23.3710     2.1900   -30.8270 
   81.8750    57.2100    10.4210     8.6420    10.8320    23.1250     2.2000   -30.5980 
   82.0000    53.7580    10.6280     8.7370    10.9720    23.0770     2.2180   -30.3730 
   82.1250    54.9190    10.7970     8.8250    11.6040    23.1590     2.2360   -30.1570 
   82.2500    59.5420    10.8230     8.8560    12.8570    23.3470     2.2490   -29.9430 
   82.3750    62.6840    10.6300     8.7890    13.1150    23.6310     2.2460   -29.6980 
   82.5000    62.5630    10.3110     8.6550    12.4100    23.9010     2.2330   -29.4200 
   82.6250    60.9870     9.9700     8.4980    11.7470    24.1360     2.2140   -29.1320 
   82.7500    59.6120     9.7050     8.3580    11.5510    24.3340     2.1970   -28.8400 
   82.8750    58.1940     9.5740     8.2810    11.4540    24.5210     2.1850   -28.5370 
   83.0000    57.0570     9.5550     8.2640    11.2680    24.7050     2.1790   -28.2030 
   83.1250    57.5670     9.5820     8.2830    11.0790    24.7870     2.1780   -27.8160 
   83.2500    60.9100     9.6060     8.2880    11.0030    24.7250     2.1810   -27.3680 
   83.3750    65.8050     9.5470     8.1880    11.0140    24.6710     2.1870   -26.8250 
   83.5000    69.4670     9.3790     7.9400    10.9700    24.6590     2.1980   -26.1600 
   83.6250    74.1510     9.0320     7.5360    10.3450    24.6590     2.2160   -25.3500 
   83.7500    82.4840     8.4360     7.0190     9.1450    24.6630     2.2390   -24.4090 
   83.8750    94.0420     7.7890     6.4810     7.8630    24.6580     2.2610   -23.3960 
   84.0000   104.1430     7.2730     6.0390     7.0430    24.6420     2.2760   -22.4460 
   84.1250   107.9770     7.0090     5.7770     6.8370    24.6120     2.2810   -21.6560 
   84.2500   104.0460     7.0780     5.7630     7.0080    24.5760     2.2770   -21.0710 
   84.3750    93.9810     7.5550     6.0930     7.6530    24.5320     2.2700   -20.7510 
   84.5000    83.5290     8.3060     6.7070     8.6290    24.4900     2.2630   -20.6780 
   84.6250    75.5060     9.1780     7.5190     9.8960    24.4290     2.2550   -20.8300 
   84.7500    70.2510     9.9530     8.3620    11.5180    24.3590     2.2430   -21.1380 
   84.8750    66.3540    10.3160     8.9420    12.5980    24.3980     2.2220   -21.4700 
   85.0000    64.4590    10.1710     9.0830    12.9140    24.4850     2.1990   -21.6560 
   85.1250    68.9110     9.5580     8.7470    12.1560    24.5390     2.1790   -21.5760 
   85.2500    80.3610     8.6790     8.0580    10.4090    24.5960     2.1710   -21.1890 
   85.3750    91.8890     7.8550     7.2630     8.3770    24.6930     2.1840   -20.4760 
   85.5000    99.0990     7.3030     6.5990     6.9150    24.7260     2.2130   -19.5530 
   85.6250   103.5230     7.0610     6.1440     6.2560    24.7090     2.2520   -18.5160 
   85.7500   107.4960     7.0340     5.8810     6.1260    24.6780     2.2900   -17.4560 
   85.8750   109.4350     7.0400     5.7380     6.1230    24.6650     2.3140   -16.4980 
   86.0000   108.9980     6.9150     5.5990     6.0600    24.6680     2.3240   -15.7160 
   86.1250   106.5800     6.6290     5.4210     5.9730    24.6690     2.3230   -15.1560 
   86.2500   103.4420     6.2830     5.2310     5.8840    24.6650     2.3170   -14.8410 
   86.3750   101.9930     6.1490     5.1740     5.8610    24.6480     2.3200   -14.8240 
