~V
VERS. 2.00: Ver 2.00
~W
STRT.M 55.0000:
STOP.M 268.0000:
STEP.M 0.1250:
NULL. -999.2500:
UWI. DF5007:
~C
DEPT.M :
SP.MV :
GR.API :
RML.OHMM :
RI. :
RXO.OHMM :
CALI.CM :
DEN.GM/CC :
~A
# ...
   77.5000   -24.6260    56.9570     9.6640     7.9400     9.6560    28.8390     2.1450 
   77.6250   -24.4190    54.9830     9.6230     7.9020     9.6990    29.0940     2.1290 
   77.7500   -24.2030    56.6940     9.5420     7.8350     9.6540    29.3160     2.1120 
   77.8750   -23.9860    60.1340     9.4380     7.7450     9.4830    29.3300     2.1060 
   78.0000   -23.8090    64.0730     9.3350     7.6460     9.2450    29.1040     2.1150 
   78.1250   -23.7670    66.0570     9.2630     7.5600     8.8970    28.7020     2.1400 
   78.2500   -23.7510    66.5550     9.2330     7.5010     8.5120    28.3940     2.1660 
   78.3750   -23.7590    66.9600     9.2400     7.4740     8.3510    28.4440     2.1850 
   78.5000   -23.9130    65.7170     9.2690     7.4770     8.5240    28.8900     2.1900 
   78.6250   -24.0370    61.5530     9.3000     7.5020     8.6560    29.5650     2.1810 
   78.7500   -24.1090    58.7140     9.3140     7.5340     8.7500    30.2260     2.1650 
   78.8750   -24.2720    58.6210     9.3120     7.5640     8.8420    30.7250     2.1460 
   79.0000   -24.3290    59.3370     9.3010     7.5860     8.8500    31.0050     2.1270 
   79.1250   -24.3120    60.0350     9.2930     7.5980     8.8860    31.0680     2.1040 
   79.2500   -24.3450    61.6690     9.2980     7.6050     8.9560    31.0850     2.0770 
   79.3750   -24.2390    61.9280     9.3200     7.6140     8.9660    31.2620     2.0480 
   79.5000   -24.0860    59.1310     9.3540     7.6270     9.0120    31.6370     2.0190 
   79.6250   -23.9420    56.7930     9.3800     7.6420     9.0820    31.9370     1.9970 
   79.7500   -23.7990    57.3870     9.3750     7.6510     9.0460    32.0100     1.9870 
   79.8750   -23.6140    58.4450     9.3250     7.6430     9.0390    31.9870     1.9910 
   80.0000   -23.3960    57.0960     9.2290     7.6150     8.9540    31.6400     2.0070 
   80.1250   -23.1140    55.8390     9.0980     7.5630     8.9420    30.9650     2.0260 
   80.2500   -22.7250    58.3710     8.9650     7.5030     9.0790    30.5510     2.0400 
   80.3750   -22.3320    63.0020     8.8660     7.4540     9.1570    30.4680     2.0440 
   80.5000   -21.8830    65.6970     8.8330     7.4350     8.9650    30.5210     2.0380 
   80.6250   -21.3110    63.6940     8.8740     7.4560     8.7160    30.7240     2.0240 
   80.7500   -20.6480    61.5410     8.9380     7.4950     8.5800    31.0690     2.0100 
   80.8750   -19.8880    61.9030     8.9610     7.5110     8.4520    31.4410     1.9960 
   81.0000   -19.0400    63.7490     8.8840     7.4590     8.5120    31.6680     1.9850 
   81.1250   -18.0770    64.9410     8.6480     7.2820     8.4910    31.6980     1.9850 
   81.2500   -16.9860    65.6710     8.2830     6.9870     8.3880    31.5920     2.0000 
   81.3750   -15.8170    67.5870     7.8390     6.6040     7.9660    31.0870     2.0350 
   81.5000   -14.6950    73.6520     7.3940     6.1870     7.1370    29.8660     2.0850 
   81.6250   -13.7620    84.3710     7.0450     5.8140     6.1420    28.4490     2.1400 
   81.7500   -12.8550    92.6730     6.8190     5.5290     5.4920    27.6830     2.1840 
   81.8750   -12.0980    95.2610     6.7130     5.3480     5.3470    27.2020     2.2130 
   82.0000   -11.6250    94.9960     6.6930     5.2620     5.4510    26.5820     2.2310 
   82.1250   -11.2350    96.0730     6.7130     5.2480     5.6980    25.8570     2.2510 
   82.2500   -11.1430    98.0270     6.7270     5.2610     5.9280    25.3550     2.2790 
   82.3750   -11.2620    99.2350     6.7210     5.2800     5.9270    24.9790     2.3090 
   82.5000   -11.4300    99.7660     6.6980     5.2970     5.5770    24.6380     2.3320 
   82.6250   -11.7580    99.9580     6.7010     5.3320     5.4050    24.3530     2.3360 
   82.7500   -12.1660   100.5920     6.7730     5.4110     5.3560    24.0950     2.3240 
   82.8750   -12.6290   100.9780     6.9410     5.5560     5.4840    23.9360     2.3030 
   83.0000   -13.0910    98.5810     7.2050     5.7740     5.7300    23.8520     2.2800 
   83.1250   -13.5670    93.0640     7.5400     6.0540     6.0860    23.7910     2.2640 
   83.2500   -14.0280    90.1930     7.8730     6.3420     6.4430    23.6930     2.2580 
   83.3750   -14.4020    91.4850     8.1300     6.5790     6.7660    23.5830     2.2610 
   83.5000   -14.7090    91.0110     8.2470     6.7100     6.8600    23.5870     2.2720 
   83.6250   -14.9560    85.4060     8.1600     6.6820     6.7680    23.7540     2.2890 
   83.7500   -15.1790    81.7980     7.9280     6.5310     6.7130    23.9180     2.3060 
   83.8750   -15.3880    85.4520     7.6470     6.3170     6.6540    23.9740     2.3210 
   84.0000   -15.6310    91.8280     7.4430     6.1320     6.4270    24.0370     2.3280 
   84.1250   -16.0560    94.0410     7.4610     6.0990     5.9460    24.2360     2.3270 
   84.2500   -16.6690    94.0720     7.7200     6.2600     5.8680    24.4460     2.3200 
   84.3750   -17.4470    93.8300     8.2120     6.6290     6.2800    24.5240     2.3140 
   84.5000   -18.3970    91.9530     8.8750     7.1710     7.2340    24.4520     2.3120 
   84.6250   -19.4830    85.5590     9.5770     7.7950     9.0430    24.2370     2.3050 
   84.7500   -20.5940    76.9280    10.1600     8.3620    11.3400    24.0150     2.2880 
   84.8750   -21.6590    71.1980    10.5220     8.7760    12.2150    23.8860     2.2590 
   85.0000   -22.7430    70.1110    10.6240     8.9820    10.8130    23.8380     2.2260 
   85.1250   -23.6390    71.5050    10.4870     8.9620     9.6130    23.7990     2.2030 
   85.2500   -24.2780    73.3640    10.2720     8.8220     9.2600    23.7730     2.1950 
   85.3750   -24.8670    75.2190    10.0750     8.6400     9.2050    23.7550     2.1950 
   85.5000   -25.2400    76.9390     9.9500     8.4710     9.0570    23.7290     2.1950 
   85.6250   -25.3610    76.1770     9.9220     8.3540     8.8720    23.6740     2.1880 
   85.7500   -25.4930    75.2540     9.9450     8.2760     8.8120    23.6150     2.1770 
   85.8750   -25.5120    76.8380     9.9820     8.2150     8.7890    23.6440     2.1650 
   86.0000   -25.4300    79.5950    10.0150     8.1570     8.6720    23.7520     2.1530 
   86.1250   -25.3500    78.5130    10.0430     8.1040     8.6480    23.8560     2.1440 
   86.2500   -25.2800    75.1020    10.0660     8.0560     8.6690    23.8930     2.1370 
   86.3750   -25.1280    73.1300    10.0800     8.0130     8.6140    23.7970     2.1370 
   86.5000   -24.9600    73.3620    10.0850     7.9760     8.4200    23.5160     2.1420 
   86.6250   -24.8840    71.9480    10.0960     7.9540     8.1780    23.3260     2.1510 
   86.7500   -24.7410    70.9370    10.1300     7.9540     8.0520    23.3230     2.1600 
   86.8750   -24.6570    71.9670    10.1970     7.9820     8.0120    23.3930     2.1660 
   87.0000   -24.6070    73.7040    10.2980     8.0380     8.0230    23.3970     2.1710 
   87.1250   -24.5430    74.4300    10.4210     8.1190     8.0550    23.3550     2.1770 
   87.2500   -24.5310    73.9590    10.5320     8.2050     8.1050    23.3140     2.1850 
   87.3750   -24.5550    72.8890    10.6070     8.2750     8.3090    23.3330     2.1920 
   87.5000   -24.6560    71.0460    10.6300     8.3110     8.6050    23.4280     2.1980 
   87.6250   -24.8060    68.7640    10.5930     8.3000     8.6580    23.5090     2.1990 
   87.7500   -25.0140    66.8620    10.5230     8.2560     8.7840    23.5460     2.1970 
   87.8750   -25.2070    66.7040    10.4460     8.1920     9.1590    23.5180     2.1940 
   88.0000   -25.4200    69.4430    10.3780     8.1210     9.6240    23.4730     2.1910 
   88.1250   -25.6980    72.2800    10.3250     8.0510     9.6270    23.4690     2.1870 
   88.2500   -25.8750    72.4020    10.2780     7.9820     9.5420    23.5250     2.1800 
   88.3750   -26.0610    70.3050    10.2260     7.9130     9.4580    23.5830     2.1700 
   88.5000   -26.2260    66.8030    10.1560     7.8410     9.3800    23.6510     2.1590 
   88.6250   -26.1740    63.8730    10.0650     7.7650     9.2800    23.6960     2.1500 
