~V
VERS. 2.00: Ver 2.00
~W
STRT.M 60.0000:
STOP.M 277.0000:
STEP.M 0.1250:
NULL. -999.2500:
UWI. DF5010:
~C
DEPT.M :
GR.API :
CALI.CM :
RXO.OHMM :
RI. :
RML.OHMM :
SP.MV :
DEN.GM/CC :
~A
# ...
  217.5000    64.7430    24.6560    76.2510    96.8820   112.1980   -51.7580     2.2150 
  217.6250    65.4620    24.7630    88.3460   108.0770   126.1650   -52.0160     2.2260 
  217.7500    66.7810    24.8960   123.1270   123.8590   145.6100   -52.2560     2.2300 
  217.8750    66.0070    24.9700   169.8450   143.5170   169.7480   -52.4720     2.2290 
  218.0000    65.1340    25.0120   212.4060   165.0030   196.1380   -52.5520     2.2250 
  218.1250    65.6070    25.0540   236.6870   184.3780   219.6440   -52.6190     2.2230 
  218.2500    64.7560    25.0770   240.1650   198.6140   236.1340   -52.8050     2.2220 
  218.3750    63.2630    25.0740   238.8120   206.6660   244.2760   -52.7890     2.2150 
  218.5000    62.9410    25.0600   247.4380   209.4190   245.4850   -52.8750     2.2020 
  218.6250    64.7250    25.0440   255.1860   208.3810   241.8930   -52.9690     2.1870 
  218.7500    66.9930    25.0310   249.2480   205.6850   236.1310   -52.8960     2.1840 
  218.8750    68.1280    25.0250   238.3780   201.6990   228.5610   -52.8690     2.1910 
  219.0000    66.6250    25.0260   227.4620   196.0810   218.8200   -52.7830     2.2010 
  219.1250    63.4690    25.0250   206.3920   188.0610   206.3350   -52.8280     2.2060 
  219.2500    63.7100    25.0110   203.4700   178.2580   192.2950   -52.6830     2.2040 
  219.3750    67.4420    24.9860   190.6420   167.6450   178.1380   -52.6380     2.1960 
  219.5000    70.0850    24.9640   163.7660   157.5000   165.3740   -52.5210     2.1840 
  219.6250    68.9320    24.9570   138.0490   149.1280   155.3350   -52.2250     2.1800 
  219.7500    67.4300    24.9580   130.9860   142.4140   147.5180   -52.1280     2.1870 
  219.8750    67.7120    24.9580   134.1670   137.0840   141.5400   -51.9250     2.1970 
  220.0000    69.0310    24.9580   135.0510   133.2640   137.5480   -51.7710     2.1990 
  220.1250    69.1860    24.9580   130.0000   132.2920   137.0410   -51.4960     2.1920 
  220.2500    68.8600    24.9580   118.6800   135.2320   141.0610   -51.3680     2.1900 
  220.3750    68.1780    24.9580   112.2770   143.5770   151.1490   -51.1990     2.1990 
  220.5000    66.6890    24.9540   136.2750   158.6120   168.6360   -51.0450     2.2080 
  220.6250    64.7780    24.9660   216.0730   181.5790   195.1120   -50.9440     2.2000 
  220.7500    63.7600    25.0250   285.3010   209.0410   227.2300   -50.7580     2.1800 
  220.8750    63.0580    25.1240   304.7680   236.8050   260.5760   -50.6640     2.1650 
  221.0000    60.8990    25.2010   294.0960   259.8760   289.2210   -50.4410     2.1680 
  221.1250    59.1410    25.1560   294.7440   272.5720   305.8800   -50.2380     2.1780 
  221.2500    59.4240    25.0230   317.3810   275.1270   310.2690   -49.9470     2.1770 
  221.3750    61.1270    24.8900   332.6360   268.2440   303.0390   -49.4540     2.1630 
  221.5000    63.3010    24.8280   318.8910   253.3340   285.9120   -48.9950     2.1500 
  221.6250    65.9750    24.8700   266.2900   232.6840   262.1300   -48.6050     2.1500 
  221.7500    69.1010    24.9510   214.8430   211.7850   238.6270   -48.0340     2.1600 
  221.8750    70.3410    25.0190   180.7760   194.4150   219.6880   -47.4410     2.1790 
  222.0000    68.7950    25.0470   162.9840   182.5990   207.2110   -47.1350     2.1950 
  222.1250    65.2580    25.0410   171.7160   177.2180   201.7330   -46.7180     2.1960 
  222.2500    62.3440    25.0330   192.2270   175.7070   200.1990   -46.1370     2.1850 
  222.3750    61.4640    25.0280   201.1430   176.0110   200.2700   -45.7990     2.1720 
  222.5000    60.7910    25.0280   196.4740   176.1800   199.8120   -45.6100     2.1640 
  222.6250    60.2690    25.0410   193.8360   174.4320   196.9430   -45.2420     2.1620 
  222.7500    61.7250    25.0580   187.1840   170.5080   191.6200   -44.9230     2.1660 
  222.8750    64.4050    25.0680   175.7260   164.7890   184.4470   -44.7690     2.1750 
  223.0000    65.6140    25.0710   160.4640   158.0870   176.4440   -44.4200     2.1800 
  223.1250    63.2560    25.0710   143.0940   151.0330   168.3260   -44.0390     2.1770 
  223.2500    61.0260    25.0730   133.5640   143.4200   159.6510   -43.9840     2.1770 
  223.3750    60.8600    25.0710   130.4590   134.3230   149.2230   -43.9380     2.1840 
  223.5000    61.8720    25.0620   132.3490   123.0870   136.2770   -43.7070     2.1940 
  223.6250    62.5290    25.0460   126.2260   110.3300   121.6910   -43.6000     2.1970 
  223.7500    63.7720    25.0280   101.4570    98.5820   108.5290   -43.4930     2.1940 
  223.8750    67.5920    25.0140    72.3540    90.0080    99.2870   -43.2720     2.1900 
  224.0000    71.6180    25.0090    55.7060    85.9510    95.3800   -43.2670     2.1880 
  224.1250    70.2490    25.0070    64.1440    87.2780    97.5800   -43.3070     2.1900 
  224.2500    66.3120    25.0070    87.7800    91.9330   103.3090   -43.1030     2.1900 
  224.3750    65.3370    25.0090   114.6510    97.7070   109.8190   -42.9670     2.1890 
  224.5000    67.6680    25.0130   126.0810   101.8790   113.8420   -43.0170     2.1890 
  224.6250    68.0470    25.0150   104.2680   101.5850   112.1680   -42.9780     2.1960 
  224.7500    66.6540    25.0150    82.8630    97.4670   106.1440   -42.9960     2.2060 
  224.8750    65.3490    25.0130    74.6250    91.1140    97.9960   -43.1190     2.2100 
  225.0000    64.4570    25.0120    76.6880    84.1650    89.6630   -43.0840     2.2050 
  225.1250    64.4350    25.0150    74.3930    77.5370    82.0360   -43.0930     2.1960 
  225.2500    65.9880    25.0180    67.5470    71.2890    74.9470   -43.3470     2.1910 
  225.3750    68.2750    24.9950    59.9100    65.4320    68.3730   -43.5170     2.1910 
  225.5000    69.1930    24.9340    53.5770    60.1970    62.5930   -43.5660     2.1960 
  225.6250    68.5230    24.8620    49.5970    56.1120    58.2160   -43.7830     2.2020 
  225.7500    68.3830    24.8050    46.2650    53.2070    55.2160   -43.9540     2.2080 
  225.8750    68.6620    24.7410    44.8400    51.4620    53.5140   -44.0470     2.2090 
  226.0000    70.1660    24.6370    45.5990    50.7950    52.9830   -44.3160     2.2050 
  226.1250    71.8100    24.5210    45.3700    51.3130    53.7420   -44.5910     2.1950 
  226.2500    72.9370    24.4340    44.8540    52.8610    55.6500   -44.6980     2.1880 
  226.3750    72.3660    24.3590    47.2380    55.4500    58.7230   -44.9550     2.1870 
  226.5000    70.1670    24.2790    53.8050    58.9200    62.7630   -45.2680     2.1910 
  226.6250    68.3460    24.2220    64.8110    62.7530    67.1750   -45.4570     2.2020 
  226.7500    67.7180    24.2050    72.9850    66.0580    71.0230   -45.7190     2.2180 
  226.8750    68.8310    24.2080    75.6480    68.2140    73.7130   -45.9270     2.2300 
  227.0000    70.3410    24.2080    73.0050    69.0170    75.1010   -46.0550     2.2260 
  227.1250    70.6190    24.2090    67.2610    68.6580    75.4490   -46.3770     2.2030 
  227.2500    70.7110    24.2060    64.2230    67.9660    75.5650   -46.6770     2.1850 
  227.3750    70.0920    24.1820    65.8260    67.4340    75.9110   -46.7080     2.1810 
  227.5000    67.9280    24.1270    69.5470    67.3590    76.7470   -46.6590     2.1900 
  227.6250    66.6520    24.0630    65.8490    67.9610    78.2730   -46.8040     2.1980 
  227.7500    69.0720    24.0270    62.8500    69.0710    80.3250   -46.9820     2.1980 
  227.8750    72.7240    24.0180    65.0720    70.5030    82.6970   -47.1420     2.1910 
  228.0000    73.7880    24.0170    70.2400    71.9610    85.0020   -47.2810     2.1820 
  228.1250    71.4810    23.9980    76.1290    72.8030    86.3560   -47.2220     2.1760 
  228.2500    69.7810    23.9660    73.3340    72.5290    86.1400   -47.1990     2.1750 
  228.3750    69.3370    23.9400    66.3360    71.0150    84.2850   -47.2220     2.1780 
  228.5000    69.4020    23.9290    64.9790    68.7230    81.5110   -47.2510     2.1810 
  228.6250    70.8970    23.9300    63.6760    66.7420    79.3540   -47.2000     2.1830 
