~V
VERS. 2.00: Ver 2.00
~W
STRT.M 61.0000:
STOP.M 253.0000:
STEP.M 0.1250:
NULL. -999.2500:
UWI. DF5045:
~C
DEPT.M :
GR.API :
CALI.CM :
RXO.OHMM :
RI. :
RML.OHMM :
DEN.GM/CC :
SP.MV :
~A
   61.0000    59.0500    25.3300     2.6900     0.2890     0.0590     1.9910    40.2610 
   61.1250    58.6530    25.3070     2.1920     0.2230    -0.0410     2.0200    35.4530 
   61.2500    59.3240    25.2870     1.6510     0.1710    -0.1040     2.0310    29.9160 
   61.3750    62.2150    25.2090     1.1380     0.1450    -0.1280     1.9980    23.7080 
   61.5000    69.1830    25.0010     0.7030     0.1710    -0.0940     1.9620    16.9030 
   61.6250    79.2320    24.6230     0.6000     0.2670     0.0050     2.0160     9.8660 
   61.7500    89.6800    24.0240     1.2570     0.4620     0.1960     2.1690     2.9010 
   61.8750    97.9020    23.2920     2.7480     0.7830     0.5160     2.3210    -3.7270 
   62.0000   103.0640    22.7150     4.3100     1.2730     1.0070     2.3550    -9.7350 
   62.1250   106.4630    22.3950     5.0900     1.8820     1.5970     2.3140   -15.1390 
   62.2500   107.7530    22.2740     5.1250     2.5460     2.1920     2.2700   -19.8290 
   62.3750   106.6800    22.1250     4.9920     3.1790     2.6940     2.2500   -23.7250 
   62.5000   103.9390    21.8860     5.3030     3.6930     3.0260     2.2380   -26.6170 
   62.6250   100.7210    21.6450     5.8150     4.0950     3.2530     2.2210   -28.7250 
   62.7500    97.5370    21.4680     6.3580     4.4130     3.4420     2.2020   -30.2130 
   62.8750    95.5590    21.3350     6.8660     4.6680     3.6210     2.1860   -31.2500 
   63.0000    95.1790    21.2240     7.2170     4.8440     3.7680     2.1720   -31.9260 
   63.1250    94.5130    21.1360     7.3790     4.9590     3.8860     2.1670   -32.3890 
   63.2500    93.2030    21.1090     7.5360     5.0590     4.0100     2.1740   -32.7140 
   63.3750    92.5810    21.1300     7.8440     5.2170     4.2090     2.1860   -32.9630 
   63.5000    93.1790    21.2440     8.2340     5.5530     4.5990     2.1850   -33.1410 
   63.6250    93.0510    21.3100     8.6010     6.1030     5.1980     2.1750   -33.2850 
   63.7500    90.5180    21.3320     9.2780     6.8540     5.9760     2.1840   -33.4020 
   63.8750    85.0980    21.3310    11.0680     7.7200     6.8240     2.2380   -33.5270 
   64.0000    78.0830    21.4150    14.5530     8.4870     7.4920     2.3360   -33.7060 
   64.1250    73.1800    21.6090    17.8540     8.9280     7.7780     2.4270   -33.9150 
   64.2500    72.7650    21.8500    19.2340     8.8990     7.5930     2.4720   -34.1340 
   64.3750    76.4560    21.9470    18.0610     8.4130     7.0080     2.4530   -34.3690 
   64.5000    82.2590    21.6230    14.7820     7.6100     6.2260     2.3740   -34.7030 
   64.6250    87.7000    21.1780    11.4050     6.7790     5.5050     2.2770   -35.1230 
   64.7500    91.3510    20.8830     9.2350     6.0860     4.9710     2.1980   -35.5970 
   64.8750    92.3730    20.7750     8.3840     5.6140     4.6650     2.1550   -36.0450 
   65.0000    90.5050    20.7570     8.2040     5.4020     4.5960     2.1470   -36.3430 
   65.1250    87.6700    20.7850     8.1450     5.3600     4.6690     2.1520   -36.4440 
   65.2500    85.9040    20.8580     8.1370     5.4200     4.8150     2.1580   -36.3140 
   65.3750    87.1370    21.0670     8.1050     5.5090     4.9650     2.1610   -35.9640 
   65.5000    91.1050    21.3420     7.9040     5.5610     5.0540     2.1650   -35.4190 
   65.6250    93.9020    21.6000     7.5220     5.5550     5.0680     2.1760   -34.7640 
   65.7500    93.8710    21.8030     7.0760     5.4980     5.0240     2.1940   -34.1030 
   65.8750    92.3460    21.9490     6.7870     5.4220     4.9690     2.2160   -33.4610 
   66.0000    91.4390    21.9970     6.7400     5.4120     5.0170     2.2310   -32.9690 
   66.1250    91.0850    22.0670     6.8120     5.5780     5.2800     2.2310   -32.6960 
   66.2500    90.9480    22.1480     7.0140     6.0590     5.8770     2.2180   -32.6150 
   66.3750    90.9210    22.2030     7.5660     6.9880     6.9150     2.2040   -32.6780 
   66.5000    90.1740    22.3410     9.1080     8.5230     8.5500     2.2220   -32.7930 
   66.6250    89.0140    22.6800    12.6220    10.4850    10.6250     2.2950   -32.9300 
   66.7500    88.9070    23.1950    19.8800    12.5880    12.8410     2.4250   -33.0620 
   66.8750    91.0430    23.6570    31.5890    14.3510    14.6260     2.5770   -33.2410 
   67.0000    95.4570    23.8290    44.9110    15.0330    15.0990     2.6660   -33.4330 
   67.1250    99.5660    23.5930    47.7270    14.5600    14.2790     2.6530   -33.5930 
   67.2500   100.4640    23.0290    37.0040    13.2000    12.6230     2.5530   -33.7740 
   67.3750    96.8670    22.4340    21.4330    11.4540    10.7750     2.4160   -33.9880 
   67.5000    91.5790    22.0950    12.1480     9.8610     9.2930     2.3010   -34.2660 
   67.6250    88.2660    21.9770     8.9370     8.6730     8.2910     2.2290   -34.5480 
   67.7500    86.8210    21.9490     8.1940     7.9220     7.7230     2.1950   -34.7800 
   67.8750    85.9130    21.9470     7.9610     7.5430     7.4810     2.1840   -34.9100 
   68.0000    85.0410    21.9400     7.7850     7.4570     7.4540     2.1790   -34.8790 
   68.1250    84.4840    21.9390     7.6720     7.4980     7.4870     2.1740   -34.7240 
   68.2500    83.9800    21.9410     7.5820     7.5840     7.5160     2.1670   -34.4690 
   68.3750    83.4450    21.9450     7.4550     7.6710     7.5210     2.1600   -34.1560 
   68.5000    83.4260    21.9420     7.3270     7.7240     7.4950     2.1540   -33.7700 
   68.6250    84.5650    21.9430     7.2920     7.7250     7.4350     2.1490   -33.3330 
   68.7500    87.8850    21.9440     7.3240     7.6550     7.3240     2.1430   -32.8680 
   68.8750    93.1260    21.9590     7.3890     7.5020     7.1510     2.1370   -32.3700 
   69.0000    97.2050    22.0410     7.4510     7.2400     6.8960     2.1370   -31.8250 
   69.1250    98.2400    22.2710     7.4070     6.8990     6.5830     2.1570   -31.2430 
   69.2500    98.1970    22.7050     7.1000     6.5080     6.2380     2.2000   -30.6230 
   69.3750   100.3830    23.2830     6.5760     6.1150     5.9080     2.2560   -30.0060 
   69.5000   105.4640    23.8240     6.1150     5.8030     5.6790     2.2940   -29.4590 
   69.6250   110.4080    24.1250     5.8860     5.6260     5.6120     2.3040   -29.0430 
   69.7500   113.3500    24.2870     5.7590     5.6270     5.7530     2.2930   -28.7980 
   69.8750   113.4270    24.3550     5.6660     5.8290     6.1150     2.2760   -28.7470 
   70.0000   109.4560    24.2250     6.2000     6.2620     6.6900     2.2660   -28.9060 
   70.1250   102.5970    23.7890     8.3700     6.8380     7.3590     2.2600   -29.1820 
   70.2500    95.0790    23.1210    12.8140     7.4660     8.0100     2.2500   -29.5140 
   70.3750    89.5830    22.5740    18.0830     8.0300     8.5260     2.2360   -29.8230 
   70.5000    87.5700    22.2540    20.3580     8.3710     8.7510     2.2250   -30.0500 
   70.6250    86.8970    22.0250    18.3430     8.4360     8.6730     2.2230   -30.1490 
   70.7500    85.8210    21.8210    14.0560     8.2210     8.3240     2.2200   -30.0940 
   70.8750    83.6780    21.7050    10.3070     7.7950     7.8110     2.2050   -29.9030 
   71.0000    81.2920    21.6710     8.6210     7.3110     7.3210     2.1810   -29.6110 
   71.1250    80.5510    21.6870     7.9750     6.9410     7.0180     2.1650   -29.2780 
   71.2500    82.5250    21.7480     7.6120     6.7740     6.9810     2.1640   -28.9500 
   71.3750    86.5580    21.9230     7.1650     6.8420     7.2250     2.1810   -28.6590 
   71.5000    90.3710    22.2990     6.9320     7.1550     7.7090     2.2300   -28.4360 
   71.6250    92.2260    22.8770     8.5920     7.5860     8.2450     2.3100   -28.3040 
   71.7500    92.2820    23.4790    13.5740     8.0060     8.6780     2.4020   -28.2710 
   71.8750    91.7840    23.9260    19.7180     8.2850     8.8820     2.4670   -28.2930 
   72.0000    91.2160    24.0240    20.3180     8.2860     8.7560     2.4690   -28.3700 
   72.1250    89.6530    23.8520    15.7440     8.0700     8.4120     2.4260   -28.5240 
