~V
VERS. 2.00: Ver 2.00
~W
STRT.M 55.0000:
STOP.M 247.0000:
STEP.M 0.1250:
NULL. -999.2500:
UWI. DF5063:
~C
DEPT.M :
SP.MV :
GR.API :
RML.OHMM :
RI. :
RXO.OHMM :
CALI.CM :
DEN.GM/CC :
~A
# ...
  212.5000   -15.7530    74.9790    56.4280    58.4450    40.0570    24.6480     2.2670 
  212.6250   -15.8500    77.4690    47.3050    48.1770    33.8580    24.6360     2.2860 
  212.7500   -15.8590    77.4760    42.2100    42.0960    30.6090    24.6420     2.2900 
  212.8750   -15.8110    73.3480    41.5460    40.4930    32.3850    24.6410     2.2790 
  213.0000   -15.8080    66.4010    46.2830    44.3330    48.2540    24.6200     2.2530 
  213.1250   -15.8430    62.4460    59.5090    56.8060    90.4060    24.6570     2.2220 
  213.2500   -15.8930    63.7100    81.1690    77.9370   140.3640    24.6500     2.1990 
  213.3750   -15.8860    66.9510   109.5160   105.9630   174.6100    24.6280     2.1880 
  213.5000   -15.6910    67.5350   138.8810   135.1840   194.0080    24.6220     2.1890 
  213.6250   -15.3870    66.6250   157.1770   153.7980   176.9070    24.6330     2.1980 
  213.7500   -15.1100    67.2570   156.1900   154.1860   159.2270    24.6270     2.2080 
  213.8750   -14.8590    70.1090   134.7010   134.9950   147.9280    24.6010     2.2150 
  214.0000   -14.5700    74.4100   101.4610   103.2990   122.2940    24.5710     2.2210 
  214.1250   -14.2880    78.4720    70.9920    72.2590    56.2550    24.5690     2.2380 
  214.2500   -14.0440    80.2030    49.9580    49.9850    24.8880    24.5050     2.2580 
  214.3750   -13.8710    79.5710    38.2120    37.0420    18.7770    24.2950     2.2660 
  214.5000   -13.8870    77.9160    33.9540    31.5390    30.9280    23.9540     2.2550 
  214.6250   -14.0490    76.2970    36.2470    32.2860    51.5450    23.7870     2.2430 
  214.7500   -14.2630    75.1230    42.4820    36.8770    61.2000    23.8620     2.2460 
  214.8750   -14.5280    74.1800    50.8720    43.9460    61.3600    24.0820     2.2660 
  215.0000   -14.8300    72.3590    59.1900    51.6930    62.3700    24.3600     2.2970 
  215.1250   -15.0880    69.4620    64.5790    57.5460    58.1810    24.5420     2.3460 
  215.2500   -15.3150    68.2540    66.4690    60.4080    51.6200    24.6750     2.4070 
  215.3750   -15.5170    68.6200    65.9980    60.8240    44.7820    24.7900     2.4700 
  215.5000   -15.6500    67.5190    65.2230    60.4040    41.5320    24.8260     2.5300 
  215.6250   -15.7120    61.9500    65.8310    60.6330    41.3580    24.6100     2.5850 
  215.7500   -15.7770    55.6690    67.6040    61.5850    41.0690    24.3370     2.6240 
  215.8750   -15.8210    53.7770    69.7010    62.6740    39.1360    24.1380     2.6210 
  216.0000   -15.8900    56.2950    71.1340    63.1450    37.5610    23.9200     2.5580 
  216.1250   -16.0520    58.6560    70.9370    62.2490    39.2670    23.8750     2.4520 
  216.2500   -16.2380    59.4590    69.3620    60.2560    42.5930    24.0330     2.3540 
  216.3750   -16.3680    61.9150    67.0420    57.7440    44.5950    24.3090     2.2890 
  216.5000   -16.4360    67.4990    64.7860    55.4380    42.9030    24.5240     2.2540 
  216.6250   -16.4600    71.7340    63.3480    54.0300    42.7340    24.6050     2.2380 
  216.7500   -16.4230    72.8810    62.7910    53.5390    48.7250    24.6080     2.2330 
  216.8750   -16.3240    72.6500    63.0240    53.8720    57.0400    24.5950     2.2410 
  217.0000   -16.1290    73.9950    63.9760    54.9450    58.8050    24.5990     2.2620 
  217.1250   -15.8040    77.2070    65.9430    57.0170    56.3230    24.5960     2.3020 
  217.2500   -15.3870    76.8480    68.9930    60.1390    58.9490    24.5520     2.3780 
  217.3750   -14.9500    71.8650    72.8630    64.1230    67.9990    24.4340     2.4900 
  217.5000   -14.5220    66.4880    76.4460    68.0450    80.8350    24.2100     2.6000 
  217.6250   -14.1040    65.7000    76.9590    69.4780    83.5040    24.0530     2.6430 
  217.7500   -13.7840    66.7070    72.3380    66.3900    62.7810    23.9700     2.6270 
  217.8750   -13.5360    66.6160    61.8470    57.7710    41.4490    23.9540     2.5860 
  218.0000   -13.3260    68.1890    47.3510    44.9650    26.5350    23.9000     2.5230 
  218.1250   -13.1860    74.8080    33.2150    31.9220    16.3580    23.7220     2.4390 
  218.2500   -13.1830    82.1080    22.5180    21.8720    11.0560    23.5600     2.3730 
  218.3750   -13.2870    86.5350    15.6370    15.3110     9.1190    23.4820     2.3450 
  218.5000   -13.4830    88.9760    11.7690    11.5230     8.8530    23.5090     2.3460 
  218.6250   -13.7380    91.7570    10.0940     9.7790     8.5540    23.5780     2.3530 
  218.7500   -13.8900    94.7650     9.4450     9.0330     8.4960    23.7670     2.3580 
  218.8750   -14.0110    96.8320     9.3450     8.8680     8.7930    24.0560     2.3660 
  219.0000   -14.2220    97.5430     9.4680     8.9810     9.0600    24.3340     2.3780 
  219.1250   -14.5220    98.3090     9.5690     9.1270     8.8560    24.4400     2.3910 
  219.2500   -14.7820   100.7560     9.5300     9.1610     8.7910    24.4870     2.3960 
  219.3750   -15.0160   105.0930     9.3490     9.0610     8.7440    24.5100     2.3930 
  219.5000   -15.2400   110.4760     9.1050     8.8860     8.8450    24.5080     2.3860 
  219.6250   -15.4880   113.1270     8.9880     8.7720     8.9620    24.5080     2.3840 
  219.7500   -15.9070   112.3310     9.2090     8.8710     9.0910    24.5240     2.3840 
  219.8750   -16.4690   109.0070     9.9470     9.3130    10.2200    24.4440     2.3790 
  220.0000   -17.0110   103.8270    11.3000    10.1850    13.4300    24.2050     2.3730 
  220.1250   -17.4860    96.5070    13.3210    11.5790    18.1420    23.9160     2.3730 
  220.2500   -17.9980    89.4020    15.7040    13.3250    19.7960    23.8380     2.3750 
  220.3750   -18.5420    84.9480    18.1640    15.2410    20.8770    23.9630     2.3730 
  220.5000   -19.0550    82.4600    20.3950    17.0850    22.7430    24.2030     2.3650 
  220.6250   -19.4630    79.8160    22.0300    18.5260    24.3150    24.3920     2.3550 
  220.7500   -19.7140    77.7720    23.0000    19.4420    24.3750    24.4810     2.3470 
  220.8750   -19.8680    77.3590    23.3190    19.8120    23.5980    24.4850     2.3400 
  221.0000   -19.9980    78.2040    23.1370    19.7410    22.0270    24.4150     2.3360 
  221.1250   -20.0770    79.0770    22.7490    19.4360    20.9050    24.2780     2.3340 
  221.2500   -20.0800    77.6130    22.5770    19.2230    20.2890    24.2330     2.3350 
  221.3750   -20.0530    74.6340    22.9050    19.3340    20.7320    24.2930     2.3350 
  221.5000   -20.0180    72.3480    23.8470    19.8960    22.7840    24.4290     2.3310 
  221.6250   -20.0130    72.7480    25.3200    20.9260    26.8300    24.4940     2.3270 
  221.7500   -19.9600    76.6110    26.8810    22.1330    29.8200    24.5270     2.3260 
  221.8750   -19.8610    81.4480    28.1880    23.2640    30.1260    24.5660     2.3290 
  222.0000   -19.7720    83.5800    29.0510    24.1330    28.2650    24.5940     2.3340 
  222.1250   -19.7160    81.1270    29.5020    24.6870    25.9880    24.6020     2.3350 
  222.2500   -19.6700    77.2220    29.9140    25.1580    26.6350    24.6190     2.3310 
  222.3750   -19.6340    74.3490    30.5470    25.7490    29.3120    24.6220     2.3210 
  222.5000   -19.6080    74.4150    31.4780    26.5620    32.3480    24.5990     2.3090 
  222.6250   -19.5190    77.3600    32.5350    27.5290    33.9310    24.5990     2.3010 
  222.7500   -19.4200    78.7700    33.3910    28.4020    34.9990    24.6140     2.2980 
  222.8750   -19.3060    79.3330    33.8710    29.0070    34.4560    24.6030     2.2990 
  223.0000   -19.1910    81.1180    34.0240    29.3270    32.2390    24.5730     2.2990 
  223.1250   -19.1250    82.4890    34.1290    29.5330    30.3600    24.5870     2.2970 
  223.2500   -19.0480    78.9570    34.5100    29.9030    32.9840    24.6200     2.2970 
  223.3750   -18.8840    73.1970    35.2830    30.5620    37.0620    24.6220     2.3020 
  223.5000   -18.6580    70.7900    36.3520    31.4700    41.1470    24.5890     2.3090 
  223.6250   -18.4450    71.3290    37.4440    32.4350    39.8490    24.5800     2.3150 
