~V
VERS. 2.00: Ver 2.00
~W
STRT.M 58.0000:
STOP.M 261.0000:
STEP.M 0.1250:
NULL. -999.2500:
UWI. DF5035:
~C
DEPT.M :
DEN.GM/CC :
GR.API :
CALI.CM :
RXO.OHMM :
RI. :
RML.OHMM :
SP.MV :
~A
# ...
  136.7500     2.2680    93.4640    25.3810     4.6900     4.1810     4.9270   -44.2830 
  136.8750     2.2630    93.1020    25.3960     4.4720     4.1730     4.9030   -44.3330 
  137.0000     2.2630    96.7860    25.4320     4.3970     4.1760     4.9000   -44.3170 
  137.1250     2.2640   102.0900    25.4530     4.5840     4.2180     4.9480   -44.2970 
  137.2500     2.2600   104.9430    25.4660     4.8110     4.2970     5.0420   -44.2190 
  137.3750     2.2540   101.8150    25.4630     4.8780     4.3990     5.1530   -44.2050 
  137.5000     2.2450    94.6710    25.4420     4.8130     4.4910     5.2370   -44.2010 
  137.6250     2.2410    90.3180    25.4150     4.8380     4.5130     5.2250   -44.1290 
  137.7500     2.2440    91.1510    25.3900     4.8300     4.4410     5.0990   -44.0570 
  137.8750     2.2570    95.2410    25.3680     4.7940     4.2720     4.8690   -43.9760 
  138.0000     2.2770    99.7070    25.3670     4.5340     4.0260     4.5720   -43.9510 
  138.1250     2.2990   102.4130    25.3960     4.0170     3.7520     4.2760   -43.9280 
  138.2500     2.3150   104.3710    25.3740     3.6790     3.5210     4.0520   -43.9380 
  138.3750     2.3240   106.9150    25.2690     3.6380     3.3800     3.9450   -43.8990 
  138.5000     2.3280   108.8330    25.1430     3.6380     3.3620     3.9850   -43.8710 
  138.6250     2.3270   106.8200    25.0950     3.6570     3.5010     4.1990   -43.9840 
  138.7500     2.3190   103.4930    25.0950     3.9890     3.7580     4.5340   -44.0880 
  138.8750     2.3030   102.4440    25.0760     4.4780     4.0940     4.9330   -44.1690 
  139.0000     2.2820   104.5720    25.0220     4.8590     4.4530     5.3220   -44.2190 
  139.1250     2.2610   103.9940    24.9460     5.0020     4.7600     5.6150   -44.2680 
  139.2500     2.2450    99.5290    24.8800     4.9860     4.9720     5.7950   -44.3350 
  139.3750     2.2350    95.0930    24.8270     4.8720     5.0790     5.8710   -44.4200 
  139.5000     2.2330    94.3110    24.7810     4.8480     5.0950     5.8660   -44.4870 
  139.6250     2.2380    97.2300    24.7930     5.0150     5.0360     5.7980   -44.4260 
  139.7500     2.2440    98.9300    24.9090     5.2750     4.9440     5.6940   -44.4230 
  139.8750     2.2450    97.8820    25.0840     5.3340     4.8370     5.5860   -44.3970 
  140.0000     2.2440    96.1010    25.1930     5.2880     4.7630     5.5610   -44.3170 
  140.1250     2.2480    94.9510    25.1740     5.4460     4.8610     5.8750   -44.2980 
  140.2500     2.2640    93.0150    25.1770     6.1210     5.2800     6.7450   -44.1820 
  140.3750     2.3000    89.0320    25.2610     6.9430     6.1850     8.3300   -44.1400 
  140.5000     2.3570    84.3250    25.3050     8.2110     7.6860    10.5850   -44.0180 
  140.6250     2.4240    79.2180    25.1580    15.4370     9.6740    12.9510   -43.9490 
  140.7500     2.4710    72.8160    24.9480    24.7650    11.2550    14.2440   -43.9380 
  140.8750     2.4700    67.0970    24.8160    26.5890    11.4290    13.5940   -43.7770 
  141.0000     2.4270    65.1130    24.8050    18.1350    10.0840    11.3300   -43.7310 
  141.1250     2.3800    68.9300    24.9470     8.6380     8.2400     8.9420   -43.7020 
  141.2500     2.3580    76.5590    25.1920     5.4400     6.8970     7.5380   -43.6490 
  141.3750     2.3670    83.9200    25.4160     5.4640     6.3300     7.3590   -43.6640 
  141.5000     2.4040    85.0100    25.4730     6.6140     6.6190     8.3680   -43.7310 
  141.6250     2.4600    77.2060    25.3030    10.6030     7.9500    10.5570   -43.7190 
  141.7500     2.5100    68.7890    25.0840    14.0910    10.0830    13.3300   -43.7310 
  141.8750     2.5410    64.3250    24.9410    15.5480    12.5920    15.9640   -43.8850 
  142.0000     2.5530    62.2800    24.9060    14.6090    14.6940    17.6270   -43.9570 
  142.1250     2.5520    60.3460    24.9090    14.4760    15.4940    17.7260   -44.0330 
  142.2500     2.5470    57.8890    24.8840    14.6060    15.2990    16.9740   -44.1370 
  142.3750     2.5440    55.0680    24.8420    15.2440    14.7070    16.1020   -44.2220 
  142.5000     2.5440    53.3620    24.8140    14.2200    14.2240    15.6350   -44.2430 
  142.6250     2.5490    55.7970    24.8870    12.6770    14.1990    15.9260   -44.3090 
  142.7500     2.5550    58.3670    25.0760    13.9510    14.6530    16.8880   -44.3900 
  142.8750     2.5580    57.0400    25.3020    16.2740    15.5750    18.4210   -44.3930 
  143.0000     2.5570    52.5570    25.4580    17.1330    16.8910    20.3350   -44.4450 
  143.1250     2.5560    50.3520    25.5010    17.1640    18.4630    22.3310   -44.5450 
  143.2500     2.5580    50.5730    25.5050    18.2920    19.9810    24.0370   -44.5880 
  143.3750     2.5650    50.4570    25.5060    19.8500    21.1760    25.1910   -44.5890 
  143.5000     2.5720    48.6470    25.5050    21.2000    21.8700    25.6850   -44.6950 
  143.6250     2.5740    46.6490    25.5050    21.1970    21.9660    25.5210   -44.7630 
  143.7500     2.5690    46.4220    25.5050    20.4370    21.6890    25.0230   -44.7800 
  143.8750     2.5590    47.6340    25.5070    19.1670    21.2340    24.4300   -44.8240 
  144.0000     2.5500    49.7260    25.5110    18.2420    20.7870    23.9400   -44.8780 
  144.1250     2.5430    52.5590    25.5250    18.4070    20.5020    23.6900   -44.8440 
  144.2500     2.5390    54.9790    25.5440    18.4030    20.3840    23.6280   -44.8500 
  144.3750     2.5350    56.4750    25.5500    17.9350    20.4010    23.6860   -44.9340 
  144.5000     2.5320    57.3210    25.5350    16.9480    20.5030    23.7930   -44.9510 
  144.6250     2.5300    56.9570    25.4790    17.1750    20.6290    23.8700   -44.9890 
  144.7500     2.5310    56.8350    25.3460    18.1700    20.6960    23.8340   -45.0670 
  144.8750     2.5310    57.5080    25.1210    18.4500    20.6190    23.6040   -45.1670 
  145.0000     2.5310    57.6160    24.8490    17.3520    20.3350    23.1290   -45.2500 
  145.1250     2.5290    58.0500    24.6210    16.4350    19.8190    22.4280   -45.3840 
  145.2500     2.5270    59.2960    24.4980    15.4980    19.2160    21.6970   -45.5120 
  145.3750     2.5250    61.4580    24.5170    14.6970    18.6760    21.1160   -45.5990 
  145.5000     2.5230    63.1350    24.6600    15.2210    18.3300    20.8110   -45.6590 
  145.6250     2.5220    62.7880    24.8500    16.8610    18.2540    20.8110   -45.7620 
  145.7500     2.5190    62.5710    25.0620    17.7320    18.3180    20.9170   -45.8720 
  145.8750     2.5160    63.7400    25.3350    17.6150    18.3790    20.9560   -45.9180 
  146.0000     2.5140    66.6520    25.6520    18.0000    18.3200    20.8210   -46.0310 
  146.1250     2.5140    66.2620    25.8960    18.2810    18.1030    20.5240   -46.0230 
  146.2500     2.5160    61.6650    25.9990    17.2740    17.8670    20.2560   -46.0820 
  146.3750     2.5180    58.5390    25.9800    15.7800    17.7610    20.1810   -46.0870 
  146.5000     2.5180    59.4130    25.9160    15.3120    17.8760    20.3570   -46.0790 
  146.6250     2.5170    62.1570    25.8560    16.5250    18.1860    20.6830   -46.2090 
  146.7500     2.5120    63.4940    25.7860    19.0060    18.4630    20.8840   -46.1830 
  146.8750     2.5060    62.9810    25.7210    21.0400    18.5050    20.7650   -46.1850 
  147.0000     2.4990    62.7740    25.7110    20.6470    18.2220    20.2840   -46.1770 
  147.1250     2.4920    64.8790    25.7730    16.5000    17.6830    19.5770   -46.1130 
  147.2500     2.4850    67.1410    25.8270    15.0230    17.1290    18.9120   -46.0790 
  147.3750     2.4810    67.7930    25.7870    14.8090    16.6820    18.3990   -45.9640 
  147.5000     2.4790    66.8630    25.5900    15.0790    16.3490    18.0090   -45.9150 
  147.6250     2.4770    66.1090    25.2370    15.2390    16.0390    17.5940   -45.8190 
  147.7500     2.4740    63.5860    24.8650    14.5580    15.6450    17.0440   -45.6950 
  147.8750     2.4740    60.7600    24.5610    13.0390    15.1680    16.3990   -45.6260 
