~V
VERS. 2.00: Ver 2.00
~W
STRT.M 55.0000:
STOP.M 250.0000:
STEP.M 0.1250:
NULL. -999.2500:
UWI. DF5052:
~C
DEPT.M :
SP.MV :
GR.API :
CALI.CM :
RXO.OHMM :
RI. :
RML.OHMM :
DEN.GM/CC :
~A
# ...
  235.0000   -20.8140    75.3010    23.6530    29.3430    22.1480    23.6540     2.2590 
  235.1250   -20.8090    76.8890    23.6190    21.9050    21.7070    23.1110     2.2620 
  235.2500   -20.8230    76.1350    23.6400    18.1510    21.8490    23.2900     2.2590 
  235.3750   -20.8380    74.2220    23.6540    18.7780    22.5690    24.1660     2.2540 
  235.5000   -20.8340    72.4800    23.6540    22.4790    23.7310    25.5530     2.2440 
  235.6250   -20.7870    71.5610    23.6510    26.7770    25.0720    27.1230     2.2290 
  235.7500   -20.7000    71.3070    23.6550    29.0990    26.2010    28.4340     2.2190 
  235.8750   -20.5820    71.8010    23.6860    29.5710    26.8460    29.1850     2.2200 
  236.0000   -20.4540    72.9620    23.7570    29.7290    26.9090    29.2710     2.2290 
  236.1250   -20.3390    74.0530    23.8770    29.5860    26.4800    28.8020     2.2370 
  236.2500   -20.2510    74.4040    23.9440    28.5970    25.9560    28.2520     2.2460 
  236.3750   -20.1950    74.6550    23.9680    26.9970    25.6330    27.9810     2.2580 
  236.5000   -20.1700    76.6340    23.9700    25.4290    25.7200    28.2330     2.2610 
  236.6250   -20.1650    80.7510    23.9640    24.6300    26.3840    29.1850     2.2450 
  236.7500   -20.1580    84.0220    23.9570    25.6500    27.4730    30.6270     2.2260 
  236.8750   -20.1310    83.9670    23.9480    29.1780    28.8130    32.3340     2.2310 
  237.0000   -20.0710    80.8220    23.9470    34.0710    30.1560    34.0090     2.2700 
  237.1250   -19.9650    76.1460    23.9400    37.4940    31.1660    35.2440     2.3120 
  237.2500   -19.8220    71.6680    23.9380    37.8810    31.7120    35.8870     2.3260 
  237.3750   -19.6480    69.1790    23.9420    35.9470    31.7800    35.9330     2.3210 
  237.5000   -19.4540    69.7160    23.9430    32.9730    31.4430    35.4960     2.3270 
  237.6250   -19.2510    72.0340    23.9230    31.0980    30.7850    34.7090     2.3510 
  237.7500   -19.0540    72.5610    23.8400    31.7730    29.9620    33.7700     2.3740 
  237.8750   -18.8700    70.4140    23.7150    34.7110    28.9990    32.6930     2.3940 
  238.0000   -18.7010    67.1350    23.7150    37.4060    27.8540    31.4080     2.4170 
  238.1250   -18.5490    65.4280    23.7780    36.9710    26.4680    29.8080     2.4270 
  238.2500   -18.4080    66.6060    23.7760    33.6620    24.9360    28.0010     2.4120 
  238.3750   -18.2780    70.9150    23.7340    29.1670    23.3950    26.1560     2.3760 
  238.5000   -18.1590    75.7200    23.7280    25.2040    21.9990    24.4770     2.3330 
  238.6250   -18.0440    75.9060    23.6180    22.3050    20.8620    23.1390     2.2960 
  238.7500   -17.9200    72.0260    23.4710    20.3680    19.9010    22.0610     2.2750 
  238.8750   -17.7750    67.9080    23.3100    18.9630    19.0160    21.1170     2.2840 
  239.0000   -17.6030    65.7550    23.1580    18.1760    18.0930    20.1560     2.3280 
  239.1250   -17.4030    64.4980    22.9900    19.0200    16.9860    18.9910     2.3990 
  239.2500   -17.1820    63.6220    22.9480    21.3280    15.6860    17.5890     2.4680 
  239.3750   -16.9430    64.4480    22.9900    22.7710    14.2660    16.0200     2.5060 
  239.5000   -16.6850    66.8910    23.0530    20.7270    12.8590    14.4430     2.5000 
  239.6250   -16.4170    68.7540    23.1100    16.1050    11.6560    13.0820     2.4610 
  239.7500   -16.1620    68.9570    23.1570    12.7870    10.7320    12.0400     2.4250 
  239.8750   -15.9380    68.5550    23.3650    12.0450    10.1070    11.3450     2.4060 
  240.0000   -15.7520    69.5080    23.6570    12.3770     9.7550    10.9710     2.4040 
  240.1250   -15.5920    72.4080    23.7470    12.4080     9.6710    10.9010     2.4100 
  240.2500   -15.4340    75.0610    23.7550    12.0740     9.7650    11.0190     2.4100 
  240.3750   -15.2750    76.2620    23.7660    11.9220     9.9820    11.2630     2.3980 
  240.5000   -15.1220    76.5090    23.8130    11.8900    10.2670    11.5810     2.3790 
  240.6250   -14.9890    76.5090    23.8940    11.9310    10.5690    11.9230     2.3670 
  240.7500   -14.8670    76.5090    23.9370    12.1040    10.8280    12.2290     2.3710 
  240.8750   -14.7410    76.5090    23.9520    12.5080    10.9930    12.4350     2.3910 
  241.0000   -14.6050    76.5090    23.9560    12.8780    11.0190    12.4860     2.4200 
  241.1250   -14.4690    76.5090    23.9600    12.7480    10.8620    12.3310     2.4510 
  241.2500   -14.3500    76.5090    23.9530    12.2200    10.5770    12.0390     2.4790 
  241.3750   -14.2520    76.5090    23.9540    11.4580    10.2330    11.6920     2.4950 
  241.5000   -14.1690    76.5090    23.9680    10.5320     9.9120    11.3830     2.4920 
  241.6250   -14.0860    76.5090    23.9900     9.5810     9.7030    11.2170     2.4720 
  241.7500   -13.9980    76.5090    23.9940     9.2730     9.6200    11.2070     2.4490 
  241.8750   -13.9100    76.5090    23.9930     9.4700     9.6560    11.3350     2.4310 
  242.0000   -13.8250    76.5090    23.9940     9.8440     9.7850    11.5570     2.4180 
  242.1250   -13.7430    76.5090    24.0080    10.1780     9.9630    11.8160     2.4100 
  242.2500   -13.6580    76.5090    24.0350    10.4690    10.1410    12.0530     2.4060 
  242.3750   -13.5680    76.5090    24.0670    10.6760    10.2910    12.2400     2.4100 
  242.5000   -13.4790    76.5090    24.0890    10.6870    10.4080    12.3760     2.4210 
  242.6250   -13.3990    76.5090    24.0860    10.4180    10.4920    12.4710     2.4350 
  242.7500   -13.3350    76.5090    24.0880    10.2590    10.5590    12.5490     2.4500 
  242.8750   -13.2900    76.5090    24.1200    10.4710    10.6160    12.6160     2.4700 
  243.0000   -13.2610    76.5090    24.1250    11.0850    10.6640    12.6710     2.4940 
  243.1250   -13.2500    76.5090    24.0560    12.2090    10.6970    12.7010     2.5080 
  243.2500   -13.2530    76.5090    23.9940    13.9200    10.7140    12.7100     2.4990 
  243.3750   -13.2730    76.5090    24.0360    15.6050    10.7190    12.7060     2.4680 
  243.5000   -13.3110    76.5090    24.1270    16.1270    10.7180    12.6960     2.4330 
  243.6250   -13.3640    76.5090    24.1640    14.9540    10.7170    12.6880     2.4210 
  243.7500   -13.4210    76.5090    24.1200    13.3540    10.7160    12.6800     2.4230 
  243.8750   -13.4730    76.5090    24.0310    12.3430    10.7160    12.6750     2.4280 
  244.0000   -13.5160    76.5090    23.9630    12.4710    10.7160    12.6680     2.4370 
  244.1250   -13.5440    76.5090    23.9560    13.5620    10.7160    12.6630     2.4570 
  244.2500   -13.5670    76.5090    24.0150    14.3740    10.7180    12.6590     2.4790 
  244.3750   -13.5890    76.5090    24.1260    14.1090    10.7240    12.6560     2.4970 
  244.5000   -13.6020    76.5090    24.2110    13.2970    10.7330    12.6550     2.5120 
  244.6250   -13.6040    76.5090    24.2270    13.3220    10.7440    12.6550     2.5110 
  244.7500   -13.5990    76.5090    24.1660    13.1500    10.7580    12.6530     2.4810 
  244.8750   -13.5930    76.5090    24.0530    12.5650    10.7730    12.6510     2.4330 
  245.0000  -999.2500    76.5090    23.9620    12.0600    10.7860    12.6480     2.3980 
  245.1250  -999.2500    76.5090    23.9320    11.9840    10.7940    12.6470     2.4020 
  245.2500  -999.2500    76.5090    23.9230    12.2580    10.7950    12.6460     2.4260 
  245.3750  -999.2500    76.5090    23.9090    12.3560    10.7920    12.6480     2.4510 
  245.5000  -999.2500    76.5090    23.8820    11.9920    10.7890    12.6540     2.4650 
  245.6250  -999.2500    76.5090    23.8450    11.4950    10.7900    12.6600     2.4720 
  245.7500  -999.2500    76.5090    23.8450    11.3710    10.7950    12.6640     2.4840 
  245.8750  -999.2500    76.5090    23.8690    11.7850    10.8050    12.6650     2.5010 
  246.0000  -999.2500    76.5090    23.9000    12.4770    10.8200    12.6610     2.5170 
  246.1250  -999.2500    76.5090    23.9120    13.1860    10.8370    12.6550     2.5210 
