~V
VERS. 2.00: Ver 2.00
~W
STRT.M 55.0000:
STOP.M 271.0000:
STEP.M 0.1250:
NULL. -999.2500:
UWI. DF5032:
~C
DEPT.M :
SP.MV :
GR.API :
CALI.CM :
RXO.OHMM :
RI. :
RML.OHMM :
DEN.GM/CC :
~A
# ...
  257.5000   -10.4580    72.2320    23.8200     6.7890     6.2520     7.1910     2.3490 
  257.6250   -10.4220    71.7500    23.8240     6.3360     6.1980     7.1330     2.3500 
  257.7500   -10.3990    71.2130    23.8800     5.9350     6.1530     7.0850     2.3530 
  257.8750   -10.3680    70.1850    23.9880     5.5560     6.1390     7.0700     2.3590 
  258.0000   -10.3190    68.6370    24.1030     5.2220     6.1710     7.1040     2.3630 
  258.1250   -10.2610    67.4460    24.1760     5.1000     6.2580     7.1970     2.3650 
  258.2500   -10.2150    66.9550    24.1670     5.2420     6.3760     7.3230     2.3720 
  258.3750   -10.1920    66.7460    24.1100     5.4980     6.5040     7.4600     2.3840 
  258.5000   -10.1820    66.5590    24.0470     5.6850     6.6250     7.5890     2.3960 
  258.6250   -10.1660    66.7630    23.9720     5.7890     6.7250     7.6960     2.4030 
  258.7500   -10.1310    67.6890    23.8820     5.9120     6.8050     7.7810     2.4020 
  258.8750   -10.0820    69.2600    23.8310     6.1190     6.8730     7.8540     2.3900 
  259.0000   -10.0320    70.8600    23.8580     6.4130     6.9480     7.9330     2.3670 
  259.1250    -9.9960    71.2370    23.9740     6.7350     7.0450     8.0370     2.3440 
  259.2500    -9.9760    70.5260    24.1130     6.9780     7.1650     8.1650     2.3280 
  259.3750    -9.9650    69.5080    24.1960     7.2070     7.2900     8.2980     2.3190 
  259.5000    -9.9540    69.1030    24.2850     7.5980     7.3950     8.4110     2.3170 
  259.6250    -9.9380    70.1000    24.5420     8.2620     7.4490     8.4680     2.3180 
  259.7500    -9.9180    71.4280    24.8970     8.7620     7.4610     8.4810     2.3210 
  259.8750    -9.8940    71.3470    25.1590     8.6930     7.4490     8.4680     2.3290 
  260.0000    -9.8650    69.5370    25.1170     8.1800     7.4520     8.4710     2.3440 
  260.1250    -9.8250    68.3520    25.1020     7.6820     7.5340     8.5590     2.3630 
  260.2500    -9.7670    69.0000    25.1250     7.3550     7.7090     8.7460     2.3830 
  260.3750    -9.6930    70.0100    25.1250     7.2570     7.9720     9.0260     2.4000 
  260.5000    -9.6080    70.1930    25.0570     7.4360     8.2940     9.3690     2.4190 
  260.6250    -9.5290    69.9880    24.8370     7.5810     8.6070     9.7030     2.4460 
  260.7500    -9.4680    69.6130    24.6330     7.6270     8.8300     9.9420     2.4810 
  260.8750    -9.4350    68.3350    24.5530     7.8090     8.9120    10.0290     2.5020 
  261.0000    -9.4310    66.3960    24.5180     8.2440     8.8410     9.9540     2.4890 
  261.1250    -9.4570    65.3270    24.4380     8.6700     8.6430     9.7420     2.4510 
  261.2500    -9.5010    65.8000    24.4320     8.6390     8.4140     9.4980     2.4250 
  261.3750    -9.5550    67.6330    24.5910     8.1570     8.2170     9.2870     2.4210 
  261.5000    -9.6100    70.6270    24.9190     7.5700     8.0890     9.1510     2.4240 
  261.6250    -9.6610    73.2710    25.1030     7.3940     8.0530     9.1130     2.4220 
  261.7500    -9.7080    73.3250    24.9540     7.4800     8.0820     9.1440     2.4320 
  261.8750    -9.7520    71.0100    24.6760     7.4220     8.1470     9.2120     2.4590 
  262.0000    -9.7920    68.9490    24.4310     7.2520     8.2170     9.2880     2.4880 
  262.1250    -9.8250    68.3080    24.2790     7.4130     8.2830     9.3570     2.5000 
  262.2500    -9.8550    68.2430    24.2140     7.9590     8.3490     9.4280     2.4920 
  262.3750    -9.8860    68.2430    24.1730     8.4680     8.4330     9.5180     2.4650 
  262.5000    -9.9260    68.2430    24.2110     8.7530     8.5550     9.6480     2.4280 
  262.6250    -9.9830    68.2430    24.3610     8.8860     8.7420     9.8470     2.4090 
  262.7500   -10.0560    68.2430    24.4570     8.9040     8.9830    10.1050     2.4150 
  262.8750   -10.1440    68.2430    24.4310     8.8560     9.2560    10.3960     2.4290 
  263.0000   -10.2410    68.2430    24.3700     9.0770     9.5200    10.6780     2.4360 
  263.1250   -10.3400    68.2430    24.3960    10.3800     9.7420    10.9150     2.4350 
  263.2500   -10.4340    68.2430    24.5550    12.9280     9.9220    11.1070     2.4300 
  263.3750   -10.5250    68.2430    24.8430    15.8980    10.0700    11.2650     2.4250 
  263.5000   -10.6160    68.2430    25.0800    18.3980    10.1900    11.3930     2.4300 
  263.6250   -10.7140    68.2430    25.0160    20.6030    10.2890    11.4990     2.4500 
  263.7500   -10.8200    68.2430    24.6770    23.1900    10.3910    11.6070     2.4690 
  263.8750   -10.9350    68.2430    24.2630    25.2340    10.5120    11.7370     2.4750 
  264.0000   -11.0580    68.2430    24.0310    25.6460    10.6510    11.8840     2.4700 
  264.1250   -11.1840    68.2430    24.0230    24.0850    10.7860    12.0290     2.4640 
  264.2500   -11.3060    68.2430    24.0500    21.9420    10.9050    12.1560     2.4590 
  264.3750   -11.4160    68.2430    24.0570    19.6550    10.9980    12.2550     2.4580 
  264.5000   -11.5100    68.2430    24.0490    17.6830    11.0660    12.3270     2.4600 
  264.6250   -11.5820    68.2430    24.0320    16.4610    11.1170    12.3820     2.4640 
  264.7500   -11.6360    68.2430    24.0200    15.8740    11.1530    12.4200     2.4710 
  264.8750   -11.6750    68.2430    24.0080    15.7080    11.1750    12.4440     2.4790 
  265.0000   -11.7050    68.2430    23.9650    15.6410    11.1850    12.4540     2.4850 
  265.1250   -11.7360    68.2430    23.8950    15.4940    11.1820    12.4510     2.4830 
  265.2500   -11.7790    68.2430    23.8740    15.4320    11.1750    12.4440     2.4770 
  265.3750   -11.8340    68.2430    23.9230    15.6480    11.1730    12.4420     2.4760 
  265.5000   -11.8970    68.2430    23.9760    16.0480    11.1760    12.4450     2.4760 
  265.6250   -11.9590    68.2430    24.0050    16.4440    11.1740    12.4420     2.4700 
  265.7500   -12.0110    68.2430    24.0180    16.7290    11.1650    12.4340     2.4610 
  265.8750   -12.0490    68.2430    24.0290    17.0390    11.1620    12.4300     2.4630 
  266.0000   -12.0690    68.2430    24.0400    17.4130    11.1700    12.4380     2.4830 
  266.1250   -12.0640    68.2430    24.0350    17.8700    11.1880    12.4580     2.5040 
  266.2500   -12.0390    68.2430    24.0180    18.3230    11.2050    12.4760     2.5060 
  266.3750   -11.9960    68.2430    24.0060    19.1370    11.2120    12.4840     2.4890 
  266.5000   -11.9440    68.2430    24.0000    20.4570    11.2180    12.4890     2.4710 
  266.6250   -11.8910    68.2430    23.9910    22.5980    11.2340    12.5060     2.4620 
  266.7500   -11.8410    68.2430    23.9890    24.6420    11.2470    12.5210     2.4570 
  266.8750   -11.7970    68.2430    23.9930    25.8760    11.2500    12.5230     2.4540 
  267.0000  -999.2500    68.2430    24.0040    26.2260    11.2430    12.5160     2.4580 
  267.1250  -999.2500    68.2430    24.0040    26.5240    11.2360    12.5090     2.4680 
  267.2500  -999.2500    68.2430    24.0000    25.9990    11.2260    12.4980     2.4780 
  267.3750  -999.2500    68.2430    23.9930    24.3240    11.2120    12.4830     2.4850 
  267.5000  -999.2500    68.2430    23.9960    22.1550    11.1980    12.4680     2.4810 
  267.6250  -999.2500    68.2430    24.0090    20.4980    11.1890    12.4580     2.4730 
  267.7500  -999.2500    68.2430    24.0040    19.6200    11.1900    12.4590     2.4760 
  267.8750  -999.2500    68.2430    24.0010    19.1600    11.1970    12.4680     2.4970 
  268.0000  -999.2500    68.2430    23.9970    18.9670    11.2030    12.4730     2.5190 
  268.1250  -999.2500    68.2430    23.9670    19.8010    11.2040    12.4740     2.5220 
  268.2500  -999.2500    68.2430    23.9310    20.9540    11.2040    12.4740     2.5100 
  268.3750  -999.2500    68.2430    23.8690    21.4300    11.2040    12.4740     2.4880 
  268.5000  -999.2500    68.2430    23.8360    20.9830    11.2040    12.4740     2.4560 
  268.6250  -999.2500    68.2430    23.7910    20.5690    11.2040    12.4740     2.3970 
