~V
VERS. 2.00: Ver 2.00
~W
STRT.M 55.0000:
STOP.M 263.0000:
STEP.M 0.1250:
NULL. -999.2500:
UWI. DF5056:
~C
DEPT.M :
GR.API :
CALI.CM :
RXO.OHMM :
RI. :
RML.OHMM :
DEN.GM/CC :
SP.MV :
~A
# ...
  190.0000    66.4130    28.6860    41.0210    67.8540    65.7710     2.2740   -34.2820 
  190.1250    64.9780    28.7800    42.5730    65.8270    64.3990     2.2940   -33.7180 
  190.2500    60.2900    28.9700    53.6360    59.8360    58.8070     2.3160   -33.1230 
  190.3750    55.0910    29.0150    73.2170    47.3190    46.7570     2.3190   -32.4920 
  190.5000    51.2100    28.7760    74.5980    31.7340    31.3590     2.2390   -31.8910 
  190.6250    47.0240    28.6910    43.5410    19.4990    18.9480     2.0520   -31.3080 
  190.7500    42.3340    29.5070    14.6010    11.8720    11.2940     1.8810   -30.7780 
  190.8750    38.9590    31.1910     5.2500     7.7330     7.3650     1.7860   -30.2510 
  191.0000    38.7920    32.8440     3.9480     5.7370     5.7180     1.7610   -29.7920 
  191.1250    41.0160    33.5210     3.7050     5.1180     5.4670     1.8000   -29.4260 
  191.2500    42.5870    33.5240     3.7670     5.1860     5.8170     1.8830   -29.1640 
  191.3750    41.9750    33.3130     4.1560     5.6390     6.4070     1.9660   -29.0020 
  191.5000    39.8920    33.1260     4.6610     6.1740     6.9110     1.9860   -28.9140 
  191.6250    39.8180    33.1720     4.9760     6.4900     7.0550     1.9470   -28.8610 
  191.7500    41.2170    33.3720     4.8480     6.5390     6.9210     1.9220   -28.8440 
  191.8750    41.8840    33.5120     4.5810     6.4110     6.6750     1.9390   -28.8500 
  192.0000    41.6150    33.5220     4.4690     6.2410     6.4710     2.0060   -28.8650 
  192.1250    43.5370    33.5110     4.6320     6.1500     6.4240     2.1200   -28.8910 
  192.2500    46.4750    33.5180     4.7270     6.1500     6.5050     2.2360   -28.9540 
  192.3750    47.2100    33.5430     4.5490     6.1980     6.6520     2.3030   -29.0340 
  192.5000    45.0680    33.4460     4.2350     6.2320     6.7920     2.2980   -29.1210 
  192.6250    43.5710    32.9080     4.2540     6.1920     6.8600     2.2360   -29.2340 
  192.7500    45.5760    32.1190     4.5770     6.0820     6.8500     2.1650   -29.3170 
  192.8750    50.4760    31.7290     5.0130     5.9250     6.7800     2.1150   -29.3900 
  193.0000    54.2280    32.1590     5.3280     5.7540     6.6830     2.0970   -29.4570 
  193.1250    54.1620    32.9900     5.2310     5.6000     6.5970     2.1140   -29.5240 
  193.2500    51.7920    33.4660     4.9040     5.4780     6.5440     2.1480   -29.5910 
  193.3750    49.7730    33.5420     4.6240     5.3960     6.5340     2.1790   -29.6440 
  193.5000    48.5610    33.5070     4.4850     5.3540     6.5680     2.1940   -29.6700 
  193.6250    47.4160    33.5140     4.4420     5.3550     6.6460     2.2030   -29.6700 
  193.7500    47.4630    33.5240     4.3280     5.3840     6.7480     2.2220   -29.6700 
  193.8750    49.9360    33.5000     4.1870     5.4310     6.8600     2.2520   -29.6660 
  194.0000    53.4800    33.3170     4.1340     5.4840     6.9660     2.2870   -29.7070 
  194.1250    54.0190    32.8940     4.2880     5.5280     7.0490     2.3120   -29.8290 
  194.2500    51.4580    32.4160     4.5630     5.5560     7.1070     2.3210   -29.9810 
  194.3750    48.6850    32.0260     4.8300     5.5720     7.1540     2.3180   -30.1890 
  194.5000    48.1880    31.7470     5.0390     5.5850     7.2120     2.3080   -30.4270 
  194.6250    50.4960    31.5630     5.0760     5.6090     7.3050     2.2950   -30.7470 
  194.7500    54.3200    31.4960     5.0430     5.6460     7.4290     2.2780   -31.1190 
  194.8750    57.2630    31.6360     5.0930     5.6930     7.5760     2.2510   -31.5550 
  195.0000    58.3720    31.9800     5.2260     5.7510     7.7490     2.2120   -31.9760 
  195.1250    60.5750    32.2560     5.2700     5.8390     7.9850     2.1690   -32.3970 
  195.2500    66.0730    32.3640     5.4040     5.9780     8.3110     2.1380   -32.7450 
  195.3750    72.7890    32.4320     5.5790     6.1880     8.7400     2.1280   -33.1060 
  195.5000    78.2560    32.4100     5.7980     6.4690     9.2430     2.1400   -33.4770 
  195.6250    83.6310    32.0450     6.2840     6.7830     9.7280     2.1730   -33.8690 
  195.7500    88.5820    31.5280     6.8050     7.0480    10.0780     2.2180   -34.2420 
  195.8750    91.2920    31.1650     7.1920     7.2020    10.2280     2.2670   -34.5930 
  196.0000    91.9460    30.9830     7.5390     7.2300    10.1910     2.3090   -34.8610 
  196.1250    91.9060    30.8030     7.4870     7.1710    10.0640     2.3320   -35.0410 
  196.2500    90.9010    30.6210     7.3410     7.1220     9.9960     2.3400   -35.1660 
  196.3750    88.3940    30.4050     7.6530     7.1490    10.0890     2.3430   -35.2180 
  196.5000    86.2130    30.0380     9.1240     7.2990    10.3960     2.3450   -35.2030 
  196.6250    86.5180    29.5130    11.0250     7.6130    10.9510     2.3490   -35.0920 
  196.7500    87.1720    29.0530    12.0230     8.0510    11.6640     2.3520   -34.9040 
  196.8750    85.5410    28.7960    12.3870     8.5650    12.4390     2.3530   -34.6620 
  197.0000    82.2430    28.7070    13.0740     9.0730    13.1400     2.3540   -34.3920 
  197.1250    80.3270    28.6500    14.9000     9.4170    13.5260     2.3580   -34.1360 
  197.2500    79.6790    28.5580    15.6100     9.4880    13.4810     2.3620   -33.9100 
  197.3750    79.5620    28.4520    14.5980     9.2270    12.9540     2.3650   -33.6340 
  197.5000    82.2390    28.3780    12.4400     8.6610    12.0210     2.3670   -33.3120 
  197.6250    86.6180    28.3620    10.1190     7.9110    10.8980     2.3700   -32.9510 
  197.7500    87.7650    28.2980     8.6740     7.2070     9.9210     2.3730   -32.5680 
  197.8750    84.7820    28.1510     7.6300     6.7000     9.3080     2.3780   -32.1300 
  198.0000    81.1260    28.1500     6.4530     6.4880     9.1850     2.3870   -31.7380 
  198.1250    80.6070    28.4910     5.6220     6.6740     9.6700     2.4030   -31.3450 
  198.2500    82.3420    28.7650     5.6920     7.1930    10.5890     2.4220   -30.9760 
  198.3750    84.7210    28.6480     7.3780     7.9700    11.7260     2.4410   -30.6480 
  198.5000    84.6420    28.2640     9.3980     8.8350    12.7510     2.4530   -30.3660 
  198.6250    80.6540    27.9970    10.4000     9.4480    13.1700     2.4540   -30.0700 
  198.7500    79.2340    27.8710    10.0610     9.5760    12.8420     2.4390   -29.7860 
  198.8750    84.3920    27.7520     9.6240     9.1750    11.8650     2.3930   -29.5350 
  199.0000    92.3000    27.5700     9.2790     8.4070    10.5540     2.3030   -29.2370 
  199.1250    93.4200    27.4600     8.4710     7.5370     9.3070     2.1900   -28.8670 
  199.2500    87.3190    27.9550     7.3060     6.7930     8.3500     2.1000   -28.4080 
  199.3750    77.7010    29.0150     5.9670     6.2560     7.7330     2.0420   -27.9030 
  199.5000    67.2400    29.7640     5.2460     5.9380     7.4140     2.0110   -27.3710 
  199.6250    60.8840    29.4160     5.1950     5.8250     7.3220     1.9970   -26.8740 
  199.7500    59.2370    28.9320     4.9510     5.8160     7.3090     1.9890   -26.4310 
  199.8750    59.4000    29.2400     4.6450     5.8450     7.3000     1.9870   -26.0350 
  200.0000    60.5810    29.8590     4.6160     5.8650     7.2570     1.9990   -25.6990 
  200.1250    66.3020    29.5380     4.8160     5.8560     7.1820     2.0430   -25.4780 
  200.2500    75.1950    28.4520     5.1140     5.8380     7.1160     2.1230   -25.3300 
  200.3750    80.7550    27.3650     5.2820     5.8240     7.0790     2.2260   -25.2420 
  200.5000    81.1290    26.7500     5.4130     5.8130     7.0670     2.3240   -25.2230 
  200.6250    81.4710    26.5400     5.7010     5.7880     7.0520     2.3840   -25.2520 
  200.7500    83.0720    26.5360     6.1340     5.7360     7.0090     2.4080   -25.3030 
  200.8750    82.3980    26.6450     6.2920     5.6620     6.9370     2.4060   -25.3760 
  201.0000    79.9130    26.6300     6.0720     5.5850     6.8500     2.3960   -25.5280 
  201.1250    81.7540    26.2750     5.7570     5.5350     6.7910     2.3890   -25.6660 
