~V
VERS. 2.00: Ver 2.00
~W
STRT.M 64.0000:
STOP.M 243.0000:
STEP.M 0.1250:
NULL. -999.2500:
UWI. DF5061:
~C
DEPT.M :
GR.API :
RML.OHMM :
RI. :
RXO.OHMM :
CALI.CM :
DEN.GM/CC :
SP.MV :
~A
# ...
   97.7500    77.0700     8.0750     6.7340     7.8010    24.6740     2.2800   -18.7560 
   97.8750    81.1720     7.6920     6.3930     7.3980    24.6460     2.2870   -19.3860 
   98.0000    81.9350     7.5760     6.2900     7.1430    24.5360     2.2870   -20.0270 
   98.1250    77.3980     7.7610     6.4540     7.5280    24.3490     2.2790   -20.6980 
   98.2500    69.8640     8.1920     6.8380     8.3470    24.1550     2.2630   -21.4040 
   98.3750    66.5970     8.7550     7.3390     9.1050    24.0350     2.2420   -22.1260 
   98.5000    66.8390     9.2800     7.8060     9.4490    23.9350     2.2210   -22.8470 
   98.6250    65.5030     9.6680     8.1520     9.6090    23.8490     2.2030   -23.5290 
   98.7500    63.3440     9.8840     8.3440     9.8450    23.8420     2.1930   -24.1500 
   98.8750    64.5660     9.9600     8.4120    10.0940    23.9640     2.1950   -24.6820 
   99.0000    67.3240     9.9990     8.4470    10.3330    24.1230     2.2030   -25.1020 
   99.1250    68.8740    10.0500     8.4920    10.4360    24.2440     2.2100   -25.3900 
   99.2500    67.9160    10.1300     8.5630    10.4540    24.3080     2.2070   -25.5550 
   99.3750    65.0830    10.2340     8.6560    10.6580    24.3580     2.1910   -25.6320 
   99.5000    63.5440    10.3460     8.7560    11.0220    24.4060     2.1710   -25.6720 
   99.6250    64.1200    10.4540     8.8520    11.4770    24.4140     2.1550   -25.7190 
   99.7500    64.4820    10.5500     8.9370    11.8060    24.3660     2.1480   -25.7830 
   99.8750    63.5540    10.6210     9.0000    11.8550    24.3100     2.1480   -25.8820 
  100.0000    62.4600    10.6660     9.0400    11.7070    24.2420     2.1490   -25.9960 
  100.1250    61.9290    10.6780     9.0510    11.5640    24.2060     2.1510   -26.1070 
  100.2500    62.0650    10.6600     9.0350    11.4790    24.2050     2.1540   -26.2120 
  100.3750    63.7770    10.6290     9.0080    11.4820    24.2140     2.1630   -26.3210 
  100.5000    65.1680    10.6180     8.9970    11.5270    24.1810     2.1810   -26.4350 
  100.6250    63.5700    10.6420     9.0190    11.5870    24.0970     2.2050   -26.5460 
  100.7500    59.6840    10.7010     9.0710    11.6910    24.0000     2.2260   -26.6510 
  100.8750    57.7010    10.7590     9.1230    11.6800    23.9830     2.2350   -26.7320 
  101.0000    59.8910    10.7750     9.1380    11.5040    24.0720     2.2270   -26.8050 
  101.1250    63.5900    10.7280     9.0970    11.2020    24.2710     2.2040   -26.8800 
  101.2500    64.8310    10.6230     8.9990    10.8860    24.4870     2.1750   -26.9570 
  101.3750    63.4170    10.4930     8.8790    10.6320    24.6690     2.1510   -27.0160 
  101.5000    61.9390    10.3890     8.7850    10.6720    24.7970     2.1370   -27.0550 
  101.6250    60.9820    10.3410     8.7580    10.7890    24.8290     2.1340   -27.0670 
  101.7500    60.9460    10.3630     8.8090    10.8890    24.6890     2.1390   -27.0330 
  101.8750    63.1940    10.4560     8.9640    10.9720    24.5100     2.1470   -26.9230 
  102.0000    65.1760    10.5840     9.1680    11.1360    24.3990     2.1530   -26.7580 
  102.1250    63.8340    10.7190     9.3390    11.3900    24.3990     2.1590   -26.5590 
  102.2500    61.2470    10.8400     9.4490    11.6090    24.4240     2.1650   -26.3240 
  102.3750    61.5070    10.9290     9.5340    11.7310    24.3500     2.1730   -26.0440 
  102.5000    62.9140    10.9820     9.5390    11.6160    24.1940     2.1810   -25.7150 
  102.6250    63.4330    10.9880     9.4670    11.2640    24.0140     2.1880   -25.3330 
  102.7500    62.8820    10.9350     9.3430    10.8860    23.8420     2.1950   -24.9140 
  102.8750    63.0830    10.8060     9.1670    10.5080    23.7070     2.2040   -24.4820 
  103.0000    64.4420    10.6200     9.0240    10.0450    23.6200     2.2130   -24.0330 
  103.1250    65.2500    10.4010     8.8650     9.5640    23.6450     2.2220   -23.5720 
  103.2500    64.0540    10.1840     8.7270     9.2610    23.7750     2.2280   -23.1200 
  103.3750    63.0850    10.0290     8.6160     9.2950    23.9730     2.2290   -22.6920 
  103.5000    65.1140     9.9870     8.5810     9.4590    24.1320     2.2280   -22.2770 
  103.6250    69.6360    10.1070     8.6900     9.5800    24.1850     2.2280   -21.8650 
  103.7500    72.4550    10.4090     8.9380     9.6390    24.1650     2.2340   -21.4550 
  103.8750    71.6540    10.8450     9.3410     9.7390    24.1920     2.2490   -21.0250 
  104.0000    69.6980    11.2180     9.7110     9.8630    24.2970     2.2710   -20.5610 
  104.1250    69.0470    11.3190     9.8080     9.8570    24.4640     2.2920   -20.0270 
  104.2500    71.0080    10.9840     9.4570     9.5080    24.6340     2.3070   -19.4050 
  104.3750    77.0230    10.1300     8.6430     8.5740    24.7320     2.3140   -18.6700 
  104.5000    85.7550     9.0310     7.5840     7.3300    24.7680     2.3180   -17.8630 
  104.6250    94.6540     7.9490     6.6210     6.2780    24.7650     2.3240   -17.0400 
  104.7500   101.9310     7.1010     5.8660     5.6870    24.7480     2.3320   -16.2380 
  104.8750   105.6070     6.6720     5.4840     5.4900    24.7420     2.3370   -15.5200 
  105.0000   102.5690     6.6110     5.4300     5.5860    24.7340     2.3380   -14.9280 
  105.1250    95.9520     6.8520     5.6450     5.9410    24.6910     2.3350   -14.4860 
  105.2500    91.0650     7.2710     6.0180     6.5850    24.5870     2.3340   -14.1940 
  105.3750    88.5610     7.6920     6.3930     7.2770    24.4180     2.3340   -14.0810 
  105.5000    87.2360     7.9610     6.6320     7.8850    24.2270     2.3320   -14.1040 
  105.6250    88.8290     8.0180     6.6820     8.0820    24.0760     2.3250   -14.2210 
  105.7500    92.4930     7.8940     6.5720     7.4750    24.0640     2.3140   -14.3980 
  105.8750    93.3770     7.6820     6.3840     6.7920    24.1820     2.3020   -14.6010 
  106.0000    93.0660     7.4950     6.2170     6.3660    24.2620     2.2940   -14.7970 
  106.1250    94.2890     7.3620     6.0990     6.4600    24.1470     2.2920   -14.9900 
  106.2500    95.5510     7.2730     6.0190     6.6520    23.9020     2.2970   -15.1850 
  106.3750    95.6810     7.1980     5.9530     6.4770    23.8050     2.3080   -15.3850 
  106.5000    98.1250     7.1270     5.8890     6.2880    24.0840     2.3200   -15.6100 
  106.6250   102.4990     7.0840     5.8510     6.2680    24.4180     2.3280   -15.8830 
  106.7500   103.4560     7.1120     5.8770     6.2870    24.5350     2.3260   -16.2150 
  106.8750    99.4280     7.2670     6.0150     6.3860    24.4540     2.3100   -16.6390 
  107.0000    96.2260     7.5300     6.2470     6.5550    24.2880     2.2860   -17.1590 
  107.1250    95.0360     7.8680     6.5430     6.7310    24.0680     2.2580   -17.7700 
  107.2500    91.2710     8.2220     6.8600     7.0160    23.8660     2.2340   -18.4450 
  107.3750    83.8660     8.5590     7.1650     7.3260    23.6850     2.2200   -19.1760 
  107.5000    82.0970     8.8520     7.4580     7.5860    23.4850     2.2140   -19.9180 
  107.6250    86.2930     9.1080     7.7480     7.7520    23.2230     2.2150   -20.6460 
  107.7500    88.2060     9.3420     8.0390     7.9210    22.9670     2.2180   -21.3400 
  107.8750    82.7370     9.5120     8.2920     8.2820    22.9100     2.2170   -21.9700 
  108.0000    75.8500     9.6010     8.4540     8.6900    23.0380     2.2120   -22.5140 
  108.1250    72.8390     9.5660     8.4780     8.8970    23.2650     2.2060   -22.9290 
  108.2500    72.7150     9.4250     8.3500     8.7810    23.4880     2.2030   -23.2170 
  108.3750    74.6010     9.2440     8.0880     8.4880    23.6100     2.2040   -23.3840 
  108.5000    77.8380     9.0700     7.7850     8.2350    23.6510     2.2080   -23.4770 
  108.6250    81.1410     8.9270     7.5130     8.1140    23.6670     2.2110   -23.5160 
  108.7500    84.1280     8.8570     7.3360     8.1460    23.6880     2.2110   -23.5290 
  108.8750    87.2350     8.9710     7.3390     8.2410    23.7440     2.2060   -23.5170 
