~V
VERS. 2.00: Ver 2.00
~W
STRT.M 64.0000:
STOP.M 243.0000:
STEP.M 0.1250:
NULL. -999.2500:
UWI. DF5061:
~C
DEPT.M :
GR.API :
RML.OHMM :
RI. :
RXO.OHMM :
CALI.CM :
DEN.GM/CC :
SP.MV :
~A
# ...
   86.5000   101.5100     6.4500     5.3980     6.1160    24.6150     2.3390   -15.0250 
   86.6250   100.2370     7.3120     6.0180     7.1080    24.5680     2.3780   -15.3940 
   86.7500    95.2080     8.7120     7.0660     9.0980    24.5000     2.4260   -15.9060 
   86.8750    86.3880    10.4420     8.4610    12.2110    24.3880     2.4590   -16.5610 
   87.0000    78.3570    12.0120     9.8450    15.4270    24.2680     2.4600   -17.3360 
   87.1250    72.9980    13.0200    10.8760    17.1710    24.1960     2.4280   -18.2300 
   87.2500    70.6370    13.2440    11.3040    16.7960    24.1700     2.3750   -19.2370 
   87.3750    68.5020    12.7140    11.0360    15.0330    24.1360     2.3140   -20.3460 
   87.5000    65.5110    11.9270    10.4390    13.4260    24.0590     2.2550   -21.5000 
   87.6250    63.1200    11.2260     9.7870    11.8410    23.9730     2.2030   -22.6660 
   87.7500    63.1490    10.7520     9.2520    10.7560    23.8830     2.1600   -23.8040 
   87.8750    65.3440    10.5330     8.9110    10.3570    23.7460     2.1360   -24.8680 
   88.0000    65.5610    10.3450     8.7020    10.3070    23.5620     2.1290   -25.8230 
   88.1250    62.7630    10.1070     8.5690    10.5330    23.3920     2.1370   -26.6440 
   88.2500    59.4660     9.9130     8.4630    10.8110    23.2960     2.1520   -27.3050 
   88.3750    59.2390     9.7860     8.3550    10.8710    23.2410     2.1630   -27.7550 
   88.5000    59.6890     9.8200     8.2760    10.8960    23.2220     2.1640   -28.0500 
   88.6250    59.5810    10.0850     8.3050    10.9550    23.2990     2.1610   -28.2100 
   88.7500    59.3510    10.6770     8.5300    11.2120    23.5200     2.1700   -28.2590 
   88.8750    59.6870    11.5300     9.0320    11.6210    23.8840     2.2130   -28.2070 
   89.0000    58.3170    12.4810     9.6980    12.0880    24.2170     2.2890   -28.1160 
   89.1250    57.0380    13.2040    10.3630    12.5240    24.4010     2.3770   -28.0210 
   89.2500    58.1790    13.4210    10.8140    12.7890    24.4820     2.4390   -27.9470 
   89.3750    57.9280    13.0270    10.8170    12.6510    24.4830     2.4370   -27.9130 
   89.5000    56.1910    12.3310    10.4470    12.1220    24.3950     2.3900   -27.9000 
   89.6250    57.5120    11.6700     9.8720    11.7320    24.2580     2.3250   -27.9000 
   89.7500    62.8200    11.2490     9.2970    11.6470    24.1670     2.2690   -27.9030 
   89.8750    63.9710    10.9550     8.8810    11.8070    24.1370     2.2350   -27.8770 
   90.0000    58.8440    10.7180     8.6090    11.9330    24.1220     2.2150   -27.7980 
   90.1250    54.3060    10.5150     8.4140    11.9120    24.1190     2.2050   -27.6580 
   90.2500    55.1240    10.3290     8.2300    11.6260    24.1370     2.2050   -27.4540 
   90.3750    59.3030    10.0670     8.0290    10.9790    24.1020     2.2130   -27.1780 
   90.5000    61.7170     9.8120     7.8460    10.2100    24.0220     2.2260   -26.8830 
   90.6250    62.0250     9.6720     7.7320     9.6880    23.9500     2.2350   -26.6070 
   90.7500    62.5560     9.6890     7.7240     9.8590    23.8850     2.2370   -26.3810 
   90.8750    64.4340     9.8380     7.8380    10.5070    23.8300     2.2260   -26.2660 
   91.0000    65.4460    10.0180     8.0230    11.3180    23.7520     2.2110   -26.2530 
   91.1250    63.7340    10.1760     8.2320    11.8970    23.6110     2.1970   -26.3400 
   91.2500    60.5040    10.2910     8.4240    12.4200    23.3720     2.1870   -26.5210 
   91.3750    58.5160    10.3610     8.5680    12.9780    23.0940     2.1840   -26.8130 
   91.5000    58.3020    10.4090     8.6700    13.4960    22.9700     2.1840   -27.1480 
   91.6250    58.2980    10.4480     8.7370    14.0840    23.0390     2.1860   -27.4670 
   91.7500    56.2430    10.4770     8.7710    14.5220    23.2120     2.1880   -27.7250 
   91.8750    53.2050    10.4750     8.7540    14.6130    23.3610     2.1880   -27.8820 
   92.0000    51.3050    10.4190     8.6740    13.8400    23.4570     2.1860   -27.9580 
   92.1250    51.2450    10.2840     8.5190    12.4790    23.5600     2.1820   -27.9400 
   92.2500    53.6060    10.0660     8.2930    11.2310    23.7090     2.1790   -27.8220 
   92.3750    58.6700     9.7690     8.0180    10.5010    23.9510     2.1840   -27.6010 
   92.5000    63.8890     9.4520     7.7480     9.7370    24.2380     2.1920   -27.3210 
   92.6250    66.1390     9.1530     7.5320     9.2580    24.4660     2.2000   -27.0240 
   92.7500    65.8150     8.9230     7.4110     9.3580    24.5450     2.2020   -26.7510 
   92.8750    64.9670     8.8540     7.4200     9.7730    24.5630     2.1950   -26.5240 
   93.0000    64.7220     8.9460     7.5230    10.1860    24.6040     2.1880   -26.3250 
   93.1250    65.0370     9.1270     7.6800    10.4320    24.6240     2.1840   -26.1590 
   93.2500    64.1960     9.2990     7.8450    10.5600    24.5940     2.1870   -26.0270 
   93.3750    63.6650     9.4430     7.9710    10.5870    24.5170     2.1930   -25.9300 
   93.5000    66.8620     9.5030     8.0530    10.6110    24.4400     2.1980   -25.8590 
   93.6250    70.7450     9.5520     8.1050    10.6970    24.3750     2.1970   -25.8040 
   93.7500    69.9620     9.5660     8.1460    10.8450    24.2630     2.1930   -25.7580 
   93.8750    65.5010     9.5690     8.1860    10.9420    24.0370     2.1920   -25.6970 
   94.0000    63.2700     9.5790     8.2220    11.0410    23.7890     2.1950   -25.6240 
   94.1250    64.4820     9.6000     8.2470    11.1240    23.6040     2.2030   -25.5430 
   94.2500    66.6170     9.6460     8.2640    11.1990    23.4520     2.2090   -25.4540 
   94.3750    67.0260     9.7140     8.3020    11.3360    23.4110     2.2080   -25.3470 
   94.5000    65.8750     9.8240     8.4040    11.5170    23.4590     2.1980   -25.2010 
   94.6250    64.6080     9.9900     8.5930    11.6650    23.5960     2.1830   -24.9940 
   94.7500    65.2440    10.1950     8.8440    11.8210    23.7960     2.1720   -24.6970 
   94.8750    65.9930    10.3730     9.0450    11.9480    23.9430     2.1750   -24.2800 
   95.0000    66.4370    10.3470     9.0600    11.9130    24.0280     2.1940   -23.7670 
   95.1250    68.4360     9.9900     8.8030    11.5180    23.9570     2.2250   -23.1660 
   95.2500    72.4480     9.3390     8.2860    10.5930    23.7300     2.2620   -22.4580 
   95.3750    77.8250     8.5830     7.6260     9.2270    23.4710     2.2940   -21.6280 
   95.5000    82.6810     7.9800     7.0320     7.8470    23.3280     2.3130   -20.7310 
   95.6250    85.6910     7.6680     6.6210     7.0300    23.3340     2.3200   -19.8000 
   95.7500    86.1300     7.6630     6.4350     7.0410    23.4620     2.3150   -18.8950 
   95.8750    84.5340     7.8710     6.4590     7.2830    23.6870     2.3000   -18.0710 
   96.0000    82.5150     8.0690     6.5580     7.3620    23.9620     2.2840   -17.3180 
   96.1250    79.1050     8.1050     6.6280     7.2770    24.2800     2.2720   -16.6410 
   96.2500    76.2180     7.9060     6.5900     7.1200    24.5560     2.2710   -16.0740 
   96.3750    78.4240     7.4860     6.3980     6.8040    24.6610     2.2810   -15.6470 
   96.5000    83.4150     7.0150     6.1270     6.3910    24.6940     2.2950   -15.3440 
   96.6250    85.3500     6.6470     5.8700     6.0360    24.7130     2.3070   -15.1680 
   96.7500    82.8400     6.5180     5.7290     5.9590    24.7500     2.3150   -15.1190 
   96.8750    82.7920     6.7720     5.8380     6.2870    24.8620     2.3240   -15.2200 
   97.0000    85.6030     7.3360     6.1930     7.0700    25.0860     2.3320   -15.4570 
   97.1250    85.6040     8.0820     6.7300     8.2430    25.2760     2.3350   -15.8270 
   97.2500    80.3260     8.7890     7.3040     9.5310    25.1670     2.3280   -16.3050 
   97.3750    72.5900     9.1410     7.6590    10.2640    24.8000     2.3090   -16.8700 
   97.5000    69.9880     9.0520     7.6890     9.5060    24.6380     2.2900   -17.4790 
   97.6250    72.6830     8.6160     7.3340     8.5220    24.6420     2.2790   -18.1160 
