~V
VERS. 2.00: Ver 2.00
~W
STRT.M 60.0000:
STOP.M 277.0000:
STEP.M 0.1250:
NULL. -999.2500:
UWI. DF5010:
~C
DEPT.M :
GR.API :
CALI.CM :
RXO.OHMM :
RI. :
RML.OHMM :
SP.MV :
DEN.GM/CC :
~A
# ...
  116.2500    77.5120    23.7700     8.7940     6.8890     7.7830   -44.0910     2.1250 
  116.3750    78.5880    23.7810     8.8030     6.9380     7.8630   -44.1010     2.1180 
  116.5000    74.4620    23.7790     8.7550     6.9990     7.9360   -43.9630     2.1210 
  116.6250    70.6180    23.7790     8.7670     7.0490     7.9840   -43.8940     2.1300 
  116.7500    70.2250    23.7790     8.8220     7.0790     8.0070   -43.8770     2.1320 
  116.8750    70.9040    23.7800     8.7620     7.0900     8.0120   -43.7960     2.1280 
  117.0000    70.2090    23.7840     8.5890     7.0920     8.0110   -43.7740     2.1270 
  117.1250    67.8590    23.7890     8.4540     7.0910     8.0100   -43.6940     2.1340 
  117.2500    67.0630    23.7830     8.4680     7.0740     7.9880   -43.5970     2.1400 
  117.3750    67.9150    23.7610     8.4640     7.0100     7.9080   -43.3890     2.1380 
  117.5000    67.1820    23.7340     8.2760     6.8730     7.7420   -43.0540     2.1290 
  117.6250    66.2330    23.7210     7.8310     6.6520     7.4890   -42.7370     2.1240 
  117.7500    70.3240    23.7210     7.3620     6.4030     7.2170   -42.3830     2.1320 
  117.8750    77.2770    23.7240     6.7850     6.1800     6.9960   -41.9880     2.1520 
  118.0000    80.1160    23.7220     6.5300     6.0360     6.8820   -41.5590     2.1720 
  118.1250    77.2360    23.7160     6.5820     6.0160     6.9140   -41.1690     2.1750 
  118.2500    76.3720    23.7120     6.7840     6.0860     7.0400   -40.7750     2.1670 
  118.3750    79.7130    23.7110     6.8640     6.2110     7.2090   -40.4600     2.1600 
  118.5000    82.2980    23.7100     6.9950     6.3510     7.3710   -40.2420     2.1600 
  118.6250    80.0330    23.7200     7.1290     6.4730     7.4850   -40.0270     2.1640 
  118.7500    76.5710    23.7410     7.1820     6.5710     7.5580   -39.7540     2.1700 
  118.8750    74.9320    23.7620     7.2780     6.6540     7.6050   -39.4850     2.1780 
  119.0000    75.9110    23.7740     7.5230     6.7250     7.6370   -39.2780     2.1860 
  119.1250    77.5910    23.7770     7.8160     6.7730     7.6420   -39.0050     2.1860 
  119.2500    75.9960    23.7780     7.9320     6.7910     7.6170   -38.7660     2.1790 
  119.3750    72.1500    23.7790     7.8330     6.7830     7.5690   -38.4210     2.1660 
  119.5000    68.9610    23.7790     7.6420     6.7680     7.5230   -38.0460     2.1540 
  119.6250    68.2600    23.7790     7.5150     6.7820     7.5330   -37.6260     2.1530 
  119.7500    70.2660    23.7790     7.5180     6.8470     7.6110   -37.0790     2.1610 
  119.8750    73.3230    23.7790     7.5950     6.9350     7.7070   -36.6230     2.1730 
  120.0000    74.8400    23.7790     7.7140     6.9570     7.7050   -36.0450     2.1870 
  120.1250    73.2080    23.7770     7.9010     6.7650     7.4350   -35.4140     2.2030 
  120.2500    75.3640    23.7810     7.8480     6.3460     6.9050   -34.7790     2.2200 
  120.3750    83.9460    23.8240     7.0330     5.7720     6.2160   -34.0400     2.2350 
  120.5000    93.2630    23.9140     5.6250     5.1710     5.5260   -33.4160     2.2480 
  120.6250   100.4500    24.0000     4.6310     4.6850     5.0040   -32.8390     2.2580 
  120.7500   108.7250    24.0390     4.5780     4.3520     4.6730   -32.3910     2.2630 
  120.8750   117.9760    24.0420     4.7920     4.1670     4.5120   -31.9930     2.2680 
  121.0000   121.8040    24.0390     4.8600     4.1150     4.4910   -31.6590     2.2790 
  121.1250   116.4620    24.0400     4.8100     4.1990     4.6040   -31.5250     2.3040 
  121.2500   109.8380    24.0370     4.8580     4.3820     4.8130   -31.3390     2.3400 
  121.3750   106.2700    24.0410     5.2710     4.6410     5.0990   -31.3490     2.3740 
  121.5000   105.8300    24.0790     6.1710     4.9440     5.4230   -31.4580     2.3960 
  121.6250   105.8550    24.1580     7.1030     5.2210     5.6920   -31.5050     2.3870 
  121.7500   105.7490    24.2250     7.1080     5.3960     5.8240   -31.6280     2.3500 
  121.8750   105.4120    24.2520     6.4420     5.4260     5.7920   -31.7340     2.3020 
  122.0000   104.2350    24.2520     6.1720     5.3250     5.6320   -31.7990     2.2630 
  122.1250   104.8390    24.2490     6.0910     5.1460     5.4220   -31.8130     2.2480 
  122.2500   106.9880    24.2540     6.0220     4.9710     5.2450   -31.8600     2.2490 
  122.3750   109.6300    24.2740     5.7170     4.8440     5.1400   -31.9350     2.2530 
  122.5000   111.4620    24.3030     5.4500     4.7860     5.1170   -31.8540     2.2540 
  122.6250   111.5750    24.3230     5.4810     4.8140     5.1890   -31.8770     2.2510 
  122.7500   109.3680    24.3280     5.6670     4.9100     5.3270   -31.8850     2.2460 
  122.8750   104.3890    24.3260     5.6630     5.0500     5.5000   -31.8050     2.2440 
  123.0000    98.2240    24.3270     5.6550     5.1920     5.6560   -31.8600     2.2450 
  123.1250    92.8790    24.3250     5.9420     5.2650     5.7160   -31.8330     2.2440 
  123.2500    91.3980    24.3280     6.1630     5.2350     5.6530   -31.8630     2.2420 
  123.3750    95.4540    24.3420     6.1710     5.1030     5.4780   -31.8070     2.2400 
  123.5000   102.8670    24.3650     5.7970     4.9050     5.2420   -31.7380     2.2430 
  123.6250   109.4480    24.3820     5.1410     4.7000     5.0200   -31.7280     2.2600 
  123.7500   114.7200    24.3860     4.8220     4.5390     4.8640   -31.6100     2.2820 
  123.8750   118.0830    24.3850     4.7090     4.4410     4.7820   -31.5390     2.2980 
  124.0000   117.8990    24.3840     4.8290     4.4010     4.7590   -31.5190     2.3030 
  124.1250   115.7020    24.3950     5.1030     4.4020     4.7660   -31.5070     2.3020 
  124.2500   115.8400    24.4190     5.1740     4.4200     4.7880   -31.4610     2.3040 
  124.3750   117.2220    24.4430     4.9770     4.4590     4.8360   -31.5110     2.3090 
  124.5000   117.6690    24.4540     4.7380     4.5250     4.9280   -31.5920     2.3120 
  124.6250   115.8100    24.4530     4.8030     4.6230     5.0650   -31.6880     2.3020 
  124.7500   111.7860    24.4530     5.1460     4.7230     5.1970   -31.7960     2.2770 
  124.8750   106.0410    24.4530     5.3710     4.7890     5.2700   -31.9230     2.2500 
  125.0000   101.6190    24.4530     5.4480     4.7870     5.2450   -32.0310     2.2400 
  125.1250   103.4300    24.4530     5.4030     4.7140     5.1370   -32.0860     2.2540 
  125.2500   107.2380    24.4530     5.1570     4.6470     5.0630   -32.2140     2.2730 
  125.3750   109.2380    24.4520     5.0800     4.6620     5.1210   -32.3190     2.2880 
  125.5000   108.3150    24.4530     5.4220     4.8010     5.3460   -32.3670     2.3060 
  125.6250   106.8260    24.4550     6.0220     5.0500     5.6880   -32.4290     2.3410 
  125.7500   104.6230    24.4340     8.1020     5.2940     5.9930   -32.5770     2.3830 
  125.8750   101.4520    24.3680    10.2040     5.4370     6.1470   -32.7660     2.4030 
  126.0000    98.9740    24.2420     9.5020     5.4410     6.1250   -32.9520     2.3830 
  126.1250   100.6800    24.0550     6.8910     5.3710     6.0360   -33.2500     2.3310 
  126.2500   103.1830    23.8510     5.8860     5.3700     6.0570   -33.5800     2.2760 
  126.3750   100.6520    23.6500     6.1880     5.5140     6.2650   -33.8060     2.2260 
  126.5000    91.4970    23.4530     6.8530     5.8200     6.6530   -34.1840     2.1860 
  126.6250    81.4930    23.2870     7.2790     6.2380     7.1160   -34.5200     2.1660 
  126.7500    77.7440    23.1890     7.2650     6.6210     7.4810   -34.6970     2.1630 
  126.8750    79.4740    23.1610     7.2870     6.8530     7.6340   -34.8330     2.1700 
  127.0000    81.8040    23.1630     7.3900     6.8710     7.5420   -34.8490     2.1730 
  127.1250    81.9950    23.1640     8.0040     6.6680     7.2350   -34.7940     2.1660 
  127.2500    82.4970    23.1630     7.9750     6.3490     6.8370   -34.5690     2.1610 
  127.3750    83.1740    23.1600     7.4530     5.9890     6.4290   -34.3660     2.1660 
