~V
VERS. 2.00: Ver 2.00
~W
STRT.M 60.0000:
STOP.M 251.0000:
STEP.M 0.1250:
NULL. -999.2500:
UWI. DF5053:
~C
DEPT.M :
GR.API :
RML.OHMM :
RI. :
RXO.OHMM :
CALI.CM :
DEN.GM/CC :
SP.MV :
~A
# ...
  240.0000    54.7380    12.1210    11.7050    10.8950    23.6000     2.2960    -5.8640 
  240.1250    55.0890    11.2760    10.8570     9.0620    23.6530     2.2940    -5.6610 
  240.2500    55.4670    10.8140    10.4000     8.7850    23.7670     2.3060    -5.5090 
  240.3750    61.4340    10.5220    10.1530     9.1310    23.7810     2.3230    -5.5000 
  240.5000    71.0030    10.2410     9.9610     9.5480    23.6130     2.3390    -5.5720 
  240.6250    71.0030     9.9140     9.7280     9.7790    23.4380     2.3510    -5.6530 
  240.7500    71.0030     9.5670     9.4490     9.8500    23.4110     2.3640    -5.7660 
  240.8750    71.0030     9.2580     9.1600     9.8900    23.5340     2.3770    -5.9150 
  241.0000    71.0030     9.0710     8.9290     9.9650    23.7180     2.3840    -6.0440 
  241.1250    71.0030     9.0280     8.7950    10.0960    23.8390     2.3790    -6.1600 
  241.2500    71.0030     9.1270     8.7700    10.0660    23.8820     2.3640    -6.2890 
  241.3750    71.0030     9.3440     8.8410    10.1130    23.8500     2.3460    -6.3800 
  241.5000    71.0030     9.6380     8.9820    10.2040    23.7970     2.3380    -6.4620 
  241.6250    71.0030     9.9450     9.1400    10.1490    23.7380     2.3440    -6.5430 
  241.7500    71.0030    10.2260     9.2850     9.8610    23.6690     2.3610    -6.6180 
  241.8750    71.0030    10.4510     9.3950     9.6420    23.6030     2.3820    -6.6930 
  242.0000    71.0030    10.5980     9.4570     9.6500    23.6180     2.3980    -6.7590 
  242.1250    71.0030    10.6880     9.4810     9.8820    23.6330     2.4090    -6.8310 
  242.2500    71.0030    10.7460     9.4780    10.4730    23.6010     2.4130    -6.8870 
  242.3750    71.0030    10.8010     9.4630    11.0420    23.5890     2.4080    -6.8980 
  242.5000    71.0030    10.8850     9.4550    10.8580    23.6600     2.3910    -6.8450 
  242.6250    71.0030    11.0180     9.4720    10.2630    23.7080     2.3660    -6.7400 
  242.7500    71.0030    11.2150     9.5300     9.6360    23.7050     2.3430    -6.6680 
  242.8750    71.0030    11.4860     9.6430     9.2400    23.6690     2.3310    -6.5660 
  243.0000    71.0030    11.8330     9.8220     9.5580    23.6110     2.3340    -6.4410 
  243.1250    71.0030    12.2140    10.0450    10.6980    23.5240     2.3450    -6.3010 
  243.2500    71.0030    12.5930    10.2860    12.3610    23.5490     2.3530    -6.1050 
  243.3750    71.0030    12.9380    10.5190    14.2340    23.7060     2.3540    -5.9010 
  243.5000    71.0030    13.2270    10.7190    15.4680    23.9160     2.3540    -5.7520 
  243.6250    71.0030    13.4670    10.8880    15.5530    24.0120     2.3620    -5.6420 
  243.7500    71.0030    13.6620    11.0400    15.1520    24.0200     2.3810    -5.5490 
  243.8750    71.0030    13.8120    11.1940    15.8520    23.9730     2.4090    -5.4800 
  244.0000    71.0030    13.9110    11.3720    18.2590    23.8970     2.4350    -5.4260 
  244.1250    71.0030    13.9740    11.5680    20.6030    23.8140     2.4510    -5.3860 
  244.2500    71.0030    14.0080    11.7650    21.9680    23.7310     2.4540    -5.4140 
  244.3750    71.0030    14.0270    11.9360    22.4610    23.6600     2.4480    -5.4690 
  244.5000    71.0030    14.0360    12.0520    23.2490    23.6300     2.4440    -5.4870 
  244.6250    71.0030    14.0420    12.1170    24.0960    23.6210     2.4480    -5.5090 
  244.7500    71.0030    14.0460    12.1440    23.7520    23.5870     2.4600    -5.5090 
  244.8750    71.0030    14.0490    12.1500    21.3470    23.5400     2.4750    -5.5330 
  245.0000    71.0030    14.0540    12.1500    17.5020    23.5170     2.4850    -5.5580 
  245.1250    71.0030    14.0600    12.1510    14.4210    23.4680     2.4910    -5.6070 
  245.2500    71.0030    14.0650    12.1540    13.2380    23.3440     2.4950    -5.7060 
  245.3750    71.0030    14.0690    12.1570    13.0970    23.1370     2.4970    -5.8170 
  245.5000    71.0030    14.0700    12.1590    12.8030    22.8150     2.4940    -5.9430 
  245.6250    71.0030    14.0700    12.1590    11.7880    22.2100     2.4870    -6.0650 
  245.7500    71.0030    14.0680    12.1600    10.8900    21.3430     2.4730    -6.1760 
  245.8750    71.0030    14.0660    12.1610    10.7760    20.4390     2.4540    -6.2850 
  246.0000    71.0030    14.0620    12.1640    10.9700    19.5390     2.4190    -6.3980 
  246.1250    71.0030    14.0580    12.1660    10.9060    18.7800     2.3660    -6.4740 
  246.2500    71.0030    14.0550    12.1670    10.4900    18.3080     2.2950    -6.4770 
  246.3750    71.0030    14.0520    12.1670     9.9290    18.1340     2.2170    -6.4810 
  246.5000    71.0030    14.0510    12.1660     9.5900    18.1110     2.1470  -999.2500 
  246.6250    71.0030    14.0510    12.1660     9.4080    18.1160     2.0930  -999.2500 
  246.7500    71.0030    14.0510    12.1660     9.3630    18.1360     2.0580  -999.2500 
  246.8750    71.0030    14.0510    12.1660     9.3520    18.1510     2.0400  -999.2500 
  247.0000    71.0030    14.0510    12.1660     9.2580    18.1160     2.0370  -999.2500 
  247.1250    71.0030    14.0510    12.1660     9.3730    17.8870     2.0430  -999.2500 
  247.2500    71.0030    14.0510    12.1660     9.7040    17.3150     2.0530  -999.2500 
  247.3750    71.0030    14.0510    12.1660    10.0160    16.5420     2.0630  -999.2500 
  247.5000    71.0030    14.0510    12.1660    10.4280    16.0000     2.0700  -999.2500 
  247.6250    71.0030    14.0510    12.1660    10.6420    15.7850     2.0760  -999.2500 
  247.7500    71.0030    14.0510    12.1660    10.6770    15.7580     2.0820  -999.2500 
  247.8750    71.0030    14.0510    12.1660    10.5440    15.8140     2.0890  -999.2500 
  248.0000    71.0030    14.0510    12.1660    10.4090    15.8800     2.0970  -999.2500 
  248.1250    71.0030    14.0510    12.1660    10.2080    15.9590     2.1040  -999.2500 
  248.2500    71.0030    14.0510    12.1660    10.0150    16.0040     2.1070  -999.2500 
  248.3750    71.0030    14.0510    12.1660     9.8530    15.9900     2.1040  -999.2500 
  248.5000    71.0030    14.0510    12.1660     9.8330    15.8920     2.0960  -999.2500 
  248.6250    71.0030    14.0510    12.1660     9.8530    15.7450     2.0850  -999.2500 
  248.7500    71.0030    14.0510    12.1660     9.7720    15.4980     2.0740  -999.2500 
  248.8750    71.0030    14.0510    12.1660     9.5540    15.0570     2.0660  -999.2500 
  249.0000    71.0030    14.0510    12.1660     9.0000    14.4500     2.0600  -999.2500 
  249.1250    71.0030    14.0510    12.1660     8.3630    13.8990     2.0560  -999.2500 
  249.2500    71.0030    14.0510    12.1660     7.8570    13.6510     2.0530  -999.2500 
  249.3750    71.0030    14.0510    12.1660     7.6580    13.6010     2.0510  -999.2500 
  249.5000    71.0030    14.0510    12.1660     7.6410    13.6000     2.0490  -999.2500 
  249.6250    71.0030    14.0510    12.1660     7.6410    13.6000     2.0480  -999.2500 
  249.7500    71.0030    14.0510    12.1660     7.6420    13.6000     2.0460  -999.2500 
  249.8750    71.0030    14.0510    12.1660     7.6420    13.6000     2.0430  -999.2500 
  250.0000    71.0030    14.0510    12.1660     7.6410    13.6000     2.0400  -999.2500 
  250.1250    71.0030    14.0510    12.1660     7.6410    13.6000     2.0380  -999.2500 
  250.2500    71.0030    14.0510    12.1660     7.6400    13.6000     2.0370  -999.2500 
  250.3750    71.0030    14.0510    12.1660     7.6390    13.6000     2.0380  -999.2500 
  250.5000    71.0030    14.0510    12.1660     7.6390    13.6000     2.0410  -999.2500 
  250.6250    71.0030    14.0510    12.1660     7.6380    13.5990     2.0440  -999.2500 
  250.7500    71.0030    14.0510    12.1660     7.6380    13.5980     2.0470  -999.2500 
  250.8750    71.0030    14.0510    12.1660     7.6390    13.5940     2.0480  -999.2500 
  251.0000    71.0030    14.0510    12.1660     7.6400    13.5920     2.0470  -999.2500 
