~V
VERS. 2.00: Ver 2.00
~W
STRT.M 59.0000:
STOP.M 264.0000:
STEP.M 0.1250:
NULL. -999.2500:
UWI. DF5022:
~C
DEPT.M :
GR.API :
CALI.CM :
RXO.OHMM :
RI. :
RML.OHMM :
SP.MV :
DEN.GM/CC :
~A
# ...
  239.0000    61.9860    24.3370    55.7310    58.7910    63.5290   -20.6910     2.2580 
  239.1250    57.9850    24.3460    63.8220    58.1540    62.5530   -20.9960     2.2630 
  239.2500    53.8730    24.3450    72.9010    57.4520    61.3040   -21.3100     2.2580 
  239.3750    53.1580    24.3460    67.9860    55.9660    59.0940   -21.6520     2.2490 
  239.5000    56.4900    24.3480    55.0030    53.4840    55.8740   -22.0090     2.2490 
  239.6250    60.1690    24.3460    50.2730    50.4120    52.2700   -22.2970     2.2620 
  239.7500    61.2730    24.3440    46.0310    47.6530    49.2590   -22.4850     2.2780 
  239.8750    61.1320    24.3310    40.2700    45.7950    47.4040   -22.5530     2.2850 
  240.0000    61.3720    24.2860    39.8520    45.0650    46.8340   -22.4790     2.2780 
  240.1250    60.0170    24.2210    45.0300    45.3990    47.3520   -22.3920     2.2640 
  240.2500    57.6380    24.1770    48.7330    46.2190    48.2870   -22.3320     2.2610 
  240.3750    57.3500    24.1650    47.3630    47.2750    49.3900   -22.2220     2.2730 
  240.5000    60.0760    24.1650    44.2300    48.5700    50.7220   -22.0820     2.2910 
  240.6250    62.4400    24.1780    44.2000    50.4270    52.7040   -21.9340     2.3030 
  240.7500    62.3660    24.2300    47.8010    53.0500    55.5820   -21.8410     2.3070 
  240.8750    60.8110    24.3160    56.5270    56.5160    59.4020   -21.7530     2.3020 
  241.0000    58.8210    24.3970    68.9020    60.5920    63.8470   -21.6670     2.2850 
  241.1250    55.2250    24.4300    75.2100    64.5330    67.9830   -21.4810     2.2650 
  241.2500    52.0500    24.4340    73.7920    67.1740    70.4740   -21.3350     2.2570 
  241.3750    51.4300    24.4330    70.8970    67.4910    70.2260   -21.3070     2.2670 
  241.5000    53.8400    24.4330    71.1880    65.2130    67.1110   -21.3260     2.2840 
  241.6250    57.6300    24.4330    72.1130    61.1060    62.2390   -21.3810     2.2890 
  241.7500    58.7860    24.4330    65.5470    57.0700    57.7520   -21.4080     2.2800 
  241.8750    56.7170    24.4330    51.4040    54.2720    54.8650   -21.4630     2.2670 
  242.0000    55.1140    24.4330    47.9750    53.3200    54.0960   -21.5210     2.2590 
  242.1250    57.2110    24.4330    63.8690    54.4510    55.4700   -21.5210     2.2540 
  242.2500    61.1960    24.4320    75.3150    56.6940    57.7850   -21.4050     2.2520 
  242.3750    63.1710    24.4310    69.6990    59.2060    60.1000   -21.2300     2.2550 
  242.5000    62.5930    24.4300    59.8690    61.1870    61.6300   -20.9720     2.2630 
  242.6250    60.9740    24.4310    57.7640    61.9440    61.8820   -20.7130     2.2640 
  242.7500    59.2800    24.4320    60.4990    61.7840    61.4200   -20.6030     2.2520 
  242.8750    59.1150    24.4330    62.1100    61.2410    60.8520   -20.6030     2.2370 
  243.0000    61.5600    24.4330    61.2390    60.9120    60.7170   -20.6420     2.2320 
  243.1250    63.8080    24.4330    60.6910    61.6640    61.8780   -20.7090     2.2450 
  243.2500    63.0700    24.4330    58.2570    64.2460    65.1070   -20.7980     2.2640 
  243.3750    60.4870    24.4330    57.0270    69.4900    71.2420   -20.8730     2.2820 
  243.5000    60.2270    24.4330    65.7580    77.7140    80.4680   -20.9410     2.2910 
  243.6250    62.1150    24.4330    92.2070    87.9630    91.4030   -20.9610     2.2870 
  243.7500    61.8440    24.4330   125.9160    96.8730   100.0960   -20.9320     2.2770 
  243.8750    57.1720    24.4330   147.4780   101.5130   103.2680   -20.9260     2.2680 
  244.0000    50.4670    24.4330   138.2480   100.9520   100.4710   -20.9540     2.2650 
  244.1250    47.7750    24.4330   108.4630    97.2360    95.0280   -20.9310     2.2670 
  244.2500    49.5650    24.4330    80.8900    95.0730    92.1200   -20.8280     2.2650 
  244.3750    52.0430    24.4330    79.5650    97.6430    94.4580   -20.7260     2.2540 
  244.5000    53.9260    24.4310   104.6760   106.0350   102.4060   -20.7580     2.2380 
  244.6250    56.3070    24.4330   141.0410   117.0180   112.1400   -20.9820     2.2370 
  244.7500    58.3000    24.4510   165.4030   121.1960   114.3200   -21.2310     2.2620 
  244.8750    58.3740    24.4830   175.3130   110.8250   102.0030   -21.3740     2.3050 
  245.0000    56.9690    24.4990   157.1170    87.0140    77.9110   -21.4050     2.3450 
  245.1250    55.5620    24.4750   107.7770    61.0450    53.7530   -21.4020     2.3610 
  245.2500    58.6350    24.4410    48.9690    42.0760    36.6920   -21.4410     2.3600 
  245.3750    67.5220    24.4240    23.3140    30.9780    26.8400   -21.5540     2.3490 
  245.5000    75.8280    24.4230    18.2380    25.8510    22.4990   -21.7530     2.3340 
  245.6250    77.7160    24.4240    18.5430    25.5740    22.9470   -21.9490     2.3200 
  245.7500    75.7380    24.4240    28.0900    29.1170    27.1760   -21.9910     2.3100 
  245.8750    70.0650    24.4240    52.8660    37.0370    35.4230   -21.9310     2.3000 
  246.0000    60.9250    24.4200    83.7690    49.7020    47.7550   -21.8440     2.2830 
  246.1250    55.7320    24.4140    90.5200    66.0930    63.2670   -21.7690     2.2620 
  246.2500    58.5740    24.4090    94.8610    81.1550    77.5390   -21.7650     2.2590 
  246.3750    63.5920    24.4070   116.0010    90.1090    85.9440   -21.7510     2.2870 
  246.5000    64.5820    24.4080   139.6110    90.8740    86.3410   -21.6790     2.3270 
  246.6250    61.2490    24.4100   127.4070    84.8020    80.4130   -21.4800     2.3400 
  246.7500    57.3830    24.4140    96.9150    77.0330    73.4580   -21.2680     2.3260 
  246.8750    55.2980    24.4180    71.0750    70.5260    68.2910   -21.1060     2.3070 
  247.0000    55.1560    24.4210    66.6460    67.0780    66.4070   -20.9470     2.3060 
  247.1250    56.0550    24.4260    68.6180    67.9430    68.7200   -20.7420     2.3330 
  247.2500    57.8520    24.4150    73.3640    71.9690    73.9350   -20.4290     2.3780 
  247.3750    60.1280    24.3630    85.5560    77.8010    80.6730   -20.0840     2.4360 
  247.5000    62.0150    24.2830   109.8590    83.3410    86.7560   -19.7520     2.4920 
  247.6250    63.5810    24.2290   105.1360    85.5640    88.9330   -19.5310     2.5170 
  247.7500    65.2830    24.2160    87.3280    83.7760    86.6180   -19.3000     2.5000 
  247.8750    67.1250    24.2190    66.8910    78.7220    80.8480   -18.9790     2.4550 
  248.0000    67.3050    24.2190    51.5060    72.0210    73.6000   -18.6660     2.4070 
  248.1250    63.3950    24.2190    34.3640    65.5470    66.9620   -18.4460     2.3610 
  248.2500    57.5300    24.2190    38.3090    60.4110    61.8860   -18.3400     2.3050 
  248.3750    53.6550    24.2190    45.9280    56.8470    58.4690   -18.2650     2.2440 
  248.5000    54.0170    24.2190    50.9760    54.8050    56.6390   -18.1600     2.1950 
  248.6250    56.6050    24.2190    52.3580    54.8150    57.0950   -17.8960     2.1730 
  248.7500    58.2180    24.2190    52.7230    57.3400    60.4180   -17.5410     2.1810 
  248.8750    59.0660    24.2190    53.3390    63.3230    67.6240   -17.1620     2.2270 
  249.0000    58.8510    24.2190    57.5250    73.2700    79.1850   -16.7450     2.3180 
  249.1250    58.0280    24.2190   114.8890    84.8320    92.2270   -16.2840     2.4470 
  249.2500    57.6970    24.2190   178.4120    89.5340    96.6060   -15.7900     2.5750 
  249.3750    56.9930    24.2190   190.6950    79.5030    83.5720   -15.3140     2.6600 
  249.5000    53.1330    24.2190   141.7440    57.3640    58.0310   -14.7440     2.6750 
  249.6250    46.1600    24.2190    76.4520    35.9160    35.1860   -14.0620     2.6180 
  249.7500    42.1910    24.2190    33.3050    21.6260    20.5680   -13.4410     2.5380 
  249.8750    43.5250    24.2170    12.6570    13.6120    12.5830   -12.9580     2.4680 
  250.0000    47.4400    24.2140     6.5310     9.5640     8.6840   -12.6210     2.4200 
  250.1250    49.9040    24.2130     5.8490     7.8380     7.1790   -12.3880     2.3910 
