~V
VERS. 2.00: Ver 2.00
~W
STRT.M 60.0000:
STOP.M 251.0000:
STEP.M 0.1250:
NULL. -999.2500:
UWI. DF5053:
~C
DEPT.M :
GR.API :
RML.OHMM :
RI. :
RXO.OHMM :
CALI.CM :
DEN.GM/CC :
SP.MV :
~A
# ...
  195.0000    98.4650    13.4820    11.6860    13.0660    23.9740     2.5210    -7.6920 
  195.1250    98.7960    12.3230    10.8950    12.1360    24.0010     2.5060    -7.6490 
  195.2500    99.7250    10.8590     9.8200    11.2330    24.1400     2.4850    -7.6060 
  195.3750   102.8360     9.4390     8.7180    10.0500    24.2210     2.4650    -7.5640 
  195.5000   104.2490     8.4060     7.8480     8.9660    24.1090     2.4480    -7.5180 
  195.6250   104.6940     7.8570     7.3160     8.1660    23.9830     2.4360    -7.5120 
  195.7500   104.9010     7.8410     7.1870     7.8290    23.9030     2.4310    -7.5520 
  195.8750   101.2810     8.3400     7.4830     7.9600    23.8080     2.4350    -7.6130 
  196.0000    93.8650     9.2650     8.1920     8.5720    23.7930     2.4510    -7.6990 
  196.1250    90.1430    10.2260     9.0360     9.4690    23.8280     2.4770    -7.7660 
  196.2500    92.4860    10.8110     9.6910    10.2510    23.9130     2.5120    -7.7960 
  196.3750    98.1340    10.6340     9.8060    10.5700    23.9700     2.5520    -7.7900 
  196.5000   103.5800     9.4130     9.0330    10.5020    23.9660     2.5840    -7.6870 
  196.6250   105.6060     7.6140     7.6440    10.2280    23.9040     2.5950    -7.4030 
  196.7500   101.0790     5.7600     6.0370     9.3000    23.8150     2.5780    -6.9500 
  196.8750    89.0320     4.2990     4.6130     7.5910    23.7300     2.5310    -6.3440 
  197.0000    71.2600     3.5270     3.6900     5.5270    23.6460     2.4680    -5.6840 
  197.1250    56.4510     3.2810     3.2360     4.0230    23.6250     2.4070    -5.0260 
  197.2500    50.5690     3.3950     3.1740     3.3880    23.6180     2.3620    -4.3830 
  197.3750    51.1270     3.6770     3.3710     3.3230    23.5740     2.3380    -3.7810 
  197.5000    49.3150     3.9110     3.6450     3.6800    23.4870     2.3380    -3.3210 
  197.6250    45.5230     3.9660     3.8090     4.1600    23.3700     2.3510    -3.0490 
  197.7500    46.2280     3.8450     3.8000     4.3900    23.2350     2.3710    -2.9750 
  197.8750    55.9610     3.6590     3.6710     4.2760    23.1410     2.3910    -3.0860 
  198.0000    72.8140     3.6120     3.5830     4.0360    23.1650     2.4070    -3.3210 
  198.1250    86.9840     3.7230     3.6660     4.1140    23.2870     2.4210    -3.6020 
  198.2500    95.9870     4.0330     3.9550     4.7430    23.4120     2.4320    -3.8920 
  198.3750   100.9880     4.5440     4.4030     5.7110    23.5230     2.4400    -4.1670 
  198.5000   102.7340     5.0470     4.8860     6.3270    23.7280     2.4400    -4.3710 
  198.6250   100.3970     5.3920     5.2590     6.4740    23.8990     2.4320    -4.4910 
  198.7500    99.1670     5.5520     5.4580     6.3790    23.9390     2.4180    -4.5000 
  198.8750   101.3170     5.5960     5.5080     6.2840    23.8320     2.4020    -4.4420 
  199.0000   101.6770     5.6570     5.5150     6.2520    23.7660     2.3900    -4.2680 
  199.1250   101.6520     5.8180     5.5820     6.4420    23.8460     2.3800    -4.0240 
  199.2500   102.7780     6.0850     5.7370     6.8530    23.9570     2.3720    -3.7760 
  199.3750   102.0640     6.4260     5.9670     7.4330    23.9890     2.3640    -3.5640 
  199.5000    97.7270     6.8270     6.2520     8.0580    23.9820     2.3570    -3.4400 
  199.6250    93.5020     7.2840     6.5710     8.5080    23.9880     2.3520    -3.4390 
  199.7500    90.0770     7.8130     6.9310     8.8420    24.0180     2.3490    -3.5470 
  199.8750    86.7530     8.4500     7.3450     9.2360    24.0540     2.3440    -3.6920 
  200.0000    86.8680     9.2030     7.8440    10.2150    24.0980     2.3400    -3.8880 
  200.1250    88.8670    10.0480     8.4320    11.4540    24.1320     2.3370    -4.1230 
  200.2500    88.2550    10.9230     9.1140    12.7740    24.1560     2.3370    -4.3580 
  200.3750    81.9550    11.8760     9.9020    13.6820    24.1650     2.3370    -4.5840 
  200.5000    79.4910    12.8660    10.8480    14.5550    24.1650     2.3340    -4.8190 
  200.6250    83.1740    14.0750    11.9900    16.1440    24.1650     2.3260    -5.0570 
  200.7500    86.4670    15.7770    13.3920    17.4550    24.1650     2.3150    -5.2770 
  200.8750    83.1910    17.9850    15.1020    18.7420    24.1650     2.3030    -5.5240 
  201.0000    77.9730    20.5260    17.1540    20.5220    24.1690     2.2910    -5.8420 
  201.1250    77.0840    23.1820    19.3840    23.6120    24.1780     2.2800    -6.2170 
  201.2500    76.4720    25.7930    21.6560    27.2990    24.1830     2.2700    -6.6570 
  201.3750    73.7400    28.3240    23.9010    31.0470    24.1740     2.2620    -7.1300 
  201.5000    71.3030    31.0600    26.2730    33.1120    24.1660     2.2640    -7.5830 
  201.6250    70.9060    34.5160    29.1320    33.0590    24.1510     2.2730    -8.0060 
  201.7500    71.0820    39.1350    32.8420    33.7610    24.1230     2.2870    -8.4380 
  201.8750    69.5500    44.8960    37.4830    39.1820    24.1020     2.2980    -8.8510 
  202.0000    65.8130    50.8520    42.5080    49.2480    24.0620     2.2980    -9.2350 
  202.1250    62.3760    55.2210    46.5980    58.4330    24.0080     2.2900    -9.6150 
  202.2500    62.0070    56.4920    48.5130    64.2940    24.0020     2.2820   -10.0080 
  202.3750    65.0740    54.1740    47.6260    61.9410    24.0430     2.2800   -10.4140 
  202.5000    69.4340    49.4360    44.4050    51.3090    24.0580     2.2890   -10.8620 
  202.6250    68.5550    45.3330    41.1310    43.9140    24.0470     2.3000   -11.3520 
  202.7500    65.7740    43.7770    39.4890    41.8250    24.0710     2.3030   -11.8600 
  202.8750    66.4030    45.7570    40.5890    42.2060    24.1430     2.2960   -12.4050 
  203.0000    69.7990    52.0670    45.4380    48.8160    24.2000     2.2810   -12.9370 
  203.1250    71.3870    61.4080    53.1350    61.8420    24.2220     2.2670   -13.4460 
  203.2500    70.8100    72.4540    62.6370    73.1060    24.2250     2.2570   -13.9350 
  203.3750    68.1430    83.4590    72.4760    77.2150    24.2250     2.2490   -14.4130 
  203.5000    63.5790    92.3930    80.9030    77.8990    24.2250     2.2410   -14.8700 
  203.6250    61.9850    99.1120    87.5580    81.4160    24.2250     2.2330   -15.3500 
  203.7500    65.2340   104.7710    93.1840    87.2770    24.2250     2.2270   -15.8400 
  203.8750    66.2800   111.2120    99.1860    93.1010    24.2250     2.2230   -16.3060 
  204.0000    64.5580   120.3000   107.1440    99.1470    24.2350     2.2200   -16.7820 
  204.1250    66.0070   131.8200   117.0910   110.3590    24.2800     2.2130   -17.2460 
  204.2500    68.3090   144.6430   128.2920   128.6840    24.3820     2.2030   -17.6780 
  204.3750    65.0160   156.6250   139.1640   149.4980    24.5090     2.1910   -18.1010 
  204.5000    57.7600   164.2030   146.9320   159.8470    24.5580     2.1820   -18.4910 
  204.6250    54.3880   166.0750   150.2560   157.6150    24.5030     2.1790   -18.7910 
  204.7500    53.9500   162.5990   148.9090   147.9600    24.3840     2.1830   -19.0300 
  204.8750    52.8440   155.9650   143.9610   136.5130    24.2730     2.1890   -19.2000 
  205.0000    55.0140   148.8860   137.1060   124.8280    24.2250     2.1940   -19.3040 
  205.1250    59.3860   143.0190   130.1880   115.2030    24.1950     2.1970   -19.3830 
  205.2500    62.0160   137.7420   123.8120   109.1260    24.1740     2.1980   -19.4720 
  205.3750    60.7510   132.3560   118.1210   105.1020    24.1650     2.2010   -19.5660 
  205.5000    60.0810   126.8050   113.2830   100.0100    24.1650     2.2050   -19.6660 
  205.6250    61.8830   121.3210   109.3190    94.2960    24.1700     2.2110   -19.7220 
  205.7500    62.9780   117.3110   106.4500    89.3000    24.1860     2.2140   -19.7100 
  205.8750    61.7800   115.0380   104.9440    85.9300    24.2100     2.2120   -19.7010 
  206.0000    54.8270   115.0930   105.3650    86.5530    24.2220     2.2060   -19.7170 
  206.1250    49.0070   117.3280   107.6460    89.6750    24.2250     2.2020   -19.7560 
