~V
VERS. 2.00: Ver 2.00
~W
STRT.M 65.0000:
STOP.M 258.0000:
STEP.M 0.1250:
NULL. -999.2500:
UWI. DF5030:
~C
DEPT.M :
SP.MV :
GR.API :
RML.OHMM :
RI. :
RXO.OHMM :
CALI.CM :
DEN.GM/CC :
~A
# ...
  132.5000   -23.4470    69.4380     8.3400     7.2200     8.0720    23.3480     2.2010 
  132.6250   -23.4500    71.2330     8.8440     7.6860     8.3460    23.5190     2.2040 
  132.7500   -23.4500    71.6590     9.1740     8.0530     8.5420    23.6640     2.2060 
  132.8750   -23.4330    68.6050     9.2810     8.2580     8.5530    23.6600     2.2010 
  133.0000   -23.3430    66.2050     9.1970     8.3070     8.3910    23.5830     2.1940 
  133.1250   -23.1250    67.3010     8.9150     8.1870     8.1900    23.5190     2.1860 
  133.2500   -22.7780    72.4250     8.4390     7.8890     7.9650    23.4930     2.1830 
  133.3750   -22.3620    83.9810     7.7920     7.4120     7.6140    23.4960     2.1880 
  133.5000   -21.9270    96.9830     7.0970     6.8480     7.1590    23.5200     2.2000 
  133.6250   -21.5060   104.9490     6.4560     6.2830     6.6670    23.6100     2.2160 
  133.7500   -21.1180   106.3600     5.9520     5.7950     6.1420    23.7730     2.2340 
  133.8750   -20.7350   104.3920     5.6560     5.4660     5.6920    23.9210     2.2490 
  134.0000   -20.3520   103.9960     5.5220     5.2870     5.5550    23.9940     2.2620 
  134.1250   -20.0010   102.0410     5.4950     5.2310     5.6080    24.0420     2.2700 
  134.2500   -19.7140    95.2980     5.5050     5.2440     5.6180    24.0500     2.2740 
  134.3750   -19.5360    87.8570     5.4700     5.2500     5.6090    23.9890     2.2740 
  134.5000   -19.4120    88.1190     5.3520     5.1900     5.5490    23.9070     2.2720 
  134.6250   -19.3070    97.1070     5.1540     5.0460     5.4660    23.9140     2.2730 
  134.7500   -19.2080   108.2580     4.9160     4.8420     5.1470    24.0250     2.2810 
  134.8750   -19.1160   112.9190     4.7090     4.6390     4.7890    24.2020     2.2960 
  135.0000   -19.0280   110.2930     4.5690     4.4940     4.5840    24.2840     2.3090 
  135.1250   -18.9570   103.9580     4.4980     4.4210     4.6860    24.2560     2.3140 
  135.2500   -18.9090    99.3590     4.4780     4.4100     4.9630    24.1240     2.3050 
  135.3750   -18.8990   100.6510     4.4920     4.4370     5.4320    23.9670     2.2900 
  135.5000   -18.9210   106.6850     4.5240     4.4690     5.5990    23.8600     2.2770 
  135.6250   -18.9420   115.8320     4.5780     4.5010     5.1110    23.8600     2.2740 
  135.7500   -18.9570   122.6350     4.6590     4.5350     4.6830    23.8630     2.2780 
  135.8750   -19.0190   122.3640     4.7500     4.5640     4.6810    23.7910     2.2860 
  136.0000   -19.1710   118.9740     4.8120     4.5700     4.7890    23.6010     2.2920 
  136.1250   -19.3690   116.6090     4.8270     4.5370     4.7760    23.2040     2.2950 
  136.2500   -19.5560   115.1250     4.8070     4.4780     4.7070    22.7140     2.2980 
  136.3750   -19.7140   113.9850     4.8340     4.4600     4.7570    22.4800     2.3030 
  136.5000   -19.8910   112.9630     5.0020     4.5660     5.0400    22.5130     2.3130 
  136.6250   -20.1640   108.7790     5.3730     4.8560     5.6370    22.6610     2.3290 
  136.7500   -20.5320    99.7740     5.9420     5.3360     6.4520    22.7850     2.3490 
  136.8750   -20.9120    89.9080     6.6300     5.9550     7.2330    22.9340     2.3590 
  137.0000   -21.2310    81.1890     7.2660     6.5660     7.6840    23.2400     2.3480 
  137.1250   -21.5040    76.6970     7.7310     7.0570     7.7440    23.6140     2.3160 
  137.2500   -21.7590    80.5830     7.9650     7.3540     7.7430    23.8550     2.2720 
  137.3750   -21.9650    90.4360     7.9500     7.4070     7.9060    23.9340     2.2330 
  137.5000   -22.1130    93.5410     7.7610     7.2720     8.0000    23.9490     2.2110 
  137.6250   -22.1560    89.2540     7.4200     6.9620     7.9040    23.9520     2.2050 
  137.7500   -22.0700    86.8520     6.9360     6.4950     7.5700    23.9520     2.2130 
  137.8750   -21.8800    94.8210     6.3530     5.9160     6.8870    23.9540     2.2260 
  138.0000   -21.6550   105.9750     5.8150     5.3630     6.0650    23.9730     2.2370 
  138.1250   -21.4450   111.0140     5.4940     4.9750     5.3610    24.0190     2.2390 
  138.2500   -21.3010   105.4610     5.5730     4.8920     5.1710    24.0230     2.2300 
  138.3750   -21.2450    91.4100     6.3160     5.3260     6.1140    23.8130     2.2130 
  138.5000   -21.1910    76.7880     7.6550     6.2610     7.5840    23.4630     2.1990 
  138.6250   -21.0830    66.8710     9.3890     7.6090     9.6620    23.2280     2.2030 
  138.7500   -20.9110    62.2880    11.0880     9.1040    12.4720    23.2790     2.2340 
  138.8750   -20.7050    61.7230    12.0170    10.1990    15.4280    23.6070     2.2960 
  139.0000   -20.5080    66.8360    11.8380    10.4900    17.8760    23.9810     2.3640 
  139.1250   -20.3250    79.1560    10.5900     9.8540    18.0690    24.1720     2.4150 
  139.2500   -20.0990    93.8980     8.7340     8.5390    13.7490    24.2280     2.4300 
  139.3750   -19.7840   102.6130     6.9560     7.0560     8.1500    24.2640     2.4050 
  139.5000   -19.4550   107.3490     5.6440     5.8340     5.6040    24.3120     2.3660 
  139.6250   -19.2260   111.4240     4.8310     4.9870     4.8050    24.3620     2.3290 
  139.7500   -19.1410   115.6490     4.4040     4.4760     4.5160    24.4310     2.3050 
  139.8750   -19.1910   118.9650     4.2270     4.2160     4.3300    24.4950     2.3000 
  140.0000   -19.2900   120.0430     4.1270     4.0530     4.1470    24.4510     2.3100 
  140.1250   -19.3850   119.1970     4.0500     3.9250     3.9660    24.4030     2.3300 
  140.2500   -19.4820   121.1340     4.0020     3.8280     3.8550    24.4080     2.3470 
  140.3750   -19.6380   125.4340     4.0630     3.8250     3.8430    24.4810     2.3390 
  140.5000   -19.8880   124.8910     4.3060     3.9740     3.9740    24.6310     2.3050 
  140.6250   -20.1890   117.8350     4.7870     4.3200     4.3960    24.7920     2.2560 
  140.7500   -20.5380   108.0680     5.5130     4.8750     5.1870    24.6940     2.2100 
  140.8750   -20.9230    98.2340     6.4320     5.6100     6.3600    24.3250     2.1850 
  141.0000   -21.3260    88.8510     7.3660     6.3880     7.5720    24.0210     2.1780 
  141.1250   -21.7240    82.9060     8.1680     7.0910     8.4540    23.8390     2.1810 
  141.2500   -22.0950    83.0470     8.7410     7.6240     8.9000    23.7690     2.1840 
  141.3750   -22.4560    80.2830     9.0430     7.9290     9.0260    23.7730     2.1820 
  141.5000   -22.7720    69.3970     9.1960     8.0920     9.1360    23.7900     2.1790 
  141.6250   -22.9740    59.6610     9.2930     8.1890     9.2180    23.7770     2.1760 
  141.7500   -23.0220    58.8650     9.3960     8.2780     9.1990    23.7480     2.1740 
  141.8750   -22.9260    63.5970     9.5080     8.3660     9.1960    23.7320     2.1730 
  142.0000   -22.7690    64.8540     9.5630     8.4100     9.1580    23.7590     2.1710 
  142.1250   -22.5750    65.0010     9.4650     8.3460     9.1800    23.8240     2.1690 
  142.2500   -22.3140    67.1340     9.1240     8.1160     9.1550    23.8650     2.1670 
  142.3750   -21.8960    69.4400     8.4770     7.6700     8.9010    23.8760     2.1710 
  142.5000   -21.3710    73.0140     7.6700     7.0940     8.4310    23.9180     2.1850 
  142.6250   -20.8420    78.9030     6.8650     6.4860     7.5380    24.0260     2.2090 
  142.7500   -20.3920    88.2710     6.2150     5.9550     6.2590    24.1020     2.2400 
  142.8750   -20.0130   100.6040     5.8470     5.6090     5.6320    24.1120     2.2680 
  143.0000   -19.6410   111.6330     5.7000     5.4350     5.5850    24.0580     2.2850 
  143.1250   -19.2730   118.4720     5.6880     5.3860     5.7930    23.9480     2.2880 
  143.2500   -18.9820   119.1690     5.7030     5.3840     5.9760    23.8470     2.2790 
  143.3750   -18.8510   116.3750     5.6310     5.3360     5.8590    23.8660     2.2690 
  143.5000   -18.8380   113.9010     5.4570     5.2110     5.6510    23.9640     2.2630 
  143.6250   -18.8950   113.3400     5.2370     5.0380     5.3530    24.1010     2.2660 
