~V
VERS. 2.00: Ver 2.00
~W
STRT.M 55.0000:
STOP.M 274.0000:
STEP.M 0.1250:
NULL. -999.2500:
UWI. DF5015:
~C
DEPT.M :
DEN.GM/CC :
GR.API :
CALI.CM :
RXO.OHMM :
RI. :
RML.OHMM :
SP.MV :
~A
# ...
  212.5000     2.2420    69.9050    24.1840    68.9760    64.9360    68.8520   -14.2080 
  212.6250     2.2400    71.8130    24.1110    74.1780    68.9940    73.1380   -14.2960 
  212.7500     2.2440    70.0600    24.1870    84.3910    73.6820    78.0890   -14.3500 
  212.8750     2.2480    66.6440    24.3180    93.3460    78.2580    82.9210   -14.3720 
  213.0000     2.2420    65.5180    24.4640    95.6970    82.0430    86.9180   -14.3670 
  213.1250     2.2150    67.5040    24.5450    94.4160    84.4150    89.4230   -14.3460 
  213.2500     2.1750    69.0320    24.5650    96.6820    85.5730    90.6450   -14.3220 
  213.3750     2.1380    69.4670    24.5240   102.8120    85.8070    90.8920   -14.3000 
  213.5000     2.1240    70.8300    24.4920   108.2400    85.5330    90.6030   -14.2790 
  213.6250     2.1440    73.9650    24.4460   108.0960    85.1770    90.2270   -14.2570 
  213.7500     2.1750    75.9610    24.3400   103.2800    84.9100    89.9450   -14.2390 
  213.8750     2.1970    74.8540    24.2120    96.9840    84.6540    89.6750   -14.2270 
  214.0000     2.2050    71.6040    24.1490    92.7640    84.3180    89.3200   -14.2190 
  214.1250     2.2040    69.0470    24.2440    92.8670    83.8490    88.8240   -14.2050 
  214.2500     2.2000    67.8180    24.3820    93.5540    83.2540    88.1960   -14.1860 
  214.3750     2.1940    66.9570    24.4360    94.2640    82.5610    87.4650   -14.1660 
  214.5000     2.1880    66.0750    24.4170    94.4200    81.9020    86.7680   -14.1460 
  214.6250     2.1860    65.9240    24.4430    91.7300    81.4710    86.3140   -14.1230 
  214.7500     2.1950    65.9570    24.5320    86.3790    81.3620    86.1980   -14.0930 
  214.8750     2.2170    65.1440    24.6400    80.5790    81.6350    86.4870   -14.0600 
  215.0000     2.2450    63.9490    24.6870    78.9330    82.2470    87.1320   -14.0300 
  215.1250     2.2680    63.8740    24.6510    87.5680    83.0210    87.9500   -14.0160 
  215.2500     2.2800    64.6870    24.4790   101.4530    83.6900    88.6570   -14.0150 
  215.3750     2.2800    65.3990    24.1760   108.7170    84.0320    89.0180   -14.0210 
  215.5000     2.2660    65.9460    23.9280   101.0180    83.8200    88.7940   -14.0330 
  215.6250     2.2430    66.5670    23.8060    84.3760    82.8890    87.8110   -14.0550 
  215.7500     2.2200    67.0190    23.7860    72.0510    81.5270    86.3730   -14.0880 
  215.8750     2.2000    67.7320    23.8360    67.4240    80.0570    84.8200   -14.1300 
  216.0000     2.1860    69.5060    23.9370    65.8620    78.8320    83.5270   -14.1770 
  216.1250     2.1840    71.5690    24.0330    63.6690    78.3330    82.9990   -14.2280 
  216.2500     2.1900    71.8590    23.9890    61.4250    78.7180    83.4060   -14.2850 
  216.3750     2.1940    70.4240    23.8510    61.6250    80.0940    84.8590   -14.3480 
  216.5000     2.1940    68.4690    23.6790    65.6880    82.4580    87.3550   -14.4190 
  216.6250     2.1920    66.6550    23.6110    72.5680    85.8300    90.9170   -14.5000 
  216.7500     2.1880    64.6610    23.6430    79.6220    89.8810    95.1940   -14.5910 
  216.8750     2.1780    62.9120    23.7780    85.8790    94.4680   100.0380   -14.6930 
  217.0000     2.1610    62.2450    23.9620    92.2050    99.5240   105.3770   -14.7970 
  217.1250     2.1510    63.6760    24.1970    99.6030   105.0720   111.2360   -14.9000 
  217.2500     2.1500    66.2660    24.3770   108.3100   110.8920   117.3820   -15.0030 
  217.3750     2.1510    68.0590    24.4550   119.2770   116.7250   123.5420   -15.1100 
  217.5000     2.1470    67.4630    24.4750   132.7380   122.2150   129.3390   -15.2180 
  217.6250     2.1430    64.9680    24.4840   145.2130   126.5770   133.9450   -15.3210 
  217.7500     2.1480    62.9470    24.4840   154.0990   129.1820   136.6970   -15.4160 
  217.8750     2.1610    62.2370    24.4540   158.3240   129.5080   137.0400   -15.5060 
  218.0000     2.1740    62.8690    24.4020   153.9260   127.5400   134.9620   -15.6000 
  218.1250     2.1830    65.6160    24.3960   142.5800   123.6140   130.8170   -15.6990 
  218.2500     2.1880    69.8690    24.4120   130.3690   119.0380   125.9850   -15.7950 
  218.3750     2.1880    73.0850    24.4060   123.6380   114.7400   121.4450   -15.8800 
  218.5000     2.1830    72.6230    24.4170   119.3850   111.4190   117.9390   -15.9560 
  218.6250     2.1720    69.5570    24.4590   115.1690   109.6450   116.0660   -16.0270 
  218.7500     2.1600    68.9350    24.5250   115.7940   109.0790   115.4670   -16.0890 
  218.8750     2.1540    71.2330    24.5890   121.6150   109.0300   115.4150   -16.1280 
  219.0000     2.1580    72.9050    24.6040   128.6970   108.3760   114.7250   -16.1350 
  219.1250     2.1700    71.4820    24.6510   132.4940   105.6510   111.8470   -16.1110 
  219.2500     2.1770    69.8350    24.7080   132.5330   100.6840   106.6030   -16.0660 
  219.3750     2.1740    69.7390    24.7100   129.2810    93.7440    99.2740   -16.0050 
  219.5000     2.1680    70.7620    24.6380   121.9110    85.5690    90.6410   -15.9280 
  219.6250     2.1760    72.3900    24.5610   107.3190    77.3020    81.9110   -15.8370 
  219.7500     2.1920    74.0090    24.4900    89.1420    69.9920    74.1910   -15.7450 
  219.8750     2.2050    74.3930    24.4230    73.7080    64.1600    68.0330   -15.6630 
  220.0000     2.2090    73.4110    24.3570    65.1360    59.9260    63.5620   -15.5950 
  220.1250     2.2060    72.9330    24.3700    62.1570    57.2240    60.7090   -15.5450 
  220.2500     2.2000    73.4930    24.4180    61.0640    55.3660    58.7470   -15.5110 
  220.3750     2.1940    73.6480    24.4130    59.4930    53.9870    57.2900   -15.4880 
  220.5000     2.1970    72.5500    24.3610    57.0820    52.8560    56.0950   -15.4690 
  220.6250     2.2070    71.3510    24.3770    54.2790    51.9020    55.0880   -15.4460 
  220.7500     2.2130    71.0560    24.4180    51.6730    51.1530    54.2980   -15.4150 
  220.8750     2.2080    71.6050    24.3780    49.8570    50.7580    53.8810   -15.3790 
  221.0000     2.1970    73.1060    24.2520    48.9310    50.8850    54.0140   -15.3390 
  221.1250     2.1900    75.4610    24.1400    48.9740    51.7690    54.9480   -15.2920 
  221.2500     2.1870    77.0180    24.1280    49.8000    53.3330    56.5990   -15.2350 
  221.3750     2.1870    76.0400    24.1040    51.0520    55.5490    58.9400   -15.1710 
  221.5000     2.1950    72.6900    24.0130    51.9640    58.3320    61.8790   -15.1130 
  221.6250     2.2190    69.4620    23.9300    53.2490    61.5490    65.2760   -15.0730 
  221.7500     2.2420    68.2100    23.8870    57.0510    64.8660    68.7780   -15.0430 
  221.8750     2.2510    68.7200    23.8670    63.8650    67.9940    72.0810   -15.0170 
  222.0000     2.2410    69.7000    23.8550    70.5950    70.6520    74.8880   -14.9900 
  222.1250     2.2230    70.2520    23.7850    72.4030    72.5370    76.8790   -14.9660 
  222.2500     2.2110    70.6850    23.6490    69.9450    73.7340    78.1430   -14.9520 
  222.3750     2.2060    70.8990    23.4890    67.3600    74.3250    78.7670   -14.9530 
  222.5000     2.2090    70.3310    23.4570    67.8520    74.4230    78.8710   -14.9650 
  222.6250     2.2160    68.5780    23.6050    70.9340    74.1080    78.5380   -14.9870 
  222.7500     2.2190    66.9340    23.7580    73.5420    73.5510    77.9500   -15.0270 
  222.8750     2.2180    66.3930    23.8040    74.8260    72.8410    77.2000   -15.0920 
  223.0000     2.2150    66.8170    23.7760    75.4820    72.0250    76.3380   -15.1840 
  223.1250     2.2170    67.6750    23.7880    75.3720    71.1450    75.4090   -15.3040 
  223.2500     2.2220    68.2690    23.8290    74.2000    70.3390    74.5580   -15.4380 
  223.3750     2.2300    68.3380    23.8400    71.4600    69.6940    73.8770   -15.5770 
  223.5000     2.2350    67.9140    23.8160    68.6870    69.1790    73.3330   -15.7180 
  223.6250     2.2280    67.1790    23.8250    66.2170    68.6470    72.7710   -15.8490 
