~V
VERS. 2.00: Ver 2.00
~W
STRT.M 55.0000:
STOP.M 271.0000:
STEP.M 0.1250:
NULL. -999.2500:
UWI. DF5009:
~C
DEPT.M :
GR.API :
CALI.CM :
RXO.OHMM :
RI. :
RML.OHMM :
DEN.GM/CC :
SP.MV :
~A
# ...
  178.7500    75.5700    24.0750    18.2790    46.2510    43.9020     2.3260   -18.9370 
  178.8750    77.9730    23.9580    15.1120    41.1670    40.4400     2.3230   -18.9860 
  179.0000    81.2580    23.7780    15.1040    41.0530    41.8750     2.3110   -19.0620 
  179.1250    84.0760    23.6110    16.8390    44.8360    46.7110     2.3020   -19.1360 
  179.2500    86.3840    23.5730    19.1460    50.0120    52.1690     2.3030   -19.3400 
  179.3750    85.5010    23.6520    20.6360    54.4220    56.2120     2.3110   -19.3800 
  179.5000    81.4660    23.7650    20.7390    56.5810    57.9500     2.3190   -19.3920 
  179.6250    80.8330    23.8900    19.0180    56.9690    58.6790     2.3170   -19.5120 
  179.7500    83.3390    24.0740    20.5220    58.2160    61.1740     2.3010   -19.5380 
  179.8750    83.0820    24.3370    27.9890    62.1010    66.9960     2.2760   -19.5920 
  180.0000    77.1330    24.6490    44.7950    69.2070    76.2560     2.2500   -19.4900 
  180.1250    70.2630    24.9500    71.7550    78.4500    87.1230     2.2340   -19.5370 
  180.2500    66.8590    25.1730    90.9590    86.1500    95.3980     2.2300   -19.4620 
  180.3750    65.2660    25.2760    84.6450    89.3380    97.9680     2.2330   -19.2820 
  180.5000    64.4310    25.2760    64.5630    87.5090    94.8150     2.2410   -19.1850 
  180.6250    65.4660    25.2170    56.1150    83.0150    89.3140     2.2490   -19.0750 
  180.7500    69.0300    25.1340    54.8830    79.6030    85.6890     2.2550   -19.0440 
  180.8750    73.9280    25.0270    55.2130    78.9850    85.5540     2.2590   -18.8860 
  181.0000    77.4250    24.8910    59.2500    81.6040    89.0660     2.2580   -18.8000 
  181.1250    77.8080    24.7620    63.2580    87.3150    95.7630     2.2540   -18.6480 
  181.2500    75.2870    24.7110    64.9980    94.2220   103.3180     2.2490   -18.4710 
  181.3750    72.0000    24.7850    65.6520    99.9060   108.7760     2.2450   -18.4270 
  181.5000    68.9340    24.9510    68.3690   100.7960   108.0680     2.2470   -18.2880 
  181.6250    65.8060    25.0610    68.8110    92.3550    96.7850     2.2570   -18.2300 
  181.7500    65.9350    25.0020    63.2800    77.2620    79.1330     2.2740   -18.1260 
  181.8750    73.5250    24.7800    49.2860    60.5760    61.0890     2.2940   -18.0180 
  182.0000    85.9110    24.4860    32.2670    47.0180    47.4590     2.3090   -17.9460 
  182.1250    92.0240    24.2430    23.9910    39.6460    41.2780     2.3110   -17.7950 
  182.2500    90.7030    24.0970    23.8660    37.6660    41.4730     2.2970   -17.7690 
  182.3750    87.3850    24.0440    34.1940    40.9800    47.7260     2.2760   -17.7620 
  182.5000    84.1000    24.1020    58.9930    49.7990    59.6720     2.2560   -17.8180 
  182.6250    78.4340    24.3330    91.6030    64.5570    76.6120     2.2480   -17.8970 
  182.7500    72.2770    24.6680   106.5940    81.3820    93.9350     2.2510   -17.9100 
  182.8750    70.2760    24.9690   102.9230    94.8970   106.0540     2.2610   -17.9360 
  183.0000    71.7410    25.1240    92.5150   100.2260   108.6190     2.2710   -17.8670 
  183.1250    72.3200    25.1480    88.9740    95.8280   101.3730     2.2760   -18.0060 
  183.2500    71.3380    25.1630    87.2510    87.3070    90.9670     2.2780   -17.9800 
  183.3750    71.1680    25.2140    81.6030    78.4570    81.3370     2.2760   -17.8900 
  183.5000    72.3630    25.3020    68.9780    71.5760    74.5730     2.2730   -17.8300 
  183.6250    73.6150    25.4110    55.5700    68.2770    72.0300     2.2660   -17.7720 
  183.7500    74.5540    25.4930    53.0800    67.9240    72.5370     2.2600   -17.8090 
  183.8750    75.5600    25.5210    59.9850    69.4060    74.5610     2.2550   -17.8140 
  184.0000    76.6250    25.5110    80.2480    71.0100    76.0420     2.2530   -17.8790 
  184.1250    76.9560    25.5000    94.9650    70.5350    74.5710     2.2530   -17.7530 
  184.2500    77.0950    25.4840    85.0580    67.4600    70.1050     2.2550   -17.8030 
  184.3750    77.7380    25.4240    55.9740    62.4240    63.7860     2.2570   -17.8070 
  184.5000    78.3760    25.2770    35.8400    56.7480    57.2630     2.2580   -17.8180 
  184.6250    79.2670    25.0310    33.2630    51.8580    52.0520     2.2560   -17.8640 
  184.7500    81.4480    24.7550    30.2660    48.3280    48.4990     2.2520   -17.8360 
  184.8750    83.9460    24.4950    25.2490    46.3550    46.6650     2.2460   -17.8360 
  185.0000    83.7240    24.2760    21.6380    45.9410    46.4690     2.2390   -17.7140 
  185.1250    80.5010    24.1600    22.5270    47.2300    48.0390     2.2340   -17.7780 
  185.2500    78.2510    24.1650    25.7700    49.8720    50.9620     2.2300   -17.7110 
  185.3750    78.2440    24.2170    28.7330    53.6650    54.8910     2.2270   -17.7080 
  185.5000    78.6820    24.2070    29.5950    58.0270    59.0430     2.2240   -17.8000 
  185.6250    79.1820    24.1040    29.4660    61.4440    61.7200     2.2260   -17.7540 
  185.7500    82.1950    24.0210    29.9300    62.4140    61.6680     2.2300   -17.7390 
  185.8750    87.5560    24.0220    32.6900    60.1740    58.4670     2.2350   -17.6820 
  186.0000    90.0420    24.0910    35.9550    55.1400    52.8550     2.2400   -17.7940 
  186.1250    86.7010    24.1940    35.8710    48.7630    46.5300     2.2440   -17.7750 
  186.2500    83.7220    24.3000    32.7890    43.0950    41.4080     2.2470   -17.8060 
  186.3750    83.6180    24.3810    28.8200    39.2830    38.5510     2.2520   -17.9140 
  186.5000    84.5500    24.4230    26.3450    37.9240    38.4630     2.2610   -17.9030 
  186.6250    86.1600    24.4380    26.7960    39.6360    41.5700     2.2690   -17.9630 
  186.7500    88.0370    24.4450    31.7670    43.6980    46.7970     2.2750   -17.9160 
  186.8750    87.5110    24.4720    43.0420    49.3080    53.0660     2.2780   -17.9460 
  187.0000    82.5140    24.5960    57.1640    55.1820    59.0490     2.2780   -17.9220 
  187.1250    75.9600    24.8820    63.5100    59.8530    63.5880     2.2720   -17.9080 
  187.2500    72.7540    25.2490    62.1330    63.4610    67.3950     2.2610   -17.9650 
  187.3750    74.0930    25.6080    60.0400    67.3510    72.1470     2.2470   -17.9250 
  187.5000    78.1470    25.9020    66.8840    73.4600    79.7840     2.2320   -17.9650 
  187.6250    79.0100    26.0950    85.3800    84.1680    92.2790     2.2210   -17.8620 
  187.7500    74.8880    26.1920   110.2950    98.7090   108.1230     2.2140   -17.8640 
  187.8750    69.4400    26.1940   133.0840   114.1340   123.6440     2.2110   -17.9160 
  188.0000    68.0380    26.1240   149.1580   124.8490   132.5440     2.2120   -17.8670 
  188.1250    71.0910    26.0540   145.6940   123.4010   127.2460     2.2180   -17.9280 
  188.2500    71.5350    26.0450   127.6300   111.9400   111.9910     2.2310   -17.8910 
  188.3750    69.0010    26.0820    97.6170    95.8910    93.7220     2.2490   -17.8180 
  188.5000    68.3950    26.1150    68.3590    80.6960    77.9830     2.2660   -17.7570 
  188.6250    71.1570    26.1040    53.1370    69.9170    67.6440     2.2770   -17.7590 
  188.7500    72.3700    26.0670    49.8570    63.1050    61.4490     2.2850   -17.8460 
  188.8750    71.5590    26.0220    50.1590    59.3640    58.2640     2.2890   -17.8680 
  189.0000    73.1770    25.9900    50.7930    57.6770    56.9770     2.2900   -17.9710 
  189.1250    78.2580    25.9720    50.4660    57.2020    56.7360     2.2870   -18.0540 
  189.2500    80.5070    25.9340    49.4630    57.1050    56.8760     2.2810   -18.1020 
  189.3750    78.2670    25.8590    48.4420    57.3520    57.5630     2.2730   -18.2310 
  189.5000    74.4540    25.7710    48.7980    58.4370    59.4550     2.2680   -18.2210 
  189.6250    75.8220    25.6900    49.3120    61.6070    63.9640     2.2670   -18.3340 
  189.7500    80.9410    25.5570    45.5550    67.6120    71.7280     2.2650   -18.4010 
  189.8750    84.1760    25.3290    40.9330    77.2610    83.3690     2.2610   -18.4720 
