~V
VERS. 2.00: Ver 2.00
~W
STRT.M 60.0000:
STOP.M 271.0000:
STEP.M 0.1250:
NULL. -999.2500:
UWI. DF5026:
~C
DEPT.M :
SP.MV :
GR.API :
CALI.CM :
RXO.OHMM :
RI. :
RML.OHMM :
DEN.GM/CC :
~A
# ...
  138.7500   -43.8620    80.3750    23.5300     6.9730     6.9040     7.4250     2.2310 
  138.8750   -43.9200    80.2040    23.5340     7.2410     6.7560     7.4410     2.2370 
  139.0000   -43.9930    79.9760    23.5620     6.9280     6.7840     7.6390     2.2350 
  139.1250   -44.1030    81.2110    23.6240     6.9920     6.9980     8.0110     2.2250 
  139.2500   -44.1670    82.3920    23.6840     7.6250     7.3410     8.4910     2.2110 
  139.3750   -44.1490    80.6280    23.7140     8.8530     7.7820     9.0410     2.1960 
  139.5000   -44.0360    76.4500    23.7170    10.0440     8.2900     9.6290     2.1850 
  139.6250   -43.7870    72.3700    23.7150    10.6630     8.8440    10.2400     2.1820 
  139.7500   -43.4780    68.7800    23.7150    10.9050     9.4330    10.8980     2.1850 
  139.8750   -43.1000    66.1180    23.7110    11.3420    10.0680    11.6190     2.1960 
  140.0000   -42.6330    64.7410    23.7150    12.2520    10.6910    12.3040     2.2160 
  140.1250   -42.1080    63.6430    23.7620    13.4410    11.0200    12.5390     2.2470 
  140.2500   -41.6050    62.2530    23.8590    14.1020    10.7920    12.0080     2.2840 
  140.3750   -41.1380    62.5410    24.0140    13.6710     9.9220    10.6900     2.3200 
  140.5000   -40.6870    68.1020    24.2220    11.7550     8.6110     8.9600     2.3420 
  140.6250   -40.2310    77.9650    24.4110     9.4590     7.2580     7.4000     2.3400 
  140.7500   -39.7990    86.4480    24.5100     7.8300     6.1670     6.2900     2.3220 
  140.8750   -39.4040    90.8900    24.5260     7.2720     5.4100     5.6300     2.2990 
  141.0000   -39.0280    91.5330    24.5210     7.1700     4.9580     5.3080     2.2780 
  141.1250   -38.6330    92.0440    24.5220     6.8620     4.7630     5.1980     2.2630 
  141.2500   -38.1740    94.0510    24.5200     6.7310     4.6900     5.1420     2.2560 
  141.3750   -37.7100    96.7320    24.5170     6.4910     4.6630     5.0770     2.2560 
  141.5000   -37.2950    97.6870    24.5160     5.9170     4.6400     4.9940     2.2640 
  141.6250   -37.0620    96.7100    24.5160     5.5730     4.6150     4.9130     2.2750 
  141.7500   -36.8840    96.9680    24.5160     5.5830     4.5870     4.8380     2.2860 
  141.8750   -36.6920    97.3040    24.5160     5.5770     4.5450     4.7540     2.2940 
  142.0000   -36.5390    94.4960    24.5160     5.9720     4.4720     4.6490     2.2980 
  142.1250   -36.4510    89.2940    24.5160     5.8230     4.3540     4.5190     2.3010 
  142.2500   -36.4630    87.5910    24.5160     5.2110     4.2080     4.3840     2.3050 
  142.3750   -36.5480    89.9910    24.5170     4.5690     4.0590     4.2660     2.3100 
  142.5000   -36.6920    93.6670    24.5190     4.3770     3.9310     4.1770     2.3150 
  142.6250   -36.7980    96.2310    24.5220     4.5720     3.8450     4.1300     2.3190 
  142.7500   -36.8900    97.5110    24.5230     4.5760     3.7970     4.1190     2.3230 
  142.8750   -37.0220    98.4470    24.5210     4.5070     3.7810     4.1410     2.3230 
  143.0000   -37.1730    99.0090    24.5200     4.5730     3.7950     4.2020     2.3160 
  143.1250   -37.3410    99.9480    24.5200     4.7140     3.8580     4.3240     2.3000 
  143.2500   -37.4450   100.9650    24.5190     4.9820     3.9800     4.5100     2.2790 
  143.3750   -37.4620   100.1230    24.5170     5.1820     4.1630     4.7500     2.2620 
  143.5000   -37.4240    96.5960    24.5160     5.5260     4.3850     5.0100     2.2530 
  143.6250   -37.3240    91.7290    24.5160     6.2320     4.5940     5.2190     2.2530 
  143.7500   -37.1980    90.6360    24.5170     6.8960     4.7350     5.3270     2.2580 
  143.8750   -37.0760    93.0490    24.5180     6.7040     4.7780     5.3150     2.2670 
  144.0000   -36.9480    96.5580    24.5190     5.6990     4.7220     5.2000     2.2770 
  144.1250   -36.7880    98.1200    24.5180     5.2640     4.5780     5.0110     2.2870 
  144.2500   -36.5880    95.6460    24.5170     5.1450     4.3860     4.7930     2.2960 
  144.3750   -36.4020    93.4450    24.5160     5.3410     4.1660     4.5610     2.3060 
  144.5000   -36.2520    96.9030    24.5160     5.2830     3.9320     4.3210     2.3190 
  144.6250   -36.1880   104.4940    24.5160     4.8470     3.6920     4.0770     2.3330 
  144.7500   -36.1360   108.0690    24.5180     4.2290     3.4660     3.8570     2.3460 
  144.8750   -36.1030   105.8540    24.5210     3.8440     3.2870     3.7020     2.3550 
  145.0000   -36.0570   103.8720    24.5180     3.7660     3.1920     3.6610     2.3630 
  145.1250   -36.0390   104.7740    24.5060     3.8740     3.2450     3.8240     2.3730 
  145.2500   -36.0880   105.5750    24.4920     4.1240     3.4640     4.1960     2.3870 
  145.3750   -36.1910   102.9680    24.4860     4.5970     3.8570     4.7650     2.4020 
  145.5000   -36.3380    96.3350    24.4850     5.2420     4.3940     5.4660     2.4120 
  145.6250   -36.4900    90.1040    24.4860     6.4360     4.9930     6.1610     2.4150 
  145.7500   -36.6880    87.6250    24.4850     7.6650     5.5200     6.6990     2.4080 
  145.8750   -36.9190    87.0470    24.4850     7.7400     5.8890     6.9940     2.3860 
  146.0000   -37.2280    84.7960    24.4850     6.6230     6.0630     7.0410     2.3480 
  146.1250   -37.5760    82.4750    24.4850     5.9650     6.0360     6.8820     2.3020 
  146.2500   -37.9510    83.2370    24.4850     6.4600     5.8900     6.6280     2.2630 
  146.3750   -38.2620    84.0180    24.4850     7.0460     5.6750     6.3370     2.2430 
  146.5000   -38.4300    83.0920    24.4850     6.5090     5.4470     6.0610     2.2460 
  146.6250   -38.4610    85.0100    24.4850     5.4070     5.2770     5.8840     2.2660 
  146.7500   -38.4090    90.8560    24.4850     4.8290     5.2050     5.8460     2.2840 
  146.8750   -38.2790    93.6550    24.4850     5.0270     5.2440     5.9480     2.2880 
  147.0000   -38.0760    91.2590    24.4850     5.5390     5.3690     6.1320     2.2760 
  147.1250   -37.8320    88.8690    24.4850     5.9300     5.5060     6.2580     2.2620 
  147.2500   -37.5490    89.2950    24.4850     5.9960     5.5620     6.2220     2.2590 
  147.3750   -37.2880    91.3410    24.4850     5.4930     5.5030     6.0320     2.2670 
  147.5000   -37.1430    94.1720    24.4870     4.8700     5.3780     5.8020     2.2800 
  147.6250   -37.1900    97.1160    24.4870     4.7600     5.2910     5.7000     2.2830 
  147.7500   -37.3140    99.5170    24.4460     4.9120     5.3020     5.7740     2.2770 
  147.8750   -37.4650   100.2420    24.3390     5.1860     5.4090     5.9890     2.2650 
  148.0000   -37.6250    98.4070    24.2070     5.5770     5.5610     6.2460     2.2580 
  148.1250   -37.7620    94.0940    24.1330     5.7220     5.6540     6.3810     2.2570 
  148.2500   -37.8440    91.3300    24.1190     5.4930     5.6110     6.3060     2.2600 
  148.3750   -37.8540    90.5730    24.1230     5.2010     5.4230     6.0280     2.2610 
  148.5000   -37.7830    89.0000    24.1230     5.0840     5.1500     5.6670     2.2640 
  148.6250   -37.6230    88.7880    24.1230     5.1700     4.9480     5.4930     2.2740 
  148.7500   -37.4240    90.5210    24.1230     5.3470     5.0000     5.7680     2.3000 
  148.8750   -37.2050    91.5470    24.1230     5.9940     5.4970     6.7400     2.3450 
  149.0000   -37.0090    88.2240    24.1230     7.6160     6.6500     8.6210     2.4060 
  149.1250   -36.8260    79.9630    24.1230    12.0660     8.7770    11.6710     2.4680 
  149.2500   -36.6950    70.7270    24.1230    21.2720    11.5290    15.1810     2.5150 
  149.3750   -36.6180    63.4560    24.1230    31.1360    13.8540    17.4790     2.5360 
  149.5000   -36.5880    59.8640    24.1230    31.3730    14.2190    16.6330     2.5250 
  149.6250   -36.5690    60.5790    24.1230    23.6810    12.2110    13.0600     2.4870 
  149.7500   -36.5850    65.7100    24.1230    12.5510     9.8280     9.8340     2.4430 
  149.8750   -36.6270    74.8050    24.1230     6.7130     8.1470     8.0820     2.4120 
