~V
VERS. 2.00: Ver 2.00
~W
STRT.M 58.0000:
STOP.M 250.0000:
STEP.M 0.1250:
NULL. -999.2500:
UWI. DF5046:
~C
DEPT.M :
GR.API :
CALI.CM :
RXO.OHMM :
RI. :
RML.OHMM :
DEN.GM/CC :
SP.MV :
~A
# ...
  215.5000    64.1470    24.6200    84.4070    74.0830    81.7410     2.2010   -20.1450 
  215.6250    63.2840    24.7190    88.5160    75.6350    83.0280     2.1940   -20.3930 
  215.7500    62.9940    24.5570    88.5640    74.3150    80.8750     2.1950   -20.6600 
  215.8750    62.9710    24.2820    82.8940    69.8200    75.1660     2.2020   -20.9220 
  216.0000    64.0760    24.1010    72.0240    63.0870    67.2730     2.2140   -21.1750 
  216.1250    66.7490    24.0420    59.7400    56.1220    59.6720     2.2260   -21.4260 
  216.2500    68.5500    23.9810    50.4950    50.8130    54.2830     2.2370   -21.6760 
  216.3750    67.8040    23.9760    46.5070    48.1510    52.0440     2.2450   -21.9260 
  216.5000    66.4870    24.1810    48.9490    48.7320    53.4520     2.2470   -22.1510 
  216.6250    66.7500    24.5430    58.9830    53.6970    59.5170     2.2410   -22.3710 
  216.7500    66.0400    24.7940    73.7520    62.8300    69.8530     2.2310   -22.5660 
  216.8750    64.3480    24.8680    91.2570    76.0600    84.5030     2.2220   -22.7070 
  217.0000    63.1470    24.8680   110.6880    92.2160   102.7120     2.2160   -22.7980 
  217.1250    62.3340    24.8800   130.6510   107.6300   121.0760     2.2100   -22.8640 
  217.2500    62.2750    24.8830   146.3080   117.4450   133.2870     2.2010   -22.9440 
  217.3750    62.6670    24.8870   150.2570   118.6800   134.7800     2.1910   -23.0120 
  217.5000    62.6430    24.8980   137.5260   111.7310   126.1120     2.1880   -23.1210 
  217.6250    61.2380    24.8880   113.0260    99.8720   112.3590     2.1940   -23.3530 
  217.7500    59.8280    24.8650    91.9160    88.1710    99.6680     2.1970   -23.7190 
  217.8750    59.3010    24.8660    79.3040    78.8380    90.1520     2.1850   -24.2730 
  218.0000    60.7270    24.9050    73.2350    72.5540    84.1860     2.1530   -24.9700 
  218.1250    64.8390    24.9560    71.2350    69.6270    81.9290     2.1230   -25.7380 
  218.2500    66.3430    24.9710    71.3990    69.2270    82.4330     2.1200   -26.4760 
  218.3750    62.9490    24.9140    73.5980    71.0870    85.4480     2.1430   -27.1370 
  218.5000    59.1970    24.7650    78.8790    75.0190    90.8470     2.1700   -27.6230 
  218.6250    59.8830    24.5860    89.2630    81.1520    98.9020     2.1830   -27.7940 
  218.7500    60.8130    24.4720   102.2300    88.8740   108.9670     2.1860   -27.6870 
  218.8750    59.8030    24.4550   113.8270    97.7150   120.5190     2.1810   -27.2690 
  219.0000    59.7230    24.5390   121.7030   106.9940   132.7390     2.1660   -26.5860 
  219.1250    63.4000    24.7030   126.9240   115.2340   143.6640     2.1460   -25.6670 
  219.2500    66.9520    24.8380   134.2130   120.2930   150.1310     2.1370   -24.6620 
  219.3750    67.0750    24.8740   146.8640   120.0000   148.9460     2.1400   -23.6430 
  219.5000    64.4690    24.8400   160.8070   113.6930   139.5990     2.1530   -22.6700 
  219.6250    61.6110    24.8150   154.8250   102.8320   125.2170     2.1730   -21.8280 
  219.7500    60.0830    24.8160   127.2380    91.6030   111.5180     2.1920   -21.0570 
  219.8750    59.9520    24.8220    97.5020    82.5240   101.2100     2.2050   -20.3440 
  220.0000    61.9330    24.8200    84.8660    76.7330    95.0730     2.2080   -19.6930 
  220.1250    64.7730    24.8090    90.7830    74.3170    92.8040     2.2080   -19.0880 
  220.2500    64.1730    24.7920    98.2700    73.4360    92.1030     2.2090   -18.5040 
  220.3750    61.8800    24.7780    98.2610    72.7910    91.2980     2.2100   -17.9380 
  220.5000    61.5060    24.7750    91.1240    71.4240    89.1550     2.2120   -17.3940 
  220.6250    63.6980    24.7810    81.3100    68.9490    85.3460     2.2190   -16.8580 
  220.7500    65.5530    24.7900    72.3230    66.2000    81.2720     2.2290   -16.3570 
  220.8750    65.9860    24.7980    66.5900    64.0320    78.0990     2.2330   -15.8780 
  221.0000    66.2890    24.8090    64.9090    62.9670    76.3800     2.2230   -15.4110 
  221.1250    65.9350    24.8240    66.5560    63.1680    76.1550     2.2060   -14.9210 
  221.2500    65.7990    24.8320    70.3090    64.0770    76.7460     2.1990   -14.3740 
  221.3750    66.9170    24.8370    75.1010    65.4320    78.0140     2.2070   -13.7530 
  221.5000    69.2870    24.8330    77.4950    67.3750    80.3660     2.2230   -13.0380 
  221.6250    70.9680    24.7830    73.6620    70.7520    84.8530     2.2430   -12.2220 
  221.7500    69.1210    24.6690    68.4460    75.0210    90.0560     2.2760   -11.3790 
  221.8750    63.6390    24.4970    70.2880    76.8690    90.4840     2.3390   -10.5860 
  222.0000    57.6620    24.3190    88.1100    70.5020    78.4690     2.4430    -9.9330 
  222.1250    56.2850    24.2410   105.3400    52.9590    54.7730     2.5650    -9.5320 
  222.2500    60.3230    24.2800    87.7900    33.9960    33.3290     2.6420    -9.3750 
  222.3750    68.3110    24.3180    46.0820    19.9820    19.1180     2.6360    -9.4470 
  222.5000    77.7840    24.1670    16.0170    11.7950    11.1930     2.5650    -9.7260 
  222.6250    86.1570    23.7980     7.4010     8.1250     7.7160     2.4930   -10.1740 
  222.7500    90.7690    23.5920     6.1080     6.4830     6.3230     2.4560   -10.6990 
  222.8750    90.9770    23.7940     7.1370     5.9770     6.1800     2.4470   -11.2320 
  223.0000    89.4030    24.2970     8.1110     6.1770     6.7720     2.4490   -11.6590 
  223.1250    87.3370    24.7440     8.3980     6.8320     7.6720     2.4530   -11.9580 
  223.2500    82.4490    24.9730     8.4130     7.5360     8.4100     2.4520   -12.1260 
  223.3750    77.2640    25.0510     8.2490     8.0370     8.7730     2.4460   -12.1930 
  223.5000    76.5510    25.0710     8.0300     8.2440     8.7720     2.4370   -12.2390 
  223.6250    80.7540    25.0860     7.9910     8.1970     8.5500     2.4270   -12.3170 
  223.7500    86.7490    25.0780     8.1060     8.0460     8.2900     2.4170   -12.4620 
  223.8750    95.3350    25.0350     8.2190     7.8490     8.0470     2.4120   -12.7120 
  224.0000   104.5630    24.9830     8.2250     7.6370     7.8570     2.4100   -13.0750 
  224.1250   108.6270    24.9620     8.1630     7.4670     7.8090     2.4050   -13.5260 
  224.2500   111.8790    24.9490     8.1350     7.4240     8.0040     2.3970   -14.0260 
  224.3750   117.5330    24.9220     8.2240     7.6000     8.5570     2.3940   -14.5360 
  224.5000   119.0930    24.9020     8.7980     8.0610     9.5380     2.3980   -15.0140 
  224.6250   113.5240    24.9100    10.8610     8.8720    10.9890     2.3930   -15.4640 
  224.7500   107.8990    24.9140    14.1260     9.9120    12.6740     2.3750   -15.8530 
  224.8750   103.6310    24.8880    16.7680    11.0340    14.3270     2.3580   -16.1550 
  225.0000    96.2830    24.8560    17.1510    12.0510    15.6650     2.3570   -16.4050 
  225.1250    89.5680    24.8420    16.1970    12.7660    16.4390     2.3650   -16.5930 
  225.2500    88.9130    24.8320    16.2770    13.2070    16.7930     2.3640   -16.7710 
  225.3750    89.2400    24.8210    17.3170    13.4720    16.9410     2.3500   -16.9500 
  225.5000    85.4580    24.7870    17.9550    13.7330    17.1650     2.3330   -17.0950 
  225.6250    80.6560    24.7120    17.5250    14.2370    17.8420     2.3240   -17.1680 
  225.7500    79.4810    24.6590    17.3290    15.1170    19.1340     2.3200   -17.1740 
  225.8750    79.4980    24.6850    19.0200    16.4790    21.1600     2.3210   -17.1110 
  226.0000    78.4490    24.7670    23.5060    18.3520    23.8900     2.3290   -16.9850 
  226.1250    76.8240    24.8220    28.9000    20.5160    26.8390     2.3430   -16.8090 
  226.2500    76.4950    24.8290    31.0190    22.1570    28.7820     2.3540   -16.6010 
  226.3750    77.8070    24.8230    29.3200    22.3890    28.5450     2.3540   -16.4280 
  226.5000    81.1680    24.8310    26.3960    20.8270    25.8370     2.3450   -16.3690 
  226.6250    88.0500    24.8530    23.2930    18.0010    21.6990     2.3410   -16.4710 
