~V
VERS. 2.00: Ver 2.00
~W
STRT.M 55.0000:
STOP.M 273.0000:
STEP.M 0.1250:
NULL. -999.2500:
UWI. DF5004:
~C
DEPT.M :
GR.API :
CALI.CM :
RXO.OHMM :
RI. :
RML.OHMM :
DEN.GM/CC :
SP.MV :
~A
# ...
  111.2500    88.8190    24.1390     5.8680     5.1790     6.1960     2.3300   -21.4350 
  111.3750    93.9320    24.0510     5.6630     4.9730     5.9020     2.3500   -21.2430 
  111.5000    97.4350    24.3850     5.7550     4.8720     5.8160     2.3380   -20.9900 
  111.6250    99.4640    24.6080     5.8720     4.8580     5.8660     2.3120   -20.7110 
  111.7500   102.5840    24.7130     5.8690     4.8630     5.9230     2.2960   -20.5170 
  111.8750   105.6210    24.7400     5.7960     4.8490     5.9310     2.2980   -20.4750 
  112.0000   105.4560    24.7930     5.7390     4.8100     5.9030     2.3130   -20.5450 
  112.1250   101.4050    24.8550     5.7200     4.7790     5.9130     2.3290   -20.7290 
  112.2500    98.5580    24.8710     5.8310     4.7880     6.0130     2.3270   -20.9810 
  112.3750    99.3580    24.8590     6.0650     4.8340     6.1880     2.3060   -21.2690 
  112.5000   101.2580    24.8140     6.3510     4.8820     6.3610     2.2830   -21.6550 
  112.6250   101.9170    24.7310     6.6350     4.8830     6.4100     2.2730   -22.1520 
  112.7500   100.8930    24.5170     6.8640     4.8550     6.3470     2.2750   -22.6680 
  112.8750    98.5120    24.2070     6.8560     4.8660     6.2950     2.2870   -23.1510 
  113.0000    96.0400    23.9890     6.7070     5.0120     6.4430     2.3020   -23.6370 
  113.1250    93.3500    24.1350     7.2500     5.4360     7.0530     2.3140   -24.1700 
  113.2500    88.7090    24.2080     9.1520     6.1480     8.1490     2.3280   -24.7870 
  113.3750    81.4810    24.1520    12.3170     7.1050     9.6360     2.3550   -25.4690 
  113.5000    74.8770    24.0240    16.0440     8.1460    11.2110     2.3880   -26.1260 
  113.6250    75.3810    23.8990    20.3670     8.9240    12.2580     2.3820   -26.7740 
  113.7500    79.4600    23.7160    22.6100     9.2320    12.4980     2.3250   -27.4100 
  113.8750    80.3580    23.6980    20.9590     9.0940    12.0820     2.2420   -28.1100 
  114.0000    74.7620    23.6620    16.8110     8.7060    11.4170     2.1750   -28.8410 
  114.1250    69.5410    23.6420    13.6390     8.2870    10.8660     2.1470   -29.5590 
  114.2500    71.3880    23.7200    12.4110     7.9430    10.4970     2.1420   -30.1220 
  114.3750    75.6260    23.7610    11.7980     7.6790    10.2450     2.1470   -30.5470 
  114.5000    75.2120    23.6060    11.2650     7.4790    10.0370     2.1540   -30.8420 
  114.6250    70.2380    23.2820    10.6900     7.3380     9.8560     2.1560   -31.0310 
  114.7500    67.3410    23.2230    10.1790     7.2480     9.7330     2.1550   -31.1410 
  114.8750    67.7910    23.3780     9.9220     7.2170     9.7130     2.1550   -31.1590 
  115.0000    69.7200    23.4580    10.1480     7.2520     9.8210     2.1590   -31.0860 
  115.1250    71.1350    23.4200    10.6210     7.3380    10.0290     2.1580   -30.9360 
  115.2500    70.8830    23.3290    10.6730     7.4180    10.2150     2.1490   -30.8020 
  115.3750    69.8780    23.1480    10.2320     7.4390    10.2740     2.1380   -30.7360 
  115.5000    69.5720    22.8850     9.7960     7.3720    10.1660     2.1320   -30.7260 
  115.6250    70.7900    22.7330     9.6720     7.2230     9.9290     2.1400   -30.7670 
  115.7500    71.8510    22.6990     9.5970     7.0650     9.7090     2.1520   -30.8110 
  115.8750    72.6800    22.7720     9.5080     6.9590     9.6030     2.1640   -30.8230 
  116.0000    75.0380    22.9840     9.5850     6.9360     9.6480     2.1690   -30.8540 
  116.1250    78.5940    23.2510    10.1290     7.0120     9.8310     2.1640   -30.9120 
  116.2500    80.0190    23.5330    10.7900     7.1500    10.0640     2.1520   -30.9790 
  116.3750    77.3880    23.7880    11.3460     7.3160    10.2780     2.1380   -31.0090 
  116.5000    72.1380    23.9960    11.6930     7.4730    10.4190     2.1270   -30.9700 
  116.6250    68.8810    24.0600    11.9410     7.5830    10.4440     2.1290   -30.7930 
  116.7500    69.2070    24.1810    12.2060     7.6400    10.3910     2.1410   -30.5430 
  116.8750    70.4450    24.2960    12.2850     7.6550    10.3070     2.1550   -30.2240 
  117.0000    69.2950    24.3620    12.0040     7.6670    10.2680     2.1640   -29.8170 
  117.1250    66.8360    24.2680    11.5440     7.7180    10.3450     2.1660   -29.2650 
  117.2500    66.8400    24.1140    11.3560     7.7840    10.4660     2.1680   -28.5940 
  117.3750    68.3540    23.9300    11.7830     7.7840    10.4650     2.1760   -27.7630 
  117.5000    68.3770    23.8070    13.2350     7.6110    10.1690     2.1990   -26.8280 
  117.6250    68.0030    23.8140    15.0230     7.1640     9.4420     2.2350   -25.8230 
  117.7500    71.6650    23.8900    13.6750     6.5390     8.4850     2.2670   -24.7810 
  117.8750    80.7640    24.0880     9.7750     5.8810     7.5530     2.2810   -23.7530 
  118.0000    92.1740    24.3850     6.6700     5.3350     6.8690     2.2810   -22.7470 
  118.1250   100.5720    24.5680     6.0200     5.0270     6.5900     2.2760   -21.8270 
  118.2500   105.6840    24.6130     6.0930     4.9280     6.6170     2.2740   -21.0420 
  118.3750   107.8890    24.5870     6.2530     4.9770     6.8130     2.2730   -20.4440 
  118.5000   104.9670    24.6320     6.4570     5.0690     6.9830     2.2720   -20.0200 
  118.6250   100.3130    24.6330     6.6180     5.0860     6.9240     2.2770   -19.7730 
  118.7500   101.1100    24.5780     6.4490     5.0150     6.6770     2.2910   -19.5810 
  118.8750   106.5050    24.5320     6.0300     4.9060     6.3820     2.3110   -19.4300 
  119.0000   110.6520    24.6100     5.6960     4.8250     6.1800     2.3220   -19.3740 
  119.1250   108.3320    24.7240     5.7600     4.8400     6.1900     2.3160   -19.4210 
  119.2500   101.9080    24.6570     6.1510     4.9470     6.3770     2.2960   -19.5140 
  119.3750    94.3270    24.4960     6.4640     5.1130     6.6710     2.2700   -19.6210 
  119.5000    90.5160    24.2260     6.4810     5.2830     6.9620     2.2480   -19.7210 
  119.6250    93.3910    23.9930     6.5470     5.3860     7.1170     2.2430   -19.8390 
  119.7500    95.9510    23.9220     6.7180     5.4030     7.1060     2.2500   -19.9990 
  119.8750    95.9970    24.1790     6.8230     5.3510     6.9690     2.2630   -20.1860 
  120.0000    95.5600    24.4780     6.6310     5.2790     6.7960     2.2730   -20.3070 
  120.1250    96.5950    24.5560     6.4040     5.2480     6.7040     2.2780   -20.3330 
  120.2500    96.1360    24.4580     6.2420     5.2840     6.7440     2.2750   -20.2890 
  120.3750    91.0810    24.3340     6.2520     5.3920     6.9210     2.2670   -20.2350 
  120.5000    84.6990    24.0400     6.3560     5.5400     7.1760     2.2540   -20.2030 
  120.6250    83.6890    24.0440     6.5620     5.6540     7.3770     2.2400   -20.2110 
  120.7500    85.5600    23.8490     6.7090     5.6680     7.4080     2.2290   -20.2340 
  120.8750    85.7080    23.6660     6.6760     5.5520     7.2260     2.2280   -20.2470 
  121.0000    85.5840    23.6080     6.4040     5.3200     6.8660     2.2400   -20.2580 
  121.1250    90.5800    23.7300     6.0690     5.0220     6.4330     2.2630   -20.2540 
  121.2500    97.7290    23.7110     5.8100     4.7370     6.0520     2.2880   -20.2610 
  121.3750   103.2000    23.6140     5.6990     4.5220     5.7950     2.3080   -20.2730 
  121.5000   105.7040    23.5860     5.7030     4.4200     5.7060     2.3200   -20.2950 
  121.6250   105.4900    23.6920     5.8600     4.4910     5.8540     2.3290   -20.2340 
  121.7500   104.8380    23.7890     6.1760     4.7110     6.2080     2.3370   -20.2060 
  121.8750   104.6610    23.7040     6.5440     5.0400     6.7190     2.3340   -20.2290 
  122.0000   102.7890    23.6460     6.9540     5.4040     7.2920     2.3070   -20.3620 
  122.1250    97.8850    23.4630     7.3150     5.6880     7.7510     2.2640   -20.5330 
  122.2500    92.5440    23.3710     7.4320     5.8160     7.9440     2.2340   -20.6820 
  122.3750    88.2150    23.4080     7.0990     5.7580     7.7920     2.2310   -20.7450 
