~V
VERS. 2.00: Ver 2.00
~W
STRT.M 59.0000:
STOP.M 275.0000:
STEP.M 0.1250:
NULL. -999.2500:
UWI. DF5021:
~C
DEPT.M :
SP.MV :
GR.API :
CALI.CM :
RXO.OHMM :
RI. :
RML.OHMM :
DEN.GM/CC :
~A
# ...
  137.7500   -17.2440    79.0580    23.0580    21.0350    10.8050    11.7120     2.4570 
  137.8750   -17.2250    80.3810    23.0330    18.1740    10.5080    11.3140     2.3690 
  138.0000   -17.3320    83.3880    23.0370    13.8600    10.1390    10.9230     2.2890 
  138.1250   -17.4750    87.8160    23.0690    11.1780     9.8570    10.7070     2.2500 
  138.2500   -17.4680    90.6060    23.0800    10.1320     9.7690    10.7450     2.2450 
  138.3750   -17.5140    89.5230    23.0450     9.7220     9.9050    10.9980     2.2530 
  138.5000   -17.6680    86.5880    23.0030     9.5570    10.1050    11.2270     2.2700 
  138.6250   -17.6610    82.8300    23.0090     9.9760    10.1860    11.2140     2.3040 
  138.7500   -17.6510    79.2000    23.0710    11.3550     9.9790    10.7990     2.3560 
  138.8750   -17.7510    79.3430    23.1690    14.0050     9.3620     9.9170     2.4190 
  139.0000   -17.7320    84.4240    23.3770    16.4160     8.4980     8.8200     2.4720 
  139.1250   -17.6790    91.7690    23.7370    16.5040     7.5770     7.7510     2.4910 
  139.2500   -17.7950    96.8730    24.1460    13.2930     6.7900     6.9250     2.4590 
  139.3750   -17.8680    96.5170    24.4530     8.7200     6.3110     6.5070     2.3760 
  139.5000   -17.8440    93.0400    24.5590     6.5000     6.1140     6.3980     2.2890 
  139.6250   -17.9720    89.2980    24.5480     6.6700     6.1220     6.4670     2.2290 
  139.7500   -18.0820    87.2960    24.5320     7.8820     6.2190     6.5560     2.2030 
  139.8750   -18.0240    87.7810    24.5650     8.6080     6.2610     6.5020     2.2090 
  140.0000   -18.0260    90.4440    24.6260     8.4120     6.1560     6.2650     2.2340 
  140.1250   -18.0520    95.3900    24.6790     7.4750     5.8910     5.8760     2.2750 
  140.2500   -17.8860   101.3150    24.7550     6.2700     5.5190     5.4350     2.3210 
  140.3750   -17.6880   105.4920    24.8840     5.3310     5.1470     5.0790     2.3520 
  140.5000   -17.6120   108.0480    24.9870     4.8760     4.8550     4.8590     2.3640 
  140.6250   -17.4460   110.2860    24.9910     4.7900     4.6680     4.7700     2.3670 
  140.7500   -17.2260   111.8040    24.8910     4.8040     4.5740     4.7770     2.3710 
  140.8750   -17.1910   110.5310    24.7140     4.8460     4.5500     4.8410     2.3670 
  141.0000   -17.1840   108.1250    24.5570     5.0290     4.5610     4.9270     2.3470 
  141.1250   -17.1070   107.5150    24.4300     5.2590     4.6110     5.0480     2.3210 
  141.2500   -17.2160   108.8670    24.3600     5.3320     4.7190     5.2410     2.3060 
  141.3750   -17.4090   108.9080    24.3310     5.2440     4.9340     5.5750     2.3100 
  141.5000   -17.4860   107.4450    24.2780     5.3070     5.2730     6.0580     2.3130 
  141.6250   -17.6720   105.4490    24.1570     5.7570     5.7420     6.6760     2.2970 
  141.7500   -17.9840   101.6830    24.0050     6.6820     6.3180     7.3760     2.2670 
  141.8750   -18.1800    94.0320    23.9050     7.8810     6.9440     8.0700     2.2420 
  142.0000   -18.3770    86.0790    23.8350     8.6690     7.5300     8.6720     2.2290 
  142.1250   -18.6790    81.2130    23.7580     8.6990     8.0060     9.1190     2.2240 
  142.2500   -18.8260    79.3580    23.6940     8.2870     8.3320     9.3890     2.2190 
  142.3750   -18.9260    78.8950    23.6800     8.0820     8.4860     9.4820     2.2120 
  142.5000   -19.1340    78.9060    23.7110     8.1610     8.5270     9.4770     2.2030 
  142.6250   -19.1850    78.6350    23.8060     8.3680     8.4820     9.3980     2.1950 
  142.7500   -19.1060    77.4010    23.9560     8.5490     8.3610     9.2440     2.1890 
  142.8750   -19.1170    76.1660    24.0500     8.5860     8.1340     8.9640     2.1840 
  143.0000   -19.0640    76.8020    24.0720     8.4560     7.7990     8.5500     2.1810 
  143.1250   -18.8450    80.2710    24.0520     8.1810     7.3570     8.0100     2.1860 
  143.2500   -18.7420    87.2260    24.0030     7.7700     6.8400     7.3950     2.2040 
  143.3750   -18.6380    96.9890    23.9310     7.1750     6.3080     6.7890     2.2400 
  143.5000   -18.3840   105.2290    23.8740     6.4580     5.8280     6.2680     2.2820 
  143.6250   -18.2160   108.5550    23.8980     5.8280     5.4370     5.8730     2.3190 
  143.7500   -18.1730   107.4590    23.9540     5.4800     5.1530     5.6110     2.3390 
  143.8750   -18.0470   105.8580    23.9920     5.3810     4.9900     5.4740     2.3370 
  144.0000   -17.9210   105.5200    24.0090     5.3670     4.9050     5.4070     2.3260 
  144.1250   -18.0000   105.5720    24.0010     5.4240     4.8730     5.3730     2.3190 
  144.2500   -18.0300   105.7060    23.9710     5.5470     4.8690     5.3450     2.3230 
  144.3750   -18.0280   106.1360    23.9540     5.5690     4.8650     5.3050     2.3310 
  144.5000   -18.1940   106.0910    23.9740     5.4210     4.8500     5.2560     2.3310 
  144.6250   -18.3580   104.4920    23.9780     5.1900     4.8240     5.2080     2.3190 
  144.7500   -18.4120   101.9030    23.9300     4.9930     4.7900     5.1700     2.3070 
  144.8750   -18.5820   100.1480    23.8730     4.8490     4.7510     5.1520     2.3110 
  145.0000   -18.8330    99.4680    23.9660     4.7720     4.7100     5.1490     2.3260 
  145.1250   -18.9190    99.3510    24.1470     4.7820     4.6730     5.1550     2.3380 
  145.2500   -19.0710   100.1230    24.2670     4.8910     4.6400     5.1610     2.3430 
  145.3750   -19.3400   103.2250    24.2440     5.0150     4.6100     5.1580     2.3500 
  145.5000   -19.4920   107.8060    24.0820     5.0490     4.5830     5.1460     2.3630 
  145.6250   -19.6870   111.9120    23.8170     4.9270     4.5620     5.1320     2.3750 
  145.7500   -20.0290   113.8250    23.5600     4.7060     4.5550     5.1270     2.3720 
  145.8750   -20.2810   112.8550    23.4360     4.5780     4.5800     5.1560     2.3500 
  146.0000   -20.4950   111.0900    23.3840     4.5980     4.6570     5.2480     2.3280 
  146.1250   -20.9110   109.9850    23.3500     4.7390     4.8060     5.4270     2.3130 
  146.2500   -21.2780   109.1640    23.3360     4.9240     5.0460     5.7020     2.3040 
  146.3750   -21.5490   107.5840    23.3530     5.1720     5.3860     6.0630     2.3010 
  146.5000   -21.9400   105.7620    23.3860     5.5420     5.7720     6.4390     2.3050 
  146.6250   -22.3260   104.2650    23.4090     6.0560     6.1380     6.7540     2.3170 
  146.7500   -22.5510   103.1540    23.4310     6.6300     6.4030     6.9260     2.3330 
  146.8750   -22.8170   103.2260    23.5250     6.9560     6.4580     6.8540     2.3460 
  147.0000   -23.1400   104.9320    23.7530     6.9430     6.2980     6.5600     2.3490 
  147.1250   -23.2560   107.2730    24.1340     6.6070     5.9400     6.0850     2.3360 
  147.2500   -23.3010   109.6110    24.5100     6.0600     5.4510     5.5140     2.3120 
  147.3750   -23.4100   112.5360    24.7260     5.3750     4.9330     4.9670     2.3050 
  147.5000   -23.4070   115.0060    24.7860     4.7220     4.4880     4.5400     2.3250 
  147.6250   -23.2630   115.1000    24.8200     4.2440     4.1740     4.2880     2.3570 
  147.7500   -23.2520   113.3460    24.8850     3.9610     4.0220     4.2300     2.3830 
  147.8750   -23.2310   113.3100    24.8890     3.8810     4.0660     4.3800     2.3940 
  148.0000   -23.0840   115.0020    24.8280     4.0240     4.2600     4.6700     2.3940 
  148.1250   -23.0770   115.6580    24.7730     4.4460     4.5700     5.0550     2.3800 
  148.2500   -23.1510   113.9710    24.7930     5.1070     4.9500     5.4790     2.3490 
  148.3750   -23.1240   111.1230    24.8800     5.9210     5.3360     5.8690     2.3070 
  148.5000   -23.1750   108.6170    24.8850     6.7780     5.6710     6.1880     2.2690 
  148.6250   -23.3590   106.1690    24.8130     7.5430     5.9340     6.4340     2.2480 
  148.7500   -23.3960   103.6400    24.7680     7.9070     6.1310     6.6380     2.2450 
  148.8750   -23.4540   102.2050    24.8050     7.7430     6.3080     6.8840     2.2550 
