~V
VERS. 2.00: Ver 2.00
~W
STRT.M 60.0000:
STOP.M 268.0000:
STEP.M 0.1250:
NULL. -999.2500:
UWI. DF5039:
~C
DEPT.M :
DEN.GM/CC :
GR.API :
CALI.CM :
RXO.OHMM :
RI. :
RML.OHMM :
SP.MV :
~A
# ...
  206.2500     2.3480    90.3460    23.7800     6.4150     7.8570     8.3230   -18.1430 
  206.3750     2.3410    91.2760    23.7560     5.0370     6.6730     7.0400   -18.0680 
  206.5000     2.3380    90.4610    23.7820     4.8790     5.9910     6.4480   -18.0620 
  206.6250     2.3300    87.7600    23.8350     4.9480     5.8120     6.4330   -18.1470 
  206.7500     2.3170    84.6500    23.8560     5.1450     5.9220     6.6760   -18.2130 
  206.8750     2.3010    83.9170    23.8580     5.4750     6.1720     6.9820   -18.2910 
  207.0000     2.2910    86.1910    23.8910     5.8640     6.4370     7.2440   -18.3920 
  207.1250     2.2870    88.2410    23.9820     6.2100     6.6910     7.5030   -18.5740 
  207.2500     2.2850    87.6270    24.0810     6.5260     7.0260     7.9270   -18.7880 
  207.3750     2.2790    85.1170    24.1400     6.9880     7.5710     8.6990   -18.9220 
  207.5000     2.2700    84.5280    24.1530     8.2000     8.4610     9.9810   -19.0430 
  207.6250     2.2650    87.2320    24.1500    10.1400     9.9010    11.9670   -19.1480 
  207.7500     2.2700    89.6120    24.1490    12.1270    11.8380    14.4880   -19.3450 
  207.8750     2.2830    88.5690    24.1500    14.1880    14.1490    17.3250   -19.5750 
  208.0000     2.2990    83.8950    24.1500    16.9640    16.5800    20.1680   -19.7910 
  208.1250     2.3060    78.4090    24.1480    19.4110    18.7530    22.6210   -19.9650 
  208.2500     2.2970    73.7440    24.1470    20.4280    20.4930    24.5810   -20.2030 
  208.3750     2.2740    69.8790    24.1520    19.8490    21.8250    26.1440   -20.5110 
  208.5000     2.2460    66.9830    24.1630    20.3910    22.9400    27.6100   -20.8600 
  208.6250     2.2220    66.8210    24.1640    22.5970    24.2290    29.5680   -21.1180 
  208.7500     2.2060    68.0570    24.1540    24.0470    26.1360    32.5540   -21.3320 
  208.8750     2.1970    68.7850    24.1290    24.7050    29.1460    37.1290   -21.5360 
  209.0000     2.1920    68.8870    24.1120    28.0740    33.8130    43.8400   -21.8090 
  209.1250     2.1840    68.5660    24.1570    36.1050    41.1230    53.5990   -22.0700 
  209.2500     2.1730    68.2020    24.2440    45.1590    50.9390    65.9940   -22.2760 
  209.3750     2.1600    66.8780    24.3140    50.5890    62.7140    80.2070   -22.3960 
  209.5000     2.1490    64.5490    24.3380    55.0970    74.9570    94.2960   -22.6310 
  209.6250     2.1450    63.0080    24.3520    59.8100    84.7010   104.4190   -22.8630 
  209.7500     2.1500    63.0970    24.3770    62.5330    90.1940   108.7910   -23.0980 
  209.8750     2.1620    64.9300    24.3830    61.9760    91.3570   107.9330   -23.3110 
  210.0000     2.1760    66.1310    24.3540    60.5960    89.5920   104.1410   -23.4510 
  210.1250     2.1860    63.9760    24.3080    56.9820    86.7420    99.8890   -23.6920 
  210.2500     2.1880    61.2300    24.2720    53.1270    84.3590    96.6360   -23.9070 
  210.3750     2.1820    59.4190    24.2520    54.0460    82.9530    94.6660   -24.1830 
  210.5000     2.1730    59.1910    24.2460    57.8750    82.4520    93.6610   -24.3630 
  210.6250     2.1630    60.1120    24.2690    55.5730    82.4180    93.0150   -24.5590 
  210.7500     2.1560    62.3100    24.3320    51.6110    82.3990    92.2940   -24.7080 
  210.8750     2.1530    65.8880    24.4170    49.1680    82.4330    91.6550   -24.8210 
  211.0000     2.1530    69.6660    24.4960    49.0960    82.9040    91.6550   -24.9890 
  211.1250     2.1530    71.1530    24.5350    50.9990    84.6830    93.3270   -25.0830 
  211.2500     2.1530    69.7180    24.5520    52.5100    88.0550    96.8260   -25.2390 
  211.3750     2.1540    65.9570    24.5630    55.7830    92.7740   101.6860   -25.2940 
  211.5000     2.1550    62.0300    24.5700    58.8420    97.8380   106.6540   -25.3350 
  211.6250     2.1570    59.9840    24.5710    63.0510   101.4370   109.6520   -25.4490 
  211.7500     2.1590    60.4100    24.5670    65.1450   102.5950   109.8180   -25.6720 
  211.8750     2.1600    62.7040    24.5480    63.4600   101.1870   107.3140   -25.9220 
  212.0000     2.1610    64.1930    24.5000    57.6370    97.8990   103.1900   -26.1030 
  212.1250     2.1620    62.5440    24.4320    54.2860    94.0430    99.1220   -26.2240 
  212.2500     2.1620    60.2930    24.3670    56.7510    91.1870    96.6410   -26.4150 
  212.3750     2.1590    60.6310    24.3480    59.4020    90.3830    96.7250   -26.6690 
  212.5000     2.1530    63.2890    24.4130    58.5450    92.3950   100.0310   -26.8870 
  212.6250     2.1430    65.5070    24.5310    59.5670    98.3650   107.6380   -27.0290 
  212.7500     2.1320    66.7050    24.6160    68.4150   108.0150   119.1330   -27.0630 
  212.8750     2.1210    67.8150    24.6490    80.9080   121.2040   134.3220   -27.1080 
  213.0000     2.1110    67.7370    24.6530    89.0650   137.1880   152.3740   -27.2040 
  213.1250     2.1060    64.5670    24.6410    88.6630   154.0510   171.0650   -27.3830 
  213.2500     2.1030    60.2550    24.6210    86.8960   168.5240   186.6360   -27.3680 
  213.3750     2.1040    56.7930    24.5990    87.0580   177.9920   196.0850   -27.3040 
  213.5000     2.1080    54.6010    24.5680    87.6080   181.3670   198.4340   -27.2760 
  213.6250     2.1130    55.4890    24.5300    84.2290   179.0440   194.6900   -27.2490 
  213.7500     2.1150    58.3590    24.5010    79.5410   174.4490   188.9410   -27.2640 
  213.8750     2.1140    61.0020    24.4800    76.9990   169.9080   183.6970   -27.2210 
  214.0000     2.1110    62.3210    24.4600    78.0990   167.0230   180.4050   -27.1740 
  214.1250     2.1100    62.6690    24.4430    77.7520   166.2500   179.0470   -27.0410 
  214.2500     2.1150    61.4560    24.4360    78.0030   165.8070   177.4200   -27.1250 
  214.3750     2.1250    58.3100    24.4320    78.3720   163.8530   173.5140   -27.1150 
  214.5000     2.1360    57.0120    24.4190    76.4330   159.0140   166.1140   -27.0540 
  214.6250     2.1430    59.0680    24.3940    72.6590   150.5100   155.0320   -26.9680 
  214.7500     2.1430    60.8610    24.3650    68.9700   140.0890   142.6650   -26.9270 
  214.8750     2.1380    61.8950    24.3360    68.3550   129.6550   131.1850   -26.9070 
  215.0000     2.1320    62.7640    24.3160    69.8630   121.0970   122.4190   -26.8420 
  215.1250     2.1280    62.9370    24.3150    65.3660   116.5740   118.3430   -26.6750 
  215.2500     2.1280    62.9190    24.3310    58.5810   116.5620   119.0010   -26.4720 
  215.3750     2.1300    65.9160    24.3530    55.3780   121.5020   124.4780   -26.3860 
  215.5000     2.1340    70.1710    24.3700    59.4500   130.9820   133.9760   -26.3400 
  215.6250     2.1370    69.2530    24.3610    66.0060   142.7680   144.7190   -26.2730 
  215.7500     2.1390    64.4820    24.3280    70.4980   151.7300   151.5280   -26.1460 
  215.8750     2.1400    60.1450    24.2870    73.7840   153.4790   150.3300   -26.0130 
  216.0000     2.1420    58.7480    24.2580    75.7640   146.4430   140.5730   -25.9400 
  216.1250     2.1450    60.1000    24.2490    71.3900   132.9820   126.0020   -25.9130 
  216.2500     2.1500    62.3110    24.2500    60.8300   119.4140   112.7630   -25.7980 
  216.3750     2.1530    64.3870    24.2510    52.7820   109.0340   103.4480   -25.6900 
  216.5000     2.1550    65.8660    24.2520    51.7020   102.9390    98.5220   -25.4860 
  216.6250     2.1540    66.7700    24.2530    53.4010   101.2190    97.6570   -25.3940 
  216.7500     2.1540    67.2750    24.2600    53.9430   101.9360    98.7520   -25.2070 
  216.8750     2.1540    66.1790    24.2790    55.6480   103.4590   100.1470   -25.1080 
  217.0000     2.1570    63.2750    24.3010    57.6480   104.0240   100.2720   -24.9630 
  217.1250     2.1660    60.0200    24.2910    56.5300   102.1980    98.1090   -24.9790 
  217.2500     2.1810    59.8010    24.2320    54.1870    98.8240    94.8040   -24.9260 
  217.3750     2.1950    62.9730    24.1240    54.6990    95.2990    91.8210   -24.9280 
