~V
VERS. 2.00: Ver 2.00
~W
STRT.M 58.0000:
STOP.M 240.0000:
STEP.M 0.1250:
NULL. -999.2500:
UWI. DF5049:
~C
DEPT.M :
GR.API :
RML.OHMM :
RI. :
RXO.OHMM :
CALI.CM :
DEN.GM/CC :
SP.MV :
~A
# ...
  125.5000    74.8070     9.7740     8.1540     9.5670    23.8740     2.1760   -25.1140 
  125.6250    76.2370     9.8910     8.3390     9.2470    23.8720     2.1470   -26.5710 
  125.7500    74.6410     9.9610     8.4420     8.9950    23.9530     2.1150   -27.8990 
  125.8750    69.3960    10.0150     8.4960     8.9340    24.0950     2.0910   -29.0110 
  126.0000    67.9160     9.9970     8.4810     9.0670    24.1900     2.0880   -29.7220 
  126.1250    73.2720     9.7500     8.3060     9.2090    24.3040     2.1170   -29.7190 
  126.2500    77.1600     9.2220     7.9390     9.2790    24.4560     2.1660   -29.1260 
  126.3750    78.3860     8.4630     7.4000     8.8530    24.7320     2.2210   -27.9760 
  126.5000    81.9790     7.6420     6.7880     7.5360    25.0880     2.2680   -26.3960 
  126.6250    89.5760     6.9950     6.2440     6.1040    25.3850     2.2960   -24.6110 
  126.7500    98.0890     6.6070     5.8430     5.6580    25.5430     2.3110   -22.7620 
  126.8750   103.8660     6.4810     5.6070     5.7260    25.5710     2.3160   -20.8320 
  127.0000   106.4860     6.5580     5.5210     5.8000    25.5320     2.3150   -19.0010 
  127.1250   105.6870     6.7340     5.5590     5.5560    25.4800     2.3120   -17.5220 
  127.2500   104.1160     6.8790     5.6450     5.4960    25.4020     2.3080   -16.4340 
  127.3750   103.8520     6.9420     5.7300     5.7710    25.2540     2.3030   -15.7930 
  127.5000   104.0980     6.9320     5.7870     6.1120    25.0550     2.2960   -15.4890 
  127.6250   104.9760     6.8790     5.7930     5.9770    24.9130     2.2860   -15.3640 
  127.7500   103.5740     6.8270     5.7610     5.5840    24.7940     2.2800   -15.3190 
  127.8750    99.6150     6.7790     5.7060     5.3520    24.6660     2.2790   -15.3650 
  128.0000    95.0250     6.7000     5.6410     5.3500    24.4440     2.2860   -15.4690 
  128.1250    92.8620     6.5350     5.5740     5.4040    24.2190     2.2970   -15.6100 
  128.2500    93.1160     6.3050     5.5170     5.4280    24.1540     2.3090   -15.7190 
  128.3750    93.8400     6.0720     5.4730     5.5810    24.3660     2.3250   -15.7900 
  128.5000    96.4420     5.8990     5.4460     5.7460    24.7900     2.3410   -15.8150 
  128.6250   101.4350     5.8450     5.4430     5.5990    25.1910     2.3530   -15.7340 
  128.7500   106.5310     5.8980     5.4640     5.9860    25.3950     2.3530   -15.6140 
  128.8750   109.4400     6.0210     5.5020     6.4340    25.4100     2.3400   -15.4890 
  129.0000   109.0620     6.1650     5.5380     5.9130    25.3350     2.3190   -15.3730 
  129.1250   106.8310     6.2850     5.5590     5.7320    25.2540     2.3000   -15.2990 
  129.2500   102.7630     6.3450     5.5580     5.9660    25.2650     2.2900   -15.2130 
  129.3750    97.7120     6.3270     5.5270     5.9290    25.3460     2.2870   -15.1120 
  129.5000    94.4650     6.2350     5.4670     5.5900    25.4110     2.2870   -15.0400 
  129.6250    94.5850     6.1070     5.3940     5.3550    25.4220     2.2880   -15.0320 
  129.7500    97.9710     6.0150     5.3420     5.5080    25.4210     2.2860   -15.0210 
  129.8750   102.4940     6.0140     5.3600     5.4980    25.4340     2.2800   -15.0240 
  130.0000   104.9310     6.1540     5.4920     5.3520    25.4370     2.2720   -15.0720 
  130.1250   101.0290     6.4510     5.7660     5.4520    25.3330     2.2660   -15.1280 
  130.2500    93.9560     6.7710     6.0890     5.7730    25.0920     2.2680   -15.2420 
  130.3750    91.3530     6.9670     6.3290     6.2740    24.8640     2.2810   -15.4040 
  130.5000    95.1740     6.9080     6.3490     6.5500    24.8780     2.3020   -15.5460 
  130.6250    99.2360     6.5130     6.0420     6.2500    25.1390     2.3170   -15.5770 
  130.7500    99.7430     5.9370     5.5410     5.4870    25.4770     2.3140   -15.5140 
  130.8750    98.9520     5.3250     5.0020     4.8220    25.7690     2.2880   -15.4040 
  131.0000   101.8450     4.8130     4.5590     4.3920    25.9870     2.2520   -15.2260 
  131.1250   110.0720     4.5500     4.3380     4.2440    25.9550     2.2320   -14.9340 
  131.2500   117.9590     4.5600     4.3410     4.1860    25.9060     2.2400   -14.6390 
  131.3750   118.0760     4.8370     4.5610     4.2580    25.8630     2.2680   -14.3880 
  131.5000   110.6880     5.3130     4.9650     4.7320    25.8240     2.2980   -14.2000 
  131.6250   105.0760     5.8590     5.4910     5.5500    25.7890     2.3090   -14.2000 
  131.7500   103.6960     6.3260     6.0080     6.2600    25.7030     2.3010   -14.3930 
  131.8750   102.1760     6.6400     6.4070     6.6430    25.5910     2.2840   -14.6380 
  132.0000    97.6730     6.7950     6.6200     6.6530    25.4790     2.2680   -14.9440 
  132.1250    93.1050     6.7940     6.6120     6.8200    25.4050     2.2540   -15.3480 
  132.2500    90.6880     6.6710     6.4570     6.7360    25.3570     2.2380   -15.7100 
  132.3750    89.1700     6.4700     6.2340     6.6060    25.3620     2.2230   -16.0140 
  132.5000    88.5540     6.2930     6.0540     6.2160    25.3900     2.2170   -16.2580 
  132.6250    89.8200     6.3070     6.0590     6.1330    25.4140     2.2310   -16.3600 
  132.7500    91.5950     6.5810     6.2850     6.1200    25.4380     2.2600   -16.3540 
  132.8750    90.4440     7.1270     6.7410     6.2410    25.4310     2.2970   -16.3420 
  133.0000    86.8080     7.8510     7.3710     7.3980    25.3320     2.3340   -16.2380 
  133.1250    85.6780     8.5160     8.0200     9.7360    25.2090     2.3620   -15.9900 
  133.2500    86.3060     8.9700     8.5310     9.4500    25.1900     2.3730   -15.7380 
  133.3750    84.4310     9.2240     8.8740     8.0890    25.2040     2.3600   -15.4730 
  133.5000    81.2150     9.3450     9.0750     7.3380    25.1990     2.3250   -15.2260 
  133.6250    82.4480     9.3680     9.1520     7.3370    25.2780     2.2860   -15.0430 
  133.7500    85.4460     9.2820     9.1380     8.5480    25.3820     2.2640   -14.8960 
  133.8750    86.5620     8.9850     8.9850    10.4560    25.4400     2.2680   -14.7100 
  134.0000    86.5650     8.4200     8.6330     9.8560    25.4470     2.2910   -14.4630 
  134.1250    88.9560     7.7170     8.1390     7.6260    25.4400     2.3160   -14.2080 
  134.2500    90.4230     7.1300     7.6980     6.4890    25.4180     2.3330   -14.0210 
  134.3750    87.8370     6.7720     7.4100     6.7020    25.3760     2.3410   -13.9010 
  134.5000    84.8230     6.6830     7.3260     6.6320    25.3550     2.3440   -13.8290 
  134.6250    85.6170     6.9610     7.5410     7.6910    25.3280     2.3500   -13.8080 
  134.7500    85.7390     7.6030     8.0610     9.1900    25.2890     2.3710   -13.7490 
  134.8750    82.2830     8.6300     8.9140     8.9320    25.2610     2.4100   -13.6890 
  135.0000    77.4060     9.9520    10.0810     8.8980    25.2450     2.4600   -13.7130 
  135.1250    73.0550    11.1610    11.3190    12.0840    25.1980     2.4930   -13.7740 
  135.2500    68.5850    11.6980    12.0760    17.2410    25.1160     2.4920   -13.8030 
  135.3750    65.5800    11.2960    11.9790    17.6080    25.0380     2.4610   -13.7790 
  135.5000    66.1030    10.2140    11.1810    12.9080    24.9870     2.4230   -13.7260 
  135.6250    68.7210     9.2180    10.3150     9.0540    24.9730     2.4120   -13.6590 
  135.7500    69.7210     8.9870     9.9660     7.6220    24.9650     2.4360   -13.6170 
  135.8750    67.3450     9.8530    10.4410     8.5450    24.9420     2.4830   -13.5520 
  136.0000    61.7670    11.8890    11.9120    12.7760    24.8840     2.5310   -13.4570 
  136.1250    57.1280    15.2430    14.5260    16.4600    24.8530     2.5610   -13.4390 
  136.2500    55.6880    19.4160    17.6590    18.8690    24.8410     2.5740   -13.4410 
  136.3750    55.3000    22.2310    20.4740    19.3480    24.8420     2.5780   -13.4330 
  136.5000    54.5570    23.7210    22.2020    18.9310    24.8430     2.5820   -13.4440 
  136.6250    55.4560    23.7220    22.5530    18.7760    24.8430     2.5870   -13.4840 
