~V
VERS. 2.00: Ver 2.00
~W
STRT.M 55.0000:
STOP.M 250.0000:
STEP.M 0.1250:
NULL. -999.2500:
UWI. DF5052:
~C
DEPT.M :
SP.MV :
GR.API :
CALI.CM :
RXO.OHMM :
RI. :
RML.OHMM :
DEN.GM/CC :
~A
# ...
  122.5000   -17.7860    75.3990    23.4440     6.0010     6.0590     6.5740     2.1940 
  122.6250   -17.8440    74.8890    23.4840     6.2300     6.1530     6.6730     2.1970 
  122.7500   -17.8970    73.0830    23.4770     6.5690     6.2330     6.7570     2.2000 
  122.8750   -17.9380    71.5590    23.5050     6.8770     6.2780     6.8040     2.2070 
  123.0000   -17.9530    72.1650    23.5760     6.9910     6.2780     6.8050     2.2150 
  123.1250   -17.9260    74.6730    23.5550     6.8580     6.2400     6.7640     2.2150 
  123.2500   -17.8750    76.9460    23.4390     6.6500     6.1960     6.7180     2.2000 
  123.3750   -17.8190    78.1100    23.3090     6.4560     6.1730     6.6940     2.1780 
  123.5000   -17.7780    78.4770    23.2100     6.3160     6.1890     6.7110     2.1690 
  123.6250   -17.7640    79.8790    23.1040     6.2920     6.2640     6.7900     2.1810 
  123.7500   -17.7680    85.5670    22.9630     6.4180     6.3840     6.9160     2.1960 
  123.8750   -17.7800    94.6320    22.8300     6.6830     6.5310     7.0710     2.1980 
  124.0000   -17.8010   100.1660    22.7270     7.0170     6.6830     7.2300     2.1920 
  124.1250   -17.8470    95.4760    22.8290     7.3470     6.8150     7.3690     2.1950 
  124.2500   -17.9210    86.6370    23.1260     7.6640     6.9160     7.4760     2.2050 
  124.3750   -18.0180    79.9870    23.4440     8.0370     6.9780     7.5410     2.2100 
  124.5000   -18.1130    76.3930    23.6150     8.4230     6.9990     7.5630     2.2050 
  124.6250   -18.1790    73.7070    23.6460     8.5870     6.9770     7.5400     2.1970 
  124.7500   -18.2140    72.2110    23.6370     8.4860     6.9300     7.4900     2.1910 
  124.8750   -18.2330    72.3360    23.6140     8.2000     6.8670     7.4250     2.1850 
  125.0000   -18.2590    72.7740    23.5820     7.9100     6.8020     7.3560     2.1740 
  125.1250   -18.2980    72.0420    23.5840     7.7550     6.7490     7.3000     2.1590 
  125.2500   -18.3370    71.2120    23.5980     7.7140     6.7170     7.2660     2.1470 
  125.3750   -18.3620    71.5780    23.5890     7.7600     6.7060     7.2550     2.1450 
  125.5000   -18.3720    73.1190    23.5660     7.8660     6.7130     7.2620     2.1490 
  125.6250   -18.3870    74.5550    23.5750     8.0120     6.7300     7.2800     2.1550 
  125.7500   -18.4270    74.5420    23.6230     8.1060     6.7540     7.3050     2.1590 
  125.8750   -18.4900    72.9970    23.6720     8.1290     6.7850     7.3380     2.1620 
  126.0000   -18.5610    71.5600    23.6970     8.1220     6.8240     7.3790     2.1630 
  126.1250   -18.6170    72.8890    23.7010     8.1390     6.8700     7.4280     2.1620 
  126.2500   -18.6590    75.9730    23.7020     8.1620     6.9240     7.4840     2.1570 
  126.3750   -18.7000    77.9280    23.6930     8.1570     6.9840     7.5470     2.1540 
  126.5000   -18.7570    77.0240    23.6620     8.1280     7.0400     7.6060     2.1560 
  126.6250   -18.8310    74.8880    23.5910     8.0890     7.0740     7.6420     2.1620 
  126.7500   -18.9040    75.9310    23.5550     8.0810     7.0730     7.6410     2.1580 
  126.8750   -18.9570    82.8600    23.5460     8.1110     7.0370     7.6030     2.1490 
  127.0000   -18.9870    93.2520    23.5500     8.1430     6.9780     7.5400     2.1460 
  127.1250   -19.0030    97.7270    23.5730     8.0550     6.9100     7.4700     2.1520 
  127.2500   -19.0240    92.7860    23.6150     7.9040     6.8480     7.4040     2.1560 
  127.3750   -19.0530    83.5110    23.6480     7.7940     6.7930     7.3460     2.1550 
  127.5000   -19.0760    76.4960    23.6340     7.7960     6.7500     7.3010     2.1580 
  127.6250   -19.0690    73.8740    23.5780     7.9700     6.7270     7.2770     2.1700 
  127.7500   -19.0270    73.1820    23.5130     8.1750     6.7220     7.2710     2.1800 
  127.8750   -18.9560    73.7900    23.4320     8.2520     6.7360     7.2870     2.1810 
  128.0000   -18.8730    75.5690    23.3150     8.0980     6.7740     7.3270     2.1720 
  128.1250   -18.7910    77.7500    23.2470     7.8260     6.8400     7.3960     2.1670 
  128.2500   -18.7040    79.2530    23.2210     7.7710     6.9210     7.4800     2.1720 
  128.3750   -18.5960    80.3100    23.2180     8.0250     6.9910     7.5550     2.1800 
  128.5000   -18.4560    83.2050    23.2190     8.4110     7.0140     7.5790     2.1840 
  128.6250   -18.2860    88.2160    23.2250     8.6330     6.9400     7.5010     2.1830 
  128.7500   -18.1090    90.8060    23.2500     8.6610     6.7890     7.3420     2.1810 
  128.8750   -17.9380    89.3870    23.2970     8.5560     6.5980     7.1410     2.1830 
  129.0000   -17.7670    86.4710    23.3350     8.3680     6.4240     6.9580     2.1890 
  129.1250   -17.5760    85.3580    23.3510     8.0530     6.3460     6.8750     2.1990 
  129.2500   -17.3620    85.4650    23.3550     7.6480     6.3970     6.9300     2.2040 
  129.3750   -17.1440    85.3020    23.3500     7.4580     6.5860     7.1290     2.2000 
  129.5000   -16.9520    83.4500    23.3310     8.2370     6.8900     7.4490     2.1950 
  129.6250   -16.8280    79.9060    23.2980    10.7320     7.2600     7.8380     2.2030 
  129.7500   -16.7670    77.5660    23.3710    13.3770     7.6130     8.2090     2.2170 
  129.8750   -16.7540    77.5170    23.5410    14.1870     7.8960     8.5070     2.2170 
  130.0000   -16.7750    78.2110    23.6440    12.6250     8.0820     8.7020     2.2050 
  130.1250   -16.8270    77.5630    23.6100    10.5040     8.1480     8.7720     2.2000 
  130.2500   -16.9100    76.0090    23.5950     9.6860     8.1270     8.7500     2.2100 
  130.3750   -17.0220    75.0100    23.6440     9.8680     8.0400     8.6580     2.2300 
  130.5000   -17.1470    75.3540    23.6950    10.0560     7.9060     8.5170     2.2470 
  130.6250   -17.2550    76.9240    23.6860     9.7250     7.7350     8.3370     2.2510 
  130.7500   -17.3290    80.8500    23.6340     9.1650     7.5450     8.1370     2.2370 
  130.8750   -17.3700    87.5650    23.5830     8.6380     7.3440     7.9250     2.2070 
  131.0000   -17.3930    93.4810    23.5100     8.2820     7.1430     7.7150     2.1770 
  131.1250   -17.4150    93.0630    23.3600     8.0300     6.9610     7.5230     2.1720 
  131.2500   -17.4370    89.4070    23.1270     7.8860     6.8120     7.3670     2.1960 
  131.3750   -17.4480    87.0640    22.8990     8.0890     6.7240     7.2740     2.2330 
  131.5000   -17.4340    86.4300    22.7150     8.6840     6.7410     7.2920     2.2670 
  131.6250   -17.3930    84.9440    22.6440     9.0010     6.9250     7.4850     2.2740 
  131.7500   -17.3400    82.6790    22.6490     8.8370     7.2710     7.8490     2.2540 
  131.8750   -17.2850    79.9970    22.7160     8.7180     7.7730     8.3770     2.2230 
  132.0000   -17.2250    77.0440    22.8260     9.5880     8.3770     9.0120     2.2120 
  132.1250   -17.1340    74.6070    22.9680    13.1510     8.9390     9.6040     2.2400 
  132.2500   -16.9990    73.2480    23.0950    18.5990     9.2940     9.9770     2.2770 
  132.3750   -16.8180    72.4490    23.1390    22.0000     9.3220    10.0070     2.2900 
  132.5000   -16.6050    71.9500    23.0890    20.1630     8.9850     9.5800     2.2760 
  132.6250   -16.3690    73.5590    22.9980    15.1360     8.3250     8.6620     2.2590 
  132.7500   -16.1130    77.8960    22.9770    11.9650     7.5600     7.5550     2.2580 
  132.8750   -15.8270    83.7060    23.0490    10.2430     6.8280     6.6550     2.2650 
  133.0000   -15.5070    88.1500    23.2170     8.5080     6.2200     6.0230     2.2730 
  133.1250   -15.1690    89.1060    23.3950     6.6700     5.8070     5.6500     2.2680 
  133.2500   -14.8430    89.0900    23.4700     5.7980     5.5450     5.4510     2.2430 
  133.3750   -14.5490    90.4070    23.4660     5.7710     5.3900     5.3670     2.2050 
  133.5000   -14.2860    93.2280    23.4770     6.0600     5.3030     5.3390     2.1840 
  133.6250   -14.0390    96.1900    23.6980     6.0680     5.2480     5.3210     2.2110 
