~V
VERS. 2.00: Ver 2.00
~W
STRT.M 55.0000:
STOP.M 271.0000:
STEP.M 0.1250:
NULL. -999.2500:
UWI. DF5032:
~C
DEPT.M :
SP.MV :
GR.API :
CALI.CM :
RXO.OHMM :
RI. :
RML.OHMM :
DEN.GM/CC :
~A
# ...
  235.0000   -25.6620   115.3300    24.0910     8.1790     8.3250     9.0240     2.4300 
  235.1250   -25.4760   117.6560    24.1210     8.1420     8.4570     9.1640     2.4220 
  235.2500   -25.3550   121.4140    24.1340     8.4210     8.9390     9.6750     2.4140 
  235.3750   -25.3110   121.8210    24.1450     9.0040     9.9720    10.7700     2.4100 
  235.5000   -25.3340   116.7450    24.2010    10.0750    11.8420    12.7530     2.4070 
  235.6250   -25.4100   107.6100    24.2770    12.4560    15.2250    16.3990     2.4050 
  235.7500   -25.5250    97.5460    24.3150    19.6980    20.3650    22.2610     2.4050 
  235.8750   -25.6840    88.0050    24.3130    37.7870    27.5350    30.7510     2.4030 
  236.0000   -25.8910    80.5720    24.3130    67.6110    36.6910    40.9370     2.3870 
  236.1250   -26.1280    76.3150    24.3370    94.1710    47.2380    51.9290     2.3530 
  236.2500   -26.3570    73.3960    24.3540   104.5370    57.4660    62.2590     2.3140 
  236.3750   -26.5550    70.4430    24.3850   103.3270    65.9810    70.6880     2.2810 
  236.5000   -26.7180    68.1180    24.4140   100.2740    71.8790    76.2410     2.2610 
  236.6250   -26.8590    67.9580    24.4450    97.7660    74.7070    78.6130     2.2530 
  236.7500   -26.9950    68.2750    24.4610    93.5610    75.7730    79.4470     2.2540 
  236.8750   -27.1190    66.9920    24.4510    88.4690    76.1000    79.8560     2.2630 
  237.0000   -27.2120    64.2850    24.4340    84.6260    76.2410    80.2720     2.2730 
  237.1250   -27.2520    63.2580    24.4280    84.4520    76.2770    80.6320     2.2750 
  237.2500   -27.2550    65.4920    24.3950    88.5900    76.3260    80.9610     2.2680 
  237.3750   -27.2440    70.1970    24.3330    95.5410    76.6240    81.4600     2.2600 
  237.5000   -27.2360    74.9160    24.2670   101.5920    77.4940    82.4760     2.2600 
  237.6250   -27.2270    76.0120    24.2810   102.2520    79.4990    84.5700     2.2690 
  237.7500   -27.1950    72.8390    24.3820    98.1880    82.6210    87.7130     2.2770 
  237.8750   -27.1300    67.5900    24.4650    96.1360    86.5290    91.5530     2.2790 
  238.0000   -27.0410    63.6110    24.4990   105.4370    90.5150    95.3480     2.2740 
  238.1250   -26.9510    63.4080    24.5320   127.3770    93.4390    97.8630     2.2630 
  238.2500   -26.8760    65.2420    24.4950   146.4110    94.6960    98.5420     2.2520 
  238.3750   -26.8070    67.5450    24.4430   148.6040    94.2820    97.5650     2.2440 
  238.5000   -26.7250    69.8160    24.4260   132.8490    92.8460    95.8120     2.2390 
  238.6250   -26.6160    71.1890    24.4450   109.7770    91.4830    94.5380     2.2370 
  238.7500   -26.5020    70.4320    24.4400    93.0000    91.1220    94.5400     2.2390 
  238.8750   -26.4100    68.5740    24.4340    86.2750    92.1260    95.9530     2.2410 
  239.0000   -26.3540    68.7760    24.4490    90.7290    94.2090    98.2220     2.2360 
  239.1250   -26.3280    71.6350    24.4430   107.2590    96.3030    99.9920     2.2330 
  239.2500   -26.3040    72.2980    24.4280   124.9690    97.2050   100.3960     2.2350 
  239.3750   -26.2720    69.1490    24.4440   130.6260    96.2970    99.6530     2.2360 
  239.5000   -26.2440    65.5100    24.4790   121.1030    93.5950    98.8100     2.2320 
  239.6250   -26.2470    65.2300    24.5070   106.5200    89.6630    95.7690     2.2330 
  239.7500   -26.2880    66.0670    24.5450    96.2560    85.6970    91.9590     2.2440 
  239.8750   -26.3530    65.6810    24.5470    90.8760    82.3870    88.4270     2.2590 
  240.0000   -26.4210    64.7960    24.5400    89.8670    80.0330    85.9150     2.2670 
  240.1250   -26.4770    65.9800    24.4940    90.9460    78.6250    84.4130     2.2640 
  240.2500   -26.5310    68.5340    24.4840    90.9290    77.5650    83.2820     2.2550 
  240.3750   -26.6030    70.3770    24.4880    88.9200    76.5110    82.1570     2.2470 
  240.5000   -26.7010    70.7820    24.5300    86.0720    75.3840    80.9540     2.2460 
  240.6250   -26.8090    70.1450    24.5130    83.5710    74.4050    79.9110     2.2550 
  240.7500   -26.8940    69.3810    24.5070    81.1330    73.8840    79.3540     2.2660 
  240.8750   -26.9420    69.4200    24.5310    78.3040    73.9990    79.4770     2.2710 
  241.0000   -26.9560    70.4020    24.5550    75.6460    74.6220    80.1420     2.2690 
  241.1250   -26.9560    70.9230    24.6000    75.1490    75.1090    80.6610     2.2550 
  241.2500   -26.9550    70.6510    24.6530    77.2390    74.7780    80.3080     2.2350 
  241.3750   -26.9430    71.0520    24.6670    80.5340    73.2960    78.7270     2.2190 
  241.5000   -26.8980    72.9090    24.5570    82.3330    70.6050    75.8560     2.2160 
  241.6250   -26.8050    74.8290    24.3530    79.3310    66.9500    71.9560     2.2260 
  241.7500   -26.6880    75.3830    24.2260    71.6050    63.2700    68.0290     2.2390 
  241.8750   -26.5760    74.3840    24.2520    62.0850    60.3490    64.9130     2.2450 
  242.0000   -26.4830    72.5570    24.3270    57.2510    58.7320    63.1870     2.2400 
  242.1250   -26.4050    71.1340    24.3950    63.7980    58.9860    63.4580     2.2270 
  242.2500   -26.3200    70.4620    24.4800    72.2870    60.7730    65.3640     2.2170 
  242.3750   -26.2170    70.0360    24.5480    75.2010    63.7590    68.5510     2.2180 
  242.5000   -26.1090    69.7300    24.5600    74.0690    67.5770    72.6250     2.2240 
  242.6250   -26.0210    70.1020    24.5250    73.2730    71.8380    77.1710     2.2290 
  242.7500   -25.9640    70.7680    24.4580    76.4520    75.9790    81.5900     2.2340 
  242.8750   -25.9240    71.0780    24.4170    83.7600    79.5570    85.4080     2.2360 
  243.0000   -25.8800    70.9130    24.4160    92.8700    82.1500    88.1740     2.2280 
  243.1250   -25.8170    70.7250    24.4010    98.0840    82.9250    89.0010     2.2160 
  243.2500   -25.7510    71.1900    24.2470    96.5560    81.7470    87.7440     2.2280 
  243.3750   -25.7010    72.8390    23.9160    93.7450    78.8850    84.6910     2.2760 
  243.5000   -25.6780    75.4270    23.5970    96.5200    75.1730    80.7290     2.3420 
  243.6250   -25.6680    77.5200    23.5520   103.7240    72.1220    77.4740     2.3770 
  243.7500   -25.6400    78.3980    23.7610   101.2110    71.0850    76.3670     2.3660 
  243.8750   -25.5780    78.2340    24.0040    88.1550    72.9020    78.3060     2.3220 
  244.0000   -25.4900    77.2650    24.2220    82.3820    77.6870    83.4120     2.2730 
  244.1250   -25.3950    75.6840    24.3250   106.8550    84.9670    91.1800     2.2410 
  244.2500   -25.2990    73.9410    24.3610   154.4700    92.7230    99.4560     2.2170 
  244.3750   -25.1860    72.0270    24.3630   201.4800    99.1050   106.2650     2.1940 
  244.5000   -25.0360    69.9970    24.3570   222.8510   102.5400   109.9300     2.1840 
  244.6250   -24.8370    68.6640    24.3000   203.1210   101.7870   109.1270     2.2140 
  244.7500   -24.6190    68.2330    24.1520   160.2290    98.2320   105.3340     2.2700 
  244.8750   -24.4090    68.1510    23.9000   116.0840    93.4040   100.1820     2.3120 
  245.0000   -24.2160    68.0130    23.5650    87.5060    88.8610    95.3350     2.3080 
  245.1250   -24.0310    67.4880    23.3590    80.9980    85.5260    91.7760     2.2690 
  245.2500   -23.8370    66.4180    23.4420    85.7210    82.8290    88.8980     2.2360 
  245.3750   -23.6420    65.0630    23.7470    93.0050    79.9990    85.8790     2.2220 
  245.5000   -23.4700    64.5760    24.0010    96.8130    76.4010    82.0400     2.2220 
  245.6250   -23.3520    66.2470    24.1350    95.2010    71.6120    76.9300     2.2270 
  245.7500   -23.2760    69.1400    24.2220    89.1540    66.1000    71.0490     2.2330 
  245.8750   -23.2190    71.6120    24.3100    78.7740    60.4590    65.0300     2.2370 
  246.0000   -23.1630    72.8890    24.3740    66.1650    55.2820    59.5060     2.2370 
  246.1250   -23.1070    74.7600    24.3770    56.4950    51.1390    55.0860     2.2370 
