~V
VERS. 2.00: Ver 2.00
~W
STRT.M 55.0000:
STOP.M 271.0000:
STEP.M 0.1250:
NULL. -999.2500:
UWI. DF5016:
~C
DEPT.M :
SP.MV :
GR.API :
CALI.CM :
RXO.OHMM :
RI. :
RML.OHMM :
DEN.GM/CC :
~A
# ...
   66.2500   -27.2380    75.5470    22.2400    16.9400     7.9710     8.5420     2.2410 
   66.3750   -27.2980    76.3870    21.9640    14.0990     7.7990     8.3710     2.2100 
   66.5000   -27.2870    74.8780    21.8440    10.7800     7.6580     8.2320     2.1480 
   66.6250   -27.2240    73.0580    21.8160     9.1980     7.5790     8.1530     2.1080 
   66.7500   -27.1420    73.2230    21.7860     8.7100     7.5650     8.1390     2.1060 
   66.8750   -27.0560    75.6430    21.7290     8.5690     7.6320     8.2050     2.1280 
   67.0000   -26.9760    78.4370    21.6270     8.5750     7.7580     8.3310     2.1460 
   67.1250   -26.9100    79.9950    21.5910     8.6250     7.8760     8.4470     2.1510 
   67.2500   -26.8610    81.0740    21.6170     8.6420     7.9290     8.5000     2.1560 
   67.3750   -26.8300    82.1380    21.6470     8.5320     7.9240     8.4950     2.1700 
   67.5000   -26.8200    83.1840    21.7310     8.2570     7.8900     8.4610     2.1890 
   67.6250   -26.8410    84.7440    21.9590     8.1070     7.8490     8.4210     2.2040 
   67.7500   -26.8910    86.5460    22.2790     8.3300     7.7890     8.3610     2.2220 
   67.8750   -26.9710    86.7590    22.5490     8.9040     7.6960     8.2690     2.2490 
   68.0000   -27.0840    84.9080    22.7050     9.3230     7.5850     8.1590     2.2720 
   68.1250   -27.2350    83.1140    22.6310     9.1730     7.4780     8.0540     2.2670 
   68.2500   -27.4170    82.5740    22.4990     8.8780     7.3960     7.9720     2.2410 
   68.3750   -27.6200    81.7980    22.4190     8.7550     7.3360     7.9120     2.2100 
   68.5000   -27.8260    79.3830    22.3920     8.7010     7.3030     7.8800     2.1850 
   68.6250   -28.0150    75.3260    22.3450     8.6500     7.3090     7.8860     2.1700 
   68.7500   -28.1780    71.4120    22.2840     8.6530     7.3700     7.9470     2.1630 
   68.8750   -28.3100    69.0210    22.2410     8.7860     7.4690     8.0440     2.1640 
   69.0000   -28.4010    69.0190    22.2540     9.0360     7.5640     8.1380     2.1690 
   69.1250   -28.4260    70.8650    22.2780     9.3100     7.6250     8.1990     2.1620 
   69.2500   -28.3810    71.9230    22.1720     9.7050     7.6940     8.2670     2.1440 
   69.3750   -28.2630    71.0100    21.9820    10.1880     7.8240     8.3960     2.1280 
   69.5000   -28.0840    69.3740    21.8550    10.5940     8.0510     8.6210     2.1230 
   69.6250   -27.8560    69.8480    21.8430    10.7550     8.3730     8.9390     2.1290 
   69.7500   -27.5990    72.3150    21.8940    10.5960     8.7350     9.2980     2.1370 
   69.8750   -27.3270    74.7520    21.9360    10.4300     9.0900     9.6490     2.1500 
   70.0000   -27.0480    75.5030    21.9050    10.8660     9.3790     9.9350     2.1820 
   70.1250   -26.7800    74.2530    21.9370    12.2860     9.4970    10.0520     2.2450 
   70.2500   -26.5380    72.0780    22.0360    13.6750     9.4150     9.9710     2.2990 
   70.3750   -26.3350    69.9880    22.0640    13.5030     9.1400     9.6990     2.2990 
   70.5000   -26.1790    68.9040    21.8970    11.7090     8.7350     9.2970     2.2400 
   70.6250   -26.0820    70.1100    21.7120     9.9920     8.3140     8.8810     2.1700 
   70.7500   -26.0300    73.2920    21.5580     9.2100     7.9870     8.5570     2.1280 
   70.8750   -26.0180    77.0710    21.4950     8.9950     7.7980     8.3700     2.1120 
   71.0000   -26.0380    79.1880    21.4990     8.9130     7.7580     8.3300     2.1090 
   71.1250   -26.0910    77.6490    21.5090     8.8660     7.8560     8.4270     2.1170 
   71.2500   -26.1650    74.3420    21.5250     9.1290     8.0340     8.6030     2.1330 
   71.3750   -26.2540    71.4490    21.5630     9.9700     8.2370     8.8040     2.1550 
   71.5000   -26.3540    69.7520    21.6400    11.3610     8.4010     8.9670     2.1810 
   71.6250   -26.4670    69.3640    21.6390    12.4400     8.4550     9.0200     2.2050 
   71.7500   -26.5910    70.6890    21.6130    12.1340     8.3980     8.9640     2.2150 
   71.8750   -26.7240    73.7700    21.5780    10.8020     8.2710     8.8380     2.2070 
   72.0000   -26.8590    76.8550    21.6230     9.5980     8.1300     8.6990     2.1850 
   72.1250   -26.9790    76.9820    21.7980     9.1320     8.0260     8.5960     2.1640 
   72.2500   -27.0730    74.4140    22.0110     9.0730     7.9620     8.5320     2.1440 
   72.3750   -27.1310    71.1310    22.2610     9.1820     7.9270     8.4980     2.1240 
   72.5000   -27.1470    69.5590    22.4930     9.3620     7.9140     8.4840     2.1100 
   72.6250   -27.1080    70.5530    22.6810     9.4980     7.9210     8.4910     2.1090 
   72.7500   -27.0230    71.7110    22.7390     9.6020     7.9220     8.4930     2.1120 
   72.8750   -26.8880    72.0110    22.6640     9.6520     7.9060     8.4770     2.1080 
   73.0000   -26.7080    72.7870    22.5050     9.5770     7.8760     8.4470     2.0970 
   73.1250   -26.4870    75.5540    22.3930     9.4250     7.8440     8.4160     2.0970 
   73.2500   -26.2550    77.8320    22.3410     9.2980     7.8380     8.4100     2.1120 
   73.3750   -26.0250    77.5130    22.2840     9.3400     7.8670     8.4390     2.1350 
   73.5000   -25.8010    75.2410    22.1870     9.5820     7.9270     8.4980     2.1570 
   73.6250   -25.5800    72.7950    22.1230    10.0300     8.0030     8.5730     2.1740 
   73.7500   -25.3610    71.1660    22.0870    10.6950     8.0770     8.6460     2.1870 
   73.8750   -25.1510    70.7300    22.0730    11.2770     8.1440     8.7120     2.1880 
   74.0000   -24.9580    71.4380    22.0680    11.2060     8.2010     8.7690     2.1750 
   74.1250   -24.7790    71.9350    22.0390    10.5510     8.2310     8.7990     2.1620 
   74.2500   -24.6040    72.0990    22.0200    10.0480     8.2230     8.7910     2.1580 
   74.3750   -24.4380    73.0100    22.0480    10.0540     8.1720     8.7410     2.1550 
   74.5000   -24.2930    74.7480    22.0890    10.3760     8.0940     8.6630     2.1470 
   74.6250   -24.1870    75.9750    22.1200    10.5900     8.0080     8.5780     2.1350 
   74.7500   -24.1050    75.8270    22.1510    10.5940     7.9120     8.4820     2.1290 
   74.8750   -24.0340    74.5800    22.2110    10.3760     7.7980     8.3700     2.1320 
   75.0000   -23.9680    73.3650    22.2950    10.0300     7.6700     8.2430     2.1410 
   75.1250   -23.9200    74.5550    22.3050     9.7680     7.5450     8.1200     2.1420 
   75.2500   -23.9010    78.0590    22.1940     9.6340     7.4480     8.0230     2.1280 
   75.3750   -23.9100    80.9750    22.0140     9.6760     7.3820     7.9580     2.1070 
   75.5000   -23.9340    80.5730    21.8680     9.8480     7.3380     7.9140     2.0940 
   75.6250   -23.9560    77.0610    21.8190     9.9600     7.3210     7.8980     2.0990 
   75.7500   -23.9670    73.9430    21.8130    10.0280     7.3260     7.9020     2.1110 
   75.8750   -23.9620    72.3280    21.8100    10.0100     7.3540     7.9310     2.1210 
   76.0000   -23.9380    71.4720    21.8130     9.8730     7.4080     7.9840     2.1190 
   76.1250   -23.8800    71.5550    21.8220     9.7220     7.4700     8.0460     2.1140 
   76.2500   -23.7830    72.9990    21.8210     9.5460     7.5290     8.1030     2.1160 
   76.3750   -23.6380    74.7460    21.8020     9.3990     7.5810     8.1550     2.1270 
   76.5000   -23.4420    75.1080    21.7740     9.2990     7.6290     8.2030     2.1410 
   76.6250   -23.1900    74.0840    21.7690     9.1800     7.6690     8.2420     2.1450 
   76.7500   -22.8990    73.9310    21.7340     9.0420     7.6900     8.2630     2.1410 
   76.8750   -22.5720    76.0680    21.6770     8.8380     7.6850     8.2580     2.1300 
   77.0000   -22.2080    80.0970    21.6220     8.6240     7.6520     8.2260     2.1170 
   77.1250   -21.7920    83.2140    21.6130     8.5780     7.5970     8.1710     2.1100 
   77.2500   -21.3300    83.1040    21.6150     8.6530     7.5160     8.0910     2.1120 
   77.3750   -20.8270    80.3340    21.6070     8.7360     7.3820     7.9580     2.1190 
