~V
VERS. 2.00: Ver 2.00
~W
STRT.M 60.0000:
STOP.M 268.0000:
STEP.M 0.1250:
NULL. -999.2500:
UWI. DF5039:
~C
DEPT.M :
DEN.GM/CC :
GR.API :
CALI.CM :
RXO.OHMM :
RI. :
RML.OHMM :
SP.MV :
~A
# ...
  116.2500     2.3250    93.0670    24.1490     8.9980     7.3800     8.2170   -28.5630 
  116.3750     2.2850    89.7830    24.0840     8.7400     6.9770     7.5800   -28.7010 
  116.5000     2.2520    88.9600    24.0930     8.2740     6.4040     6.8500   -28.8060 
  116.6250     2.2260    90.1730    24.1900     6.7780     5.8980     6.2970   -28.9080 
  116.7500     2.2070    90.6080    24.2840     5.9770     5.5600     5.9830   -28.9840 
  116.8750     2.1920    90.0400    24.3350     5.7470     5.3970     5.8770   -29.0210 
  117.0000     2.1800    88.9600    24.3600     5.7440     5.3800     5.9260   -29.0340 
  117.1250     2.1700    86.7060    24.3780     5.9280     5.4860     6.0870   -29.0300 
  117.2500     2.1610    84.1250    24.3850     6.2200     5.6500     6.2790   -28.9960 
  117.3750     2.1550    83.7670    24.3770     6.3440     5.8080     6.4300   -28.9170 
  117.5000     2.1550    86.4980    24.3650     6.1930     5.8980     6.4870   -28.7830 
  117.6250     2.1630    89.3340    24.3360     5.9940     5.8600     6.4040   -28.6210 
  117.7500     2.1750    88.1510    24.3070     5.7510     5.7110     6.2140   -28.4050 
  117.8750     2.1860    84.1320    24.3350     5.4830     5.4790     5.9520   -28.2030 
  118.0000     2.1960    81.6910    24.4330     5.3980     5.2070     5.6600   -28.0070 
  118.1250     2.2040    83.0050    24.5090     5.4080     4.9410     5.3830   -27.8160 
  118.2500     2.2110    84.8300    24.4550     5.3910     4.7240     5.1730   -27.6450 
  118.3750     2.2180    87.0900    24.2520     5.2750     4.6040     5.1040   -27.5230 
  118.5000     2.2240    90.2470    24.0460     5.1810     4.6470     5.2610   -27.4560 
  118.6250     2.2380    92.8690    24.0370     5.2590     4.9390     5.7260   -27.4130 
  118.7500     2.2610    94.1900    24.1310     5.8780     5.4240     6.3840   -27.4260 
  118.8750     2.2910    94.4830    24.1990     7.5390     5.9970     7.0620   -27.4230 
  119.0000     2.3140    93.8690    24.2970    10.9450     6.4750     7.5120   -27.3920 
  119.1250     2.3120    90.5010    24.5390    10.8340     6.5750     7.4300   -27.3650 
  119.2500     2.2870    86.9520    24.7420     8.0800     6.2890     6.9170   -27.3460 
  119.3750     2.2570    85.5070    24.7560     5.8440     5.7760     6.2300   -27.3070 
  119.5000     2.2390    84.6490    24.6730     5.5370     5.2630     5.6560   -27.2210 
  119.6250     2.2450    82.7850    24.6580     5.3550     4.9490     5.4060   -27.1080 
  119.7500     2.2670    82.9520    24.7050     5.2780     4.8410     5.4090   -26.9820 
  119.8750     2.2920    87.8610    24.7440     5.7900     4.8710     5.5250   -26.8460 
  120.0000     2.3100    95.3190    24.7630     7.7180     4.9210     5.5920   -26.7420 
  120.1250     2.3140    98.9890    24.7830     7.7990     4.8720     5.4840   -26.6690 
  120.2500     2.3080   100.0020    24.7970     6.3820     4.7310     5.2620   -26.5940 
  120.3750     2.2960   100.5800    24.7890     4.9630     4.5560     5.0250   -26.5720 
  120.5000     2.2820   100.7300    24.7430     4.5950     4.4150     4.8590   -26.5990 
  120.6250     2.2670    99.0970    24.6030     4.6420     4.3690     4.8290   -26.6750 
  120.7500     2.2530    97.0440    24.3970     4.6940     4.4090     4.8920   -26.7530 
  120.8750     2.2410    96.1340    24.2380     4.6330     4.4970     4.9900   -26.8610 
  121.0000     2.2330    97.0520    24.2080     4.5380     4.5760     5.0590   -26.9600 
  121.1250     2.2290    98.1900    24.2690     4.6150     4.5980     5.0610   -27.0350 
  121.2500     2.2290    95.6220    24.3320     4.8290     4.5740     5.0230   -27.1330 
  121.3750     2.2320    89.6010    24.4170     4.9580     4.5250     4.9700   -27.1910 
  121.5000     2.2350    84.4800    24.5630     4.8600     4.4720     4.9180   -27.2490 
  121.6250     2.2390    84.5040    24.7250     4.7420     4.4240     4.8730   -27.2980 
  121.7500     2.2450    86.7010    24.8200     4.7970     4.3850     4.8360   -27.3870 
  121.8750     2.2520    88.2970    24.8270     4.8740     4.3550     4.8050   -27.4800 
  122.0000     2.2600    89.0830    24.7850     4.8580     4.3320     4.7770   -27.6010 
  122.1250     2.2660    93.1670    24.7660     4.7580     4.3130     4.7500   -27.7310 
  122.2500     2.2650    99.8060    24.7920     4.7680     4.3020     4.7310   -27.8500 
  122.3750     2.2550   105.4810    24.8310     4.8100     4.3070     4.7370   -27.9810 
  122.5000     2.2390   106.4710    24.8560     4.7810     4.3340     4.7800   -28.1070 
  122.6250     2.2230   100.8620    24.8660     4.7380     4.3940     4.8710   -28.2190 
  122.7500     2.2140    94.0760    24.8560     4.9060     4.4790     4.9870   -28.3480 
  122.8750     2.2100    90.5420    24.8090     5.1000     4.5690     5.0910   -28.4600 
  123.0000     2.2120    91.0120    24.7470     5.1120     4.6280     5.1350   -28.5430 
  123.1250     2.2190    93.2720    24.7260     4.9510     4.5980     5.0560   -28.6580 
  123.2500     2.2330    96.1880    24.7290     4.9840     4.4750     4.8610   -28.7510 
  123.3750     2.2500    99.8210    24.7430     4.8700     4.2760     4.5840   -28.8130 
  123.5000     2.2680   101.1910    24.7910     4.5830     4.0450     4.2910   -28.8800 
  123.6250     2.2800    99.8430    24.8620     4.2790     3.8540     4.0820   -28.9990 
  123.7500     2.2850   100.3450    24.8810     4.2320     3.7550     4.0170   -29.1530 
  123.8750     2.2800   102.2690    24.8300     4.4380     3.7860     4.1280   -29.3560 
  124.0000     2.2680   100.9170    24.7400     4.5940     3.9590     4.4170   -29.5870 
  124.1250     2.2480    93.4390    24.5790     4.9220     4.2720     4.8570   -29.8170 
  124.2500     2.2300    83.4310    24.2160     5.5610     4.7590     5.4600   -30.0360 
  124.3750     2.2200    78.1540    23.9530     5.9170     5.1400     5.8690   -30.3050 
  124.5000     2.2240    77.7010    24.0530     5.6700     5.1950     5.8490   -30.5640 
  124.6250     2.2370    76.3760    24.2750     5.2750     5.0200     5.5540   -30.8110 
  124.7500     2.2520    75.1740    24.4050     5.0710     4.7200     5.1580   -31.0020 
  124.8750     2.2630    75.4330    24.4540     4.9840     4.4350     4.8680   -31.1770 
  125.0000     2.2730    77.5050    24.5310     4.7660     4.3280     4.9070   -31.3750 
  125.1250     2.2930    80.5460    24.6630     4.7090     4.6290     5.5770   -31.5740 
  125.2500     2.3260    82.9600    24.7620     6.3360     5.4080     6.9010   -31.8660 
  125.3750     2.3710    81.9830    24.8020    11.2710     6.7070     8.8000   -32.2050 
  125.5000     2.4180    76.1460    24.8040    16.6220     8.3960    10.9030   -32.6030 
  125.6250     2.4350    69.4530    24.7910    18.5290     9.9250    12.3310   -33.0250 
  125.7500     2.4030    66.4510    24.7640    15.6150    10.6130    12.5180   -33.4910 
  125.8750     2.3340    67.0980    24.6950    11.3040    10.2830    11.5670   -33.9890 
  126.0000     2.2600    68.9180    24.5790     8.1460     9.3380    10.1420   -34.4920 
  126.1250     2.2030    68.5480    24.4720     7.3890     8.3730     9.0020   -34.9710 
  126.2500     2.1690    67.8450    24.4140     7.2830     7.6870     8.3550   -35.3720 
  126.3750     2.1530    68.3920    24.3780     7.2660     7.2910     8.1010   -35.7120 
  126.5000     2.1500    70.0040    24.3370     7.1880     7.0970     8.0480   -35.9930 
  126.6250     2.1520    69.7170    24.3090     7.0700     6.9790     7.9950   -36.2220 
  126.7500     2.1550    67.9780    24.3020     6.9880     6.8280     7.8390   -36.3940 
  126.8750     2.1570    66.6920    24.3030     6.9600     6.6370     7.6220   -36.4900 
  127.0000     2.1600    66.1800    24.3080     6.9260     6.4920     7.5110   -36.5450 
  127.1250     2.1710    66.8360    24.3290     6.9180     6.6100     7.8520   -36.5760 
  127.2500     2.1950    67.0720    24.3470     7.1760     7.1580     8.8350   -36.6050 
  127.3750     2.2390    67.0890    24.3380     8.4830     8.2620    10.5220   -36.6370 
