~V
VERS. 2.00: Ver 2.00
~W
STRT.M 65.0000:
STOP.M 272.0000:
STEP.M 0.1250:
NULL. -999.2500:
UWI. DF5002:
~C
DEPT.M :
DEN.GM/CC :
GR.API :
CALI.CM :
RXO.OHMM :
RI. :
RML.OHMM :
SP.MV :
~A
   65.0000  -999.2500    48.8430    25.4130   547.6070     0.3120     7.1170    39.8020 
   65.1250  -999.2500    48.8430    25.3380   547.6070     0.3120     7.1170    38.3220 
   65.2500  -999.2500    49.5530    25.2080   713.3770     0.3080     7.0760    36.9260 
   65.3750  -999.2500    50.1910    25.3680   909.5750     0.2980     6.9840    35.6000 
   65.5000  -999.2500    49.1090    25.4110   397.6250     0.2880     6.9290    34.4220 
   65.6250  -999.2500    47.7250    25.4110    60.1540     0.2730     6.9050    33.5960 
   65.7500  -999.2500    46.1000    25.4110    20.9170     0.2530     6.8770    33.1500 
   65.8750  -999.2500    44.4300    25.4110    10.4720     0.2330     6.8140    32.9980 
   66.0000  -999.2500    43.9950    25.4110    14.8830     0.2210     6.6870    33.1840 
   66.1250     2.0270    44.8640    25.4110   222.1820     0.2170     6.4710    33.9070 
   66.2500     2.0270    45.1720    25.4110   990.6170     0.2160     6.2180    34.9380 
   66.3750     2.0140    45.5490    25.4100  1720.3750     0.2120     5.9940    36.3250 
   66.5000     1.9920    48.0230    25.4080  1861.6370     0.2000     5.8560    38.0460 
   66.6250     1.9760    51.0950    25.4040  1861.6370     0.1860     5.8370    39.9200 
   66.7500     1.9700    51.6220    25.4010  1861.6370     0.1820     5.8910    41.8700 
   66.8750     1.9730    50.0970    25.4030  1425.8710     0.1900     5.9720    43.7570 
   67.0000     1.9780    49.2440    25.4070   681.2340     0.2060     6.0380    45.3170 
   67.1250     1.9730    50.9900    25.4070    67.1550     0.2230     6.0590    46.5870 
   67.2500     1.9610    52.2120    25.4060    66.5520     0.2320     6.0280    47.7720 
   67.3750     1.9520    51.4590    25.4080   536.3140     0.2260     5.9460    48.7830 
   67.5000     1.9610    50.7150    25.4070  1287.1970     0.2110     5.8310    49.7210 
   67.6250     1.9920    52.1330    25.3970  1861.6370     0.1980     5.7200    50.7780 
   67.7500     2.0220    52.8650    25.3810  1861.6370     0.1910     5.6300    51.7740 
   67.8750     2.0340    52.2990    25.3650  1861.6370     0.1860     5.5570    52.7790 
   68.0000     2.0250    54.0190    25.3480  1861.6370     0.1850     5.4900    53.7290 
   68.1250     2.0150    57.7160    25.3340  1362.2990     0.1890     5.4170    54.5080 
   68.2500     2.0130    58.3840    25.3200   718.8460     0.1960     5.3310    55.0620 
   68.3750     2.0090    56.1770    25.3070   355.2330     0.2070     5.2420    55.2770 
   68.5000     1.9950    55.8040    25.3010   420.9470     0.2220     5.1590    55.1140 
   68.6250     1.9830    57.7840    25.3040   443.0900     0.2360     5.0960    54.4410 
   68.7500     1.9840    57.8450    25.3100   286.8040     0.2490     5.0450    53.6130 
   68.8750     1.9920    55.6100    25.3110   145.5460     0.2650     4.9910    52.8400 
   69.0000     1.9940    54.0230    25.3040   186.8840     0.2820     4.9250    52.2950 
   69.1250     1.9840    53.8310    25.2890   780.0900     0.2940     4.8500    52.0210 
   69.2500     1.9700    54.0770    25.2830   734.3470     0.2980     4.7820    51.9960 
   69.3750     1.9610    55.3380    25.2810   235.1610     0.2920     4.7170    52.2190 
   69.5000     1.9660    56.6500    25.2850    45.4940     0.2750     4.6180    52.6430 
   69.6250     1.9930    55.6490    25.2900    27.8670     0.2570     4.3950    53.3370 
   69.7500     2.0190    53.9980    25.2860    20.6680     0.2490     4.0190    54.1470 
   69.8750     2.0270    53.3010    25.2700    14.5130     0.2500     3.5350    55.0570 
   70.0000     2.0200    52.5040    25.2550     9.9570     0.2550     3.0530    56.0280 
   70.1250     2.0260    51.2520    25.2160     5.8330     0.2610     2.7250    56.9450 
   70.2500     2.0680    53.0070    25.0720     2.9580     0.2680     2.6060    57.7270 
   70.3750     2.1410    57.2950    24.7690     1.7150     0.2800     2.7200    58.4270 
   70.5000     2.2180    60.7310    24.4500     1.3130     0.2970     3.0630    59.1150 
   70.6250     2.2700    60.6170    24.2590     1.2700     0.3040     3.6150    59.7100 
   70.7500     2.3040    57.9860    24.3350     1.4070     0.2950     4.1890    60.1490 
   70.8750     2.3390    55.1000    24.5050     1.7310     0.2690     4.4570    60.4140 
   71.0000     2.3810    53.1470    24.6630     2.0760     0.2310     3.9700    60.5610 
   71.1250     2.4020    52.6590    24.6170     2.0710     0.1930     2.6980    60.5100 
   71.2500     2.3890    52.5010    24.6050     1.7640     0.1590     1.5280    60.2040 
   71.3750     2.3540    52.7770    24.5990     1.4560     0.1320     0.8020    59.3350 
   71.5000     2.3040    54.4610    24.4920     1.3400     0.1160     0.4610    57.4800 
   71.6250     2.2400    59.4480    24.2280     1.5580     0.1210     0.4150    54.0050 
   71.7500     2.2000    67.2810    24.0440     2.4340     0.1770     0.5850    48.8370 
   71.8750     2.2090    74.9130    23.9890     4.6380     0.3480     1.0350    41.8430 
   72.0000     2.2390    78.7530    23.9830     8.0390     0.7440     1.9480    33.3240 
   72.1250     2.2270    79.2320    23.9920    10.8830     1.6020     3.7460    24.0110 
   72.2500     2.1810    80.3800    24.0090    12.0270     2.8660     5.9810    14.5270 
   72.3750     2.1390    82.2620    24.0190    11.9400     4.1680     7.2460     5.3130 
   72.5000     2.1230    84.7380    23.9700    11.1770     5.0900     7.0820    -3.0260 
   72.6250     2.1310    87.3320    23.8680    10.2520     5.5920     6.6260    -9.8550 
   72.7500     2.1490    87.9690    23.7340    10.1350     5.9770     6.5430   -15.0760 
   72.8750     2.1650    86.1740    23.6530    11.0400     6.3290     6.7900   -18.5500 
   73.0000     2.1690    85.2950    23.6230    12.0680     6.5970     7.1530   -20.5330 
   73.1250     2.1600    90.1490    23.6890    11.7710     6.6350     7.2880   -21.4250 
   73.2500     2.1600    97.4830    23.9260    10.3000     6.4440     7.0850   -21.7890 
   73.3750     2.1810   103.2150    24.2690     8.3780     6.1460     6.7290   -21.7370 
   73.5000     2.2160   105.5630    24.5090     7.0210     5.9390     6.5160   -21.5700 
   73.6250     2.2470   102.4010    24.5740     7.1810     6.0490     6.7360   -21.5220 
   73.7500     2.2680    94.3940    24.5460     8.4720     6.5080     7.4210   -21.5270 
   73.8750     2.2830    84.5770    24.4010    10.6630     7.2620     8.4990   -21.6140 
   74.0000     2.2890    76.5160    24.0940    13.1230     8.1200     9.6560   -21.7950 
   74.1250     2.2750    72.0490    23.9680    14.5400     8.7740    10.3210   -22.2570 
   74.2500     2.2420    69.0940    23.9710    14.3060     9.1950    10.5190   -22.8660 
   74.3750     2.2050    68.8830    23.9690    13.0260     9.6500    10.7330   -23.5060 
   74.5000     2.1860    72.3210    23.9740    12.7290    10.5370    11.4960   -24.1620 
   74.6250     2.2190    76.0310    24.0400    17.1740    12.3390    13.4000   -24.5010 
   74.7500     2.3040    77.5700    24.2080    26.6040    14.9110    16.3700   -24.5950 
   74.8750     2.4180    76.7460    24.4230    36.4850    17.5030    19.5060   -24.6030 
   75.0000     2.5100    74.1110    24.5950    39.6440    18.6080    20.5350   -24.5890 
   75.1250     2.5180    71.1380    24.5850    33.2860    16.8750    17.7790   -24.5950 
   75.2500     2.4480    71.8300    24.5080    23.3640    13.8890    14.1010   -24.8090 
   75.3750     2.3390    75.1770    24.4270    15.7470    11.1030    11.2700   -25.2140 
   75.5000     2.2440    75.1830    24.3550    11.9230     9.1560     9.6350   -25.7120 
   75.6250     2.2030    72.4820    24.4010    10.6340     8.2340     9.1450   -26.4590 
   75.7500     2.1990    73.5730    24.3790    10.4300     8.0180     9.3780   -27.2940 
   75.8750     2.2090    78.3940    24.1440    10.7930     8.2990    10.0820   -28.1210 
   76.0000     2.2170    82.0380    23.8610    11.3740     8.8150    10.9130   -28.9570 
   76.1250     2.2250    81.6360    23.6940    12.1410     9.2430    11.3950   -29.6770 
