~V
VERS. 2.00: Ver 2.00
~W
STRT.M 55.0000:
STOP.M 250.0000:
STEP.M 0.1250:
NULL. -999.2500:
UWI. DF5052:
~C
DEPT.M :
SP.MV :
GR.API :
CALI.CM :
RXO.OHMM :
RI. :
RML.OHMM :
DEN.GM/CC :
~A
# ...
  223.7500   -29.7340    82.8700    24.2660    33.7320    28.0880    32.4970     2.2840 
  223.8750   -29.7920    83.8510    24.2820    35.0500    28.1230    32.3860     2.2700 
  224.0000   -29.8760    88.0330    24.2930    35.0760    28.1600    32.3390     2.2630 
  224.1250   -29.9930    90.2470    24.2770    33.7590    28.3170    32.4980     2.2540 
  224.2500   -30.1340    88.6450    24.2650    32.2510    28.6750    32.9280     2.2410 
  224.3750   -30.2870    85.3180    24.2960    32.1860    29.3210    33.7050     2.2360 
  224.5000   -30.4400    82.9730    24.3400    33.9450    30.3400    34.9050     2.2480 
  224.6250   -30.5750    82.3970    24.3620    35.9290    31.8990    36.7030     2.2670 
  224.7500   -30.6870    82.8090    24.3670    37.2990    33.9970    39.0860     2.2800 
  224.8750   -30.7740    83.6190    24.3680    38.5330    36.6180    42.0430     2.2850 
  225.0000   -30.8350    83.8790    24.3680    41.1200    39.6000    45.4120     2.2930 
  225.1250   -30.8690    82.4500    24.3640    47.5740    42.5530    48.7580     2.3030 
  225.2500   -30.8810    80.9560    24.3520    57.7940    44.9960    51.5130     2.3010 
  225.3750   -30.8750    81.6290    24.3290    68.7900    46.5560    53.2110     2.2800 
  225.5000   -30.8540    84.2980    24.3100    75.5920    47.0800    53.6460     2.2560 
  225.6250   -30.8180    85.8810    24.3060    73.8440    46.6690    52.9420     2.2630 
  225.7500   -30.7740    85.4990    24.3260    64.9570    46.0270    51.9810     2.2950 
  225.8750   -30.7260    84.3280    24.3670    54.8360    45.7150    51.4550     2.3190 
  226.0000   -30.6800    82.7890    24.4130    49.7140    46.1630    51.8800     2.3110 
  226.1250   -30.6420    80.8660    24.3650    51.8410    47.6910    53.6360     2.2810 
  226.2500   -30.6130    79.6720    24.3280    57.6410    49.9570    56.3120     2.2580 
  226.3750   -30.5890    79.0400    24.3080    64.0860    52.5820    59.4460     2.2480 
  226.5000   -30.5610    77.2560    24.3020    69.2970    55.1230    62.4920     2.2430 
  226.6250   -30.5050    74.7500    24.3010    71.5980    57.1440    64.8520     2.2400 
  226.7500   -30.4080    74.5620    24.3000    71.7330    58.6860    66.5560     2.2460 
  226.8750   -30.2570    77.1240    24.3000    70.1390    60.0290    67.9860     2.2610 
  227.0000   -30.0490    79.7650    24.3000    68.7840    61.5590    69.7030     2.2700 
  227.1250   -29.7800    79.7970    24.3000    70.0080    63.7220    72.3220     2.2580 
  227.2500   -29.4730    79.3150    24.3000    75.1940    66.5230    75.8510     2.2360 
  227.3750   -29.1430    80.5410    24.2990    82.9460    69.8220    80.0560     2.2210 
  227.5000   -28.8000    82.2120    24.2920    91.2640    73.3240    84.5090     2.2230 
  227.6250   -28.4500    80.4520    24.2660    98.8310    76.5800    88.5840     2.2380 
  227.7500   -28.0930    76.2500    24.2090   101.2110    79.2720    91.7790     2.2490 
  227.8750   -27.7210    72.6130    24.1050    98.3640    81.2050    93.7560     2.2490 
  228.0000   -27.3270    70.3570    23.9590    93.6490    82.2340    94.3590     2.2440 
  228.1250   -26.8980    68.5480    23.8810    93.7170    81.9310    93.1560     2.2480 
  228.2500   -26.4390    68.3490    23.9030    97.1130    80.2210    90.1890     2.2580 
  228.3750   -25.9590    70.7440    23.9600   100.7370    77.1100    85.5470     2.2740 
  228.5000   -25.4710    73.9290    23.9930   100.2820    72.8410    79.6360     2.2970 
  228.6250   -25.0050    74.3550    23.9810    93.3510    67.6690    72.9350     2.3330 
  228.7500   -24.5810    72.6500    23.9300    83.5220    62.0480    66.0480     2.3750 
  228.8750   -24.2150    71.6720    23.8840    72.8460    56.1520    59.2070     2.4120 
  229.0000   -23.9120    72.9590    23.9420    62.7030    50.1020    52.4770     2.4340 
  229.1250   -23.6690    74.3740    24.1320    55.6170    44.0820    45.9580     2.4320 
  229.2500   -23.4570    73.3740    24.1910    51.9660    38.2960    39.7620     2.4240 
  229.3750   -23.2620    71.1880    24.1200    48.3380    32.9570    34.0670     2.4230 
  229.5000   -23.0730    70.4360    24.0360    41.4350    28.2890    29.0830     2.4210 
  229.6250   -22.8920    72.3710    24.0010    32.1300    24.6480    25.1790     2.3930 
  229.7500   -22.7250    76.5210    23.9950    24.3060    21.9540    22.2920     2.3430 
  229.8750   -22.5850    82.1850    24.0050    19.6120    20.1490    20.3760     2.2960 
  230.0000   -22.4810    86.5820    24.0600    18.1760    19.1110    19.3080     2.2690 
  230.1250   -22.4300    86.1520    24.1730    18.9150    18.7740    19.0080     2.2650 
  230.2500   -22.4210    82.7670    24.2980    20.0760    18.8680    19.1690     2.2720 
  230.3750   -22.4410    79.2370    24.3700    20.8850    19.2560    19.6250     2.2780 
  230.5000   -22.4690    76.8420    24.3970    21.1350    19.8110    20.2360     2.2720 
  230.6250   -22.4790    75.6380    24.4030    20.9540    20.4260    20.8930     2.2510 
  230.7500   -22.4580    75.0720    24.4020    21.1670    21.0210    21.5280     2.2320 
  230.8750   -22.4060    74.2320    24.3920    22.3890    21.5640    22.1170     2.2280 
  231.0000   -22.3330    72.7170    24.3640    24.2940    22.0350    22.6420     2.2360 
  231.1250   -22.2520    71.2360    24.3130    25.3730    22.4020    23.0870     2.2480 
  231.2500   -22.1780    71.1390    24.2720    24.9400    22.6690    23.4720     2.2620 
  231.3750   -22.1200    73.2490    24.2510    23.8910    22.8170    23.7820     2.2830 
  231.5000   -22.0790    77.4620    24.2380    23.5310    22.8220    23.9620     2.3070 
  231.6250   -22.0520    82.7740    24.1800    24.7080    22.6390    23.9280     2.3220 
  231.7500   -22.0220    86.4280    24.0710    26.4100    22.2970    23.6950     2.3220 
  231.8750   -21.9730    86.3570    23.9510    27.3340    21.8250    23.3030     2.3170 
  232.0000   -21.8950    82.8540    23.8730    26.5760    21.2910    22.8230     2.3120 
  232.1250   -21.7840    78.7050    23.8520    24.5400    20.8090    22.3630     2.3050 
  232.2500   -21.6600    75.6180    23.8730    22.2590    20.4850    22.0410     2.2980 
  232.3750   -21.5440    73.0620    23.9090    20.7710    20.3960    21.9730     2.2930 
  232.5000   -21.4530    71.1820    23.9200    20.6480    20.6030    22.2540     2.2910 
  232.6250   -21.4020    70.4320    23.9800    21.7620    21.2020    22.9880     2.2850 
  232.7500   -21.3830    69.8760    24.0690    23.2790    22.1370    24.0720     2.2750 
  232.8750   -21.3870    69.0620    24.1210    24.6580    23.3480    25.4190     2.2620 
  233.0000   -21.4020    69.2770    24.1350    25.9380    24.7130    26.8900     2.2470 
  233.1250   -21.4120    71.1670    24.1360    27.9590    25.9940    28.2420     2.2320 
  233.2500   -21.4070    72.5510    24.1380    31.0740    26.9440    29.2110     2.2200 
  233.3750   -21.3830    72.0020    24.1400    34.6990    27.3670    29.5740     2.2140 
  233.5000   -21.3460    70.2200    24.1400    37.6640    27.1770    29.2300     2.2120 
  233.6250   -21.3040    69.0950    24.1410    37.9280    26.3920    28.2040     2.2120 
  233.7500   -21.2710    68.8370    24.1420    35.3010    25.3900    26.9470     2.2160 
  233.8750   -21.2500    69.1760    24.1420    31.4850    24.4960    25.8520     2.2230 
  234.0000   -21.2390    70.3150    24.1410    28.2680    23.9680    25.2340     2.2270 
  234.1250   -21.2240    71.8220    24.1440    26.5780    23.9780    25.3070     2.2230 
  234.2500   -21.1940    72.0590    24.1570    26.2860    24.3290    25.8200     2.2120 
  234.3750   -21.1430    70.0720    24.1810    27.6320    24.7680    26.4690     2.1980 
  234.5000   -21.0740    66.9580    24.1860    30.7660    25.0030    26.8900     2.1890 
  234.6250   -20.9930    65.6970    24.1280    35.2640    24.7270    26.6830     2.1970 
  234.7500   -20.9150    67.4500    23.9900    38.5110    24.0080    25.8940     2.2190 
  234.8750   -20.8520    71.3500    23.8070    36.6810    23.0470    24.7530     2.2440 
