~V
VERS. 2.00: Ver 2.00
~W
STRT.M 55.0000:
STOP.M 270.0000:
STEP.M 0.1250:
NULL. -999.2500:
UWI. DF5017:
~C
DEPT.M :
SP.MV :
GR.API :
CALI.CM :
RXO.OHMM :
RI. :
RML.OHMM :
DEN.GM/CC :
~A
# ...
  133.7500   -20.9720    70.7870    23.6550    10.5060     9.4460     9.9470     2.1720 
  133.8750   -20.7000    74.3410    23.6740    10.6110     9.2900     9.6520     2.1860 
  134.0000   -20.2150    78.8570    23.7320    10.3120     8.6070     8.8870     2.2180 
  134.1250   -19.5920    84.1300    23.8320     9.2610     7.5300     7.7780     2.2570 
  134.2500   -18.8890    89.2750    23.9700     7.6720     6.4100     6.6830     2.2930 
  134.3750   -18.2450    92.9530    24.1320     6.2620     5.4510     5.8190     2.3200 
  134.5000   -17.7390    93.8450    24.2930     5.4770     4.7610     5.2860     2.3330 
  134.6250   -17.4460    91.6550    24.3630     5.2190     4.4140     5.1460     2.3220 
  134.7500   -17.3640    90.1150    24.3800     5.2910     4.3390     5.2890     2.3020 
  134.8750   -17.5100    89.3790    24.3810     5.5770     4.4990     5.6350     2.2830 
  135.0000   -17.8610    88.6470    24.3700     5.9970     4.8480     6.1020     2.2650 
  135.1250   -18.4200    86.8620    24.3010     6.4940     5.3560     6.6440     2.2430 
  135.2500   -19.0960    82.5830    24.1400     7.1110     5.9500     7.2450     2.2220 
  135.3750   -19.7990    78.4580    23.9490     7.7910     6.6010     7.9270     2.2080 
  135.5000   -20.4960    77.8290    23.7810     8.4660     7.2870     8.7040     2.2050 
  135.6250   -21.1300    80.7020    23.7280     9.1920     7.9870     9.5600     2.2130 
  135.7500   -21.7500    81.4160    23.7170     9.9880     8.6790    10.4350     2.2210 
  135.8750   -22.2310    77.7240    23.7160    10.7620     9.3600    11.2980     2.2210 
  136.0000   -22.6550    73.2770    23.6980    11.4010    10.0480    12.1480     2.2060 
  136.1250   -23.0290    72.7750    23.7120    12.1370    10.7580    12.9930     2.1830 
  136.2500   -23.3420    73.3650    23.7320    13.5220    11.4620    13.8110     2.1620 
  136.3750   -23.6310    72.2910    23.7990    15.3930    12.0860    14.5220     2.1530 
  136.5000   -23.9180    69.8460    23.9940    16.6590    12.5100    14.9780     2.1580 
  136.6250   -24.1900    69.2030    24.1710    16.0610    12.5590    14.9520     2.1700 
  136.7500   -24.3850    69.8670    24.2600    14.7570    12.2750    14.5050     2.1800 
  136.8750   -24.5750    71.4960    24.2250    13.4730    11.7750    13.7840     2.1840 
  137.0000   -24.7110    74.2330    24.0750    12.4760    11.2210    12.9760     2.1860 
  137.1250   -24.7640    75.6380    23.8260    11.8410    10.7880    12.2560     2.1880 
  137.2500   -24.8060    74.1470    23.7000    11.6730    10.5300    11.6910     2.1940 
  137.3750   -24.7510    72.3850    23.6610    11.9290    10.4570    11.3150     2.1990 
  137.5000   -24.6200    72.4850    23.6540    12.3000    10.5630    11.1530     2.1970 
  137.6250   -24.4380    71.3180    23.6440    12.7290    10.8540    11.2450     2.1900 
  137.7500   -24.2630    68.2480    23.6310    13.3890    11.2340    11.4860     2.1910 
  137.8750   -24.1190    67.8990    23.6250    14.4790    11.5980    11.7670     2.2010 
  138.0000   -24.0400    72.3270    23.6240    15.8910    11.8510    11.9920     2.2080 
  138.1250   -24.0520    76.7240    23.6230    16.1120    11.9200    12.0910     2.2060 
  138.2500   -24.0520    77.0300    23.6360    14.7280    11.8560    12.0810     2.2060 
  138.3750   -24.1210    74.8080    23.6920    12.8940    11.7210    11.9990     2.2120 
  138.5000   -24.2230    72.5500    23.8050    11.9780    11.5960    11.9130     2.2140 
  138.6250   -24.3690    71.7910    23.7780    11.9500    11.5820    11.9250     2.2020 
  138.7500   -24.5250    70.9700    23.6060    12.2550    11.7200    12.0810     2.1830 
  138.8750   -24.6390    69.8350    23.4250    12.7880    12.0020    12.3790     2.1660 
  139.0000   -24.7050    68.9380    23.3490    13.7050    12.3650    12.7560     2.1510 
  139.1250   -24.6560    67.5430    23.3460    15.1610    12.6960    13.0940     2.1410 
  139.2500   -24.5890    67.1860    23.3330    16.1980    12.9310    13.3140     2.1410 
  139.3750   -24.5080    68.1580    23.3060    16.1380    13.0640    13.3930     2.1520 
  139.5000   -24.4310    70.0540    23.2800    15.5630    13.1240    13.3400     2.1670 
  139.6250   -24.3600    73.6470    23.3620    15.8080    13.1670    13.2000     2.1760 
  139.7500   -24.2540    77.0440    23.6000    16.8010    13.2570    13.0780     2.1780 
  139.8750   -24.1830    78.3080    23.8010    17.3790    13.4200    13.0260     2.1750 
  140.0000   -24.1320    76.2370    23.8330    16.9640    13.6390    13.0480     2.1730 
  140.1250   -24.1590    74.5520    23.7260    16.3430    13.8600    13.0920     2.1770 
  140.2500   -24.2110    74.8450    23.6910    16.4990    13.9950    13.0730     2.1820 
  140.3750   -24.2720    72.6290    23.6610    17.1680    13.9660    12.9250     2.1750 
  140.5000   -24.3450    68.0690    23.6720    17.7410    13.7080    12.6020     2.1570 
  140.6250   -24.3650    65.5340    23.7570    16.9790    13.1650    12.0590     2.1440 
  140.7500   -24.3600    66.2520    23.8200    15.2740    12.4460    11.3820     2.1410 
  140.8750   -24.3100    67.5350    23.7730    13.4040    11.6650    10.6590     2.1430 
  141.0000   -24.2720    66.8910    23.6290    12.1120    10.9170     9.9710     2.1430 
  141.1250   -24.1910    66.5730    23.5630    11.6280    10.2620     9.3750     2.1460 
  141.2500   -24.0710    68.3870    23.5630    11.5270     9.6890     8.8660     2.1590 
  141.3750   -23.9230    72.2710    23.6310    11.4000     9.1950     8.4430     2.1820 
  141.5000   -23.7660    76.6740    23.7400    10.8130     8.7950     8.1230     2.2040 
  141.6250   -23.6300    78.8510    23.9610    10.1220     8.5580     7.9720     2.2100 
  141.7500   -23.6100    79.2810    23.9050     9.8630     8.4980     7.9960     2.1970 
  141.8750   -23.6410    77.5860    23.8440    10.1180     8.6160     8.1860     2.1730 
  142.0000   -23.6620    73.8130    23.8460    10.5610     8.8670     8.4850     2.1560 
  142.1250   -23.6920    69.7620    23.8820    10.8010     9.1590     8.7870     2.1630 
  142.2500   -23.7320    68.6700    23.9010    10.6210     9.3870     8.9900     2.1760 
  142.3750   -23.7630    70.2280    23.8570    10.3720     9.5240     9.0720     2.1770 
  142.5000   -23.7230    72.4170    23.7920    10.3640     9.6070     9.0950     2.1640 
  142.6250   -23.6500    75.2210    23.7580    10.7170     9.7020     9.1940     2.1610 
  142.7500   -23.4730    77.8270    23.8940    11.1530     9.8310     9.4340     2.1750 
  142.8750   -23.2410    78.5180    24.0240    11.4420     9.9580     9.7870     2.1960 
  143.0000   -22.9730    77.0070    23.9850    11.5420    10.0140    10.1170     2.2060 
  143.1250   -22.6830    74.6340    23.9720    11.5860     9.8910    10.1530     2.1930 
  143.2500   -22.3900    72.6280    24.0270    11.6200     9.6020     9.8350     2.1710 
  143.3750   -22.0240    72.2230    24.1370    11.6000     9.2730     9.3640     2.1540 
  143.5000   -21.6120    73.7350    24.2220    11.5040     9.1480     9.1460     2.1610 
  143.6250   -21.1090    74.5030    24.2920    11.5300     9.6280     9.7110     2.2170 
  143.7500   -20.5050    74.0530    24.3380    12.6400    10.8160    11.1000     2.3220 
  143.8750   -19.8050    72.9620    24.3120    16.6190    12.5900    13.0880     2.4480 
  144.0000   -19.0260    70.6720    24.2100    26.2880    14.3200    14.9060     2.5340 
  144.1250   -18.1580    67.9770    24.3350    33.7770    14.5370    14.9360     2.5160 
  144.2500   -17.2570    71.4780    24.4270    29.3650    12.9500    13.0240     2.4300 
  144.3750   -16.4290    82.3230    24.5780    17.1540    10.4510    10.2670     2.3360 
  144.5000   -15.7010    92.5160    24.6700     8.5840     8.1220     7.8400     2.2800 
  144.6250   -15.1160    92.7860    24.5480     6.8260     6.5710     6.3230     2.2780 
  144.7500   -14.6490    89.1890    24.4140     6.5010     5.6610     5.4760     2.3050 
  144.8750   -14.3060    89.6960    24.4240     6.3140     5.2250     5.0840     2.3360 
