~V
VERS. 2.00: Ver 2.00
~W
STRT.M 62.0000:
STOP.M 250.0000:
STEP.M 0.1250:
NULL. -999.2500:
UWI. DF5059:
~C
DEPT.M :
SP.MV :
GR.API :
RML.OHMM :
RI. :
RXO.OHMM :
CALI.CM :
DEN.GM/CC :
~A
# ...
  107.0000   -19.6490   110.8550     6.1440     5.7510     5.8590    23.5550     2.3040 
  107.1250   -20.0090   107.7140     6.1350     5.7610     6.0510    23.2390     2.2720 
  107.2500   -20.3010   104.2870     6.1210     5.7580     6.3500    22.7810     2.2530 
  107.3750   -20.5520   102.3450     6.1060     5.7390     6.5010    22.4420     2.2450 
  107.5000   -20.8070   102.1630     6.0940     5.7040     6.4440    22.3730     2.2470 
  107.6250   -21.0930   103.2330     6.1030     5.6600     6.1210    22.5200     2.2530 
  107.7500   -21.4130   106.0760     6.1540     5.6320     5.9450    22.6880     2.2580 
  107.8750   -21.7380   108.3790     6.2490     5.6360     5.9870    22.7180     2.2600 
  108.0000   -22.0680   106.2690     6.3650     5.6690     6.2870    22.5930     2.2570 
  108.1250   -22.4080   100.9810     6.4590     5.7040     6.7260    22.4210     2.2470 
  108.2500   -22.7480    95.6400     6.5350     5.7290     7.1020    22.3720     2.2330 
  108.3750   -23.0740    89.9160     6.6750     5.7870     7.3660    22.4660     2.2160 
  108.5000   -23.3540    87.0950     7.0320     5.9800     7.7320    22.6290     2.2040 
  108.6250   -23.5890    92.9050     7.8480     6.5010     8.5470    22.6880     2.2130 
  108.7500   -23.7930   101.5190     9.0900     7.3770    11.1070    22.7370     2.2450 
  108.8750   -23.9920   102.3000    10.5680     8.5140    16.3520    23.0480     2.2980 
  109.0000   -24.1940    91.7640    11.9040     9.6650    23.1220    23.5470     2.3520 
  109.1250   -24.3950    79.5330    12.4930    10.3750    29.1990    23.6360     2.3720 
  109.2500   -24.6390    74.3970    12.1690    10.4130    30.0940    23.3100     2.3500 
  109.3750   -24.9280    74.3730    11.0960     9.8020    22.6230    22.7980     2.2950 
  109.5000   -25.2300    73.0750     9.7410     8.8350    13.4520    22.4610     2.2310 
  109.6250   -25.5060    69.1360     8.6710     7.9390     9.6290    22.3680     2.1840 
  109.7500   -25.7600    66.4770     8.0670     7.3520     8.6630    22.3720     2.1560 
  109.8750   -25.9780    65.9240     7.8710     7.0970     8.5640    22.3960     2.1420 
  110.0000   -26.1740    66.7490     7.9260     7.0940     8.6460    22.4350     2.1340 
  110.1250   -26.3640    72.4270     8.0740     7.2330     8.6690    22.4380     2.1300 
  110.2500   -26.5150    78.7560     8.1970     7.3870     8.7000    22.3890     2.1300 
  110.3750   -26.5830    79.5530     8.2690     7.5120     8.7590    22.3170     2.1330 
  110.5000   -26.5930    76.6390     8.3010     7.5970     8.8310    22.2390     2.1400 
  110.6250   -26.5880    72.9120     8.3180     7.6520     8.8720    22.1100     2.1490 
  110.7500   -26.5770    65.9220     8.3380     7.6950     8.8130    21.9490     2.1580 
  110.8750   -26.5520    58.0510     8.3620     7.7300     8.6640    21.8830     2.1650 
  111.0000   -26.4750    57.6340     8.3820     7.7480     8.4980    21.9030     2.1690 
  111.1250   -26.3210    68.1780     8.3670     7.7270     8.3630    21.8990     2.1690 
  111.2500   -26.0870    76.2940     8.2870     7.6490     8.3440    21.8300     2.1670 
  111.3750   -25.8020    75.8080     8.1150     7.4970     8.4210    21.6840     2.1640 
  111.5000   -25.4540    71.6050     7.8510     7.2710     8.4560    21.4940     2.1620 
  111.6250   -24.9800    70.4490     7.5650     7.0120     8.4400    21.4170     2.1590 
  111.7500   -24.3790    69.3860     7.4210     6.8340     8.4040    21.4270     2.1530 
  111.8750   -23.6310    65.0220     7.6050     6.8890     8.4330    21.5270     2.1450 
  112.0000   -22.7730    62.4300     8.2350     7.3040     8.7540    21.6810     2.1400 
  112.1250   -21.8210    67.2620     9.2720     8.1300    10.1310    21.8430     2.1540 
  112.2500   -20.8370    71.3280    10.2830     9.0620    13.1480    22.1230     2.1990 
  112.3750   -19.8480    70.4520    10.8110     9.7290    16.9790    22.6480     2.2710 
  112.5000   -18.8770    72.0190    10.4950     9.7640    20.3740    23.3280     2.3540 
  112.6250   -18.0440    84.6110     9.1940     8.9010    21.0880    23.7370     2.4090 
  112.7500   -17.3800   102.3970     7.5360     7.5550    15.1760    23.8920     2.4180 
  112.8750   -16.9130   115.6810     6.0740     6.1850     7.7890    23.9140     2.3860 
  113.0000   -16.5980   119.8450     5.1240     5.1450     4.9650    23.9160     2.3370 
  113.1250   -16.4190   117.9590     4.7660     4.6400     4.5820    23.9000     2.2980 
  113.2500   -16.3160   114.3390     4.7410     4.5230     4.7170    23.8790     2.2780 
  113.3750   -16.2780   110.0350     4.8720     4.6500     4.7660    23.8640     2.2710 
  113.5000   -16.3030   105.1300     5.0120     4.8570     4.7830    23.8560     2.2700 
  113.6250   -16.3510   105.7380     5.0480     4.9830     4.7750    23.8560     2.2730 
  113.7500   -16.3780   110.0620     4.9790     4.9740     4.6940    23.8530     2.2810 
  113.8750   -16.3780   113.0230     4.8380     4.8410     4.5050    23.8450     2.2950 
  114.0000   -16.3990   113.2210     4.6730     4.6310     4.2440    23.8310     2.3110 
  114.1250   -16.4780   111.3830     4.5260     4.4010     3.9930    23.8450     2.3220 
  114.2500   -16.6390   110.4400     4.4140     4.1970     3.7960    23.8330     2.3210 
  114.3750   -16.8730   108.7690     4.3400     4.0340     3.6980    23.7890     2.3070 
  114.5000   -17.1720   105.8160     4.2980     3.9170     3.7480    23.7410     2.2850 
  114.6250   -17.5130   102.8980     4.3110     3.8620     3.9630    23.6400     2.2670 
  114.7500   -17.9220   100.1670     4.4320     3.9030     4.2840    23.4360     2.2590 
  114.8750   -18.4220    98.2450     4.7520     4.1160     4.7580    23.1040     2.2630 
  115.0000   -19.0070    93.1700     5.3590     4.5850     5.6420    22.7180     2.2770 
  115.1250   -19.6540    86.9290     6.3190     5.3960     8.1300    22.6950     2.2960 
  115.2500   -20.2910    82.7170     7.4470     6.4150    11.8480    23.1690     2.3140 
  115.3750   -20.8780    77.7120     8.5240     7.4590    16.0560    23.5310     2.3250 
  115.5000   -21.4100    72.0190     9.3250     8.3130    19.7800    23.4330     2.3230 
  115.6250   -21.8990    68.6840     9.7120     8.7980    18.6790    22.8080     2.3050 
  115.7500   -22.2970    67.2320     9.9170     9.0590    15.3840    22.2960     2.2790 
  115.8750   -22.5300    67.7400    10.1790     9.2970    14.6350    22.1910     2.2570 
  116.0000   -22.5980    70.9460    10.5900     9.6410    18.3650    22.6540     2.2470 
  116.1250   -22.4790    74.3310    10.9550    10.0110    24.1550    23.3350     2.2480 
  116.2500   -22.2490    71.8160    10.9420    10.1530    28.5630    23.6860     2.2480 
  116.3750   -21.9920    64.5030    10.3640     9.8660    27.2070    23.4940     2.2370 
  116.5000   -21.6870    60.0050     9.3110     9.1330    18.9000    22.9250     2.2160 
  116.6250   -21.2350    64.8110     8.2190     8.2090    11.5920    22.4860     2.1880 
  116.7500   -20.6210    72.1460     7.5740     7.5320     8.7100    22.2730     2.1630 
  116.8750   -19.8690    75.9080     7.5440     7.3320     8.1500    22.2930     2.1460 
  117.0000   -18.9630    72.4710     8.0060     7.6070     8.8120    22.4180     2.1470 
  117.1250   -17.9700    68.4960     8.5720     8.1160    10.7840    22.5670     2.1810 
  117.2500   -17.0020    67.9470     8.7660     8.4060    13.0240    22.7750     2.2450 
  117.3750   -16.0940    71.0290     8.3270     8.1620    14.7600    23.1150     2.3240 
  117.5000   -15.3170    78.9680     7.2840     7.2950    15.0150    23.4160     2.3900 
  117.6250   -14.7990    90.8560     5.9850     6.0160    10.5420    23.6530     2.4150 
  117.7500   -14.5860   103.7560     4.9120     4.8120     5.9990    23.7120     2.4030 
  117.8750   -14.6620   111.6490     4.2720     3.9490     3.9710    23.6840     2.3750 
  118.0000   -14.9790   110.1870     4.1340     3.5540     3.7400    23.6050     2.3450 
  118.1250   -15.4930   101.7340     4.6380     3.7980     4.5040    23.3690     2.3220 
