~V
VERS. 2.00: Ver 2.00
~W
STRT.M 60.0000:
STOP.M 273.0000:
STEP.M 0.1250:
NULL. -999.2500:
UWI. DF5003:
~C
DEPT.M :
GR.API :
CALI.CM :
RXO.OHMM :
RI. :
RML.OHMM :
DEN.GM/CC :
SP.MV :
~A
# ...
  251.2500    99.0360    23.5290    14.4910    10.6020    10.1910     2.3100   -29.9570 
  251.3750    98.1130    23.5080    12.8400     9.5720     9.2150     2.3440   -29.6280 
  251.5000    92.2470    23.4920    10.6250     8.7130     8.4500     2.3840   -29.2740 
  251.6250    80.6880    23.4860     9.9540     8.0670     7.9100     2.4100   -28.9230 
  251.7500    68.8290    23.4840    10.3460     7.5690     7.5070     2.4100   -28.5820 
  251.8750    60.8260    23.4840     9.1420     7.1960     7.2100     2.3900   -28.2720 
  252.0000    56.3080    23.4840     6.7020     6.9480     7.0170     2.3610   -28.0110 
  252.1250    54.8790    23.4850     6.3550     6.8550     6.9500     2.3350   -27.7670 
  252.2500    57.0940    23.4830     6.7440     6.8840     6.9770     2.3160   -27.5260 
  252.3750    60.9940    23.4680     6.9120     6.9970     7.0660     2.3080   -27.3490 
  252.5000    63.6390    23.4450     6.7120     7.1360     7.1790     2.3080   -27.2300 
  252.6250    65.1390    23.4280     6.5940     7.2230     7.2650     2.3150   -27.0470 
  252.7500    66.2820    23.4240     6.5340     7.2280     7.2930     2.3230   -26.9010 
  252.8750    65.2670    23.4250     6.4890     7.1640     7.2690     2.3300   -26.7550 
  253.0000    60.9550    23.4240     6.4610     7.0690     7.2270     2.3330   -26.6020 
  253.1250    56.6840    23.4250     6.4990     6.9850     7.2090     2.3330   -26.4480 
  253.2500    56.1970    23.4230     6.7150     6.9310     7.2320     2.3300   -26.3640 
  253.3750    58.9630    23.4120     6.9790     6.9050     7.2850     2.3240   -26.3350 
  253.5000    61.4870    23.4000     7.1060     6.8990     7.3490     2.3180   -26.3760 
  253.6250    60.1860    23.3510     6.9860     6.9020     7.3980     2.3170   -26.5930 
  253.7500    58.4960    23.1940     6.9650     6.9020     7.4280     2.3200   -26.8160 
  253.8750    59.6130    23.0310     7.0000     6.8870     7.4420     2.3260   -26.9830 
  254.0000    63.0320    23.0610     7.1910     6.8520     7.4310     2.3310   -27.1450 
  254.1250    64.3580    23.3060     7.5740     6.7920     7.3820     2.3340   -27.3230 
  254.2500    62.8460    23.4930     7.4940     6.7170     7.3110     2.3360   -27.4840 
  254.3750    60.7530    23.5310     7.1240     6.6380     7.2350     2.3370   -27.5800 
  254.5000    60.0620    23.5160     6.7100     6.5660     7.1760     2.3390   -27.6210 
  254.6250    60.4770    23.5190     6.6610     6.5100     7.1450     2.3400   -27.5460 
  254.7500    60.4430    23.5190     6.7770     6.4730     7.1320     2.3410   -27.4410 
  254.8750    62.0720    23.5190     6.9860     6.4480     7.1210     2.3400   -27.4360 
  255.0000    65.7600    23.5190     7.0170     6.4240     7.0940     2.3390   -27.4200 
  255.1250    66.9280    23.5190     6.7030     6.3670     7.0230     2.3390   -27.3870 
  255.2500    63.6020    23.5190     6.2560     6.2560     6.8970     2.3380   -27.4260 
  255.3750    59.6020    23.5190     5.9330     6.0830     6.7150     2.3370   -27.4130 
  255.5000    58.4010    23.5190     5.4700     5.8590     6.4910     2.3340   -27.3590 
  255.6250    57.4360    23.5190     5.0400     5.6220     6.2670     2.3290   -27.3860 
  255.7500    54.5250    23.5190     4.6650     5.4230     6.0930     2.3240   -27.4130 
  255.8750    54.1040    23.5190     4.6580     5.2980     6.0040     2.3210   -27.5190 
  256.0000    58.0770    23.5190     5.0510     5.2640     6.0100     2.3200   -27.6570 
  256.1250    63.4850    23.5190     5.7250     5.3280     6.1080     2.3210   -27.7500 
  256.2500    66.4070    23.5190     6.4570     5.4480     6.2410     2.3260   -27.8160 
  256.3750    67.4730    23.5190     6.9110     5.5890     6.3740     2.3320   -28.0420 
  256.5000    68.8600    23.5190     6.7870     5.7200     6.4790     2.3360   -28.3650 
  256.6250    69.3060    23.5190     6.4700     5.8160     6.5480     2.3340   -28.6030 
  256.7500    66.5460    23.5190     6.3780     5.8750     6.5900     2.3270   -28.8800 
  256.8750    61.3910    23.5190     6.2900     5.8970     6.6070     2.3160   -29.1030 
  257.0000    57.2890    23.5190     6.2650     5.8860     6.6020     2.3050   -29.2490 
  257.1250    56.6960    23.5190     6.2090     5.8470     6.5730     2.2980   -29.4130 
  257.2500    57.8920    23.5190     6.0510     5.8010     6.5380     2.2970   -29.6550 
  257.3750    60.9610    23.5190     5.6900     5.7640     6.5180     2.3010   -29.7880 
  257.5000    64.6000    23.5190     5.3930     5.7520     6.5250     2.3080   -29.7310 
  257.6250    64.1540    23.5190     5.2570     5.7680     6.5550     2.3150   -29.7880 
  257.7500    60.7830    23.5190     5.3520     5.7840     6.5660     2.3210   -29.8870 
  257.8750    56.8780    23.5190     5.6910     5.7730     6.5250     2.3270   -29.8350 
  258.0000    53.1070    23.5190     6.1270     5.7170     6.4200     2.3320   -29.9080 
  258.1250    50.4140    23.5190     6.6960     5.6200     6.2740     2.3350   -30.1190 
  258.2500    51.1870    23.5190     6.2110     5.5210     6.1490     2.3360   -30.1130 
  258.3750    54.7140    23.5190     5.2660     5.4560     6.0880     2.3330   -30.0010 
  258.5000    57.0860    23.5190     5.0570     5.4460     6.1040     2.3290   -30.0300 
  258.6250    57.5230    23.5180     5.6770     5.4920     6.1820     2.3280   -30.1130 
  258.7500    57.8120    23.5200     6.3100     5.5560     6.2630     2.3310   -30.0730 
  258.8750    57.7530    23.5230     6.4770     5.6080     6.3130     2.3380   -30.1570 
  259.0000    56.5410    23.4950     6.2010     5.6280     6.3190     2.3470   -30.1950 
  259.1250    54.8320    23.4130     5.8610     5.6090     6.2860     2.3530   -30.0200 
  259.2500    54.8150    23.3250     5.9210     5.5690     6.2400     2.3520   -29.9540 
  259.3750    56.9300    23.2800     6.1700     5.5210     6.1910     2.3460   -30.0210 
  259.5000    59.5830    23.2760     6.1730     5.4810     6.1510     2.3380   -30.1340 
  259.6250    59.0210    23.2780     5.7160     5.4750     6.1580     2.3330   -30.1870 
  259.7500    56.1720    23.2770     5.5890     5.5290     6.2430     2.3340   -30.3570 
  259.8750    55.2830    23.2780     6.0490     5.6640     6.4270     2.3410   -30.4760 
  260.0000    58.0700    23.2790     6.7420     5.8890     6.7070     2.3500   -30.5370 
  260.1250    60.6330    23.2790     7.2130     6.1990     7.0580     2.3580   -30.7500 
  260.2500    59.5680    23.2790     7.5810     6.5430     7.4190     2.3630   -31.0490 
  260.3750    57.7060    23.2790     8.8800     6.8780     7.7490     2.3660   -31.3890 
  260.5000    58.4450    23.2790    12.2800     7.1680     8.0160     2.3660   -31.7020 
  260.6250    59.6940    23.2790    12.4040     7.3730     8.1890     2.3650   -31.9840 
  260.7500    60.2110    23.2790    10.3500     7.4930     8.2750     2.3640   -32.1810 
  260.8750    60.8890    23.2790     8.3590     7.5270     8.2820     2.3640   -32.3730 
  261.0000    62.1310    23.2790     7.6780     7.4840     8.2240     2.3650   -32.6960 
  261.1250    63.0060    23.2790     7.3900     7.3900     8.1290     2.3670   -32.9290 
  261.2500    62.1080    23.2800     7.1490     7.2970     8.0400     2.3670   -33.0710 
  261.3750    59.8170    23.2820     6.9420     7.2340     7.9820     2.3670   -33.1720 
  261.5000    57.2880    23.2850     7.0180     7.2140     7.9630     2.3680   -33.1780 
  261.6250    56.5500    23.2860     7.4670     7.2350     7.9780     2.3690   -33.2830 
  261.7500    56.5730    23.2900     8.3210     7.2650     7.9950     2.3710   -33.4740 
  261.8750    56.8700    23.3070     8.9000     7.2840     7.9970     2.3710   -33.6960 
  262.0000    58.6240    23.3360     8.6690     7.2830     7.9810     2.3680   -33.7880 
  262.1250    61.0760    23.3590     8.4200     7.2730     7.9580     2.3620   -33.9270 
  262.2500    63.1170    23.3660     7.6960     7.2700     7.9460     2.3500   -34.1260 
  262.3750    63.5690    23.3630     7.1580     7.2850     7.9520     2.3350   -34.2390 
