~V
VERS. 2.00: Ver 2.00
~W
STRT.M 59.0000:
STOP.M 253.0000:
STEP.M 0.1250:
NULL. -999.2500:
UWI. DF5043:
~C
DEPT.M :
SP.MV :
GR.API :
CALI.CM :
RXO.OHMM :
RI. :
RML.OHMM :
DEN.GM/CC :
~A
# ...
  115.2500   -20.5060   106.9480    24.0740     4.9320     4.2860     4.8950     2.2960 
  115.3750   -20.3850   108.7870    24.0810     4.7750     4.4220     5.0750     2.3050 
  115.5000   -20.2530   108.5880    24.0470     4.8420     4.5900     5.2790     2.2840 
  115.6250   -20.1310   104.4230    23.9610     5.0180     4.7560     5.4570     2.2440 
  115.7500   -20.0310    98.1960    23.8080     5.1400     4.8840     5.5540     2.2110 
  115.8750   -19.9480    93.8790    23.6250     5.1480     4.9310     5.5190     2.2060 
  116.0000   -19.8620    93.4390    23.4130     5.1310     4.9000     5.3830     2.2210 
  116.1250   -19.7650    96.5040    23.0810     5.1280     4.8070     5.1900     2.2430 
  116.2500   -19.6680   101.0980    22.7370     5.1310     4.6840     4.9910     2.2620 
  116.3750   -19.5990   103.0620    22.6570     5.1440     4.5640     4.8360     2.2730 
  116.5000   -19.5700   101.7840    22.9070     5.2510     4.4570     4.7270     2.2850 
  116.6250   -19.5730    99.7190    23.3380     5.5070     4.3570     4.6430     2.3050 
  116.7500   -19.5810    99.4800    23.8140     5.6610     4.2560     4.5630     2.3320 
  116.8750   -19.5610   102.1480    24.2130     5.5100     4.1570     4.4750     2.3520 
  117.0000   -19.5010   106.3150    24.4550     5.1410     4.0750     4.3930     2.3640 
  117.1250   -19.4040   110.1160    24.4760     4.7960     4.0310     4.3420     2.3710 
  117.2500   -19.2770   111.3600    24.4160     4.5280     4.0440     4.3490     2.3730 
  117.3750   -19.1210   108.8880    24.3470     4.3760     4.1310     4.4410     2.3630 
  117.5000   -18.9340   104.1580    24.2480     4.4060     4.2840     4.6070     2.3410 
  117.6250   -18.7080    97.5160    24.0960     4.7010     4.5090     4.8460     2.3130 
  117.7500   -18.4400    89.9460    23.9140     5.1940     4.8210     5.1720     2.2850 
  117.8750   -18.1240    84.8080    23.7710     5.6340     5.2750     5.6480     2.2710 
  118.0000   -17.7810    84.0040    23.7280     5.9000     5.8970     6.3080     2.2740 
  118.1250   -17.4230    86.4690    23.8490     6.1950     6.7150     7.1860     2.2960 
  118.2500   -17.0560    90.3070    24.0760     7.1310     7.7200     8.2810     2.3320 
  118.3750   -16.6710    93.7470    24.2180     9.8240     8.8340     9.5190     2.3800 
  118.5000   -16.2540    95.9320    24.2650    13.9810     9.8650    10.6910     2.4320 
  118.6250   -15.7960    98.0700    24.2400    17.6210    10.6190    11.5630     2.4790 
  118.7500   -15.3020   102.3180    24.1420    18.4250    10.9350    11.9280     2.5100 
  118.8750   -14.7960   105.1590    23.8380    15.3290    10.7110    11.6490     2.5050 
  119.0000   -14.3120   100.4420    23.4350    11.2950    10.1540    10.9740     2.4610 
  119.1250   -13.8720    88.7700    23.0960     8.4310     9.4570    10.1540     2.3900 
  119.2500   -13.4860    76.8000    22.8990     7.1000     8.7980     9.4050     2.3130 
  119.3750   -13.1710    70.4790    22.8250     6.5420     8.3230     8.9020     2.2500 
  119.5000   -12.9190    67.6750    22.8000     6.1750     8.0310     8.6130     2.2020 
  119.6250   -12.7350    67.0970    22.8150     5.9710     7.8900     8.4770     2.1700 
  119.7500   -12.6210    68.8400    22.9090     5.9240     7.8440     8.4240     2.1560 
  119.8750   -12.5870    71.5000    22.9490     5.9660     7.8450     8.4040     2.1570 
  120.0000   -12.6190    72.2490    22.9530     6.0330     7.8470     8.3820     2.1660 
  120.1250   -12.7050    71.7920    22.9620     6.1240     7.8260     8.3410     2.1770 
  120.2500   -12.8260    74.4350    22.9700     6.2550     7.7730     8.2720     2.1900 
  120.3750   -12.9570    82.7400    22.9300     6.4310     7.6850     8.1830     2.2040 
  120.5000   -13.0770    90.4210    22.8780     6.5930     7.5840     8.1000     2.2120 
  120.6250   -13.1820    91.9770    22.8390     6.7090     7.4860     8.0410     2.2140 
  120.7500   -13.2810    87.3420    22.8390     6.7670     7.4060     8.0070     2.2120 
  120.8750   -13.3790    81.3380    22.8310     6.7370     7.3650     7.9950     2.2100 
  121.0000   -13.4610    77.9600    22.8110     6.6590     7.3730     8.0200     2.2140 
  121.1250   -13.5010    77.1020    22.8360     6.6270     7.4500     8.1160     2.2280 
  121.2500   -13.4820    77.9320    22.9340     6.7030     7.6070     8.3050     2.2510 
  121.3750   -13.3990    80.4250    23.0300     6.8490     7.8460     8.5920     2.2710 
  121.5000   -13.2880    84.0720    23.0590     7.0110     8.1300     8.9310     2.2790 
  121.6250   -13.1690    87.5550    23.0930     7.2940     8.4240     9.2850     2.2750 
  121.7500   -13.0460    89.5580    23.1980     7.9660     8.6800     9.6070     2.2750 
  121.8750   -12.8970    89.0480    23.3670     9.1730     8.8310     9.8040     2.2880 
  122.0000   -12.7110    86.1120    23.5210    10.1720     8.8650     9.8470     2.3020 
  122.1250   -12.4920    81.4090    23.5630    10.0320     8.7890     9.7420     2.3010 
  122.2500   -12.2620    77.1050    23.5580     8.8080     8.6380     9.5400     2.2750 
  122.3750   -12.0540    75.8920    23.5630     7.6700     8.4640     9.3220     2.2350 
  122.5000   -11.8730    77.1890    23.5270     7.1210     8.3130     9.1530     2.2110 
  122.6250   -11.7060    79.0570    23.4170     6.9430     8.2010     9.0520     2.2190 
  122.7500   -11.5400    79.4470    23.2940     6.8640     8.1320     9.0050     2.2460 
  122.8750   -11.3800    77.2890    23.2080     6.7700     8.0990     8.9840     2.2560 
  123.0000   -11.2490    74.0470    23.1190     6.6490     8.0670     8.9420     2.2360 
  123.1250   -11.1720    71.2480    23.0910     6.5660     8.0150     8.8530     2.2020 
  123.2500   -11.1590    70.0690    23.0860     6.5370     7.9360     8.7220     2.1760 
  123.3750   -11.2020    70.6290    23.0690     6.5000     7.8350     8.5670     2.1710 
  123.5000   -11.2730    71.4650    23.1230     6.4100     7.7210     8.4090     2.1740 
  123.6250   -11.3680    71.8780    23.1870     6.2990     7.6030     8.2590     2.1790 
  123.7500   -11.4970    71.8130    23.2380     6.2220     7.4950     8.1410     2.1800 
  123.8750   -11.6860    71.1770    23.2850     6.1960     7.4550     8.1220     2.1790 
  124.0000   -11.9190    70.0650    23.3320     6.2160     7.5480     8.2720     2.1760 
  124.1250   -12.1660    69.6970    23.3730     6.3120     7.8360     8.6420     2.1720 
  124.2500   -12.3900    70.8200    23.4110     6.5200     8.3450     9.2520     2.1670 
  124.3750   -12.5650    71.3870    23.4670     6.9530     9.0800    10.1050     2.1840 
  124.5000   -12.7050    69.5120    23.5420     8.0140     9.8980    11.0440     2.2430 
  124.6250   -12.8270    66.7290    23.6150    10.6980    10.6350    11.8720     2.3430 
  124.7500   -12.9350    66.0800    23.6640    15.4360    11.1030    12.3610     2.4610 
  124.8750   -13.0060    67.8970    23.7540    18.9750    11.0800    12.2490     2.5410 
  125.0000   -13.0270    69.1850    23.7680    17.4960    10.6330    11.6390     2.5500 
  125.1250   -13.0040    69.5410    23.6400    12.4660     9.8950    10.7250     2.4870 
  125.2500   -12.9640    70.3310    23.4510     8.2560     9.0540     9.7500     2.3840 
  125.3750   -12.9450    71.9650    23.2660     6.7580     8.2940     8.9240     2.2870 
  125.5000   -12.9550    73.2840    23.1330     6.5040     7.6930     8.3000     2.2230 
  125.6250   -12.9820    74.1490    23.0270     6.5290     7.2780     7.8890     2.1950 
  125.7500   -13.0140    75.4770    22.9680     6.5640     7.0590     7.6820     2.1910 
  125.8750   -13.0670    78.4770    22.8820     6.5640     7.0610     7.6960     2.1950 
  126.0000   -13.1690    82.4930    22.7890     6.5420     7.2190     7.8600     2.1930 
  126.1250   -13.3480    86.1480    22.7290     6.4820     7.4700     8.1140     2.1840 
  126.2500   -13.6030    86.9770    22.7220     6.4890     7.7350     8.3740     2.1780 
  126.3750   -13.9090    83.3630    22.7620     7.5710     7.8860     8.4940     2.2000 
