~V
VERS. 2.00: Ver 2.00
~W
STRT.M 65.0000:
STOP.M 258.0000:
STEP.M 0.1250:
NULL. -999.2500:
UWI. DF5030:
~C
DEPT.M :
SP.MV :
GR.API :
RML.OHMM :
RI. :
RXO.OHMM :
CALI.CM :
DEN.GM/CC :
~A
# ...
  110.0000   -32.6750    62.2590     8.8780     8.0140     9.3100    23.6770     2.2050 
  110.1250   -33.0030    60.5520     8.8960     8.0830     9.2270    23.6460     2.2040 
  110.2500   -33.3010    63.8550     8.8170     8.0580     8.8960    23.5070     2.2010 
  110.3750   -33.4840    64.9550     8.6570     7.9420     8.5710    23.4080     2.1950 
  110.5000   -33.5450    63.1920     8.4590     7.7790     8.5230    23.4160     2.1860 
  110.6250   -33.5330    65.1820     8.2480     7.5940     8.5500    23.4880     2.1770 
  110.7500   -33.4350    71.7710     8.0470     7.4050     8.6410    23.5880     2.1700 
  110.8750   -33.1740    73.9920     7.8840     7.2260     8.9220    23.7090     2.1660 
  111.0000   -32.8430    70.1170     7.7810     7.0710     9.1480    23.7940     2.1640 
  111.1250   -32.5350    66.2070     7.7690     6.9650     9.2610    23.8320     2.1630 
  111.2500   -32.2450    68.8010     7.8960     6.9510     9.3390    23.8340     2.1640 
  111.3750   -31.9380    74.6980     8.2540     7.1170     9.4060    23.8150     2.1700 
  111.5000   -31.6710    74.9700     8.8270     7.4710     9.6190    23.8020     2.1850 
  111.6250   -31.4410    68.2050     9.5410     7.9790    10.1020    23.8150     2.2110 
  111.7500   -31.2440    58.8840    10.2320     8.5290    10.7810    23.8380     2.2450 
  111.8750   -31.1220    54.6790    10.6180     8.9150    11.5040    23.8440     2.2710 
  112.0000   -31.0850    55.9340    10.5710     9.0020    11.6150    23.7980     2.2740 
  112.1250   -31.1080    60.9580    10.1010     8.7570    10.5950    23.6800     2.2520 
  112.2500   -31.1890    65.9290     9.3830     8.2770     9.1670    23.5810     2.2120 
  112.3750   -31.3230    68.3680     8.7040     7.7530     8.4630    23.5050     2.1750 
  112.5000   -31.4940    67.5450     8.2580     7.3600     8.0670    23.4200     2.1520 
  112.6250   -31.7200    64.3130     8.0810     7.1560     7.7380    23.2520     2.1440 
  112.7500   -31.9820    61.3440     8.1140     7.1250     7.5050    22.9630     2.1450 
  112.8750   -32.2600    60.3040     8.2560     7.2120     7.3960    22.6720     2.1480 
  113.0000   -32.5100    60.3760     8.4020     7.3260     7.3400    22.4670     2.1520 
  113.1250   -32.7380    60.4820     8.5220     7.4290     7.3010    22.3340     2.1550 
  113.2500   -32.9470    60.3150     8.6150     7.5110     7.3190    22.2420     2.1570 
  113.3750   -33.1500    59.1610     8.6790     7.5690     7.4120    22.1560     2.1570 
  113.5000   -33.2670    59.9820     8.7040     7.6030     7.4670    22.1030     2.1560 
  113.6250   -33.2750    64.9610     8.6750     7.6040     7.4450    22.0730     2.1560 
  113.7500   -33.2520    68.0250     8.5870     7.5670     7.3840    22.0190     2.1590 
  113.8750   -33.2350    62.9910     8.4510     7.4960     7.3400    21.9300     2.1650 
  114.0000   -33.1450    57.3360     8.3090     7.4190     7.4820    21.9270     2.1720 
  114.1250   -32.9910    56.9520     8.1930     7.3570     7.8480    22.0570     2.1760 
  114.2500   -32.8550    61.9600     8.1210     7.3180     8.3490    22.3350     2.1750 
  114.3750   -32.6830    67.9140     8.0950     7.3010     8.8220    22.7530     2.1690 
  114.5000   -32.4430    70.6600     8.0910     7.2880     9.1840    23.2030     2.1650 
  114.6250   -32.1620    70.1790     8.0960     7.2780     9.4830    23.5300     2.1640 
  114.7500   -31.8300    72.8660     8.1090     7.2800     9.7660    23.6720     2.1660 
  114.8750   -31.3960    79.7940     8.1430     7.3160     9.8800    23.7010     2.1690 
  115.0000   -30.8780    82.2870     8.1860     7.3840     9.8340    23.7000     2.1700 
  115.1250   -30.2350    79.4880     8.2080     7.4520     9.7400    23.6910     2.1670 
  115.2500   -29.4430    75.6360     8.1330     7.4560     9.6260    23.6700     2.1650 
  115.3750   -28.5600    74.3520     7.8980     7.2980     9.3800    23.6430     2.1720 
  115.5000   -27.6340    76.3350     7.5170     6.9790     8.9590    23.6170     2.1910 
  115.6250   -26.6570    85.8580     7.0850     6.5500     8.1870    23.6420     2.2170 
  115.7500   -25.6900   101.6290     6.7070     6.1080     7.1250    23.7480     2.2410 
  115.8750   -24.8180   112.6640     6.3560     5.7560     6.2150    23.8180     2.2530 
  116.0000   -24.0750   115.8570     6.1170     5.5020     5.9940    23.7560     2.2530 
  116.1250   -23.4280   116.7950     5.9220     5.3130     6.3520    23.6280     2.2460 
  116.2500   -22.8330   119.0350     5.7090     5.1380     6.6990    23.6180     2.2400 
  116.3750   -22.3340   121.0630     5.4740     4.9560     6.2710    23.7920     2.2390 
  116.5000   -22.0120   121.9220     5.2990     4.8040     5.3450    23.9290     2.2450 
  116.6250   -21.8460   124.7350     5.2690     4.7400     4.7760    23.8670     2.2590 
  116.7500   -21.7220   128.3120     5.4300     4.8090     4.8230    23.6860     2.2820 
  116.8750   -21.5910   126.9620     5.7620     5.0230     5.3270    23.5010     2.3100 
  117.0000   -21.5150   122.2190     6.1140     5.2870     5.9200    23.3140     2.3300 
  117.1250   -21.5390   117.0560     6.3560     5.5080     6.3460    23.2230     2.3340 
  117.2500   -21.6430   113.4660     6.4070     5.6110     6.2580    23.2160     2.3210 
  117.3750   -21.7820   112.7910     6.2670     5.5650     5.8920    23.2130     2.2990 
  117.5000   -21.9270   115.7780     6.0880     5.4600     5.8350    23.1800     2.2780 
  117.6250   -22.0950   119.6960     5.9860     5.3760     5.9270    23.1240     2.2620 
  117.7500   -22.3020   118.3940     6.0230     5.3700     6.0080    23.0830     2.2500 
  117.8750   -22.5050   111.3500     6.1840     5.4520     6.0460    23.1690     2.2370 
  118.0000   -22.6870   106.1810     6.3470     5.5520     6.2920    23.2770     2.2240 
  118.1250   -22.8360   105.1240     6.4080     5.6020     6.5860    23.3880     2.2170 
  118.2500   -22.9370   106.5320     6.3020     5.5490     6.6550    23.4570     2.2180 
  118.3750   -22.9890   112.1300     6.0230     5.3690     6.4620    23.5070     2.2300 
  118.5000   -23.0350   121.2090     5.7000     5.1290     5.9720    23.5720     2.2480 
  118.6250   -23.0530   129.7010     5.4590     4.9070     5.5530    23.7010     2.2660 
  118.7500   -23.0220   133.2810     5.3990     4.7840     5.4360    23.8750     2.2800 
  118.8750   -23.0290   131.9400     5.5870     4.8370     5.6070    24.0210     2.2830 
  119.0000   -23.0100   128.6580     5.9260     5.0310     6.1570    24.0340     2.2770 
  119.1250   -22.9690   123.0860     6.3080     5.3060     6.8700    23.9200     2.2640 
  119.2500   -22.9740   115.8880     6.6130     5.5750     7.5670    23.7560     2.2480 
  119.3750   -23.0130   114.0060     6.7230     5.7370     8.2210    23.6640     2.2340 
  119.5000   -22.9580   118.2810     6.6600     5.7730     8.3480    23.7030     2.2260 
  119.6250   -22.8530   122.3550     6.4900     5.7110     7.8330    23.8510     2.2190 
  119.7500   -22.7970   122.6000     6.3000     5.6040     6.7170    24.0690     2.2120 
  119.8750   -22.6930   121.0350     6.1590     5.5080     6.2520    24.1550     2.2030 
  120.0000   -22.5310   116.7650     6.0490     5.4280     6.0280    24.1690     2.1990 
  120.1250   -22.3600   111.8750     5.9230     5.3370     5.8920    24.1750     2.2050 
  120.2500   -22.1920   110.4470     5.7320     5.2000     5.7370    24.2030     2.2200 
  120.3750   -21.9950   113.8980     5.4550     4.9880     5.4440    24.2200     2.2410 
  120.5000   -21.8230   118.2820     5.1540     4.7360     5.1510    24.2370     2.2590 
  120.6250   -21.6870   121.6240     4.8980     4.4940     4.7740    24.2660     2.2710 
  120.7500   -21.5580   123.1130     4.7460     4.3120     4.4240    24.2950     2.2810 
  120.8750   -21.4600   120.4190     4.7420     4.2440     4.2830    24.3270     2.2910 
  121.0000   -21.4140   117.6890     4.8470     4.2780     4.3520    24.3390     2.3010 
  121.1250   -21.4000   117.8730     5.0230     4.4010     4.6310    24.3400     2.3020 
