~V
VERS. 2.00: Ver 2.00
~W
STRT.M 60.0000:
STOP.M 257.0000:
STEP.M 0.1250:
NULL. -999.2500:
UWI. DF5064:
~C
DEPT.M :
SP.MV :
GR.API :
RML.OHMM :
RI. :
RXO.OHMM :
CALI.CM :
DEN.GM/CC :
~A
# ...
  161.2500   -20.4920    68.4050    90.4890    86.6730    58.8390    34.4800     2.2300 
  161.3750   -20.4550    68.2360    95.2810    94.2320    66.9520    34.4490     2.2170 
  161.5000   -20.4330    65.6980   103.0530   104.5020    75.8820    34.3760     2.2020 
  161.6250   -20.3960    63.1640   111.6600   114.7150    74.2100    34.2520     2.1880 
  161.7500   -20.3590    61.9010   116.8030   120.4380    71.2440    34.1960     2.1770 
  161.8750   -20.3390    64.7990   114.4540   117.8510    73.4480    34.2100     2.1670 
  162.0000   -20.3300    69.9530   102.4750   105.3810    82.4570    34.2240     2.1600 
  162.1250   -20.3120    70.4440    82.1960    84.7450    92.1130    34.1020     2.1660 
  162.2500   -20.2710    67.8340    61.0100    63.1520    90.2680    33.8730     2.1870 
  162.3750   -20.2040    67.8600    43.4220    45.1790    66.7190    33.7180     2.2210 
  162.5000   -20.1150    72.5890    30.9920    32.7060    36.9000    33.6640     2.2620 
  162.6250   -20.0660    76.8790    23.8840    26.0080    18.0520    33.6750     2.3000 
  162.7500   -20.0640    78.7820    20.2020    22.9240    11.7360    33.7260     2.3300 
  162.8750   -20.0990    79.3240    19.2230    22.6370    10.0540    33.8100     2.3460 
  163.0000   -20.1540    78.7990    20.5670    24.8110    11.2880    33.9180     2.3470 
  163.1250   -20.2270    77.0550    24.4260    29.7850    15.5600    34.0270     2.3290 
  163.2500   -20.3470    75.2680    30.3040    37.0380    19.9470    34.1400     2.2970 
  163.3750   -20.5110    73.6210    37.8980    46.0910    24.8010    34.2600     2.2580 
  163.5000   -20.7160    72.0370    46.5870    55.9720    34.4910    34.4290     2.2200 
  163.6250   -20.9260    69.3850    55.2250    64.9600    46.8060    34.5420     2.1920 
  163.7500   -21.1310    66.1080    62.5430    71.7080    51.7120    34.5920     2.1780 
  163.8750   -21.3480    65.6220    67.7710    75.6320    53.2630    34.6080     2.1770 
  164.0000   -21.5850    68.2740    70.7950    76.9780    56.5390    34.6440     2.1870 
  164.1250   -21.8600    69.9410    72.0150    76.5030    60.2740    34.6670     2.2020 
  164.2500   -22.1180    67.6900    72.7210    75.6410    61.5620    34.7770     2.2150 
  164.3750   -22.3430    65.0530    73.6980    75.1280    60.2890    34.8550     2.2240 
  164.5000   -22.5380    64.8350    75.4060    75.3540    60.0670    34.9050     2.2280 
  164.6250   -22.7310    65.0390    78.2100    76.6820    59.9960    34.9540     2.2280 
  164.7500   -22.9160    64.9220    82.0170    79.0260    59.6150    34.9950     2.2260 
  164.8750   -23.0540    65.8640    86.7390    82.2800    60.0140    35.0490     2.2230 
  165.0000   -23.1400    66.4770    92.0860    86.1570    62.3550    35.0920     2.2160 
  165.1250   -23.1090    66.6030    97.5180    90.2040    67.0300    35.1170     2.2040 
  165.2500   -22.9950    65.8090   102.3910    93.9010    69.5450    35.1390     2.1880 
  165.3750   -22.8350    63.2760   106.2600    96.9220    70.4370    35.1590     2.1710 
  165.5000   -22.6180    60.9170   108.9250    99.1350    69.7070    35.1690     2.1580 
  165.6250   -22.3480    62.6690   110.3340   100.5280    67.3400    35.1720     2.1490 
  165.7500   -22.0390    66.1920   111.0380   101.4680    66.5890    35.1760     2.1440 
  165.8750   -21.6960    68.4670   111.3620   102.1370    67.3580    35.1790     2.1410 
  166.0000   -21.3410    70.5650   111.4440   102.5680    68.4750    35.1840     2.1390 
  166.1250   -21.0430    73.2820   111.0860   102.5580    67.2950    35.1860     2.1400 
  166.2500   -20.8270    73.3890   110.1230   102.0360    66.1660    35.1820     2.1450 
  166.3750   -20.6840    70.4830   108.5140   101.0480    64.7930    35.1400     2.1510 
  166.5000   -20.6030    67.4680   106.4340    99.7940    63.5260    35.0260     2.1590 
  166.6250   -20.5620    67.0420   104.2260    98.5640    59.6050    34.8270     2.1650 
  166.7500   -20.5380    66.8540   102.2430    97.5400    57.0000    34.6900     2.1700 
  166.8750   -20.5600    65.3870   100.6200    96.7250    56.5800    34.6110     2.1740 
  167.0000   -20.6140    64.1340    99.3160    95.9850    57.7050    34.5560     2.1760 
  167.1250   -20.6470    64.9150    98.1600    95.0950    58.3400    34.4740     2.1760 
  167.2500   -20.6260    67.3000    96.9280    93.9480    57.2010    34.3620     2.1760 
  167.3750   -20.5870    69.7540    95.5370    92.5680    54.8810    34.2580     2.1760 
  167.5000   -20.5460    71.2930    94.0430    91.1280    53.5640    34.1710     2.1760 
  167.6250   -20.4920    69.5600    92.7420    90.0570    53.2010    34.0990     2.1770 
  167.7500   -20.4520    66.3370    92.0520    89.7890    54.8940    34.0530     2.1780 
  167.8750   -20.4300    66.1480    92.4360    90.7250    56.6490    34.0270     2.1790 
  168.0000   -20.4440    68.3910    94.3210    93.1440    57.9120    33.9970     2.1800 
  168.1250   -20.4910    68.6060    98.3300    97.4190    57.7400    33.9800     2.1820 
  168.2500   -20.5550    67.4280   104.1930   103.1620    58.6620    33.9630     2.1850 
  168.3750   -20.6010    67.7020   111.5890   110.0370    62.9530    33.9170     2.1890 
  168.5000   -20.6260    67.8940   119.7530   117.4040    66.9650    33.8380     2.1930 
  168.6250   -20.6580    65.1310   126.9800   123.8030    69.6570    33.7990     2.1950 
  168.7500   -20.6620    62.0820   131.2200   127.4580    70.9630    33.7890     2.1910 
  168.8750   -20.6030    61.6900   130.3660   126.6230    74.3060    33.7850     2.1810 
  169.0000   -20.4720    62.9300   123.2160   120.2820    79.5130    33.7640     2.1680 
  169.1250   -20.3130    62.7370   109.5490   108.3190    83.5620    33.6840     2.1580 
  169.2500   -20.1740    62.0150    93.3350    94.0820    80.6180    33.5490     2.1570 
  169.3750   -20.0270    62.0910    77.9160    80.2960    70.3270    33.3540     2.1670 
  169.5000   -19.8540    63.5650    65.9570    68.7420    57.1650    33.1580     2.1850 
  169.6250   -19.6290    67.0310    57.7370    59.9400    47.3570    32.9460     2.2050 
  169.7500   -19.3910    71.7820    50.8510    52.3890    40.1320    32.7670     2.2240 
  169.8750   -19.1480    75.8310    43.3390    45.0700    37.9320    32.6480     2.2440 
  170.0000   -18.8720    76.8120    36.1090    37.5780    39.6650    32.5660     2.2700 
  170.1250   -18.5580    76.1300    29.2170    30.3820    37.8330    32.4510     2.3070 
  170.2500   -18.2100    77.7640    23.1420    24.2150    28.2770    32.2880     2.3510 
  170.3750   -17.8970    81.3700    18.2910    19.4800    18.2010    32.1750     2.3950 
  170.5000   -17.6460    84.9300    14.7740    16.1780    12.3570    32.1320     2.4330 
  170.6250   -17.4610    87.8630    12.6370    14.2510    10.6660    32.1270     2.4570 
  170.7500   -17.3220    90.4590    11.4860    13.2870    10.0340    32.1290     2.4670 
  170.8750   -17.2550    91.4250    11.2680    13.2690     9.9470    32.1410     2.4620 
  171.0000   -17.2940    89.4740    12.0880    14.3820     9.9130    32.1680     2.4450 
  171.1250   -17.4510    86.2970    14.5020    17.3330    10.1260    32.1890     2.4150 
  171.2500   -17.6850    83.0560    18.7240    22.3440    11.9660    32.1960     2.3800 
  171.3750   -17.9410    79.7890    25.0270    29.5630    17.5060    32.1970     2.3440 
  171.5000   -18.1850    76.9510    33.3240    38.6030    29.0160    32.1970     2.3100 
  171.6250   -18.4130    74.2250    43.0680    48.3720    44.3180    32.1970     2.2830 
  171.7500   -18.6450    71.7640    52.7770    57.2280    54.5250    32.1950     2.2610 
  171.8750   -18.8630    70.2910    61.3280    64.1840    58.4570    32.1920     2.2450 
  172.0000   -19.0760    70.5820    68.1010    69.0200    59.4500    32.1890     2.2340 
  172.1250   -19.2800    71.0340    73.0300    72.0240    60.3490    32.1880     2.2290 
  172.2500   -19.4850    70.1070    77.0900    74.2400    59.9840    32.1870     2.2280 
  172.3750   -19.7060    67.9800    80.8360    76.2090    57.4980    32.1860     2.2290 
