~V
VERS. 2.00: Ver 2.00
~W
STRT.M 58.0000:
STOP.M 256.0000:
STEP.M 0.1250:
NULL. -999.2500:
UWI. DF5024:
~C
DEPT.M :
SP.MV :
GR.API :
CALI.CM :
RXO.OHMM :
RI. :
RML.OHMM :
DEN.GM/CC :
~A
# ...
  170.5000   -31.5360    63.5570    24.5660   173.1060   232.4830   242.8160     2.1520 
  170.6250   -31.4810    64.0300    24.5820   158.0710   217.8960   227.5940     2.1450 
  170.7500   -31.4230    64.8270    24.5910   152.1120   206.6410   215.8490     2.1440 
  170.8750   -31.3450    65.3980    24.6270   146.3730   198.2970   207.1430     2.1530 
  171.0000   -31.2320    66.1720    24.6030   139.7230   192.1260   200.7030     2.1630 
  171.1250   -31.0880    67.3940    24.3950   139.3930   187.6310   196.0130     2.1600 
  171.2500   -30.9420    68.9810    24.0370   142.2590   183.8920   192.1120     2.1490 
  171.3750   -30.8070    70.8930    23.7090   139.5020   180.4970   188.5690     2.1480 
  171.5000   -30.6740    72.1870    23.4900   130.3320   177.3430   185.2770     2.1650 
  171.6250   -30.5210    71.3700    23.3930   123.8280   174.4990   182.3100     2.1870 
  171.7500   -30.3520    69.5400    23.3970   127.3180   171.9570   179.6570     2.2000 
  171.8750   -30.1890    68.6190    23.3820   138.6780   169.5710   177.1670     2.2000 
  172.0000   -30.0540    69.8170    23.3240   148.0250   166.9680   174.4510     2.1940 
  172.1250   -29.9510    72.4330    23.3300   146.6440   163.4540   170.7840     2.1910 
  172.2500   -29.8550    73.6190    23.3630   142.4020   158.6720   165.7940     2.2010 
  172.3750   -29.7500    72.0700    23.3410   143.5490   152.3640   159.2120     2.2210 
  172.5000   -29.6420    68.9670    23.3110   148.1390   144.5920   151.1020     2.2270 
  172.6250   -29.5530    66.9480    23.2570   147.9430   135.9520   142.0860     2.2040 
  172.7500   -29.4820    66.9040    23.2390   137.4230   127.8380   133.6190     2.1790 
  172.8750   -29.4100    68.4160    23.2540   120.7590   121.5220   127.0280     2.1790 
  173.0000   -29.3140    70.2490    23.2530   102.9880   118.1870   123.5490     2.2060 
  173.1250   -29.1850    70.6570    23.1280    90.4420   119.3350   124.7460     2.2310 
  173.2500   -29.0490    70.3050    22.9740    85.7920   124.4680   130.1020     2.2330 
  173.3750   -28.9220    70.7580    22.8550    88.1960   133.0160   139.0220     2.2100 
  173.5000   -28.8070    71.7310    22.7810    93.4990   143.6550   150.1240     2.1770 
  173.6250   -28.6830    71.0800    22.7710    99.8020   153.8000   160.7100     2.1550 
  173.7500   -28.5440    69.2900    22.7330   105.5440   160.4040   167.6020     2.1510 
  173.8750   -28.4030    67.9760    22.6810   110.2560   161.2120   168.4440     2.1590 
  174.0000   -28.2830    67.6170    22.6570   113.1140   155.4220   162.4030     2.1690 
  174.1250   -28.1980    67.6460    22.7230   115.3380   143.5990   150.0650     2.1750 
  174.2500   -28.1320    68.8470    22.9090   114.7910   129.5430   135.3980     2.1820 
  174.3750   -28.0710    71.6870    23.2120   110.0570   115.8970   121.1580     2.2030 
  174.5000   -28.0120    74.6270    23.5740   102.7060   104.6980   109.4720     2.2360 
  174.6250   -27.9770    76.0040    23.9120    95.3310    97.9090   102.3880     2.2620 
  174.7500   -27.9750    77.1810    24.1820    91.4620    95.2200    99.5820     2.2650 
  174.8750   -27.9960    78.5420    24.3460    93.2860    96.2160   100.6210     2.2510 
  175.0000   -28.0200    78.3600    24.4310   101.5800   100.0270   104.5980     2.2330 
  175.1250   -28.0300    75.3880    24.4530   114.0270   105.3760   110.1800     2.2170 
  175.2500   -28.0360    71.9660    24.4670   124.0860   110.2570   115.2740     2.2030 
  175.3750   -28.0550    69.9740    24.4720   129.9140   113.2030   118.3480     2.1960 
  175.5000   -28.0930    70.0390    24.4630   132.1240   113.3300   118.4800     2.1990 
  175.6250   -28.1320    71.8230    24.4550   129.4860   110.4640   115.4890     2.2060 
  175.7500   -28.1550    73.6720    24.4100   122.4680   106.4750   111.3260     2.2100 
  175.8750   -28.1640    74.5920    24.2300   110.6460   103.1620   107.8700     2.2090 
  176.0000   -28.1750    74.7630    23.8620    97.3890   102.4160   107.0910     2.2090 
  176.1250   -28.2120    74.5550    23.4020    89.6650   106.8670   111.7360     2.2110 
  176.2500   -28.2660    74.1940    23.1300    92.3410   116.8060   122.1070     2.2100 
  176.3750   -28.3170    73.4270    23.0250   105.6630   132.0990   138.0650     2.2060 
  176.5000   -28.3540    71.6020    22.9670   126.3640   151.7080   158.5280     2.2020 
  176.6250   -28.3850    67.9310    22.8980   146.0270   173.5740   181.3440     2.1950 
  176.7500   -28.4330    63.7930    22.8070   158.4780   194.0720   202.7350     2.1850 
  176.8750   -28.5040    60.9580    22.7240   166.6650   210.3700   219.7410     2.1750 
  177.0000   -28.5850    60.3140    22.6760   172.0040   220.8270   230.6530     2.1690 
  177.1250   -28.6540    61.4630    22.6690   168.0330   225.2280   235.2460     2.1650 
  177.2500   -28.7100    62.8990    22.6610   158.4780   227.4560   237.5700     2.1610 
  177.3750   -28.7690    63.6540    22.6680   150.8000   230.6380   240.8910     2.1600 
  177.5000   -28.8450    63.4500    22.7340   150.0410   236.7250   247.2420     2.1650 
  177.6250   -28.9270    62.5450    22.9710   153.9720   246.8190   257.7760     2.1700 
  177.7500   -28.9880    61.1390    23.3930   156.2930   259.7220   271.2400     2.1730 
  177.8750   -29.0100    59.0780    23.7600   160.0180   274.0530   286.1940     2.1800 
  178.0000   -28.9940    56.8830    23.8500   170.2080   287.8100   300.5500     2.1890 
  178.1250   -28.9450    56.2620    23.7630   192.2560   298.5200   311.7250     2.1950 
  178.2500   -28.8690    57.6760    23.7470   218.1240   305.6720   319.1880     2.1930 
  178.3750   -28.7480    60.4300    23.7290   233.6450   309.4070   323.0860     2.1910 
  178.5000   -28.5700    63.6870    23.6120   226.6780   310.3670   324.0880     2.1910 
  178.6250   -28.3370    66.5120    23.4500   195.6080   309.0820   322.7470     2.1830 
  178.7500   -28.0910    67.7770    23.3280   158.1930   306.2920   319.8350     2.1700 
  178.8750   -27.8520    67.1060    23.2970   131.5690   301.6030   314.9430     2.1670 
  179.0000   -27.6240    65.6820    23.3180   123.5070   293.5780   306.5690     2.1830 
  179.1250   -27.3910    65.8580    23.3060   127.2100   278.6980   291.0410     2.1980 
  179.2500   -27.1550    68.4700    23.2800   126.3580   255.9720   267.3270     2.2040 
  179.3750   -26.9320    72.5920    23.2640   117.7060   226.1190   236.1750     2.2120 
  179.5000   -26.7450    75.8560    23.2710   105.6580   192.1840   200.7640     2.2340 
  179.6250   -26.6010    76.2540    23.2470    92.4280   158.7320   165.8570     2.2570 
  179.7500   -26.4700    75.1830    23.2060    78.0760   129.3550   135.2020     2.2650 
  179.8750   -26.3340    74.2200    23.1610    66.7070   105.7870   110.6080     2.2610 
  180.0000   -26.1940    73.9590    23.1390    60.7340    88.4980    92.5680     2.2560 
  180.1250   -26.0680    74.9770    23.0930    57.8810    77.8420    81.4480     2.2550 
  180.2500   -25.9630    77.0940    23.1190    55.4020    71.7590    75.1010     2.2460 
  180.3750   -25.8650    79.2640    23.2200    54.4500    69.1830    72.4120     2.2300 
  180.5000   -25.7540    80.5520    23.3730    55.6400    69.1790    72.4080     2.2220 
  180.6250   -25.6190    80.8280    23.6210    59.7240    71.1980    74.5150     2.2300 
  180.7500   -25.4780    80.1130    23.8850    66.4910    74.2680    77.7190     2.2400 
  180.8750   -25.3450    78.0780    24.0760    74.2190    77.8090    81.4140     2.2400 
  181.0000   -25.2180    75.3080    24.1250    81.6200    81.3430    85.1020     2.2360 
  181.1250   -25.0760    73.4750    24.0550    89.0610    84.5710    88.4700     2.2350 
  181.2500   -24.9120    72.8330    23.9460    97.2180    87.4550    91.4800     2.2320 
  181.3750   -24.7340    72.9160    23.8540   104.5570    89.9540    94.0870     2.2250 
  181.5000   -24.5600    73.1670    23.7610   108.2570    91.9540    96.1740     2.2240 
  181.6250   -24.3960    73.4680    23.6470   106.7530    92.8680    97.1270     2.2360 
