~V
VERS. 2.00: Ver 2.00
~W
STRT.M 60.0000:
STOP.M 271.0000:
STEP.M 0.1250:
NULL. -999.2500:
UWI. DF5026:
~C
DEPT.M :
SP.MV :
GR.API :
CALI.CM :
RXO.OHMM :
RI. :
RML.OHMM :
DEN.GM/CC :
~A
# ...
  172.5000   -46.6710    64.4120    24.7220   151.1400   135.5860   143.7810     2.2230 
  172.6250   -46.7230    62.2320    24.7070   148.3160   135.1490   141.1660     2.2290 
  172.7500   -46.8050    62.4850    24.6830   132.3020   128.2870   131.9520     2.2390 
  172.8750   -46.8370    65.2530    24.6460   103.7630   117.9770   120.2050     2.2520 
  173.0000   -46.8360    68.5400    24.6000    76.8330   107.9250   109.8900     2.2640 
  173.1250   -46.6910    70.6670    24.5680    67.6190   101.2960   103.7520     2.2710 
  173.2500   -46.4420    72.0510    24.5630    76.9760    98.3010   101.2830     2.2710 
  173.3750   -46.0890    71.6260    24.5650   112.3760    98.2490   101.4800     2.2650 
  173.5000   -45.7500    69.2690    24.5220   151.8580    99.7850   102.8460     2.2560 
  173.6250   -45.4220    67.5940    24.3740   151.7940   101.1220   103.5120     2.2480 
  173.7500   -45.0880    67.4230    24.1870   129.5360   100.9350   102.4270     2.2440 
  173.8750   -44.8180    68.4910    24.0560   112.7330    98.9290    99.6610     2.2430 
  174.0000   -44.6340    71.8500    24.0170   111.2540    95.7910    96.2250     2.2440 
  174.1250   -44.6410    77.2310    24.0180   120.7790    92.8100    93.5200     2.2450 
  174.2500   -44.7250    80.1790    24.0020   125.5050    90.6280    91.9080     2.2470 
  174.3750   -44.8500    78.3370    23.9670   115.1140    89.1280    91.1760     2.2480 
  174.5000   -44.9390    73.2400    23.9290   105.1780    88.1890    91.2490     2.2460 
  174.6250   -44.9520    68.9270    23.9020   103.7780    88.4410    92.9870     2.2420 
  174.7500   -44.9510    67.1530    23.8570    97.0140    90.8410    97.4590     2.2370 
  174.8750   -44.9630    67.2800    23.7660    75.4760    96.8930   106.2050     2.2310 
  175.0000   -44.9810    66.3910    23.6570    68.6490   108.3700   120.8610     2.2230 
  175.1250   -44.8500    64.1090    23.6270    92.7390   127.4980   143.7110     2.2160 
  175.2500   -44.6120    63.5020    23.7310   157.6430   150.9870   171.5390     2.2090 
  175.3750   -44.2880    63.5800    23.9900   239.6370   171.7860   196.1700     2.2050 
  175.5000   -43.9510    62.1700    24.3490   371.9730   179.4430   203.7310     2.2040 
  175.6250   -43.6670    60.0040    24.6060   368.3670   165.1980   183.6430     2.2090 
  175.7500   -43.3920    59.6540    24.6510   266.7790   140.0440   152.9610     2.2190 
  175.8750   -43.0400    60.7890    24.5700   135.0700   115.0820   125.6190     2.2330 
  176.0000   -42.6390    62.2300    24.5050    74.8330    96.5250   106.8880     2.2490 
  176.1250   -42.2070    63.9690    24.5270    64.7620    85.9490    96.7540     2.2650 
  176.2500   -41.7670    65.2040    24.5960    70.8820    79.6160    90.5920     2.2770 
  176.3750   -41.4170    66.1300    24.6770    88.1170    74.8980    85.4900     2.2850 
  176.5000   -41.1080    67.9670    24.7280    94.2800    69.9110    79.5340     2.2890 
  176.6250   -40.8440    69.9860    24.7200    88.5100    64.0110    72.4330     2.2890 
  176.7500   -40.5800    69.1820    24.6820    60.6080    58.2660    65.8580     2.2860 
  176.8750   -40.3530    68.6440    24.6410    42.3530    53.9240    61.3410     2.2810 
  177.0000   -40.1080    71.7250    24.6140    39.4200    51.8190    59.6980     2.2740 
  177.1250   -39.9280    74.4360    24.6080    45.2290    52.4090    61.2410     2.2680 
  177.2500   -39.8600    73.1750    24.6130    50.8200    54.6870    64.6280     2.2630 
  177.3750   -39.8760    70.6360    24.6000    57.1410    57.7220    68.6980     2.2610 
  177.5000   -39.8760    70.0690    24.5460    62.6720    60.4700    72.2320     2.2610 
  177.6250   -39.8630    69.9580    24.4730    62.9330    61.8890    74.0860     2.2610 
  177.7500   -39.8850    68.2250    24.4050    58.0810    61.9850    74.4240     2.2600 
  177.8750   -39.8970    67.7060    24.3080    53.6130    61.0350    73.6410     2.2580 
  178.0000   -39.9310    69.8590    24.1650    52.1940    59.3320    72.1010     2.2560 
  178.1250   -39.9840    74.3600    24.0440    53.0680    57.0670    70.0590     2.2560 
  178.2500   -40.0070    76.8930    23.9990    53.5480    54.7220    68.0790     2.2560 
  178.3750   -39.9750    74.4970    23.9980    53.1660    52.8170    66.7760     2.2560 
  178.5000   -39.9370    69.9080    24.0000    50.5590    51.8880    66.7300     2.2550 
  178.6250   -39.8670    69.6990    24.0000    45.2940    52.5890    68.5660     2.2560 
  178.7500   -39.7960    73.4100    24.0000    44.5860    54.8100    71.8980     2.2580 
  178.8750   -39.7400    75.2000    24.0000    54.8940    58.3130    76.1090     2.2610 
  179.0000   -39.6740    72.7410    24.0000    68.0870    62.5350    80.2340     2.2620 
  179.1250   -39.5390    69.3180    24.0000    71.1170    66.7730    83.2670     2.2590 
  179.2500   -39.3690    67.0690    24.0000    67.6250    70.7840    85.4760     2.2550 
  179.3750   -39.1590    66.1320    24.0000    65.1610    74.9090    87.6720     2.2520 
  179.5000   -38.8810    67.6860    23.9980    66.6520    79.5690    90.4260     2.2520 
  179.6250   -38.5340    74.4790    23.9990    70.6680    84.0410    92.4290     2.2530 
  179.7500   -38.1620    80.5510    24.0330    75.2160    85.2700    90.0010     2.2530 
  179.8750   -37.7710    80.4570    24.1410    78.6620    79.4740    79.7650     2.2560 
  180.0000   -37.4110    75.4190    24.3150    78.6550    65.5630    62.4350     2.2650 
  180.1250   -37.1720    73.0690    24.4670    65.0020    47.6580    43.7900     2.2840 
  180.2500   -37.0240    75.6720    24.5370    40.8370    32.3880    29.1350     2.3090 
  180.3750   -37.0040    79.4060    24.5320    18.6340    21.8580    19.4680     2.3360 
  180.5000   -37.1310    84.4370    24.4480     7.3560    15.5800    13.9140     2.3610 
  180.6250   -37.3590    92.6370    24.2730     5.7640    12.5410    11.4760     2.3820 
  180.7500   -37.6030   100.1570    24.0980     5.5280    11.1420    10.6550     2.3970 
  180.8750   -37.9110   104.3100    24.0040     5.9830    10.8820    11.0080     2.4020 
  181.0000   -38.2840   104.7790    23.9910     7.0820    11.5830    12.4580     2.3930 
  181.1250   -38.6530   100.2950    23.9860     8.6710    13.5730    15.5870     2.3660 
  181.2500   -38.9610    92.2850    23.9450    11.2010    17.2470    20.8900     2.3320 
  181.3750   -39.1540    85.6870    23.8840    15.7780    23.5730    29.2710     2.3010 
  181.5000   -39.2900    83.4480    23.8580    28.7240    33.8320    41.7210     2.2770 
  181.6250   -39.5070    80.7980    24.0080    61.0870    49.7790    59.6920     2.2590 
  181.7500   -39.7510    75.3550    24.2900    95.1880    69.2270    81.2090     2.2470 
  181.8750   -39.9530    70.8960    24.5460   111.0570    88.0110   102.2940     2.2400 
  182.0000   -40.1260    71.1630    24.6570   107.5280   101.3930   117.7230     2.2390 
  182.1250   -40.2770    72.7120    24.6470    99.6270   107.0830   124.7230     2.2400 
  182.2500   -40.4460    72.0840    24.6260    96.7090   109.5980   128.6520     2.2420 
  182.3750   -40.6840    70.2490    24.5800    99.6140   112.5040   133.6540     2.2400 
  182.5000   -40.9980    68.7830    24.4940   109.6690   117.5020   141.2730     2.2350 
  182.6250   -41.3060    66.9850    24.4070   133.1650   123.6840   149.5320     2.2290 
  182.7500   -41.5870    63.7930    24.3600   152.9620   127.6700   153.6160     2.2220 
  182.8750   -41.9090    60.7710    24.3490   158.2350   126.3710   149.4930     2.2160 
  183.0000   -42.2360    59.7550    24.3370   138.2440   118.2550   136.1260     2.2110 
  183.1250   -42.5900    63.0370    24.3010   102.6710   103.7970   116.0240     2.2110 
  183.2500   -42.9130    70.1120    24.2740    71.9570    87.3010    95.3030     2.2150 
  183.3750   -43.2050    75.3490    24.2990    58.4070    71.7870    77.3440     2.2240 
  183.5000   -43.4320    75.1130    24.3890    51.6670    59.2720    63.8400     2.2390 
  183.6250   -43.6180    72.2380    24.4930    42.5720    51.2500    55.9260     2.2590 
