~V
VERS. 2.00: Ver 2.00
~W
STRT.M 65.0000:
STOP.M 272.0000:
STEP.M 0.1250:
NULL. -999.2500:
UWI. DF5002:
~C
DEPT.M :
DEN.GM/CC :
GR.API :
CALI.CM :
RXO.OHMM :
RI. :
RML.OHMM :
SP.MV :
~A
# ...
   87.5000     2.2670    93.8050    24.4680     6.7630     5.7430     7.6510   -23.0340 
   87.6250     2.2490    93.3570    24.3130     7.0260     5.8950     7.9760   -22.3640 
   87.7500     2.2340    89.4090    24.2240     7.4690     6.2440     8.5690   -22.0090 
   87.8750     2.2180    84.5490    24.1890     8.1370     6.6360     9.1750   -21.9050 
   88.0000     2.1980    84.2090    24.1470     8.8870     6.8750     9.4840   -21.8810 
   88.1250     2.1910    89.3400    24.2230     9.0330     6.7630     9.1990   -21.8140 
   88.2500     2.2050    97.2010    24.3630     8.3860     6.3870     8.5110   -21.5570 
   88.3750     2.2360   104.8530    24.4310     7.1410     5.9030     7.7120   -21.0860 
   88.5000     2.2710   109.2980    24.4350     6.0490     5.4590     7.0590   -20.5510 
   88.6250     2.3000   107.1400    24.4400     5.7960     5.1650     6.7130   -19.8620 
   88.7500     2.3180    99.9890    24.4380     5.8520     5.0040     6.5770   -19.0930 
   88.8750     2.3210    94.3560    24.4440     5.9710     4.9290     6.5310   -18.3020 
   89.0000     2.3150    94.5550    24.4650     5.8680     4.8900     6.4750   -17.5740 
   89.1250     2.3140   100.7760    24.5080     5.6070     4.8750     6.3910   -17.1350 
   89.2500     2.3240   106.3640    24.5360     5.3740     4.8930     6.3480   -16.9760 
   89.3750     2.3380   106.6600    24.5700     5.3310     4.9500     6.3880   -17.0190 
   89.5000     2.3450   101.9440    24.6360     5.5200     5.0270     6.4960   -17.2080 
   89.6250     2.3340    95.8660    24.5160     5.8800     5.0800     6.6110   -17.4310 
   89.7500     2.3120    93.0640    24.3930     6.0730     5.0890     6.6810   -17.5590 
   89.8750     2.2970    95.7870    24.3940     5.9350     5.0660     6.7150   -17.7240 
   90.0000     2.3050   101.2590    24.5350     5.6810     5.0370     6.7540   -17.9520 
   90.1250     2.3260   103.6540    24.4920     5.6840     5.0100     6.8170   -18.2130 
   90.2500     2.3290   103.2870    24.4730     5.9340     4.9390     6.8220   -18.5070 
   90.3750     2.3130   104.5200    24.4920     6.1680     4.7730     6.6470   -18.7650 
   90.5000     2.3010   106.7170    24.5500     6.1470     4.5230     6.2740   -19.0140 
   90.6250     2.3120   106.1020    24.5730     5.8500     4.3290     5.9320   -19.4210 
   90.7500     2.3330   103.6580    24.6800     5.5890     4.3770     5.9630   -19.9680 
   90.8750     2.3540    98.9070    24.7610     5.8500     4.8130     6.6130   -20.6810 
   91.0000     2.3790    90.9060    24.6730     7.7950     5.7340     8.0410   -21.6490 
   91.1250     2.4100    81.7390    24.3720    14.8740     7.1880    10.3130   -22.8800 
   91.2500     2.4210    75.0180    24.0960    23.0370     8.7430    12.6610   -24.3240 
   91.3750     2.3860    70.9310    23.9360    24.5950     9.7950    13.9470   -26.0330 
   91.5000     2.3050    70.7540    23.8430    19.0700     9.9210    13.5230   -27.8830 
   91.6250     2.2140    74.4220    23.8060    14.1350     9.2640    11.9950   -29.6640 
   91.7500     2.1560    75.2740    23.7950    12.3710     8.5240    10.6400   -31.4180 
   91.8750     2.1340    72.8600    23.7850    11.7070     8.0280     9.8820   -32.9610 
   92.0000     2.1300    71.0160    23.7710    11.4560     7.8660     9.7180   -34.3250 
   92.1250     2.1270    71.6120    23.7740    11.5060     7.9770     9.9620   -35.3720 
   92.2500     2.1260    72.9220    23.8140    11.6290     8.1550    10.2830   -36.0880 
   92.3750     2.1310    74.0520    23.8800    11.7110     8.2900    10.5390   -36.5740 
   92.5000     2.1390    73.7780    23.9330    11.7660     8.3420    10.6920   -36.8750 
   92.6250     2.1400    69.6870    23.9540    11.8040     8.3130    10.7510   -37.1050 
   92.7500     2.1330    65.7070    23.9700    11.8120     8.2370    10.7510   -37.1950 
   92.8750     2.1230    64.8280    23.9780    11.8180     8.1150    10.6990   -37.2660 
   93.0000     2.1160    66.5750    23.9840    11.8330     7.9430    10.5910   -37.2220 
   93.1250     2.1160    68.8500    23.9770    11.8130     7.7210    10.4160   -37.0450 
   93.2500     2.1170    71.3460    23.9540    11.7520     7.4750    10.1700   -36.8620 
   93.3750     2.1190    73.0710    23.9300    11.7340     7.2380     9.8660   -36.6200 
   93.5000     2.1220    72.3770    23.9200    11.8290     7.0840     9.6230   -36.3860 
   93.6250     2.1240    70.9250    23.9240    12.0060     7.1860     9.7410   -36.0920 
   93.7500     2.1260    69.6710    23.9490    12.3710     7.6110    10.3600   -35.8590 
   93.8750     2.1450    68.1970    24.0120    13.7830     8.3600    11.4930   -35.6300 
   94.0000     2.2010    68.0160    24.0980    18.5620     9.3120    12.9490   -35.4720 
   94.1250     2.2960    70.9600    24.1600    29.3980    10.1070    14.1220   -35.4070 
   94.2500     2.3760    75.2080    24.2050    33.3660    10.3500    14.3510   -35.3800 
   94.3750     2.3920    77.8760    24.2270    25.8960     9.9260    13.5160   -35.3800 
   94.5000     2.3410    78.0880    24.2450    15.6700     9.0730    12.1240   -35.3620 
   94.6250     2.2670    75.2290    24.2570    12.4970     8.1880    10.8730   -35.4260 
   94.7500     2.2100    70.9790    24.1970    11.7410     7.5270    10.0710   -35.4960 
   94.8750     2.1740    68.3430    24.0460    11.5990     7.1580     9.7350   -35.5610 
   95.0000     2.1510    68.1070    23.9310    11.5310     7.0390     9.7290   -35.5810 
   95.1250     2.1400    68.3410    23.8950    11.5300     7.0790     9.8510   -35.5780 
   95.2500     2.1350    67.4480    23.9090    11.5810     7.1520     9.9370   -35.4990 
   95.3750     2.1330    64.3320    23.9190    11.6960     7.2290     9.9830   -35.3190 
   95.5000     2.1350    61.3730    23.9250    11.8320     7.3240    10.0380   -34.9710 
   95.6250     2.1390    64.2940    23.9350    11.8740     7.4740    10.1660   -34.2790 
   95.7500     2.1400    70.6340    23.9410    11.9900     7.6620    10.3560   -33.3850 
   95.8750     2.1430    75.3850    23.9430    12.5250     7.8250    10.5380   -32.3130 
   96.0000     2.1620    78.7810    23.9660    13.7410     7.8640    10.5900   -31.0550 
   96.1250     2.2110    82.6300    24.0380    14.4670     7.6610    10.3420   -29.7090 
   96.2500     2.2660    84.2050    24.0910    13.2530     7.2690     9.8250   -28.4110 
   96.3750     2.3000    83.2760    24.0710    10.6300     6.7940     9.1590   -27.2820 
   96.5000     2.2970    83.2510    24.0270     8.5540     6.3650     8.5240   -26.4130 
   96.6250     2.2600    84.3230    23.9550     8.0750     6.1110     8.1420   -25.9370 
   96.7500     2.2140    82.5970    23.8570     8.1780     6.0540     8.0870   -25.8300 
   96.8750     2.1820    80.7160    23.7930     8.3530     6.2000     8.3720   -25.9300 
   97.0000     2.1770    82.3270    23.7830     8.5990     6.5190     8.9290   -26.0590 
   97.1250     2.1910    83.7470    23.7880     9.4270     6.9410     9.5860   -26.5990 
   97.2500     2.1990    81.4430    23.7700    10.4750     7.3200    10.0930   -27.2730 
   97.3750     2.1930    78.3300    23.7320    11.1410     7.5340    10.2800   -27.9700 
   97.5000     2.1850    78.7870    23.7230    11.0970     7.5210    10.1100   -28.5240 
   97.6250     2.1910    80.6730    23.7520    10.4760     7.2870     9.6760   -28.8940 
   97.7500     2.2080    79.0920    23.7940     9.7630     6.9790     9.2140   -29.1280 
   97.8750     2.2220    75.4000    23.8120     9.1810     6.7040     8.8750   -29.2420 
   98.0000     2.2260    73.5000    23.8040     8.9290     6.5370     8.7440   -29.2920 
   98.1250     2.2190    73.5530    23.7860     9.0560     6.5390     8.8750   -29.2270 
   98.2500     2.2090    73.2270    23.7690     9.2960     6.6850     9.1770   -29.1580 
   98.3750     2.1990    71.6130    23.7540     9.6000     6.9470     9.5700   -29.1310 
   98.5000     2.1860    69.7450    23.7310    10.0920     7.2770     9.9610   -29.2370 
   98.6250     2.1710    69.8810    23.6930    10.7170     7.5930    10.2460   -29.4420 
