~V
VERS. 2.00: Ver 2.00
~W
STRT.M 55.0000:
STOP.M 250.0000:
STEP.M 0.1250:
NULL. -999.2500:
UWI. DF5052:
~C
DEPT.M :
SP.MV :
GR.API :
CALI.CM :
RXO.OHMM :
RI. :
RML.OHMM :
DEN.GM/CC :
~A
# ...
  100.0000   -21.6460    88.4290    24.0620     6.2180     6.2480     6.9930     2.2290 
  100.1250   -21.9400    86.8110    24.1270     6.8010     7.1430     7.9420     2.2790 
  100.2500   -22.2100    84.3910    24.1650     9.5600     8.3200     9.1890     2.3270 
  100.3750   -22.4610    81.4140    24.2120    17.0640     9.6160    10.5630     2.3750 
  100.5000   -22.7000    77.6440    24.2690    30.3700    10.7490    11.7640     2.4300 
  100.6250   -22.9310    74.0250    24.2710    40.4600    11.2800    12.3270     2.4860 
  100.7500   -23.1590    72.6120    24.1330    38.3170    11.1270    12.1650     2.5070 
  100.8750   -23.3870    74.1310    23.8010    26.3180    10.4150    11.4100     2.4630 
  101.0000   -23.6100    76.7670    23.3410    14.5290     9.4310    10.3670     2.3610 
  101.1250   -23.8040    76.8330    22.9880     9.6350     8.5020     9.3820     2.2490 
  101.2500   -23.9540    73.6260    22.8860     8.3630     7.8070     8.6450     2.1770 
  101.3750   -24.0500    69.2460    22.8900     8.2630     7.3810     8.1940     2.1550 
  101.5000   -24.1000    66.8890    22.9040     8.3260     7.1810     7.9820     2.1630 
  101.6250   -24.1190    69.4040    22.9060     8.2770     7.1320     7.9300     2.1670 
  101.7500   -24.1320    74.6660    22.9060     8.1250     7.1210     7.9180     2.1580 
  101.8750   -24.1410    79.6130    22.9150     7.9300     7.0990     7.8950     2.1460 
  102.0000   -24.1370    82.8380    22.9530     7.7810     7.0430     7.8360     2.1430 
  102.1250   -24.1100    85.2140    23.0460     7.7630     6.9500     7.7370     2.1460 
  102.2500   -24.0680    86.6730    23.1700     7.8390     6.8480     7.6280     2.1430 
  102.3750   -24.0310    85.0720    23.3050     8.0000     6.7810     7.5580     2.1350 
  102.5000   -24.0160    79.9300    23.4170     8.2390     6.8060     7.5840     2.1340 
  102.6250   -24.0310    74.1580    23.4780     8.5240     6.9860     7.7750     2.1440 
  102.7500   -24.0570    71.6860    23.4940     8.7270     7.2940     8.1020     2.1560 
  102.8750   -24.0750    72.7000    23.4740     8.7700     7.6930     8.5250     2.1600 
  103.0000   -24.0740    74.6460    23.4000     8.8010     8.1140     8.9710     2.1560 
  103.1250   -24.0600    74.3040    23.2180     9.4280     8.4200     9.2960     2.1590 
  103.2500   -24.0480    72.3520    22.9720    10.6490     8.5120     9.3930     2.1760 
  103.3750   -24.0450    71.3250    22.8080    11.4830     8.3480     9.2180     2.1980 
  103.5000   -24.0480    72.7010    22.8150    11.0670     7.9630     8.8110     2.2080 
  103.6250   -24.0410    75.5190    22.8700     9.6250     7.4590     8.2770     2.1920 
  103.7500   -24.0180    77.2950    22.8990     8.7020     6.9870     7.7760     2.1600 
  103.8750   -23.9830    77.5030    22.8910     8.2840     6.6270     7.3940     2.1310 
  104.0000   -23.9540    76.8830    22.8430     8.1660     6.4160     7.1710     2.1180 
  104.1250   -23.9470    75.9000    22.7080     8.2470     6.3770     7.1300     2.1200 
  104.2500   -23.9540    74.8430    22.6510     8.4440     6.4440     7.2010     2.1240 
  104.3750   -23.9550    73.8900    22.7190     8.6550     6.5580     7.3220     2.1290 
  104.5000   -23.9300    72.5860    22.9780     8.8660     6.6640     7.4340     2.1370 
  104.6250   -23.8680    71.6410    23.4160     9.1580     6.7150     7.4880     2.1420 
  104.7500   -23.7860    73.5240    23.7690     9.3680     6.7030     7.4750     2.1400 
  104.8750   -23.7000    78.5600    23.8820     9.3800     6.6280     7.3960     2.1380 
  105.0000   -23.6100    82.7760    23.8450     9.1800     6.5150     7.2760     2.1440 
  105.1250   -23.4940    81.4940    23.7950     8.8040     6.4230     7.1780     2.1540 
  105.2500   -23.3330    78.5120    23.8340     8.4690     6.4190     7.1740     2.1590 
  105.3750   -23.1230    79.3120    23.8760     8.2840     6.5490     7.3120     2.1570 
  105.5000   -22.8750    83.1590    23.9250     8.2900     6.8270     7.6070     2.1440 
  105.6250   -22.6010    82.8500    24.0200     8.8410     7.2430     8.0480     2.1310 
  105.7500   -22.3100    78.2230    24.1630    10.7940     7.7010     8.5330     2.1440 
  105.8750   -21.9910    75.8660    24.2910    15.1370     8.0960     8.9520     2.1980 
  106.0000   -21.6300    78.9900    24.3540    20.9700     8.3230     9.1930     2.2710 
  106.1250   -21.2120    83.2820    24.2970    23.6020     8.2550     9.1200     2.3060 
  106.2500   -20.7580    84.4390    24.1290    20.7380     7.9280     8.7740     2.2920 
  106.3750   -20.2830    82.8480    23.8810    14.7510     7.4070     8.2210     2.2540 
  106.5000   -19.7960    79.9920    23.5660     9.5440     6.7840     7.5610     2.2220 
  106.6250   -19.2920    78.8770    23.2300     7.2140     6.1550     6.8940     2.2060 
  106.7500   -18.7630    81.7630    22.9840     6.2170     5.5900     6.2960     2.1960 
  106.8750   -18.2100    89.3530    22.9440     5.5720     5.1270     5.8040     2.1910 
  107.0000   -17.6490   101.0120    23.0910     4.9090     4.7820     5.4390     2.1950 
  107.1250   -17.1210   114.6680    23.3750     4.3280     4.5720     5.2160     2.2120 
  107.2500   -16.6550   123.6840    23.5140     3.9780     4.4610     5.0990     2.2310 
  107.3750   -16.2680   123.6510    23.4030     3.9070     4.4310     5.0670     2.2400 
  107.5000   -15.9620   117.9530    23.0430     4.0920     4.4610     5.0980     2.2360 
  107.6250   -15.7410   115.3420    22.6590     4.4800     4.5230     5.1650     2.2270 
  107.7500   -15.5900   116.7960    22.3700     4.8200     4.5840     5.2290     2.2230 
  107.8750   -15.5160   117.5700    22.2120     4.8950     4.6270     5.2750     2.2290 
  108.0000   -15.5240   115.1650    22.2360     4.6570     4.6470     5.2960     2.2430 
  108.1250   -15.6210   111.4650    22.5590     4.3530     4.6480     5.2970     2.2570 
  108.2500   -15.7640   108.9030    23.1120     4.2920     4.6410     5.2900     2.2600 
  108.3750   -15.9240   107.2190    23.7740     4.5150     4.6300     5.2780     2.2590 
  108.5000   -16.0800   105.4690    24.2670     4.8280     4.6160     5.2630     2.2640 
  108.6250   -16.2340   104.1590    24.4320     5.0300     4.6020     5.2480     2.2730 
  108.7500   -16.4040   105.5530    24.4570     5.0740     4.6010     5.2470     2.2780 
  108.8750   -16.6000   110.8500    24.4570     4.9580     4.6240     5.2710     2.2780 
  109.0000   -16.8170   116.5530    24.4570     4.7340     4.6710     5.3210     2.2780 
  109.1250   -17.0420   115.6570    24.4330     4.6390     4.7290     5.3830     2.2710 
  109.2500   -17.2630   109.6290    24.3610     4.8250     4.7720     5.4280     2.2530 
  109.3750   -17.4850   104.1890    24.2220     5.2690     4.7870     5.4440     2.2330 
  109.5000   -17.7170   102.3180    24.0310     5.7490     4.7980     5.4560     2.2240 
  109.6250   -17.9750   101.8110    23.9380     5.9460     4.8850     5.5480     2.2300 
  109.7500   -18.2510   100.7930    23.9510     5.8080     5.1270     5.8050     2.2410 
  109.8750   -18.5360   100.2570    24.0510     5.5820     5.5910     6.2960     2.2500 
  110.0000   -18.8200    99.8740    24.1560     5.6910     6.3100     7.0590     2.2640 
  110.1250   -19.1070    97.3270    24.2370     7.4880     7.2860     8.0930     2.3040 
  110.2500   -19.4180    91.9230    24.2860    12.5950     8.3330     9.2030     2.3720 
  110.3750   -19.7760    84.8650    24.2630    21.0280     9.2400    10.1650     2.4410 
  110.5000   -20.1960    78.2080    24.1350    28.1200     9.7880    10.7460     2.4650 
  110.6250   -20.6770    74.5120    23.8350    26.5640     9.7830    10.7400     2.4100 
  110.7500   -21.1810    73.5790    23.4450    19.3020     9.3930    10.3270     2.3160 
  110.8750   -21.6830    73.5150    23.1120    12.5260     8.8190     9.7190     2.2310 
  111.0000   -22.1670    72.2760    22.8840     9.2210     8.2620     9.1280     2.1750 
  111.1250   -22.6170    70.0060    22.7340     8.5850     7.8900     8.7340     2.1510 
