~V
VERS. 2.00: Ver 2.00
~W
STRT.M 59.0000:
STOP.M 260.0000:
STEP.M 0.1250:
NULL. -999.2500:
UWI. DF5044:
~C
DEPT.M :
GR.API :
CALI.CM :
RXO.OHMM :
RI. :
RML.OHMM :
DEN.GM/CC :
SP.MV :
~A
# ...
   70.2500    80.0660    23.2090     9.1380     6.7270     7.1380     2.1270   -33.0000 
   70.3750    80.4910    23.1670     9.0910     6.7200     7.1030     2.1110   -33.1090 
   70.5000    77.3170    23.1410     9.0350     6.6970     7.0500     2.1090   -33.0990 
   70.6250    73.5110    23.1480     8.9870     6.6590     6.9930     2.1240   -33.0530 
   70.7500    69.8760    23.1860     8.9560     6.6110     6.9400     2.1440   -32.9480 
   70.8750    66.5690    23.2350     8.9340     6.5540     6.8880     2.1560   -32.7740 
   71.0000    65.3550    23.2640     8.9050     6.4890     6.8340     2.1540   -32.6000 
   71.1250    67.0020    23.2470     8.8830     6.4120     6.7760     2.1380   -32.4270 
   71.2500    69.2410    23.2130     8.8820     6.3200     6.7080     2.1230   -32.3110 
   71.3750    71.0820    23.1870     8.9220     6.2140     6.6290     2.1220   -32.1250 
   71.5000    72.9870    23.1920     9.0040     6.1110     6.5560     2.1340   -31.8760 
   71.6250    75.4500    23.2070     9.0720     6.0850     6.5670     2.1440   -31.6810 
   71.7500    78.2690    23.2240     9.1110     6.2010     6.7280     2.1430   -31.4990 
   71.8750    81.7800    23.2450     9.1750     6.5130     7.0650     2.1380   -31.2140 
   72.0000    86.5410    23.2890     9.2760     7.0370     7.5550     2.1490   -30.8850 
   72.1250    89.4250    23.3910     9.5330     7.7670     8.2810     2.1870   -30.6790 
   72.2500    86.9080    23.5600    10.8680     8.5500     9.0840     2.2410   -30.4710 
   72.3750    79.9180    23.7500    15.6890     9.2120     9.7760     2.3020   -30.2540 
   72.5000    73.7800    23.9000    25.4990     9.5710    10.1520     2.3690   -30.1260 
   72.6250    73.2070    23.9420    33.5020     9.4500    10.0250     2.4290   -30.0940 
   72.7500    74.8060    23.7670    31.7410     8.9760     9.5300     2.4530   -30.1260 
   72.8750    75.8590    23.4940    22.2490     8.3150     8.8390     2.4190   -30.1970 
   73.0000    76.6800    23.3030    13.4620     7.6480     8.1420     2.3340   -30.2590 
   73.1250    77.5710    23.2550    10.1980     7.1290     7.6000     2.2380   -30.3260 
   73.2500    76.5560    23.2530     9.4890     6.7900     7.2460     2.1740   -30.3520 
   73.3750    74.0700    23.2620     9.4440     6.6180     7.0660     2.1570   -30.3390 
   73.5000    73.6810    23.2860     9.4580     6.5700     7.0150     2.1690   -30.2940 
   73.6250    77.2680    23.3490     9.3960     6.5880     7.0350     2.1810   -30.1770 
   73.7500    80.1400    23.4080     9.2900     6.6190     7.0670     2.1800   -29.9410 
   73.8750    79.2430    23.4170     9.2100     6.6450     7.0940     2.1720   -29.6830 
   74.0000    75.4410    23.3710     9.2490     6.6610     7.1110     2.1690   -29.4770 
   74.1250    71.9500    23.3650     9.3830     6.6630     7.1130     2.1700   -29.1640 
   74.2500    70.9470    23.4320     9.4520     6.6580     7.1070     2.1710   -28.7640 
   74.3750    72.5150    23.5210     9.4360     6.6490     7.0980     2.1700   -28.4120 
   74.5000    75.2760    23.5700     9.3920     6.6370     7.0860     2.1690   -28.0340 
   74.6250    78.8680    23.5920     9.2980     6.6160     7.0640     2.1610   -27.4520 
   74.7500    83.3320    23.6190     9.0830     6.5770     7.0230     2.1480   -26.8430 
   74.8750    86.5260    23.6190     8.8650     6.5050     6.9480     2.1390   -26.2610 
   75.0000    86.0210    23.5990     8.7730     6.3840     6.8210     2.1420   -25.6000 
   75.1250    83.6010    23.5810     8.7230     6.1870     6.6150     2.1530   -24.8250 
   75.2500    84.1320    23.5900     8.5900     5.9200     6.3360     2.1630   -24.0640 
   75.3750    88.2940    23.6550     8.3150     5.6110     6.0130     2.1750   -23.3040 
   75.5000    93.5880    23.7500     7.8990     5.3250     5.7150     2.1990   -22.4940 
   75.6250    97.5280    23.7700     7.4830     5.2010     5.5850     2.2280   -21.7450 
   75.7500    99.0070    23.7500     7.2750     5.3560     5.7470     2.2430   -21.0970 
   75.8750    97.5080    23.8020     7.3320     5.9290     6.3460     2.2370   -20.4630 
   76.0000    93.9550    23.9740     7.7960     7.0450     7.5120     2.2260   -19.7940 
   76.1250    90.3220    24.0650     9.5600     8.8510     9.3990     2.2540   -19.2600 
   76.2500    86.9310    24.0890    13.8930    11.0940    11.7430     2.3340   -18.8080 
   76.3750    82.6160    24.0900    22.2010    13.3440    14.0940     2.4510   -18.3000 
   76.5000    77.6560    24.0730    34.8540    14.9170    15.7390     2.5680   -17.8810 
   76.6250    76.4900    24.1060    47.2290    14.9030    15.7240     2.6350   -17.6390 
   76.7500    82.0280    24.1340    50.9980    13.4920    14.2490     2.6490   -17.3570 
   76.8750    93.2660    24.1730    43.1160    11.2670    11.9240     2.6200   -17.0570 
   77.0000   106.8670    24.2340    28.1840     8.9440     9.4970     2.5650   -16.9130 
   77.1250   118.7140    24.3070    15.4070     7.1040     7.5740     2.4980   -16.9190 
   77.2500   126.0350    24.3370     7.9990     5.8170     6.2290     2.4400   -16.9280 
   77.3750   127.7030    24.3770     5.1700     5.0050     5.3800     2.4010   -17.0100 
   77.5000   125.7880    24.3770     4.4540     4.5450     4.9000     2.3840   -17.1920 
   77.6250   125.8690    24.3020     4.3510     4.3380     4.6830     2.3820   -17.3970 
   77.7500   130.0330    24.2400     4.3620     4.2430     4.5840     2.3780   -17.6410 
   77.8750   135.6110    24.2110     4.4090     4.2120     4.5520     2.3660   -17.9930 
   78.0000   137.6540    24.1990     4.4350     4.2410     4.5810     2.3530   -18.4380 
   78.1250   132.9800    24.1930     4.4150     4.3870     4.7340     2.3450   -18.8970 
   78.2500   126.1150    24.1890     4.4780     4.6850     5.0460     2.3420   -19.3970 
   78.3750   119.8900    24.1890     4.9660     5.1510     5.5330     2.3500   -20.0090 
   78.5000   113.7890    24.1800     6.5620     5.7650     6.1750     2.3740   -20.6740 
   78.6250   106.5140    24.1480    10.0230     6.4690     6.9120     2.4110   -21.3180 
   78.7500    99.7580    24.0690    13.9690     7.1380     7.6090     2.4440   -22.0680 
   78.8750    92.8640    23.9490    16.5100     7.6550     8.1500     2.4600   -22.9230 
   79.0000    83.9360    23.8400    16.7680     7.9470     8.4600     2.4470   -23.7230 
   79.1250    73.9460    23.8120    14.5650     7.9790     8.5090     2.3890   -24.4020 
   79.2500    66.9820    23.9360    11.7500     7.8650     8.4130     2.3020   -25.0900 
   79.3750    63.9910    24.1330     9.7900     7.7020     8.2860     2.2170   -25.7390 
   79.5000    63.1680    24.1860     9.1270     7.5700     8.2150     2.1600   -26.2260 
   79.6250    63.7590    24.0620     9.2140     7.5090     8.2410     2.1420   -26.5720 
   79.7500    66.5030    23.9200     9.3600     7.4940     8.3130     2.1380   -26.8460 
   79.8750    71.8680    23.8370     9.4140     7.4940     8.3800     2.1350   -26.9810 
   80.0000    77.9620    23.7900     9.3320     7.4800     8.3940     2.1350   -26.9680 
   80.1250    80.9680    23.7170     9.1510     7.4300     8.3350     2.1480   -26.8760 
   80.2500    80.2650    23.6050     8.9750     7.3680     8.2610     2.1640   -26.7880 
   80.3750    77.4970    23.5500     8.8470     7.3390     8.2360     2.1720   -26.6740 
   80.5000    75.3580    23.5740     8.8180     7.3800     8.3080     2.1730   -26.5510 
   80.6250    75.3840    23.6380     8.9620     7.5120     8.5150     2.1730   -26.4530 
   80.7500    76.2760    23.7090     9.2090     7.7060     8.8150     2.1740   -26.3740 
   80.8750    76.8960    23.7450     9.5480     7.9260     9.1490     2.1790   -26.2900 
   81.0000    76.7020    23.7330    10.3150     8.1150     9.4380     2.1990   -26.2380 
   81.1250    75.4050    23.7860    11.9070     8.1980     9.5770     2.2440   -26.3230 
   81.2500    73.7830    23.8640    13.4720     8.1620     9.5510     2.2900   -26.4000 
   81.3750    72.7250    23.8560    13.4720     8.0210     9.3830     2.3010   -26.3940 
