~V
VERS. 2.00: Ver 2.00
~W
STRT.M 58.0000:
STOP.M 250.0000:
STEP.M 0.1250:
NULL. -999.2500:
UWI. DF5046:
~C
DEPT.M :
GR.API :
CALI.CM :
RXO.OHMM :
RI. :
RML.OHMM :
DEN.GM/CC :
SP.MV :
~A
# ...
  204.2500    74.3710    23.5260    52.3900    58.8260    79.7730     2.2280   -18.2510 
  204.3750    77.3660    23.5640    46.1780    58.2890    77.9700     2.2220   -18.6680 
  204.5000    76.9520    23.0730    42.9600    58.7080    78.2130     2.2290   -19.1200 
  204.6250    72.9120    22.1910    46.2430    60.7180    80.9520     2.2420   -19.6170 
  204.7500    71.2480    21.4940    53.8400    63.5650    84.7930     2.2490   -20.1140 
  204.8750    73.5500    21.3470    58.9590    66.5280    88.5870     2.2490   -20.5980 
  205.0000    74.4910    21.8220    56.1220    69.1180    91.6700     2.2430   -21.0470 
  205.1250    70.2780    22.5970    48.5540    71.5840    94.5800     2.2300   -21.4390 
  205.2500    65.0750    23.1240    43.5170    74.8580    98.7080     2.2130   -21.7950 
  205.3750    61.4670    23.2300    39.4870    79.5680   104.8630     2.2030   -22.0950 
  205.5000    60.6760    22.9730    33.4440    85.6000   112.8360     2.2070   -22.3590 
  205.6250    61.9960    22.3040    26.6460    91.7160   120.7710     2.2190   -22.5920 
  205.7500    64.1520    21.2610    22.0270    96.0980   126.0180     2.2200   -22.8220 
  205.8750    65.2540    20.0130    19.5410    97.9470   127.6520     2.2090   -23.0890 
  206.0000    64.1340    18.8340    18.4150    97.9430   127.1060     2.1950   -23.4080 
  206.1250    63.3120    17.9240    19.0320    97.9770   127.2810     2.1890   -23.7970 
  206.2500    63.7870    17.2990    21.2400    99.5870   129.8920     2.1910   -24.2160 
  206.3750    63.4880    17.0100    24.1730   103.2270   135.2560     2.1960   -24.6310 
  206.5000    61.6410    17.0110    26.8550   108.6110   142.7930     2.2020   -25.0310 
  206.6250    61.7860    17.1460    29.3470   115.0260   151.3370     2.2050   -25.3800 
  206.7500    65.9910    17.2860    33.4300   121.6400   159.7290     2.2060   -25.6830 
  206.8750    68.8550    17.5470    41.1890   128.3010   167.7470     2.2100   -25.9460 
  207.0000    66.6950    18.1510    53.4690   134.7430   175.0140     2.2150   -26.1530 
  207.1250    61.5410    19.1630    69.2450   139.7320   179.6680     2.2080   -26.2740 
  207.2500    59.2290    20.1350    84.4020   142.1410   180.3100     2.1930   -26.3150 
  207.3750    60.3710    20.7030    92.4450   141.4590   176.6900     2.1860   -26.3510 
  207.5000    62.3710    20.8480    88.5010   138.4600   170.5720     2.1970   -26.3910 
  207.6250    61.9870    20.8270    79.0950   135.4920   165.6580     2.2100   -26.4350 
  207.7500    58.9270    20.8200    80.2560   135.0820   164.7010     2.2100   -26.4980 
  207.8750    57.4090    20.8310    95.3500   138.3290   168.5620     2.1950   -26.5280 
  208.0000    59.6650    20.8670   108.3260   144.6820   176.1400     2.1770   -26.5130 
  208.1250    63.0520    20.9000    98.8100   151.0590   182.7930     2.1650   -26.4960 
  208.2500    64.3110    20.8710    79.3500   152.6860   182.0410     2.1560   -26.5070 
  208.3750    64.1060    20.7720    65.5130   146.7900   171.3410     2.1440   -26.4720 
  208.5000    63.7340    20.6830    55.9090   134.5890   154.4150     2.1260   -26.3670 
  208.6250    62.0310    20.7600    45.8460   120.9960   138.5710     2.1070   -26.1840 
  208.7500    59.8100    21.0620    41.1260   110.8680   128.0110     2.0960   -25.9240 
  208.8750    58.0750    21.5500    48.3660   106.0700   123.7200     2.1000   -25.6380 
  209.0000    57.7920    22.0970    67.6700   106.8510   125.4270     2.1220   -25.3360 
  209.1250    58.3900    22.6790    93.8160   113.0640   132.8160     2.1660   -25.0080 
  209.2500    58.8440    23.3660   118.9950   122.2390   143.1810     2.2170   -24.6680 
  209.3750    59.0710    24.0730   138.5020   132.3840   154.1720     2.2500   -24.3230 
  209.5000    59.1300    24.5770   149.0180   141.3510   163.2720     2.2480   -24.0000 
  209.6250    59.0740    24.7450   150.9090   146.9620   168.1740     2.2210   -23.7070 
  209.7500    57.2340    24.7630   149.2240   149.2360   169.3360     2.1990   -23.4390 
  209.8750    53.8740    24.7390   144.0050   148.1950   166.8040     2.1940   -23.1750 
  210.0000    53.2370    24.7080   135.5180   143.4830   159.9190     2.1980   -22.9200 
  210.1250    58.1680    24.6850   127.3970   133.9560   147.4000     2.2050   -22.6560 
  210.2500    61.3600    24.6240   118.2720   121.0980   131.6130     2.2100   -22.3410 
  210.3750    59.4560    24.5210   102.0630   107.0030   115.4180     2.2130   -22.0340 
  210.5000    58.1110    24.3790    78.2460    94.0320   101.3720     2.2120   -21.7310 
  210.6250    64.4550    24.1080    57.8970    84.4680    91.5620     2.2080   -21.4260 
  210.7500    71.6550    23.7280    49.9300    78.4470    85.6420     2.2090   -21.1510 
  210.8750    71.8180    23.4500    53.2500    75.6890    83.1170     2.2140   -20.8670 
  211.0000    64.9490    23.4860    61.0230    75.4190    83.0490     2.2170   -20.5720 
  211.1250    59.6410    23.7980    68.5050    76.5150    84.0730     2.2130   -20.2970 
  211.2500    58.9860    24.1530    76.8300    77.1550    84.2000     2.2100   -20.0680 
  211.3750    59.0510    24.4790    84.6020    76.0850    82.1650     2.2150   -19.8760 
  211.5000    58.5920    24.7270    86.1400    72.9430    77.8890     2.2230   -19.7180 
  211.6250    60.2450    24.8240    77.9890    68.5290    72.6650     2.2210   -19.6170 
  211.7500    62.1070    24.8220    67.1410    64.4660    68.2560     2.2120   -19.5530 
  211.8750    61.4920    24.8090    60.3770    61.5820    65.4310     2.2100   -19.5440 
  212.0000    60.0730    24.8350    62.7510    60.1410    64.2990     2.2170   -19.5890 
  212.1250    61.5090    24.8860    73.8420    59.9050    64.3930     2.2230   -19.6610 
  212.2500    62.7090    24.9010    80.6300    59.7900    64.4260     2.2200   -19.7300 
  212.3750    61.7760    24.8520    75.9910    59.1070    63.6750     2.2150   -19.7440 
  212.5000    59.8510    24.7270    64.1910    57.7730    62.1870     2.2170   -19.7120 
  212.6250    60.6950    24.5260    54.4910    56.4640    60.9250     2.2180   -19.6170 
  212.7500    63.5120    24.3120    50.6620    56.1360    60.9950     2.2100   -19.4800 
  212.8750    65.0650    24.1380    55.4710    57.4030    63.0190     2.2010   -19.3470 
  213.0000    63.4710    24.0210    70.5350    60.3550    66.9630     2.2000   -19.2420 
  213.1250    62.6070    24.0030    87.7220    64.4370    72.0370     2.2110   -19.1760 
  213.2500    65.4440    24.1500    93.2400    68.2540    76.5770     2.2230   -19.1470 
  213.3750    69.1940    24.4190    86.9320    70.8150    79.4420     2.2320   -19.1960 
  213.5000    69.8800    24.6550    78.8130    71.6840    80.2390     2.2340   -19.3030 
  213.6250    65.6550    24.7300    75.6720    71.0090    79.3520     2.2270   -19.4430 
  213.7500    61.4230    24.7160    75.5250    69.8920    78.1470     2.2190   -19.5800 
  213.8750    61.7600    24.7030    76.4890    69.0050    77.3470     2.2120   -19.6720 
  214.0000    65.6580    24.7270    77.2400    68.5820    77.1220     2.2030   -19.7050 
  214.1250    66.4510    24.7880    77.4190    68.4520    77.1860     2.1890   -19.6790 
  214.2500    63.0300    24.8410    77.8660    68.2170    77.0350     2.1760   -19.6290 
  214.3750    61.3580    24.8580    78.5090    67.6610    76.3750     2.1710   -19.5380 
  214.5000    64.3850    24.8590    78.1840    66.7090    75.1000     2.1730   -19.4310 
  214.6250    66.0790    24.8280    75.6620    65.4440    73.3360     2.1750   -19.3490 
  214.7500    64.2460    24.7000    71.7350    64.2450    71.6260     2.1730   -19.2970 
  214.8750    61.0010    24.4700    67.9810    63.4980    70.4830     2.1700   -19.3130 
  215.0000    59.0990    24.2480    66.1790    63.5710    70.3600     2.1720   -19.4000 
  215.1250    59.3690    24.1550    67.8360    64.9350    71.7980     2.1840   -19.5470 
  215.2500    61.4780    24.1930    72.1730    67.4540    74.5770     2.1990   -19.7050 
  215.3750    63.9500    24.3670    78.2110    70.7830    78.2340     2.2050   -19.9050 
