~V
VERS. 2.00: Ver 2.00
~W
STRT.M 55.0000:
STOP.M 273.0000:
STEP.M 0.1250:
NULL. -999.2500:
UWI. DF5004:
~C
DEPT.M :
GR.API :
CALI.CM :
RXO.OHMM :
RI. :
RML.OHMM :
DEN.GM/CC :
SP.MV :
~A
# ...
  212.5000    87.9560    24.7280     7.0720     6.2910     7.6320     2.3630   -11.2790 
  212.6250    88.0370    24.7820     6.9580     6.1420     7.5690     2.3730   -11.4850 
  212.7500    89.5940    24.8000     6.9330     6.0130     7.5360     2.3870   -11.7090 
  212.8750    90.9980    24.7340     6.9630     5.9800     7.6520     2.3940   -11.9470 
  213.0000    91.2580    24.6270     7.3070     6.1150     8.0370     2.3960   -12.1760 
  213.1250    90.8010    24.6340     8.2670     6.4960     8.8170     2.3950   -12.4360 
  213.2500    89.3870    24.6560     9.5940     7.0940     9.9240     2.3920   -12.6970 
  213.3750    86.2050    24.6880    11.0500     7.9190    11.3380     2.3870   -12.9760 
  213.5000    83.8950    24.6360    12.8800     9.0070    13.1010     2.3780   -13.2800 
  213.6250    85.7920    24.6000    16.0240    10.5320    15.4650     2.3650   -13.6140 
  213.7500    89.3290    24.5430    21.1830    12.6510    18.6960     2.3540   -13.9480 
  213.8750    90.4840    24.5270    30.2720    15.6900    23.2790     2.3580   -14.2720 
  214.0000    87.0090    24.5350    41.7770    20.0600    29.7810     2.3840   -14.5970 
  214.1250    81.2430    24.5430    51.0530    26.4300    39.0920     2.4080   -14.8310 
  214.2500    77.4020    24.5710    59.8350    34.4580    50.7090     2.4010   -15.0820 
  214.3750    75.5870    24.6830    74.6650    43.3240    63.4210     2.3590   -15.3480 
  214.5000    73.8860    24.8140    90.2320    51.4500    74.7790     2.3030   -15.6530 
  214.6250    72.4140    24.8760    93.3310    56.7700    81.5170     2.2570   -15.9390 
  214.7500    73.0610    24.9010    87.9120    59.3730    84.1240     2.2300   -16.2290 
  214.8750    75.7350    24.8990    81.6090    60.0500    84.1780     2.2200   -16.4960 
  215.0000    77.8660    24.8750    77.7800    59.9390    83.5260     2.2170   -16.7750 
  215.1250    78.3900    24.8460    76.8780    60.4030    84.1450     2.2110   -17.0880 
  215.2500    77.2750    24.7900    78.4550    62.2800    86.9980     2.2050   -17.3760 
  215.3750    75.2930    24.8170    83.3030    65.8760    92.3610     2.2000   -17.6090 
  215.5000    72.5330    25.0680    91.1510    71.1350   100.0400     2.1960   -17.7690 
  215.6250    70.7590    25.2940   103.3780    77.8970   109.6930     2.1960   -17.8680 
  215.7500    72.0130    25.5120   115.8530    85.2370   119.9300     2.2100   -17.9250 
  215.8750    74.2970    25.6440   125.8350    92.2650   129.3520     2.2360   -17.9720 
  216.0000    73.9420    25.3890   132.1230    98.0730   136.5410     2.2550   -17.9580 
  216.1250    71.0560    25.1320   133.0640   101.7120   140.1290     2.2500   -17.9170 
  216.2500    69.8400    25.0730   129.1740   103.4640   140.8940     2.2300   -17.8240 
  216.3750    70.7930    25.1830   123.2550   103.6860   139.6450     2.2130   -17.7040 
  216.5000    72.4630    25.2430   120.5210   102.7470   137.0420     2.2020   -17.5620 
  216.6250    74.9400    25.0080   121.6570   100.6930   133.1150     2.1920   -17.4430 
  216.7500    76.7000    24.8880   121.1320    97.7780   128.0590     2.1860   -17.2970 
  216.8750    75.8480    24.9340   113.2680    94.2280   122.1870     2.1910   -17.1550 
  217.0000    74.3090    25.2260   101.4560    90.4690   116.1820     2.1990   -17.0130 
  217.1250    74.3920    25.3230    93.1520    87.1220   111.0250     2.1960   -16.8740 
  217.2500    74.1700    25.0690    92.6230    84.5170   107.0770     2.1840   -16.7510 
  217.3750    72.4770    24.6970    95.5140    82.7470   104.3320     2.1730   -16.6500 
  217.5000    70.7860    24.5360    96.1760    81.7780   102.5930     2.1710   -16.5620 
  217.6250    71.2560    24.5110    93.0400    81.6730   101.8340     2.1770   -16.4620 
  217.7500    72.9520    24.3860    89.3200    82.3050   101.9400     2.1850   -16.4150 
  217.8750    73.7760    24.2370    86.8330    83.7090   103.0470     2.1900   -16.3590 
  218.0000    72.5460    24.2830    87.6200    85.8450   105.2070     2.1900   -16.3110 
  218.1250    69.5230    24.5300    95.1440    88.4700   108.1800     2.1860   -16.2080 
  218.2500    67.1700    24.6860   104.5490    90.8740   110.9540     2.1810   -16.1470 
  218.3750    66.5770    24.7300   109.5870    92.3720   112.5060     2.1780   -16.1220 
  218.5000    67.5900    24.8290   110.0030    92.4540   112.0350     2.1830   -16.1410 
  218.6250    68.3980    25.0210   106.3490    90.8590   109.1980     2.1930   -16.1530 
  218.7500    68.3040    25.2300   100.6780    88.5510   105.4750     2.2000   -16.1830 
  218.8750    67.5930    25.1710    93.4390    86.6540   102.4620     2.2040   -16.2320 
  219.0000    67.2440    24.8460    87.9890    86.3380   101.6390     2.2100   -16.3110 
  219.1250    66.9510    24.6600    87.4870    88.9170   104.5220     2.2160   -16.4760 
  219.2500    65.2020    24.6470    94.3180    94.0790   110.6160     2.2170   -16.6440 
  219.3750    63.4550    24.7730   112.3000   101.0700   118.9370     2.2110   -16.7800 
  219.5000    63.7860    24.9140   135.7550   108.5310   127.6430     2.2080   -16.8600 
  219.6250    66.6710    25.1090   143.9500   114.6100   134.0910     2.2110   -16.9670 
  219.7500    68.9610    25.2000   133.0260   118.6810   137.6060     2.2120   -17.0460 
  219.8750    69.2890    25.0800   121.9910   121.2230   139.1510     2.2080   -17.1260 
  220.0000    68.7180    24.8740   128.9050   123.4730   140.6230     2.2040   -17.1780 
  220.1250    67.0410    24.4090   152.3410   126.9020   143.9730     2.2070   -17.2580 
  220.2500    65.0190    24.3410   171.3940   131.5560   149.0580     2.2080   -17.2870 
  220.3750    63.5400    24.5200   171.4440   136.4490   154.4840     2.2030   -17.3390 
  220.5000    62.7700    24.7020   162.5700   140.1000   158.2560     2.1970   -17.4220 
  220.6250    64.1810    24.6880   161.1910   141.0020   158.4600     2.2000   -17.5180 
  220.7500    67.7330    24.6390   166.7750   139.9090   156.2490     2.2050   -17.6140 
  220.8750    70.8570    24.5910   166.5170   138.4410   153.7500     2.2030   -17.6820 
  221.0000    70.0220    24.5740   159.4350   138.7940   153.4990     2.1930   -17.7140 
  221.1250    67.0990    24.5090   148.4920   143.9170   158.6590     2.1850   -17.6500 
  221.2500    67.0410    24.6170   144.8280   154.3650   169.8760     2.1900   -17.6140 
  221.3750    68.8470    24.9490   161.7430   169.8260   187.1750     2.2000   -17.5820 
  221.5000    68.9080    25.3410   212.4900   188.1890   208.5610     2.2040   -17.5560 
  221.6250    66.8910    25.7170   282.6180   204.3520   227.7860     2.1930   -17.4890 
  221.7500    66.5670    25.6600   306.5290   213.7500   238.3110     2.1760   -17.4190 
  221.8750    66.2230    25.5570   279.1540   215.1330   238.5740     2.1670   -17.3530 
  222.0000    63.1690    25.4670   240.6320   210.7680   232.1640     2.1710   -17.3240 
  222.1250    60.3170    25.1180   220.6430   204.5840   224.4170     2.1800   -17.3290 
  222.2500    61.4410    25.1140   216.6900   199.5140   218.3500     2.1840   -17.3610 
  222.3750    64.8910    25.1810   220.0790   195.6060   213.6090     2.1860   -17.3650 
  222.5000    66.3640    25.0820   222.5010   191.4700   208.4040     2.1890   -17.3610 
  222.6250    66.2950    25.0030   209.7960   185.2180   200.6240     2.1940   -17.3190 
  222.7500    66.2440    25.0980   188.5580   176.7400   190.3460     2.1940   -17.2480 
  222.8750    64.9550    25.4220   171.8820   166.6340   178.3930     2.1920   -17.1810 
  223.0000    62.7680    25.9210   164.2200   156.0260   166.1490     2.1880   -17.1110 
  223.1250    62.0670    26.1480   158.1470   146.7460   155.7260     2.1830   -17.0690 
  223.2500    63.9340    26.2190   149.0520   140.1680   148.4390     2.1790   -16.9610 
  223.3750    67.2060    26.2220   139.9380   137.2180   145.1120     2.1810   -16.8210 
  223.5000    69.4860    26.2230   137.1460   138.3840   146.1400     2.1940   -16.6290 
  223.6250    68.0050    26.1950   148.5240   144.4890   152.3480     2.2090   -16.4790 
