~V
VERS. 2.00: Ver 2.00
~W
STRT.M 50.0000:
STOP.M 258.0000:
STEP.M 0.1250:
NULL. -999.2500:
UWI. DF5038:
~C
DEPT.M :
GR.API :
CALI.CM :
RXO.OHMM :
RI. :
RML.OHMM :
DEN.GM/CC :
SP.MV :
~A
# ...
  207.5000    60.9430    26.2200    45.2120    82.8040   111.3430     2.2020   -37.4050 
  207.6250    60.5130    26.2200    48.3790    90.4160   121.1700     2.1900   -37.6630 
  207.7500    61.3860    26.2200    49.3980    95.3390   126.9010     2.1850   -37.8320 
  207.8750    61.8690    26.2200    47.3840    97.0630   127.8750     2.1910   -38.0660 
  208.0000    62.4310    26.2200    44.1980    95.9260   124.9020     2.2030   -38.1980 
  208.1250    61.2250    26.2200    40.9390    93.1990   120.2600     2.2080   -38.3950 
  208.2500    58.8500    26.2200    39.3930    91.1090   117.0380     2.2040   -38.5670 
  208.3750    59.2770    26.2180    38.2600    91.2020   117.0870     2.1970   -38.7940 
  208.5000    63.3470    26.2170    38.1320    94.4380   121.3530     2.1920   -38.9300 
  208.6250    66.6500    26.2170    39.4070   101.6030   130.5790     2.1920   -39.1970 
  208.7500    65.9810    26.2170    41.6180   111.6590   143.3150     2.1970   -39.4730 
  208.8750    64.3370    26.2150    44.0810   123.7170   158.3590     2.2010   -39.7490 
  209.0000    64.6600    26.2130    46.1530   136.5440   174.0490     2.1950   -40.0530 
  209.1250    66.1920    26.2110    46.0450   148.2510   187.8040     2.1780   -40.3010 
  209.2500    65.2790    26.2110    45.0520   157.3310   197.7350     2.1630   -40.5680 
  209.3750    62.2310    26.2110    45.0660   162.9030   202.8070     2.1610   -40.8210 
  209.5000    60.1930    26.2110    45.5600   164.8640   203.0930     2.1720   -41.0590 
  209.6250    60.2470    26.2110    45.6150   163.5700   199.3810     2.1920   -41.2090 
  209.7500    59.4370    26.2110    46.7520   160.7890   194.1090     2.2190   -41.3920 
  209.8750    57.4070    26.2110    51.6600   157.4070   188.3490     2.2490   -41.4510 
  210.0000    56.9380    26.2110    57.3990   153.6160   182.1530     2.2740   -41.5900 
  210.1250    58.5930    26.2110    60.1940   148.8820   174.7390     2.2760   -41.6260 
  210.2500    59.7300    26.2110    59.9000   143.2640   166.3790     2.2540   -41.6690 
  210.3750    59.8370    26.2130    58.0850   137.5660   158.3620     2.2190   -41.6160 
  210.5000    59.3250    26.2170    55.2710   133.1270   152.4310     2.1870   -41.6510 
  210.6250    59.8280    26.2190    52.0880   131.4670   150.2480     2.1670   -41.6100 
  210.7500    62.0930    26.2200    53.8480   132.0820   150.8190     2.1570   -41.5350 
  210.8750    64.0230    26.2200    58.3930   133.8920   152.6610     2.1600   -41.4460 
  211.0000    63.2530    26.2200    64.2920   135.5910   154.1530     2.1720   -41.3030 
  211.1250    60.7940    26.2200    66.9320   136.3020   154.3590     2.1840   -41.2210 
  211.2500    60.9810    26.2200    64.5150   136.8050   154.4800     2.1880   -41.1380 
  211.3750    62.8470    26.2190    59.2950   138.6130   156.4050     2.1840   -41.1430 
  211.5000    63.3040    26.2180    57.2690   143.1260   161.6700     2.1740   -41.0530 
  211.6250    60.9610    26.2160    59.0980   151.0950   170.9810     2.1600   -41.0670 
  211.7500    57.3360    26.2140    61.1610   160.6320   182.0260     2.1480   -41.1260 
  211.8750    53.9870    26.2120    63.5260   169.6250   192.2780     2.1460   -41.2220 
  212.0000    53.7730    26.2120    65.6700   176.3030   199.6990     2.1600   -41.4310 
  212.1250    57.2340    26.2050    67.7340   179.9420   203.6880     2.1840   -41.5840 
  212.2500    58.8850    26.1930    68.5920   181.9770   206.0560     2.2010   -41.7150 
  212.3750    57.5010    26.1800    66.2890   182.9310   207.2770     2.2030   -41.7590 
  212.5000    56.7570    26.1730    63.2600   182.4440   206.6690     2.1960   -41.8950 
  212.6250    59.2580    26.1700    60.2400   179.6050   202.9670     2.1910   -41.8550 
  212.7500    61.0960    26.1670    58.8420   175.1110   197.1740     2.1910   -41.7730 
  212.8750    60.5640    26.1650    56.3090   170.4360   191.2800     2.1940   -41.6400 
  213.0000    59.8380    26.1650    55.4680   167.7200   187.8820     2.1960   -41.3520 
  213.1250    60.8690    26.1650    56.9960   169.6820   189.8630     2.1940   -41.1020 
  213.2500    62.7560    26.1650    56.9920   176.0780   196.5220     2.1900   -40.7850 
  213.3750    63.8760    26.1650    53.1800   185.3660   205.7520     2.1860   -40.4950 
  213.5000    64.6590    26.1650    47.8960   194.3200   213.5440     2.1790   -40.0830 
  213.6250    66.2780    26.1650    45.3570   197.0280   212.8640     2.1730   -39.8600 
  213.7500    66.0720    26.1650    44.6930   190.3550   201.0500     2.1680   -39.4400 
  213.8750    63.6860    26.1650    44.5200   174.0590   179.2430     2.1640   -39.0830 
  214.0000    61.6790    26.1650    44.2240   151.3070   152.2660     2.1630   -38.7470 
  214.1250    61.1380    26.1650    43.0890   127.4580   126.5330     2.1650   -38.3930 
  214.2500    59.6960    26.1650    40.7850   107.1610   105.8200     2.1730   -38.1430 
  214.3750    58.6920    26.1650    38.3180    92.2760    91.2350     2.1850   -37.8520 
  214.5000    61.2950    26.1650    36.8010    83.0990    82.6200     2.1940   -37.5760 
  214.6250    65.6590    26.1650    36.4080    79.8820    80.1050     2.1940   -37.2310 
  214.7500    66.9480    26.1650    36.6420    81.0350    82.0340     2.1890   -37.0910 
  214.8750    66.2890    26.1650    37.1460    85.9530    87.7330     2.1810   -36.8780 
  215.0000    65.4480    26.1650    38.9920    93.8660    96.3390     2.1740   -36.6920 
  215.1250    64.4190    26.1640    41.6160   103.7700   106.7820     2.1650   -36.4400 
  215.2500    63.8000    26.1660    42.5860   113.8850   117.3160     2.1560   -36.2190 
  215.3750    64.6830    26.1750    42.8600   123.0200   126.7850     2.1540   -36.0340 
  215.5000    65.4100    26.1950    43.7680   130.2900   134.3420     2.1570   -35.9720 
  215.6250    64.2650    26.2340    45.7320   134.8030   139.1330     2.1570   -35.8280 
  215.7500    62.8820    26.2880    52.3610   136.9680   141.5740     2.1540   -35.7060 
  215.8750    61.7850    26.3380    63.9380   136.9260   141.7370     2.1540   -35.6850 
  216.0000    59.8690    26.3660    71.7030   134.5940   139.4200     2.1600   -35.5570 
  216.1250    58.7750    26.3680    66.3610   129.3350   133.8230     2.1630   -35.5330 
  216.2500    59.7130    26.3660    63.2150   121.6610   125.5040     2.1610   -35.3800 
  216.3750    60.7590    26.3660    64.1780   112.1710   115.1740     2.1570   -35.2730 
  216.5000    61.4260    26.3660    65.2030   101.8510   103.9830     2.1540   -35.1180 
  216.6250    64.3840    26.3660    62.6430    92.0180    93.4280     2.1540   -35.0450 
  216.7500    67.6930    26.3660    59.9840    83.6410    84.5450     2.1550   -34.8710 
  216.8750    67.7970    26.3660    58.6090    77.3490    78.0050     2.1590   -34.8020 
  217.0000    65.3600    26.3660    57.4930    73.6000    74.2790     2.1640   -34.7820 
  217.1250    64.1090    26.3660    55.4600    73.2570    74.2370     2.1650   -34.7720 
  217.2500    63.8780    26.3660    56.7690    75.9820    77.4120     2.1580   -34.8100 
  217.3750    64.4290    26.3660    59.8420    81.5450    83.4700     2.1450   -34.8660 
  217.5000    65.6420    26.3660    61.8940    89.2070    91.5680     2.1340   -34.9470 
  217.6250    65.6360    26.3660    64.8800    97.3980   100.0090     2.1310   -35.0220 
  217.7500    64.0750    26.3660    68.8530   103.8090   106.4560     2.1350   -35.1240 
  217.8750    61.3900    26.3660    70.4800   106.7070   109.2080     2.1420   -35.1800 
  218.0000    60.3890    26.3660    68.8850   105.4540   107.7570     2.1490   -35.2280 
  218.1250    62.3290    26.3660    66.4740   100.6360   102.9310     2.1540   -35.3160 
  218.2500    64.7590    26.3660    64.3300    94.9820    97.5700     2.1570   -35.3650 
  218.3750    65.8890    26.3660    61.0280    90.4250    93.5970     2.1580   -35.4230 
  218.5000    64.4080    26.3660    59.4850    88.2910    92.2640     2.1560   -35.4350 
  218.6250    62.8260    26.3660    56.7910    89.8100    94.7040     2.1490   -35.5140 
