~V
VERS. 2.00: Ver 2.00
~W
STRT.M 55.0000:
STOP.M 271.0000:
STEP.M 0.1250:
NULL. -999.2500:
UWI. DF5032:
~C
DEPT.M :
SP.MV :
GR.API :
CALI.CM :
RXO.OHMM :
RI. :
RML.OHMM :
DEN.GM/CC :
~A
# ...
  212.5000   -26.8640    80.0740    24.4820    28.8900    22.8300    24.4000     2.2680 
  212.6250   -27.0820    80.3360    24.5430    27.2150    22.8120    24.3810     2.2550 
  212.7500   -27.2980    80.6440    24.5940    26.0200    23.2020    24.7940     2.2470 
  212.8750   -27.5170    82.4430    24.6220    25.9390    24.1420    25.7910     2.2510 
  213.0000   -27.7420    85.4170    24.6610    27.7210    25.7340    27.4780     2.2570 
  213.1250   -27.9800    86.6860    24.6900    31.8820    28.0910    29.9760     2.2510 
  213.2500   -28.2280    84.5480    24.6920    35.4350    30.9970    33.0570     2.2390 
  213.3750   -28.4830    79.5070    24.6770    36.3190    34.2790    36.5360     2.2280 
  213.5000   -28.7390    73.2640    24.6580    34.6400    37.7200    40.1830     2.2200 
  213.6250   -28.9870    68.2720    24.6680    32.8810    40.9980    43.6580     2.2000 
  213.7500   -29.2230    65.8990    24.7360    33.3610    43.8190    46.6490     2.1630 
  213.8750   -29.4430    66.0190    24.8960    35.3730    45.9360    48.8920     2.1260 
  214.0000   -29.6450    67.4030    25.2040    37.4200    47.2220    50.2550     2.1060 
  214.1250   -29.8250    68.5390    25.3360    38.4950    47.6130    50.6700     2.1140 
  214.2500   -29.9890    69.3810    25.1660    40.2840    47.4760    50.5240     2.1330 
  214.3750   -30.1410    70.6070    24.8480    42.5900    47.1140    50.1410     2.1540 
  214.5000   -30.2940    71.9690    24.6290    44.7860    46.9180    49.9330     2.1750 
  214.6250   -30.4580    72.2260    24.6150    45.3160    47.4590    50.5070     2.1910 
  214.7500   -30.6320    71.1920    24.6560    45.6280    48.9790    52.1180     2.1970 
  214.8750   -30.8110    69.4470    24.6760    47.5270    51.6240    54.9220     2.1920 
  215.0000   -30.9860    67.8870    24.6850    51.4210    55.4350    58.9610     2.1820 
  215.1250   -31.1470    67.4010    24.6640    56.7270    60.4510    64.2780     2.1730 
  215.2500   -31.2960    67.5860    24.6460    62.7920    66.1550    70.3250     2.1710 
  215.3750   -31.4350    67.0800    24.6630    70.7280    72.0630    76.5870     2.1750 
  215.5000   -31.5650    65.0510    24.6830    81.6390    77.5760    82.4310     2.1830 
  215.6250   -31.6790    62.7140    24.6930    94.5000    81.8930    87.0060     2.1850 
  215.7500   -31.7720    61.6300    24.6870   106.7850    84.8630    90.1540     2.1780 
  215.8750   -31.8410    61.6280    24.7110   114.5360    86.5380    91.9310     2.1730 
  216.0000   -31.8880    61.6880    24.7980   116.1210    87.2000    92.6320     2.1760 
  216.1250   -31.9190    61.6330    24.8790   118.2050    87.4270    92.8730     2.1850 
  216.2500   -31.9490    62.1140    24.7880   118.8160    88.0550    93.5390     2.1930 
  216.3750   -31.9890    63.5070    24.5870   115.7950    89.6160    95.1930     2.2020 
  216.5000   -32.0410    65.6710    24.4860   122.4590    92.3950    98.1380     2.2100 
  216.6250   -32.1080    68.0920    24.5870   159.2080    96.6550   102.6540     2.2130 
  216.7500   -32.1820    70.3510    24.7500   208.4530   102.0050   108.3250     2.2090 
  216.8750   -32.2560    72.1720    24.8630   225.7270   108.0660   114.7500     2.2030 
  217.0000   -32.3240    72.5430    24.9250   203.9420   114.3530   121.4140     2.1980 
  217.1250   -32.3760    69.5600    24.9670   186.3250   120.1000   127.5060     2.1950 
  217.2500   -32.4100    64.6380    24.9910   192.0410   124.5130   132.1840     2.1940 
  217.3750   -32.4240    61.1800    24.9730   211.7270   126.7680   134.5740     2.1910 
  217.5000   -32.4190    62.0880    24.9080   227.4600   126.1640   133.9340     2.1820 
  217.6250   -32.4010    66.5020    24.7880   230.4700   121.8810   129.3940     2.1670 
  217.7500   -32.3830    69.7960    24.7030   212.8450   114.8030   121.8910     2.1570 
  217.8750   -32.3740    70.5110    24.6590   183.2690   105.7640   112.3100     2.1620 
  218.0000   -32.3760    70.2880    24.6390   152.1190    95.8290   101.7790     2.1770 
  218.1250   -32.3910    71.3040    24.6220   124.1780    86.2090    91.5810     2.1920 
  218.2500   -32.4130    72.5170    24.5580   102.6540    77.6980    82.5600     2.2030 
  218.3750   -32.4430    72.4480    24.4700    86.2620    70.6770    75.1170     2.2130 
  218.5000   -32.4800    71.2530    24.4130    74.1900    65.1850    69.2960     2.2190 
  218.6250   -32.5200    70.3310    24.4040    66.3390    61.2380    65.1120     2.2230 
  218.7500   -32.5490    70.3290    24.3990    62.7220    58.3420    62.0420     2.2270 
  218.8750   -32.5610    71.1370    24.4010    62.3600    56.3350    59.9150     2.2310 
  219.0000   -32.5580    72.7600    24.3940    63.0460    55.1400    58.6480     2.2310 
  219.1250   -32.5650    74.7500    24.3830    63.1740    54.8950    58.3890     2.2270 
  219.2500   -32.6020    75.9810    24.3670    63.6880    55.4900    59.0200     2.2230 
  219.3750   -32.6750    76.2500    24.3470    65.4800    56.9760    60.5950     2.2210 
  219.5000   -32.7700    75.8890    24.3210    68.6260    59.3900    63.1530     2.2150 
  219.6250   -32.8570    74.8540    24.3200    73.4190    62.8210    66.7900     2.2050 
  219.7500   -32.9210    73.5330    24.3010    82.2610    66.9350    71.1520     2.1990 
  219.8750   -32.9690    72.3990    24.2970    96.9370    71.5080    75.9990     2.1980 
  220.0000   -33.0180    71.1660    24.3320   114.3120    76.2520    81.0270     2.1980 
  220.1250   -33.0770    69.4050    24.3740   130.6210    80.6740    85.7150     2.1920 
  220.2500   -33.1310    68.4730    24.4180   138.9140    84.3800    89.6430     2.1840 
  220.3750   -33.1600    69.3610    24.4780   138.9100    87.0690    92.4930     2.1790 
  220.5000   -33.1570    70.9140    24.5190   131.7830    88.6330    94.1510     2.1800 
  220.6250   -33.1340    70.9000    24.5290   120.8390    89.2210    94.7740     2.1840 
  220.7500   -33.1240    69.2130    24.5310   112.2030    89.5360    95.1080     2.1870 
  220.8750   -33.1400    67.5530    24.5190   106.5400    90.1100    95.7170     2.1890 
  221.0000   -33.1750    67.8730    24.4760   102.9660    91.4160    97.1010     2.1860 
  221.1250   -33.2070    70.0650    24.3990   103.3920    93.8650    99.6970     2.1780 
  221.2500   -33.2300    70.4790    24.3260   109.8640    96.8520   102.8630     2.1720 
  221.3750   -33.2560    67.5610    24.3150   121.9830    99.3920   105.5550     2.1710 
  221.5000   -33.3050    63.7200    24.3580   135.2350   100.4590   106.6870     2.1710 
  221.6250   -33.3870    62.7820    24.4600   141.3140    99.0980   105.2440     2.1650 
  221.7500   -33.4770    64.8830    24.5140   137.8610    95.7000   101.6420     2.1590 
  221.8750   -33.5470    68.7940    24.5140   126.8120    90.9650    96.6230     2.1600 
  222.0000   -33.5830    72.5130    24.4720   110.2650    85.9980    91.3570     2.1730 
  222.1250   -33.5880    72.8250    24.4340    91.1620    82.2900    87.4270     2.1960 
  222.2500   -33.5880    69.7750    24.4480    75.8910    80.4810    85.5090     2.2170 
  222.3750   -33.5930    66.1380    24.5010    67.4200    80.7250    85.7690     2.2180 
  222.5000   -33.6000    64.9140    24.4950    62.0690    82.7160    87.8790     2.1920 
  222.6250   -33.5900    66.8940    24.4610    57.2300    86.0150    91.3760     2.1620 
  222.7500   -33.5580    69.1180    24.4630    59.3360    89.8700    95.4620     2.1490 
  222.8750   -33.5100    69.1480    24.4010    71.3710    93.8970    99.7310     2.1530 
  223.0000   -33.4620    66.8530    24.2990    87.2200    97.7260   103.7900     2.1600 
  223.1250   -33.4310    65.0460    24.4140    97.9900   101.0210   107.2820     2.1660 
  223.2500   -33.4180    66.0110    24.5880   104.7760   103.7820   110.2090     2.1740 
  223.3750   -33.4120    69.1990    24.7060   111.5640   105.7990   112.3470     2.1840 
  223.5000   -33.3980    72.7870    24.7320   120.5360   106.5270   113.1190     2.1920 
  223.6250   -33.3640    74.1770    24.6760   128.1300   105.0300   111.5310     2.1980 
