~V
VERS. 2.00: Ver 2.00
~W
STRT.M 55.0000:
STOP.M 274.0000:
STEP.M 0.1250:
NULL. -999.2500:
UWI. DF5018:
~C
DEPT.M :
SP.MV :
GR.API :
CALI.CM :
RXO.OHMM :
RI. :
RML.OHMM :
DEN.GM/CC :
~A
# ...
  190.0000   -37.1160    67.6970    24.7430    77.7730    92.4130    94.3280     2.2650 
  190.1250   -36.9300    68.8900    24.7210    73.7300    91.8650    93.4340     2.2640 
  190.2500   -36.6960    70.5510    24.7110    72.5590    91.1970    92.4950     2.2530 
  190.3750   -36.4380    73.1520    24.7060    74.3350    89.3860    90.2690     2.2430 
  190.5000   -36.1770    74.1950    24.7050    76.9400    85.7470    85.1360     2.2480 
  190.6250   -35.8950    72.9000    24.7050    75.1840    78.4640    78.7150     2.2720 
  190.7500   -35.6920    74.1310    24.7050    64.7070    71.0400    71.9640     2.2970 
  190.8750   -35.5260    77.8260    24.7050    47.7530    65.4440    66.7120     2.3080 
  191.0000   -35.5000    78.6520    24.7050    33.8250    62.7440    64.1480     2.3060 
  191.1250   -35.4400    74.3860    24.7050    35.1850    63.0390    64.6140     2.2950 
  191.2500   -35.4720    71.9790    24.7050    48.1270    64.3520    66.2960     2.2810 
  191.3750   -35.5090    73.9610    24.7050    62.5550    64.9530    67.5290     2.2700 
  191.5000   -35.6100    77.2100    24.7040    67.3820    63.6950    67.0970     2.2670 
  191.6250   -35.7450    79.5260    24.7030    61.3550    60.5690    64.7300     2.2700 
  191.7500   -35.8840    80.0550    24.7050    52.2450    57.2790    61.8990     2.2740 
  191.8750   -36.0370    77.8910    24.7080    47.8170    54.7870    59.5430     2.2800 
  192.0000   -36.1160    74.4950    24.7070    49.9140    52.9990    57.6450     2.2950 
  192.1250   -36.3080    73.5860    24.7060    51.1350    50.8490    55.1820     2.3150 
  192.2500   -36.4790    76.4320    24.7050    48.7260    47.6320    51.5670     2.3320 
  192.3750   -36.7000    80.3260    24.7040    42.5790    43.6340    47.1840     2.3440 
  192.5000   -36.8910    82.9680    24.7020    35.3040    39.8790    43.1320     2.3510 
  192.6250   -37.1290    83.8670    24.7040    31.8310    37.8520    40.9290     2.3450 
  192.7500   -37.3420    84.7090    24.7050    33.5980    38.0300    41.0410     2.3290 
  192.8750   -37.5780    87.1120    24.7050    39.5060    40.6110    43.7350     2.3130 
  193.0000   -37.8360    90.9170    24.7060    47.0640    45.5790    49.0880     2.3080 
  193.1250   -38.0600    92.7640    24.7080    53.5690    52.9750    57.1620     2.3090 
  193.2500   -38.3300    89.6740    24.7110    58.6060    61.7150    66.6040     2.3070 
  193.3750   -38.5410    83.4450    24.7150    64.3790    70.8470    76.2210     2.3010 
  193.5000   -38.7570    77.1150    24.7160    70.7760    79.4540    84.9770     2.2970 
  193.6250   -38.8930    71.9580    24.7100    75.4400    86.5970    91.9000     2.2910 
  193.7500   -39.0960    69.2770    24.7040    78.7980    91.9380    96.8060     2.2830 
  193.8750   -39.2670    69.0180    24.7030    82.6180    95.1660    99.5120     2.2780 
  194.0000   -39.4830    69.3010    24.7090    85.4790    96.5650   100.4120     2.2860 
  194.1250   -39.7230    66.9740    24.7250    84.7450    97.6450   101.0040     2.3050 
  194.2500   -39.9680    66.1080    24.7430    78.6820   100.7260   103.6140     2.3130 
  194.3750   -40.3010    67.3190    24.7570    71.0410   107.8570   110.5470     2.2940 
  194.5000   -40.6420    66.8070    24.7650    72.6900   121.0460   124.2520     2.2540 
  194.6250   -41.0950    62.9560    24.7910   102.1930   143.5480   148.0560     2.2160 
  194.7500   -41.4500    58.5800    24.8420   148.2420   173.9390   179.2910     2.1950 
  194.8750   -41.8100    56.0680    24.8880   178.5260   207.4190   212.2820     2.1900 
  195.0000   -42.1060    55.3490    24.9060   181.6150   233.8120   238.0260     2.1970 
  195.1250   -42.4110    57.0140    24.9130   182.0320   240.0230   246.0700     2.2060 
  195.2500   -42.6980    59.5330    24.9370   187.5270   230.6820   239.7800     2.2110 
  195.3750   -42.9250    61.1230    24.9810   187.6980   215.0590   226.3270     2.2090 
  195.5000   -43.1250    60.9750    25.0110   185.8880   200.9710   213.1560     2.2060 
  195.6250   -43.2450    61.0170    25.0350   190.2460   193.6300   206.3490     2.2100 
  195.7500   -43.3990    63.4470    25.0430   183.8920   193.8960   207.5360     2.2170 
  195.8750   -43.4940    66.7490    25.0460   166.5710   202.2400   217.1100     2.2190 
  196.0000   -43.5640    67.5110    25.0460   169.4650   216.9730   232.6420     2.2070 
  196.1250   -43.4510    64.2650    25.0460   211.2260   231.5790   247.2260     2.1930 
  196.2500   -43.3170    60.8270    25.0460   278.5650   237.9480   254.0140     2.1920 
  196.3750   -43.1280    58.7800    25.0460   311.1050   234.1110   251.4500     2.2030 
  196.5000   -42.9180    58.6520    25.0460   265.4610   224.3320   242.8430     2.2120 
  196.6250   -42.5680    59.5240    25.0460   185.0650   214.7560   233.4480     2.2070 
  196.7500   -42.1490    59.6360    25.0460   152.3190   206.4410   224.9890     2.1980 
  196.8750   -41.6790    59.1900    25.0460   185.0300   194.8170   213.9620     2.1970 
  197.0000   -41.1300    59.3400    25.0460   237.6760   174.7090   195.5910     2.2060 
  197.1250   -40.6230    61.0370    25.0460   226.7700   146.6150   168.1690     2.2260 
  197.2500   -40.2840    62.9380    25.0460   167.1250   119.3830   138.7050     2.2520 
  197.3750   -39.7680    65.7270    25.0460   108.3100    98.1380   113.3120     2.2770 
  197.5000   -39.1420    68.1490    25.0460    78.1360    84.4520    95.7080     2.2930 
  197.6250   -38.4710    67.8630    25.0460    73.0640    78.9890    88.2210     2.2930 
  197.7500   -37.9280    66.7520    25.0460    77.4520    79.8040    88.7280     2.2850 
  197.8750   -37.3990    67.2060    25.0460    83.0130    86.8250    96.9060     2.2760 
  198.0000   -36.9760    68.4220    25.0460    91.5220   100.6990   113.2250     2.2650 
  198.1250   -36.5750    65.6780    25.0460   118.4740   124.0860   139.7970     2.2480 
  198.2500   -36.2810    61.7890    25.0460   175.2040   156.3010   173.9840     2.2290 
  198.3750   -35.9450    59.7910    25.0460   242.7800   195.2350   211.5220     2.2170 
  198.5000   -35.5610    59.6060    25.0460   285.7200   244.1590   235.7060     2.2120 
  198.6250   -35.1740    60.5910    25.0460   286.7790   265.3060   263.8180     2.2070 
  198.7500   -34.6460    62.1130    25.0460   260.5780   273.8140   277.5000     2.2020 
  198.8750   -34.1140    62.9150    25.0460   228.6810   273.1820   280.7020     2.2090 
  199.0000   -33.5110    60.8390    25.0460   217.4270   268.4310   279.6190     2.2380 
  199.1250   -32.9270    57.6110    25.0460   237.5950   261.4120   275.3540     2.2790 
  199.2500   -32.2180    56.7680    25.0460   239.8400   248.5390   260.5970     2.3050 
  199.3750   -31.5460    59.1740    25.0460   209.4010   224.5680   227.6840     2.3070 
  199.5000   -30.8270    63.8210    25.0460   176.5310   189.1510   181.5630     2.2920 
  199.6250   -30.0650    67.2170    25.0440   171.5520   149.8450   138.8540     2.2760 
  199.7500   -29.2500    67.5800    25.0400   138.4470   117.0390   108.1410     2.2780 
  199.8750   -28.3540    65.3880    25.0340    92.8550    94.9370    89.3560     2.3090 
  200.0000   -27.3930    61.8870    25.0170    68.5350    83.3010    80.0470     2.3750 
  200.1250   -26.3300    59.4670    24.9710    71.8770    80.0190    78.2480     2.4710 
  200.2500   -25.2340    59.8610    24.8870    92.9050    79.3470    79.2340     2.5760 
  200.3750   -24.0270    61.9240    24.7940   117.1750    76.1550    77.5250     2.6660 
  200.5000   -22.8610    63.2760    24.7090   121.1760    65.6500    67.1090     2.7140 
  200.6250   -21.6030    63.1900    24.6360    90.6160    48.0870    48.4210     2.7080 
  200.7500   -20.3930    63.4560    24.5530    53.8880    31.5160    31.1270     2.6770 
  200.8750   -19.2480    63.5810    24.5040    35.3100    22.6420    22.0530     2.6450 
  201.0000   -18.2060    63.5260    24.4790    25.5090    17.5350    16.8770     2.6260 
  201.1250   -17.3070    63.0130    24.4470    13.7870    11.3710    10.6760     2.6170 
