~V
VERS. 2.00: Ver 2.00
~W
STRT.M 55.0000:
STOP.M 270.0000:
STEP.M 0.1250:
NULL. -999.2500:
UWI. DF5017:
~C
DEPT.M :
SP.MV :
GR.API :
CALI.CM :
RXO.OHMM :
RI. :
RML.OHMM :
DEN.GM/CC :
~A
# ...
  100.0000   -27.1940    95.5820    24.8430     6.0670     4.9670     7.7320     2.2690 
  100.1250   -27.1020    96.7130    24.7640     6.0340     5.0580     7.8560     2.2720 
  100.2500   -27.0050    94.4100    24.7190     5.9920     5.0480     7.8780     2.2770 
  100.3750   -26.8710    91.7810    24.7210     6.0040     4.9460     7.8020     2.2820 
  100.5000   -26.7610    91.8480    24.7470     5.9530     4.7670     7.6250     2.2890 
  100.6250   -26.6980    93.8830    24.8100     5.8130     4.5040     7.2810     2.2980 
  100.7500   -26.6970    96.5670    24.8840     5.7470     4.1870     6.7920     2.3100 
  100.8750   -26.7230    99.1840    24.8810     5.7390     3.9010     6.2940     2.3350 
  101.0000   -26.7790    99.6120    24.8450     5.7020     3.7850     6.0380     2.3770 
  101.1250   -26.9830    95.2550    25.0500     5.7330     4.0570     6.3940     2.4390 
  101.2500   -27.3280    88.5180    25.1710     6.6820     4.7770     7.4730     2.5040 
  101.3750   -27.8420    81.5850    25.1900     9.9220     5.9710     9.3240     2.5430 
  101.5000   -28.4690    76.6040    25.1610    15.3280     7.4900    11.7050     2.5230 
  101.6250   -29.2400    75.9070    25.0980    18.8650     8.7580    13.5920     2.4270 
  101.7500   -30.0730    76.6020    24.9600    17.1680     9.1870    13.9640     2.3070 
  101.8750   -30.9510    75.5500    24.7570    12.9140     8.7300    12.8880     2.2080 
  102.0000   -31.8480    73.5740    24.5190     9.9660     7.8170    11.2830     2.1510 
  102.1250   -32.6690    74.0610    24.4170     9.1730     6.9590    10.0470     2.1430 
  102.2500   -33.4070    76.7020    24.3910     9.0160     6.3740     9.3690     2.1680 
  102.3750   -34.0260    79.2440    24.3930     8.8600     6.0650     9.1470     2.2030 
  102.5000   -34.5500    78.8570    24.3940     8.4850     5.9580     9.2050     2.2220 
  102.6250   -34.9150    75.6330    24.3770     8.3170     5.9900     9.4190     2.2130 
  102.7500   -35.1970    73.0390    24.3360     8.5940     6.0880     9.6970     2.1940 
  102.8750   -35.4380    73.5540    24.2930     9.0300     6.2230    10.0040     2.1830 
  103.0000   -35.6300    76.6800    24.2730     9.2540     6.3760    10.2920     2.1810 
  103.1250   -35.7730    81.2560    24.2690     9.2690     6.5330    10.5010     2.1810 
  103.2500   -35.8710    84.8840    24.2660     9.3210     6.6890    10.6460     2.1800 
  103.3750   -35.9370    84.9530    24.2650     9.4680     6.8460    10.7770     2.1790 
  103.5000   -35.9600    81.1580    24.2650     9.6840     7.0060    10.9490     2.1810 
  103.6250   -35.9290    76.2470    24.2650     9.8920     7.1500    11.1690     2.1840 
  103.7500   -35.8830    74.2260    24.2650     9.9920     7.2380    11.3420     2.1850 
  103.8750   -35.8150    73.6960    24.2660     9.9880     7.2360    11.3760     2.1850 
  104.0000   -35.7340    71.3980    24.2690     9.9100     7.1380    11.2350     2.1840 
  104.1250   -35.6410    70.1670    24.2640     9.7160     6.9710    10.9700     2.1840 
  104.2500   -35.5140    72.0410    24.2350     9.3850     6.8110    10.7170     2.1850 
  104.3750   -35.4240    74.3730    24.1940     8.9840     6.7140    10.5710     2.1830 
  104.5000   -35.3680    73.3810    24.1650     8.7250     6.7100    10.5750     2.1710 
  104.6250   -35.3250    70.2780    24.1510     8.8750     6.8040    10.7220     2.1510 
  104.7500   -35.2700    69.2110    24.1520     9.2650     6.9350    10.8990     2.1360 
  104.8750   -35.1830    70.5190    24.1610     9.6780     7.0500    10.9990     2.1310 
  105.0000   -35.0320    72.9060    24.1670    10.0240     7.0910    10.9360     2.1310 
  105.1250   -34.8040    73.6760    24.1880    10.1400     7.0040    10.6480     2.1340 
  105.2500   -34.5930    72.8690    24.1990     9.9080     6.8130    10.2290     2.1480 
  105.3750   -34.3140    73.4870    24.2020     9.3300     6.5590     9.7730     2.1760 
  105.5000   -33.9770    77.4940    24.1970     8.6830     6.2930     9.3600     2.2080 
  105.6250   -33.6230    81.1280    24.1840     8.2980     6.0650     9.0550     2.2220 
  105.7500   -33.2420    80.9730    24.1780     8.0880     5.8930     8.8500     2.2230 
  105.8750   -32.8470    80.1520    24.1810     7.9630     5.7720     8.7320     2.2240 
  106.0000   -32.4400    82.2300    24.2030     7.8400     5.6870     8.6700     2.2320 
  106.1250   -32.0200    86.0270    24.2490     7.6900     5.6170     8.6120     2.2380 
  106.2500   -31.5400    88.6220    24.3020     7.5580     5.5490     8.5150     2.2340 
  106.3750   -31.0510    91.8970    24.3300     7.4540     5.4810     8.3700     2.2240 
  106.5000   -30.5370    95.3590    24.3370     7.3460     5.4190     8.1980     2.2200 
  106.6250   -29.9940    93.9010    24.3370     7.1320     5.3770     8.0470     2.2240 
  106.7500   -29.4480    88.9240    24.3300     6.9250     5.3650     7.9450     2.2270 
  106.8750   -28.9110    85.3180    24.3070     6.9130     5.3770     7.8810     2.2230 
  107.0000   -28.4020    85.3190    24.2640     7.1260     5.3890     7.8080     2.2140 
  107.1250   -27.9410    88.0610    24.1770     7.4900     5.3740     7.6820     2.2150 
  107.2500   -27.4900    90.5600    24.0640     7.6780     5.3470     7.5450     2.2310 
  107.3750   -27.0430    91.8000    23.9670     7.4850     5.3440     7.4780     2.2510 
  107.5000   -26.5900    90.7140    23.9520     7.0090     5.3960     7.5540     2.2520 
  107.6250   -26.1580    88.8450    24.0640     6.7070     5.4990     7.8010     2.2270 
  107.7500   -25.7510    89.1100    24.2730     6.9390     5.5570     8.0560     2.2050 
  107.8750   -25.3670    90.9130    24.4560     7.2230     5.4440     8.0730     2.2100 
  108.0000   -25.0160    93.2200    24.5550     7.0780     5.0770     7.6360     2.2420 
  108.1250   -24.6840    96.8400    24.6250     6.2470     4.4740     6.7300     2.2800 
  108.2500   -24.4370   102.2960    24.7360     5.3280     3.8480     5.7560     2.3040 
  108.3750   -24.2950   105.1040    24.8860     4.7110     3.3590     5.0140     2.3110 
  108.5000   -24.3020   100.9630    25.0240     4.5840     3.1170     4.6750     2.3100 
  108.6250   -24.4610    91.0570    25.0900     5.3040     3.2540     4.9070     2.3220 
  108.7500   -24.6990    81.4110    24.9360     7.0370     3.8040     5.7000     2.3660 
  108.8750   -25.0190    74.0510    24.6810    10.0050     4.8930     7.1730     2.4390 
  109.0000   -25.4130    69.3830    24.5300    14.0590     6.6850     9.5000     2.5180 
  109.1250   -25.9420    69.8970    24.5150    19.0680     9.4320    12.9850     2.5830 
  109.2500   -26.5320    72.5150    24.5850    24.9580    12.7440    17.1760     2.6280 
  109.3750   -27.1680    74.4290    24.7040    31.2900    15.7420    20.9510     2.6420 
  109.5000   -27.8400    74.7770    24.7680    35.3290    17.1480    22.5560     2.6030 
  109.6250   -28.5820    74.9020    24.7520    34.0530    16.0650    20.7440     2.5060 
  109.7500   -29.4140    75.0540    24.7850    29.3090    13.7980    17.4580     2.3960 
  109.8750   -30.3110    73.6330    24.7700    23.5640    11.4410    14.3080     2.3060 
  110.0000   -31.2380    71.5820    24.7030    17.8760     9.5750    12.0530     2.2470 
  110.1250   -32.1120    72.3860    24.5740    13.5780     8.4320    10.9240     2.2180 
  110.2500   -32.9340    73.5090    24.4620    11.5100     7.8150    10.5290     2.2040 
  110.3750   -33.6600    70.8240    24.3750    10.9870     7.5800    10.5870     2.1910 
  110.5000   -34.2700    64.8040    24.2950    10.9510     7.5660    10.8090     2.1740 
  110.6250   -34.6910    63.5760    24.2300    10.8720     7.6150    10.9410     2.1590 
  110.7500   -34.9230    68.0330    24.2010    10.6730     7.6090    10.9210     2.1580 
  110.8750   -35.0310    72.1970    24.1960    10.4750     7.5260    10.8010     2.1670 
  111.0000   -35.0570    72.7700    24.1970    10.4190     7.3850    10.6450     2.1720 
  111.1250   -35.0610    73.0220    24.1530    10.4600     7.2090    10.4720     2.1620 
