~V
VERS. 2.00: Ver 2.00
~W
STRT.M 55.0000:
STOP.M 278.0000:
STEP.M 0.1250:
NULL. -999.2500:
UWI. DF5019:
~C
DEPT.M :
DEN.GM/CC :
GR.API :
CALI.CM :
RXO.OHMM :
RI. :
RML.OHMM :
SP.MV :
~A
# ...
  122.5000     2.1480    78.0000    24.1270     8.9060     8.0440    10.8750   -21.0330 
  122.6250     2.1550    79.3250    23.9190     8.7020     7.8550    10.5240   -20.9640 
  122.7500     2.1680    83.9630    23.6790     8.5070     7.4520     9.9110   -20.7640 
  122.8750     2.1920    90.9730    23.4400     8.1040     6.8710     9.0870   -20.3860 
  123.0000     2.2250    98.8320    23.2850     7.4290     6.2080     8.1840   -20.0020 
  123.1250     2.2510   105.0700    23.2140     6.7790     5.6240     7.4130   -19.5630 
  123.2500     2.2610   105.9640    23.1430     6.2750     5.2300     6.9100   -19.1630 
  123.3750     2.2560   101.2000    23.1630     6.0680     5.0780     6.7400   -18.7910 
  123.5000     2.2450    95.5900    23.3010     6.2500     5.1680     6.8910   -18.4890 
  123.6250     2.2330    91.9090    23.6200     6.6080     5.4620     7.2870   -18.1860 
  123.7500     2.2250    90.1670    23.8140     6.9340     5.7980     7.6930   -17.8390 
  123.8750     2.2200    90.9680    23.9330     7.1640     6.0350     7.9120   -17.4750 
  124.0000     2.2250    95.3370    23.8880     7.0470     6.0720     7.8320   -17.0560 
  124.1250     2.2480   101.8250    23.8560     6.4720     5.8790     7.4690   -16.6260 
  124.2500     2.2770   106.8810    23.8300     5.9120     5.5880     7.0390   -16.1530 
  124.3750     2.3000   109.8950    23.9140     5.6240     5.2890     6.6670   -15.6750 
  124.5000     2.3130   110.5230    24.0850     5.5290     5.0250     6.4020   -15.2200 
  124.6250     2.3250   108.0020    24.4090     5.4690     4.7900     6.2310   -14.8950 
  124.7500     2.3390   104.6040    24.6750     5.3300     4.5460     6.0620   -14.6950 
  124.8750     2.3500   102.7410    24.9300     5.1590     4.2730     5.8220   -14.6230 
  125.0000     2.3560   102.2010    24.8930     5.0150     3.9780     5.4760   -14.6520 
  125.1250     2.3570   100.0970    24.8290     4.8550     3.7180     5.0820   -14.8430 
  125.2500     2.3590    96.8990    24.7920     4.7490     3.5710     4.7960   -15.1280 
  125.3750     2.3650    92.5030    24.8020     4.7890     3.6300     4.7910   -15.4820 
  125.5000     2.3810    86.0970    24.8140     5.2240     4.0310     5.2580   -15.8480 
  125.6250     2.4210    79.4520    24.7630     7.1140     5.1080     6.5910   -16.3110 
  125.7500     2.4920    74.1950    24.7710    11.5890     7.0880     9.0170   -16.7630 
  125.8750     2.5780    70.0600    24.7170    19.1530    10.2350    12.8460   -17.2460 
  126.0000     2.6330    66.8580    24.6920    28.9780    14.4580    17.9850   -17.7140 
  126.1250     2.6090    66.8780    24.7260    36.6680    18.3830    22.6310   -18.2330 
  126.2500     2.5400    67.8010    24.7600    37.5290    20.0000    24.1020   -18.7910 
  126.3750     2.4630    67.0810    24.7490    31.2150    19.0060    22.2370   -19.3670 
  126.5000     2.3840    66.8980    24.6230    22.2850    16.7140    19.0880   -19.9590 
  126.6250     2.3010    69.0680    24.3860    15.7220    14.4970    16.5110   -20.4620 
  126.7500     2.2370    70.4850    24.0840    12.0130    12.8340    14.8630   -20.9930 
  126.8750     2.2060    69.6240    23.8630    10.5740    11.7170    13.9680   -21.4140 
  127.0000     2.1990    68.3180    23.6530    10.2770    11.0020    13.5140   -21.7950 
  127.1250     2.1900    67.6310    23.5730    10.2130    10.5330    13.1860   -22.0260 
  127.2500     2.1750    66.6530    23.5790    10.0780    10.1420    12.8050   -22.1890 
  127.3750     2.1570    67.0180    23.6880     9.8180     9.8030    12.4070   -22.2830 
  127.5000     2.1390    69.4190    23.7880     9.5370     9.5570    12.1040   -22.3200 
  127.6250     2.1310    71.6140    23.8380     9.4250     9.4900    12.0240   -22.3000 
  127.7500     2.1390    71.4400    23.8460     9.6100     9.5690    12.1130   -22.2740 
  127.8750     2.1600    70.5440    23.9010    10.0020     9.7200    12.2720   -22.2890 
  128.0000     2.1760    70.3520    24.1450    10.3500     9.8660    12.4180   -22.3500 
  128.1250     2.1810    70.8480    24.2990    10.4870     9.9710    12.5160   -22.3870 
  128.2500     2.1870    72.7220    24.5080    10.6230    10.0650    12.5990   -22.4080 
  128.3750     2.2000    76.2100    24.5510    10.8000    10.1690    12.6930   -22.4250 
  128.5000     2.2110    79.8960    24.5350    10.8550    10.2630    12.7800   -22.3810 
  128.6250     2.2070    80.6460    24.4640    10.6230    10.2420    12.7310   -22.3320 
  128.7500     2.1970    79.4750    24.3830    10.5710    10.0330    12.4510   -22.1770 
  128.8750     2.1980    78.4860    24.2870    10.6340     9.6320    11.9320   -22.0530 
  129.0000     2.2100    77.6490    24.2510    10.4130     9.1130    11.2710   -21.8810 
  129.1250     2.2140    76.8220    24.1540     9.4570     8.6020    10.6490   -21.7250 
  129.2500     2.1960    75.3590    24.1060     8.2820     8.2000    10.2160   -21.5600 
  129.3750     2.1680    74.9720    24.0470     7.8260     7.9590    10.0350   -21.4320 
  129.5000     2.1530    75.6490    24.0140     8.1610     7.8840    10.0950   -21.3930 
  129.6250     2.1670    76.5330    24.0130     8.5090     7.9510    10.3250   -21.3240 
  129.7500     2.1860    76.1400    24.0090     8.4550     8.0550    10.5590   -21.3590 
  129.8750     2.1930    75.1310    23.9910     8.6230     8.1200    10.6800   -21.3440 
  130.0000     2.1870    75.5690    23.9710     9.0570     8.1050    10.6410   -21.3130 
  130.1250     2.1810    77.4380    24.0900     9.0690     8.0270    10.4810   -21.2810 
  130.2500     2.1760    77.5050    24.1780     8.8210     7.9560    10.3240   -21.2070 
  130.3750     2.1690    75.7410    24.1740     8.5540     7.9420    10.2460   -21.1410 
  130.5000     2.1670    73.9480    24.0560     8.6790     8.0230    10.3040   -21.0390 
  130.6250     2.1770    73.4330    23.9460     9.1660     8.2300    10.5410   -21.0110 
  130.7500     2.1880    73.3070    23.8630     9.7310     8.5150    10.8900   -20.9380 
  130.8750     2.1840    72.9760    23.8390    10.0690     8.8130    11.2720   -20.9290 
  131.0000     2.1610    72.2780    23.8400    10.1900     9.0530    11.5890   -20.9110 
  131.1250     2.1450    70.3260    23.9500     9.9940     9.1130    11.6700   -20.8800 
  131.2500     2.1530    69.3300    24.1180     9.5780     8.9260    11.4030   -20.8470 
  131.3750     2.1730    70.8820    24.1330     9.1090     8.4530    10.7340   -20.7670 
  131.5000     2.1880    75.5530    24.0600     8.6450     7.7450     9.7580   -20.6420 
  131.6250     2.1990    81.5980    24.1400     7.8840     6.9550     8.7200   -20.4210 
  131.7500     2.2120    85.8740    24.3890     6.8240     6.2780     7.8790   -20.2520 
  131.8750     2.2150    87.6020    24.6430     6.0430     5.8190     7.3630   -20.0460 
  132.0000     2.1980    87.2020    24.6860     6.1140     5.6150     7.2030   -19.9290 
  132.1250     2.1740    85.8560    24.5520     6.8080     5.6660     7.3790   -19.8940 
  132.2500     2.1690    84.6330    24.2570     7.3890     5.8510     7.6960   -19.9740 
  132.3750     2.1830    84.6910    24.1290     7.5480     6.0760     7.9950   -20.0780 
  132.5000     2.1990    86.0640    24.1140     7.5050     6.2570     8.1560   -20.1850 
  132.6250     2.2100    84.7940    24.1480     7.4800     6.3360     8.1380   -20.4440 
  132.7500     2.2180    81.5390    24.2140     7.3750     6.3520     8.0580   -20.6520 
  132.8750     2.2230    79.7350    24.3100     7.2560     6.3620     8.0130   -20.8640 
  133.0000     2.2190    79.9310    24.3980     7.3110     6.4130     8.0550   -21.0750 
  133.1250     2.2030    78.7950    24.2690     7.4990     6.5370     8.2020   -21.2260 
  133.2500     2.1830    76.2210    24.0670     7.8450     6.7210     8.4160   -21.2980 
  133.3750     2.1640    74.8050    24.0160     8.2300     6.9520     8.6660   -21.2970 
  133.5000     2.1520    74.8250    24.0240     8.5700     7.2050     8.9070   -21.3740 
  133.6250     2.1490    74.0260    23.9850     8.8050     7.4460     9.0970   -21.4110 
