~V
VERS. 2.00: Ver 2.00
~W
STRT.M 61.0000:
STOP.M 247.0000:
STEP.M 0.1250:
NULL. -999.2500:
UWI. DF5042:
~C
DEPT.M :
SP.MV :
GR.API :
CALI.CM :
RXO.OHMM :
RI. :
RML.OHMM :
DEN.GM/CC :
~A
# ...
  218.5000   -13.0740   123.5180    25.5140     7.4880     8.0560     8.3790     2.3350 
  218.6250   -13.2250   121.6600    25.5140     7.2910     7.8230     8.4650     2.3300 
  218.7500   -13.3760   119.2400    25.5200     7.1220     7.7640     8.7690     2.3210 
  218.8750   -13.5300   117.8050    25.4910     7.1130     7.9900     9.4410     2.3110 
  219.0000   -13.6750   114.5010    25.3670     7.4220     8.5940    10.5960     2.3030 
  219.1250   -13.7980   109.1550    25.1700     9.2870     9.7020    12.3440     2.2980 
  219.2500   -13.8900   105.0690    25.0190    11.9760    11.2040    14.4720     2.2930 
  219.3750   -13.9690   102.7690    24.9530    14.3740    12.9670    16.7640     2.2860 
  219.5000   -14.0220    98.8420    24.9300    15.7790    14.7940    18.9820     2.2770 
  219.6250   -14.0730    94.7240    24.9150    16.1430    16.4620    20.9310     2.2660 
  219.7500   -14.0910    91.7320    24.9110    16.7770    17.9250    22.6470     2.2550 
  219.8750   -14.0850    87.5950    24.9120    18.5790    19.2200    24.1850     2.2490 
  220.0000   -14.0770    82.3140    24.9120    21.1610    20.3770    25.5330     2.2470 
  220.1250   -14.0790    80.5910    24.9120    21.7630    21.3030    26.5240     2.2490 
  220.2500   -14.0940    83.1010    24.9120    20.6270    21.9390    27.1040     2.2520 
  220.3750   -14.1090    85.6620    24.9120    19.2530    22.2550    27.2730     2.2520 
  220.5000   -14.0930    86.3530    24.9120    19.0630    22.2820    27.1080     2.2480 
  220.6250   -14.0270    86.0820    24.9120    18.7500    22.0870    26.6940     2.2410 
  220.7500   -13.9290    85.4720    24.9120    18.2050    21.8110    26.1640     2.2340 
  220.8750   -13.8100    84.2800    24.9120    17.9080    21.5320    25.5640     2.2280 
  221.0000   -13.6760    84.0810    24.9120    17.7800    21.2740    24.8890     2.2240 
  221.1250   -13.5510    85.6050    24.9120    17.0990    20.9700    24.0520     2.2230 
  221.2500   -13.4400    86.3820    24.9120    16.9150    20.5280    23.0190     2.2220 
  221.3750   -13.3830    84.7840    24.9120    17.2090    19.9050    21.8160     2.2220 
  221.5000   -13.3830    85.0830    24.9120    16.9360    19.1330    20.5540     2.2270 
  221.6250   -13.4630    91.8370    24.9120    15.4310    18.3000    19.3830     2.2410 
  221.7500   -13.5830    99.7320    24.9120    13.9000    17.4620    18.3080     2.2660 
  221.8750   -13.7250   102.8850    24.9120    13.7900    16.5310    17.1920     2.3030 
  222.0000   -13.8470   101.4430    24.9120    14.0840    15.3540    15.8440     2.3450 
  222.1250   -13.9320    99.1880    24.9120    12.8760    13.7980    14.1340     2.3830 
  222.2500   -13.9630    97.8840    24.9120    11.1670    12.0540    12.2650     2.4070 
  222.3750   -13.8840    99.0810    24.9120     9.1430    10.3700    10.5220     2.4100 
  222.5000   -13.7540   103.5330    24.9120     7.1060     8.9980     9.1980     2.3980 
  222.6250   -13.5970   107.5230    24.9110     6.1420     8.2280     8.6400     2.3780 
  222.7500   -13.4760   106.2810    24.9080     6.0850     8.1090     8.9070     2.3550 
  222.8750   -13.3770   101.1590    24.9060     6.4750     8.7700    10.1690     2.3290 
  223.0000   -13.3270    96.6800    24.9040     7.2310    10.3900    12.6090     2.3010 
  223.1250   -13.2980    93.9160    24.9040     9.7360    13.3790    16.4720     2.2750 
  223.2500   -13.2870    89.2450    24.9050    13.5080    17.5090    21.1270     2.2580 
  223.3750   -13.2980    82.1430    24.9040    20.1430    22.1760    25.6280     2.2540 
  223.5000   -13.3670    76.5770    24.9040    25.3900    26.1310    28.7690     2.2550 
  223.6250   -13.4350    76.1530    24.9140    24.8950    27.7690    29.4900     2.2540 
  223.7500   -13.4950    77.7960    24.9340    20.2350    27.5360    28.7450     2.2440 
  223.8750   -13.5910    78.4110    24.9520    18.6030    26.5020    27.7210     2.2270 
  224.0000   -13.7190    77.7590    24.9590    18.5990    25.6620    27.3530     2.2130 
  224.1250   -13.8840    77.0830    24.9590    18.6780    25.6760    28.1740     2.2080 
  224.2500   -14.0890    77.6360    24.9580    19.3670    26.4670    29.8770     2.2140 
  224.3750   -14.3650    78.3830    24.9580    20.7450    27.8940    32.2350     2.2240 
  224.5000   -14.6610    77.5750    24.9580    22.6170    29.8910    35.1940     2.2310 
  224.6250   -14.9940    74.7900    24.9580    24.0170    32.8090    39.2300     2.2320 
  224.7500   -15.3450    72.1330    24.9580    25.1990    37.0440    44.8060     2.2280 
  224.8750   -15.7320    72.4590    24.9610    27.2440    43.2260    52.5050     2.2210 
  225.0000   -16.2080    74.9780    24.9620    33.0170    51.8760    62.6550     2.2180 
  225.1250   -16.7020    74.8070    24.9260    41.7550    63.1380    75.0200     2.2220 
  225.2500   -17.1680    70.2740    24.8890    49.8440    74.9480    87.2290     2.2310 
  225.3750   -17.5620    64.6570    24.9060    56.5720    84.7060    96.3900     2.2390 
  225.5000   -18.0240    62.7820    24.9700    62.8370    89.9860   100.0510     2.2410 
  225.6250   -18.4130    63.8730    25.0220    63.1950    89.1240    97.0260     2.2370 
  225.7500   -18.8060    64.3450    25.0550    67.9400    84.3180    90.3000     2.2310 
  225.8750   -19.1840    64.0150    25.0970    71.7240    77.3980    81.9700     2.2310 
  226.0000   -19.4190    64.6930    25.1420    65.5520    69.8670    73.5400     2.2350 
  226.1250   -19.6330    66.8790    25.1720    49.1990    63.0160    66.2960     2.2420 
  226.2500   -19.8050    68.4710    25.1930    39.3400    57.5980    60.8320     2.2460 
  226.3750   -20.0140    68.3360    25.2050    36.7590    54.0640    57.4890     2.2450 
  226.5000   -20.1740    67.5600    25.2050    38.5110    52.5590    56.2940     2.2430 
  226.6250   -20.2920    67.3030    25.2000    41.5820    53.2000    57.2110     2.2400 
  226.7500   -20.4140    67.5910    25.1950    44.2040    55.1590    59.2820     2.2370 
  226.8750   -20.4230    66.7200    25.1920    46.5360    57.7430    61.7500     2.2310 
  227.0000   -20.4010    64.4000    25.1900    49.4970    60.1780    63.8470     2.2230 
  227.1250   -20.2430    64.4400    25.1900    51.1300    61.6160    64.7930     2.2170 
  227.2500   -20.0930    67.2120    25.1900    51.2070    61.8830    64.5710     2.2150 
  227.3750   -19.9100    68.2860    25.1900    50.2680    61.0640    63.3840     2.2170 
  227.5000   -19.5730    64.7650    25.1900    49.1780    59.4720    61.6190     2.2210 
  227.6250   -19.2790    60.6440    25.1910    48.2370    57.5200    59.7400     2.2260 
  227.7500   -18.8840    61.2160    25.1920    47.0650    55.6880    58.1230     2.2310 
  227.8750   -18.5870    65.1200    25.1920    44.7740    54.2020    56.8750     2.2360 
  228.0000   -18.1920    67.2840    25.1900    42.7080    53.0700    55.8730     2.2400 
  228.1250   -17.8610    65.4900    25.1890    43.8070    52.0350    54.7320     2.2410 
  228.2500   -17.5210    66.0700    25.1890    46.2070    50.7240    53.1260     2.2390 
  228.3750   -17.1780    71.7400    25.1960    45.8530    48.9770    51.0020     2.2360 
  228.5000   -16.8770    77.0870    25.2160    43.5270    46.9350    48.6290     2.2310 
  228.6250   -16.5980    75.6310    25.2360    39.5740    45.0620    46.5490     2.2250 
  228.7500   -16.2690    72.9740    25.2350    36.0310    43.6210    44.9180     2.2210 
  228.8750   -15.8660    69.8760    25.2120    34.5080    42.3420    43.3310     2.2240 
  229.0000   -15.6450    66.0930    25.1900    37.4080    40.4770    40.9850     2.2370 
  229.1250   -15.3840    65.6270    25.2140    43.3900    36.9880    36.9530     2.2570 
  229.2500   -15.1190    70.3300    25.2740    42.4010    32.1970    31.7280     2.2770 
  229.3750   -14.7500    75.5950    25.3560    31.4990    27.0140    26.2870     2.2860 
  229.5000   -14.4570    76.5520    25.4500    19.4740    22.4510    21.6490     2.2810 
  229.6250   -14.0820    74.6100    25.5330    14.8960    19.3220    18.6380     2.2660 
