~V
VERS. 2.00: Ver 2.00
~W
STRT.M 60.0000:
STOP.M 273.0000:
STEP.M 0.1250:
NULL. -999.2500:
UWI. DF5003:
~C
DEPT.M :
GR.API :
CALI.CM :
RXO.OHMM :
RI. :
RML.OHMM :
DEN.GM/CC :
SP.MV :
~A
# ...
  240.0000    71.0190    23.9530    74.2000    63.7080    72.5430     2.2160   -26.8220 
  240.1250    70.8720    23.9500    70.6940    59.0040    66.3260     2.2150   -26.9790 
  240.2500    69.5470    23.9490    64.2550    54.4440    60.4950     2.2170   -27.0780 
  240.3750    70.9290    23.9470    60.5150    50.1980    55.2430     2.2220   -27.2460 
  240.5000    74.8550    23.9470    58.7830    46.5020    50.8200     2.2280   -27.3830 
  240.6250    76.7820    23.9480    50.3030    43.7830    47.6710     2.2330   -27.6740 
  240.7500    76.0390    23.9480    45.9320    42.0810    45.7070     2.2350   -27.9290 
  240.8750    74.0020    23.9450    49.5940    41.3980    44.8420     2.2350   -28.2250 
  241.0000    72.0210    23.9400    50.7010    41.6510    44.9470     2.2360   -28.4690 
  241.1250    71.6870    23.9380    44.4530    42.8550    46.0190     2.2400   -28.7630 
  241.2500    73.2890    23.9370    43.2160    44.7290    47.7520     2.2470   -29.0330 
  241.3750    73.7670    23.9370    47.6560    47.1330    49.9670     2.2540   -29.3070 
  241.5000    69.6850    23.9340    53.2000    49.8960    52.4280     2.2590   -29.5850 
  241.6250    64.5630    23.9330    57.2170    52.6140    54.6090     2.2590   -29.7710 
  241.7500    64.5250    23.9340    59.4190    54.5810    55.7990     2.2570   -30.0030 
  241.8750    67.4210    23.9230    62.0750    55.0510    55.2980     2.2560   -30.1980 
  242.0000    68.3130    23.8720    64.9960    53.3990    52.6200     2.2580   -30.3600 
  242.1250    69.6110    23.7930    60.6800    49.1140    47.5020     2.2660   -30.3870 
  242.2500    73.3320    23.7510    49.4230    43.3870    41.2550     2.2780   -30.4450 
  242.3750    76.1980    23.7570    40.0880    37.4940    35.1410     2.2870   -30.4620 
  242.5000    77.8790    23.7680    32.9280    32.5040    30.1610     2.2910   -30.5550 
  242.6250    81.5520    23.7540    25.9210    29.1160    26.9400     2.2870   -30.5690 
  242.7500    86.0390    23.7410    22.0400    26.9380    24.9600     2.2820   -30.6220 
  242.8750    88.3370    23.7400    23.2020    25.5510    23.7190     2.2830   -30.6710 
  243.0000    89.6190    23.7380    25.6990    24.5680    22.8000     2.2950   -30.8660 
  243.1250    90.8070    23.7350    24.1610    23.9240    22.1900     2.3180   -31.0320 
  243.2500    90.1040    23.7320    20.4070    23.8750    22.2790     2.3410   -31.2470 
  243.3750    88.5510    23.7320    18.1500    24.9560    23.7220     2.3560   -31.4990 
  243.5000    88.6470    23.7360    21.8000    27.8300    27.2090     2.3550   -31.6410 
  243.6250    89.9040    23.7420    31.9750    33.6090    33.6270     2.3420   -31.9180 
  243.7500    88.8900    23.7400    56.3960    41.8610    42.1150     2.3290   -32.1070 
  243.8750    86.3720    23.7200    85.2320    51.0370    50.8520     2.3200   -32.3470 
  244.0000    82.3380    23.6830    92.2070    58.1060    56.9200     2.3150   -32.4890 
  244.1250    78.1620    23.6300    78.0760    59.6480    57.4650     2.3130   -32.7540 
  244.2500    76.7260    23.5430    55.4940    57.3740    54.7240     2.3110   -32.8550 
  244.3750    78.4310    23.4320    41.0850    54.1650    51.7080     2.3130   -32.9190 
  244.5000    80.9180    23.3490    37.0680    52.4750    50.7200     2.3230   -33.0740 
  244.6250    83.8390    23.3780    43.8800    54.0210    53.2070     2.3420   -33.0890 
  244.7500    88.0310    23.4930    72.7690    58.2540    58.3210     2.3620   -33.1350 
  244.8750    91.9630    23.6130   100.3980    64.1890    64.9230     2.3760   -33.1490 
  245.0000    92.9770    23.6840   100.9250    70.2400    71.3350     2.3770   -33.1660 
  245.1250    92.5260    23.7070    98.4980    74.3280    75.4050     2.3710   -33.1310 
  245.2500    91.9030    23.7040    91.0230    76.0150    76.8720     2.3690   -33.2050 
  245.3750    89.1750    23.6390    81.8580    76.0800    76.7490     2.3740   -33.2570 
  245.5000    86.0610    23.5200    73.9330    76.0850    76.7870     2.3870   -33.2570 
  245.6250    84.9420    23.4860    63.7360    77.9940    79.0020     2.4030   -33.2980 
  245.7500    83.0620    23.5800    61.1360    82.4010    83.8700     2.4160   -33.3300 
  245.8750    80.1570    23.7020    66.2460    89.1240    91.1400     2.4250   -33.3440 
  246.0000    77.6960    23.7570   100.8740    97.1080    99.6340     2.4370   -33.3490 
  246.1250    76.4160    23.7520   125.2430   104.0890   106.7930     2.4500   -33.3730 
  246.2500    74.3660    23.7490   127.4120   107.9890   110.4070     2.4610   -33.3700 
  246.3750    73.7000    23.7490   108.4280   107.7750   109.5770     2.4600   -33.3990 
  246.5000    75.9580    23.7490    86.7540   103.8890   105.1250     2.4480   -33.3670 
  246.6250    78.6420    23.7490    75.8860    98.3290    99.5070     2.4300   -33.4390 
  246.7500    80.4740    23.7490    71.6480    94.3230    95.9530     2.4180   -33.5260 
  246.8750    81.2050    23.7500    71.0480    94.2580    96.6380     2.4160   -33.5810 
  247.0000    80.7930    23.7470    71.3030    99.5190   102.6770     2.4230   -33.6230 
  247.1250    79.7500    23.7540    82.8650   108.9650   112.6210     2.4310   -33.6190 
  247.2500    79.0870    23.7950   126.7460   115.1420   118.2280     2.4240   -33.6660 
  247.3750    78.2350    23.8670   253.9670   109.7670   110.2580     2.3990   -33.7090 
  247.5000    76.7290    23.9300   359.7430    90.2420    87.4470     2.3670   -33.8310 
  247.6250    76.4140    23.9510   283.4970    64.3760    60.6680     2.3460   -33.8440 
  247.7500    78.6180    23.9510   119.2160    43.1920    40.1220     2.3360   -33.8400 
  247.8750    82.9820    23.9530    33.9850    29.3040    26.9700     2.3330   -33.8440 
  248.0000    87.2540    23.9560    14.0340    21.3370    19.3790     2.3330   -33.8670 
  248.1250    88.1710    23.9510    12.6820    17.4250    15.6570     2.3300   -33.8860 
  248.2500    87.0990    23.9310    11.7330    15.4170    13.8280     2.3270   -33.8790 
  248.3750    86.3430    23.9030    11.0530    14.6230    13.1780     2.3260   -33.8460 
  248.5000    86.7560    23.8810    11.2880    14.5760    13.1920     2.3250   -33.8000 
  248.6250    89.2380    23.8760    13.0700    14.8640    13.4350     2.3190   -33.6670 
  248.7500    93.4400    23.8770    15.0070    15.0410    13.5190     2.3070   -33.5290 
  248.8750    97.0120    23.8720    15.1610    14.8980    13.2880     2.2950   -33.4040 
  249.0000    94.4930    23.8610    14.2100    14.4260    12.7720     2.2850   -33.2330 
  249.1250    86.1330    23.8480    12.8960    13.8120    12.2030     2.2850   -33.1020 
  249.2500    81.8100    23.8450    11.7380    13.3240    11.8390     2.2950   -32.9220 
  249.3750    83.2250    23.8490    10.9770    13.0580    11.7550     2.3120   -32.7600 
  249.5000    84.8300    23.8490    11.8540    12.9660    11.8620     2.3270   -32.5440 
  249.6250    86.1220    23.8450    12.6800    12.8900    11.9600     2.3310   -32.4440 
  249.7500    89.5970    23.8540    13.6230    12.7020    11.9110     2.3270   -32.3330 
  249.8750    93.4890    23.8750    13.9290    12.4070    11.7330     2.3210   -32.1990 
  250.0000    95.1080    23.8980    12.9020    12.0990    11.5400     2.3170   -32.0680 
  250.1250    96.6860    23.9040    12.0000    11.9430    11.5180     2.3180   -31.9460 
  250.2500    98.1980    23.8850    12.5040    12.0250    11.7450     2.3260   -31.7840 
  250.3750    96.7700    23.8470    14.8640    12.3580    12.2080     2.3390   -31.6270 
  250.5000    92.9330    23.8110    18.5470    12.8660    12.8030     2.3550   -31.4880 
  250.6250    91.2590    23.7790    18.8200    13.3650    13.3060     2.3620   -31.2850 
  250.7500    93.2930    23.7180    20.7150    13.6100    13.4840     2.3540   -31.0610 
  250.8750    96.7140    23.6350    24.3480    13.4180    13.1820     2.3310   -30.8140 
  251.0000    98.5080    23.5710    24.5490    12.7480    12.4020     2.3050   -30.5550 
  251.1250    98.4240    23.5460    16.7270    11.7130    11.3060     2.2960   -30.2320 
