~V
VERS. 2.00: Ver 2.00
~W
STRT.M 60.0000:
STOP.M 259.0000:
STEP.M 0.1250:
NULL. -999.2500:
UWI. DF5006:
~C
DEPT.M :
SP.MV :
GR.API :
RML.OHMM :
RI. :
RXO.OHMM :
CALI.CM :
DEN.GM/CC :
~A
# ...
  195.0000   -18.2240    67.9900    62.7320    61.4910    53.2520    24.2090     2.2570 
  195.1250   -18.1150    69.8980    55.5900    54.6160    49.5050    24.1940     2.2520 
  195.2500   -18.0130    74.0410    47.7110    46.9250    44.0560    24.1900     2.2590 
  195.3750   -17.9990    79.2590    40.8610    40.0850    37.3370    24.1680     2.2790 
  195.5000   -18.0270    83.5670    36.3070    35.2320    30.2060    24.1070     2.3070 
  195.6250   -18.1460    85.6110    34.7510    32.9970    25.4620    24.0660     2.3330 
  195.7500   -18.2800    83.4220    36.8110    34.0350    26.7280    24.0610     2.3460 
  195.8750   -18.4910    78.9790    41.5380    37.7070    32.7930    24.0640     2.3420 
  196.0000   -18.7510    77.1490    48.2040    43.5460    41.4350    24.0560     2.3270 
  196.1250   -19.0980    78.6140    55.8740    50.7650    50.4700    24.0620     2.3070 
  196.2500   -19.4840    76.7440    63.5260    58.3060    58.5660    24.0920     2.2870 
  196.3750   -19.8760    69.7700    70.6230    65.3140    64.2100    24.1100     2.2680 
  196.5000   -20.2770    64.3390    77.3090    71.7080    69.4730    24.1290     2.2510 
  196.6250   -20.6420    63.6820    84.0560    77.8660    75.2140    24.1550     2.2370 
  196.7500   -20.9810    63.8950    91.3330    84.2270    78.9840    24.1730     2.2250 
  196.8750   -21.2980    63.8800    98.9350    90.7160    84.6020    24.1850     2.2140 
  197.0000   -21.6110    65.7160   106.2790    96.8510    91.9640    24.1920     2.2060 
  197.1250   -21.8990    67.2730   112.5680   101.9580    97.7070    24.2040     2.2020 
  197.2500   -22.1420    66.1400   116.6400   105.0630   102.4520    24.1960     2.2030 
  197.3750   -22.3780    62.6530   118.3420   106.1050   103.4480    24.1410     2.2110 
  197.5000   -22.6010    58.4610   117.8140   105.2380   101.1710    24.0650     2.2250 
  197.6250   -22.8330    55.6960   115.7750   103.0750    97.6420    24.0210     2.2400 
  197.7500   -23.1110    57.9680   113.5400   100.7170    94.0640    24.0450     2.2520 
  197.8750   -23.3370    62.7920   112.5430    99.4080    90.1250    24.0950     2.2570 
  198.0000   -23.5530    64.0090   113.6980    99.9990    87.1260    24.1740     2.2530 
  198.1250   -23.7490    60.4700   117.4620   102.9820    85.8480    24.2770     2.2420 
  198.2500   -23.9970    57.6170   124.1220   108.7720    90.8290    24.3580     2.2290 
  198.3750   -24.1850    57.9520   132.5830   116.4600    97.7350    24.4150     2.2200 
  198.5000   -24.3820    58.8070   141.8750   125.2250   107.9840    24.4550     2.2140 
  198.6250   -24.5670    59.3680   150.8210   134.0080   121.1040    24.4660     2.2100 
  198.7500   -24.7540    59.8060   157.8360   141.3500   130.7050    24.4880     2.2060 
  198.8750   -24.9760    58.7630   162.2680   146.4870   137.7210    24.4900     2.2020 
  199.0000   -25.1920    57.6700   163.7770   148.9910   137.8770    24.4530     2.2000 
  199.1250   -25.4090    59.0170   162.4040   148.7960   134.1280    24.4170     2.2000 
  199.2500   -25.5860    60.9350   158.2170   145.8520   128.2370    24.4430     2.2040 
  199.3750   -25.8240    60.8540   152.4560   141.2640   122.4390    24.4720     2.2110 
  199.5000   -26.0120    59.1560   146.0550   135.8670   118.4140    24.4510     2.2180 
  199.6250   -26.1960    58.0360   140.0040   130.5620   114.2960    24.3780     2.2260 
  199.7500   -26.3020    56.3950   135.6100   126.5380   109.3240    24.3760     2.2320 
  199.8750   -26.3730    55.6940   133.5370   124.4840   105.4380    24.4700     2.2350 
  200.0000   -26.4130    56.7790   134.3950   125.0030   105.5820    24.5750     2.2350 
  200.1250   -26.4590    57.0010   138.6090   128.5340   109.8290    24.6250     2.2320 
  200.2500   -26.5040    57.0610   146.8970   135.8020   117.9960    24.6310     2.2270 
  200.3750   -26.5350    56.4720   158.2910   146.0120   127.5930    24.6300     2.2200 
  200.5000   -26.5750    54.3260   171.9230   158.4500   137.5050    24.6270     2.2140 
  200.6250   -26.5930    52.2650   186.5210   172.0020   149.2030    24.6230     2.2080 
  200.7500   -26.6200    53.9330   200.3550   185.1100   159.8010    24.6170     2.2040 
  200.8750   -26.6510    57.0210   212.3480   196.6620   165.6970    24.6040     2.2020 
  201.0000   -26.6860    56.9650   222.3370   206.4030   167.2550    24.5820     2.2010 
  201.1250   -26.6540    54.8060   230.9960   214.8770   166.5460    24.5680     2.2000 
  201.2500   -26.5990    53.5820   239.2620   222.9800   169.2520    24.5640     2.1980 
  201.3750   -26.4680    52.0710   247.0560   230.8120   179.7090    24.5640     2.1950 
  201.5000   -26.3550    50.4690   252.5130   236.8480   195.1280    24.5590     2.1920 
  201.6250   -26.2020    49.9750   252.5790   238.4020   207.1790    24.5440     2.1910 
  201.7500   -26.0480    50.6920   242.8720   231.3730   209.9040    24.5120     2.1900 
  201.8750   -25.8640    51.9600   224.5630   216.3040   197.2220    24.4830     2.1910 
  202.0000   -25.6880    53.8430   200.5300   195.2680   174.4870    24.4280     2.1930 
  202.1250   -25.5370    56.4640   175.2600   172.0100   148.2830    24.3450     2.1950 
  202.2500   -25.3920    58.0910   153.9090   151.2730   122.1300    24.2690     2.1990 
  202.3750   -25.2810    57.7860   138.3930   135.5620   102.6770    24.2690     2.2040 
  202.5000   -25.0910    57.1160   129.0980   125.7340    92.0240    24.3410     2.2100 
  202.6250   -24.8780    57.2370   125.4620   121.5520    89.9220    24.4240     2.2150 
  202.7500   -24.6380    56.9790   126.8880   122.6140    95.4620    24.4520     2.2170 
  202.8750   -24.4110    55.4800   130.8920   126.4430   107.1320    24.3850     2.2170 
  203.0000   -24.1610    53.9350   135.7910   131.3440   115.4230    24.3040     2.2160 
  203.1250   -23.9260    51.5270   140.1120   135.8220   120.1150    24.2620     2.2160 
  203.2500   -23.7140    46.7380   142.5830   138.5860   118.7090    24.2200     2.2170 
  203.3750   -23.5260    45.9630   143.3680   139.6920   113.6350    24.2250     2.2180 
  203.5000   -23.4120    51.7200   143.0320   139.5870   111.1820    24.2830     2.2190 
  203.6250   -23.3830    57.2730   142.3070   138.9190   112.1450    24.3610     2.2170 
  203.7500   -23.3350    56.3000   141.7900   138.2290   114.4760    24.4110     2.2130 
  203.8750   -23.2880    52.7630   141.6260   137.7440   115.8430    24.4270     2.2090 
  204.0000   -23.2090    50.7320   141.7450   137.4580   116.4350    24.4350     2.2060 
  204.1250   -23.1020    49.4660   142.0200   137.2870   117.2870    24.4570     2.2060 
  204.2500   -22.9050    49.4370   142.3990   137.1480   118.0040    24.5080     2.2070 
  204.3750   -22.6350    51.3990   142.8370   136.9520   118.3170    24.5450     2.2060 
  204.5000   -22.3420    53.0780   143.1880   136.5130   119.3710    24.5500     2.2000 
  204.6250   -21.9600    52.8250   143.0520   135.4560   120.9730    24.5130     2.1920 
  204.7500   -21.5730    52.0400   141.3180   132.8430   121.7520    24.4330     2.1930 
  204.8750   -21.1300    52.7410   137.2030   128.0610   120.2670    24.3630     2.2120 
  205.0000   -20.6920    53.6730   130.1050   120.6720   117.2840    24.2880     2.2470 
  205.1250   -20.1960    53.0650   120.0360   110.8630   114.9650    24.2030     2.2870 
  205.2500   -19.7160    52.7100   107.8790    99.5060   111.5030    24.1510     2.3130 
  205.3750   -19.1960    54.0060    95.5300    88.4510   102.6370    24.1680     2.3180 
  205.5000   -18.6070    56.4610    84.5920    79.0820    85.7530    24.1570     2.3070 
  205.6250   -17.9690    59.5680    76.3150    72.3680    72.1640    24.1180     2.2870 
  205.7500   -17.2670    62.2130    72.0040    69.2620    68.6340    24.1110     2.2690 
  205.8750   -16.5190    63.1190    72.1400    68.9710    68.8810    24.1470     2.2580 
  206.0000   -15.6710    61.8430    74.2040    70.4410    71.9050    24.1610     2.2670 
  206.1250   -14.7890    59.0170    76.2410    71.8270    76.0730    24.1480     2.3050 
