~V
VERS. 2.00: Ver 2.00
~W
STRT.M 60.0000:
STOP.M 249.0000:
STEP.M 0.1250:
NULL. -999.2500:
UWI. DF5060:
~C
DEPT.M :
GR.API :
CALI.CM :
RXO.OHMM :
RI. :
RML.OHMM :
DEN.GM/CC :
SP.MV :
~A
# ...
   82.5000    67.5040    22.6400     7.3970     7.1490     8.3540     2.1210   -27.1570 
   82.6250    74.4250    22.6780     7.0240     6.7700     7.7960     2.1250   -26.6940 
   82.7500    81.9110    22.9060     6.3770     6.3110     7.1860     2.1430   -26.2730 
   82.8750    88.8410    23.3070     5.8060     5.8340     6.6180     2.1730   -25.9520 
   83.0000    93.6770    23.7980     5.5790     5.4030     6.1740     2.2110   -25.6750 
   83.1250    95.2520    23.9920     5.5500     5.0960     5.9310     2.2470   -25.5770 
   83.2500    97.2710    23.7670     5.4520     4.9340     5.8670     2.2710   -25.5590 
   83.3750    99.9610    23.3670     5.3910     4.9240     5.9590     2.2810   -25.6730 
   83.5000    98.5920    23.1330     5.4550     5.0410     6.1690     2.2800   -25.8820 
   83.6250    91.6030    23.1700     5.6420     5.2490     6.4600     2.2710   -26.2480 
   83.7500    85.6540    23.1980     6.0470     5.4900     6.7830     2.2570   -26.6630 
   83.8750    82.1750    23.2010     6.6610     5.7360     7.1060     2.2380   -27.0600 
   84.0000    79.5490    23.2240     7.0820     5.9730     7.4030     2.2160   -27.5050 
   84.1250    79.1900    23.2420     7.2040     6.1960     7.6480     2.1970   -27.8850 
   84.2500    78.6860    23.2580     7.7380     6.4020     7.8420     2.1810   -28.2280 
   84.3750    74.3440    23.3020     8.4370     6.5780     7.9860     2.1660   -28.4840 
   84.5000    67.0270    23.3800     8.7630     6.7110     8.0830     2.1500   -28.6580 
   84.6250    62.3480    23.4440     8.6270     6.7900     8.1330     2.1350   -28.6750 
   84.7500    61.0170    23.4510     8.4370     6.8300     8.1400     2.1220   -28.5660 
   84.8750    61.0480    23.4150     8.4660     6.8370     8.0900     2.1150   -28.4030 
   85.0000    61.7570    23.3940     8.5900     6.8010     7.9670     2.1140   -28.0720 
   85.1250    61.7710    23.4530     8.5520     6.6870     7.7510     2.1180   -27.6680 
   85.2500    61.4230    23.5710     8.5990     6.4970     7.4820     2.1220   -27.1240 
   85.3750    64.5290    23.7330     8.5260     6.2520     7.2050     2.1280   -26.5700 
   85.5000    73.4250    23.9750     7.8400     5.9940     6.9590     2.1420   -25.9860 
   85.6250    83.9210    24.2670     6.8120     5.7730     6.7750     2.1690   -25.4860 
   85.7500    88.7780    24.4680     6.2510     5.5950     6.6250     2.2030   -25.0680 
   85.8750    89.6180    24.5170     6.1980     5.4350     6.4630     2.2330   -24.7280 
   86.0000    92.0640    24.4870     6.0130     5.2550     6.2350     2.2550   -24.5160 
   86.1250    97.8380    24.4840     5.6260     5.0150     5.8980     2.2660   -24.4230 
   86.2500   101.6710    24.5010     5.3780     4.7440     5.5410     2.2760   -24.4430 
   86.3750   100.0430    24.5160     5.1820     4.5350     5.3380     2.2900   -24.5630 
   86.5000    94.9420    24.5230     5.0400     4.5210     5.5060     2.3100   -24.8270 
   86.6250    91.1970    24.5020     4.9370     4.9050     6.3400     2.3330   -25.1550 
   86.7500    90.2570    24.4610     5.3140     5.7220     7.8160     2.3580   -25.5590 
   86.8750    88.8990    24.4230     7.8520     6.9580     9.7730     2.3890   -26.0130 
   87.0000    83.8360    24.4160    12.8010     8.4080    11.7260     2.4270   -26.5780 
   87.1250    77.2330    24.3930    15.7570     9.4610    12.6960     2.4590   -27.0960 
   87.2500    73.0320    24.2380    13.5700     9.6490    12.3490     2.4630   -27.7180 
   87.3750    71.5620    23.9380     9.9820     9.0430    11.0740     2.4250   -28.2950 
   87.5000    71.9680    23.6400     8.2260     8.1200     9.6480     2.3540   -28.8710 
   87.6250    73.8670    23.5520     7.8800     7.3880     8.7800     2.2820   -29.3490 
   87.7500    75.4610    23.6270     7.9180     7.0170     8.5230     2.2270   -29.7800 
   87.8750    76.1110    23.7310     8.0640     6.9780     8.6980     2.1940   -30.1110 
   88.0000    75.9250    23.7890     8.2180     7.1440     9.0470     2.1780   -30.3170 
   88.1250    73.5920    23.7720     8.2890     7.3470     9.3190     2.1730   -30.4480 
   88.2500    68.4170    23.6990     8.3430     7.4700     9.4200     2.1700   -30.5310 
   88.3750    62.6110    23.6140     8.4300     7.4960     9.3770     2.1670   -30.5670 
   88.5000    61.1630    23.5740     8.4520     7.4640     9.2790     2.1650   -30.5490 
   88.6250    64.7110    23.5860     8.3230     7.4350     9.2340     2.1640   -30.4760 
   88.7500    69.3190    23.5750     8.2720     7.4410     9.2800     2.1660   -30.4150 
   88.8750    73.1050    23.5220     8.3920     7.4790     9.3980     2.1700   -30.3490 
   89.0000    74.5120    23.4490     8.6960     7.5290     9.5350     2.1770   -30.3110 
   89.1250    72.4700    23.3410     8.9560     7.5560     9.6120     2.1810   -30.2790 
   89.2500    69.6130    23.2110     8.9420     7.5370     9.5980     2.1830   -30.2100 
   89.3750    68.6020    23.1080     8.6750     7.4690     9.5080     2.1790   -30.1550 
   89.5000    69.0320    23.0690     8.4640     7.3670     9.3820     2.1730   -30.1040 
   89.6250    69.9860    23.0720     8.4180     7.2520     9.2620     2.1680   -30.1170 
   89.7500    72.8590    23.0720     8.4640     7.1530     9.1700     2.1660   -30.1130 
   89.8750    75.2470    23.0640     8.4890     7.0910     9.1130     2.1680   -30.1260 
   90.0000    73.4160    23.0480     8.4960     7.0830     9.1020     2.1720   -30.0850 
   90.1250    70.2740    23.0390     8.3830     7.1460     9.1660     2.1730   -30.0840 
   90.2500    70.9760    23.0480     8.3220     7.2550     9.2900     2.1700   -30.0940 
   90.3750    74.4860    23.0670     8.5480     7.3850     9.4410     2.1660   -30.1190 
   90.5000    76.9400    23.0770     9.1140     7.5040     9.5620     2.1650   -30.0730 
   90.6250    75.4510    23.0760     9.5020     7.5770     9.5950     2.1680   -30.0780 
   90.7500    71.7430    23.0760     9.5740     7.6080     9.5590     2.1720   -30.0330 
   90.8750    68.6880    23.0760     9.3660     7.6140     9.4940     2.1740   -29.9750 
   91.0000    68.1600    23.0760     9.1340     7.6050     9.4270     2.1720   -29.9080 
   91.1250    67.7810    23.0760     9.0540     7.5580     9.3250     2.1690   -29.8090 
   91.2500    66.2840    23.0760     9.0440     7.4320     9.1160     2.1670   -29.6640 
   91.3750    66.2260    23.0760     8.9730     7.1900     8.7380     2.1670   -29.4370 
   91.5000    68.8470    23.0720     8.6160     6.8250     8.1950     2.1710   -29.2800 
   91.6250    73.6020    23.0760     7.6530     6.3880     7.5830     2.1850   -29.0650 
   91.7500    79.1620    23.1410     6.6290     5.9890     7.0770     2.2090   -28.8840 
   91.8750    83.7640    23.2780     6.0990     5.7130     6.7970     2.2380   -28.7520 
   92.0000    84.8990    23.4240     6.2410     5.6150     6.7930     2.2600   -28.7010 
   92.1250    82.0860    23.4660     6.6740     5.7500     7.0790     2.2610   -28.7330 
   92.2500    77.7790    23.4170     7.3630     6.0510     7.5090     2.2440   -28.8230 
   92.3750    72.5930    23.3490     8.0110     6.4390     7.9570     2.2170   -28.9720 
   92.5000    68.8700    23.3100     8.4190     6.8150     8.3070     2.1930   -29.1580 
   92.6250    67.6990    23.3050     8.5960     7.0740     8.4780     2.1770   -29.2780 
   92.7500    66.8800    23.3070     8.6080     7.2110     8.5230     2.1700   -29.3680 
   92.8750    66.7560    23.3070     8.4810     7.2580     8.4970     2.1680   -29.3810 
   93.0000    68.5780    23.3070     8.4230     7.2490     8.4390     2.1690   -29.3230 
   93.1250    71.6840    23.3070     8.4650     7.1830     8.3340     2.1700   -29.1960 
   93.2500    73.6830    23.3030     8.3890     7.0560     8.1610     2.1740   -29.0390 
   93.3750    74.7480    23.3210     8.2190     6.8700     7.9200     2.1840   -28.9730 
   93.5000    74.9370    23.4070     8.0120     6.6570     7.6510     2.2000   -28.7860 
   93.6250    73.7430    23.5500     7.6400     6.4820     7.4430     2.2180   -28.7510 
