~V
VERS. 2.00: Ver 2.00
~W
STRT.M 58.0000:
STOP.M 276.0000:
STEP.M 0.1250:
NULL. -999.2500:
UWI. DF5012:
~C
DEPT.M :
SP.MV :
GR.API :
CALI.CM :
RXO.OHMM :
RI. :
RML.OHMM :
DEN.GM/CC :
~A
# ...
  170.5000   -52.2830    71.3310    25.5170    93.3090   135.6610   136.6330     2.1900 
  170.6250   -52.2920    71.1670    25.6030   102.5410   129.6260   127.4990     2.1950 
  170.7500   -52.2800    71.5070    25.6440   115.0570   117.6800   113.5540     2.2040 
  170.8750   -52.2770    73.4420    25.5490   138.9930   103.0810    98.2830     2.2140 
  171.0000   -52.3070    76.6100    25.3270   139.4960    88.4000    84.0390     2.2270 
  171.1250   -52.3460    80.6950    25.1080   101.3600    76.2980    73.2600     2.2390 
  171.2500   -52.4080    84.4800    24.9990    69.0050    68.1370    66.9450     2.2500 
  171.3750   -52.4890    85.4960    24.9800    57.9100    64.9420    66.0900     2.2600 
  171.5000   -52.5760    83.3220    24.9800    54.4100    67.9670    71.8540     2.2670 
  171.6250   -52.6060    79.5360    24.9630   187.2540    81.1260    87.5850     2.2670 
  171.7500   -52.6980    75.2060    24.9860   695.4640   105.9980   114.2970     2.2590 
  171.8750   -52.8170    70.1680    25.1180  1401.7580   143.9830   153.5370     2.2430 
  172.0000   -52.9240    65.2900    25.3360  1797.8380   192.0970   203.1710     2.2250 
  172.1250   -52.9160    62.4420    25.5000  1486.0990   236.7070   249.3590     2.2090 
  172.2500   -52.8570    62.5710    25.5490  1108.4260   261.3220   273.3850     2.1980 
  172.3750   -52.7330    65.3630    25.5440   722.7020   262.0860   271.8590     2.1930 
  172.5000   -52.5640    68.3200    25.5440   458.0020   248.2670   256.9030     2.1940 
  172.6250   -52.3750    68.2950    25.5460   182.4250   231.8600   241.8000     2.1990 
  172.7500   -52.1730    66.1370    25.5470   180.9350   219.1870   231.6510     2.2050 
  172.8750   -51.9080    66.8240    25.5480   225.9040   211.7860   227.4070     2.2090 
  173.0000   -51.6180    70.8890    25.5540   267.4700   210.3280   229.4900     2.2110 
  173.1250   -51.3640    73.0480    25.5370   233.2020   216.5280   239.5420     2.2120 
  173.2500   -51.1210    69.3000    25.4690   248.5760   230.0150   257.0760     2.2110 
  173.3750   -50.8790    64.3320    25.3740   426.0050   251.2910   282.5130     2.2060 
  173.5000   -50.6610    63.0920    25.3050   584.3210   279.8950   315.2400     2.1980 
  173.6250   -50.4240    63.8070    25.2940   557.3270   312.9740   351.7840     2.1860 
  173.7500   -50.2090    61.6430    25.2980   381.8320   342.3140   382.8350     2.1710 
  173.8750   -50.0220    59.3050    25.2980   243.1710   359.7380   399.0610     2.1590 
  174.0000   -49.8490    59.7500    25.2980   175.9970   360.7430   396.2020     2.1550 
  174.1250   -49.7130    61.3900    25.3260   164.5880   346.5280   377.6020     2.1590 
  174.2500   -49.5990    61.8220    25.4030   179.3560   327.5880   355.6860     2.1680 
  174.3750   -49.4940    62.6570    25.5010   192.7300   310.1940   336.9130     2.1750 
  174.5000   -49.3800    63.9900    25.5700   201.5130   297.6810   324.1580     2.1770 
  174.6250   -49.3150    63.8100    25.5810   195.7810   292.1200   319.0460     2.1730 
  174.7500   -49.2300    63.6980    25.5750   194.9690   292.0870   319.6640     2.1690 
  174.8750   -49.0940    65.9080    25.5710   198.5220   296.1950   324.3270     2.1690 
  175.0000   -48.9710    69.2080    25.5700   203.1170   302.0060   330.2910     2.1730 
  175.1250   -48.9110    69.5640    25.5700   218.5010   305.4440   333.0130     2.1790 
  175.2500   -48.7820    65.9630    25.5680   235.5460   303.4390   329.2210     2.1840 
  175.3750   -48.6610    62.4650    25.5730   238.1640   294.5760   317.4930     2.1890 
  175.5000   -48.5320    63.7740    25.5920   228.7680   279.6250   299.0490     2.1930 
  175.6250   -48.3620    67.7720    25.6200   217.5130   261.2790   277.5020     2.1980 
  175.7500   -48.1500    66.5830    25.6370   209.6170   243.6760   257.5560     2.2060 
  175.8750   -47.9160    61.9800    25.6390   201.2100   228.8750   241.2180     2.2110 
  176.0000   -47.5980    61.0910    25.6400   196.1760   217.1930   228.3530     2.2130 
  176.1250   -47.2480    64.9610    25.6640   193.9090   207.1380   216.9370     2.2100 
  176.2500   -46.9400    67.9990    25.7080   188.0760   196.1570   204.3580     2.2040 
  176.3750   -46.6410    69.4970    25.7490   180.4730   183.5050   190.1680     2.1970 
  176.5000   -46.3600    70.2650    25.7660   170.9280   169.9490   175.3740     2.1910 
  176.6250   -46.0820    70.0430    25.7630   148.6880   156.6740   161.0830     2.1890 
  176.7500   -45.8450    70.0450    25.7590   128.3650   143.9640   147.3350     2.1920 
  176.8750   -45.6660    71.3090    25.7570   126.7130   131.7960   134.1200     2.1990 
  177.0000   -45.5000    72.0860    25.7550   133.7290   120.3990   121.8360     2.2080 
  177.1250   -45.3350    70.0620    25.7550   124.7460   110.5850   111.5460     2.2170 
  177.2500   -45.1860    67.4340    25.7570    99.3680   102.9400   103.8470     2.2250 
  177.3750   -45.0910    66.3320    25.7550    83.3390    98.2890    99.4610     2.2330 
  177.5000   -45.0000    67.8500    25.7200   104.8290    97.1410    98.6250     2.2400 
  177.6250   -44.9660    70.1130    25.6330   146.4930    99.3380   100.6250     2.2450 
  177.7500   -44.9390    71.1350    25.5530   227.8020   101.8930   102.1460     2.2470 
  177.8750   -44.8700    70.8650    25.5040   493.9670   101.2540    99.7110     2.2470 
  178.0000   -44.8650    70.9530    25.4440   614.0590    94.7210    91.2760     2.2450 
  178.1250   -44.8410    72.5130    25.3420   420.8160    82.7410    78.3520     2.2460 
  178.2500   -44.8080    74.6920    25.2650   144.4600    70.5160    66.2650     2.2550 
  178.3750   -44.7650    77.6560    25.2480    76.3520    61.2090    57.8320     2.2700 
  178.5000   -44.7010    80.9700    25.2850    56.1420    55.9790    53.8240     2.2840 
  178.6250   -44.6700    81.6670    25.4050    59.0290    55.1580    54.2900     2.2890 
  178.7500   -44.5910    79.3540    25.5930    74.7780    57.2130    57.4470     2.2830 
  178.8750   -44.5710    76.7900    25.7950    79.9440    61.0920    62.0860     2.2740 
  179.0000   -44.5420    75.9730    25.9670    71.7220    65.5820    66.9570     2.2700 
  179.1250   -44.4830    75.3200    26.0860    74.6140    69.2820    70.7830     2.2720 
  179.2500   -44.4720    74.3340    26.1260    92.6680    71.5440    73.1850     2.2720 
  179.3750   -44.4250    74.0510    26.0700   112.2640    72.2890    74.2310     2.2650 
  179.5000   -44.3900    73.7480    25.9520   117.9780    71.8330    74.3320     2.2520 
  179.6250   -44.3100    72.2680    25.7820   108.5780    70.9650    74.5120     2.2420 
  179.7500   -44.2400    70.8310    25.5070   106.1980    71.1430    76.3760     2.2440 
  179.8750   -44.1430    70.2350    25.1610   116.5630    73.9370    81.5550     2.2580 
  180.0000   -44.0300    69.9370    24.8770   239.3880    80.8270    91.3020     2.2760 
  180.1250   -43.9470    68.4570    24.7820   422.0260    93.0520   106.2250     2.2880 
  180.2500   -43.8350    65.3840    24.7920   748.9530   107.6960   122.6000     2.2830 
  180.3750   -43.7130    63.1560    24.8300   971.3680   119.9580   134.7700     2.2640 
  180.5000   -43.5910    63.5380    24.8640   873.8490   124.2290   136.6850     2.2410 
  180.6250   -43.4410    65.4510    24.8900   344.4730   116.8900   125.7090     2.2240 
  180.7500   -43.3370    65.9270    24.9210   170.3430   103.9610   110.0710     2.2180 
  180.8750   -43.2470    66.6470    24.9400   102.9850    90.9270    95.9670     2.2210 
  181.0000   -43.1510    70.9700    24.9180    84.8040    81.1530    86.3780     2.2290 
  181.1250   -43.0970    76.6220    24.9490    80.1510    76.1620    82.1830     2.2370 
  181.2500   -43.0600    78.4740    25.1150    82.2870    74.5300    81.3420     2.2420 
  181.3750   -43.0640    76.4950    25.3300    87.3640    75.1080    82.4330     2.2420 
  181.5000   -43.1150    74.1430    25.3880    90.4180    76.6650    84.1150     2.2390 
  181.6250   -43.2120    73.3320    25.1960    90.8960    78.0820    85.2990     2.2360 
