~V
VERS. 2.00: Ver 2.00
~W
STRT.M 60.0000:
STOP.M 273.0000:
STEP.M 0.1250:
NULL. -999.2500:
UWI. DF5008:
~C
DEPT.M :
GR.API :
CALI.CM :
RXO.OHMM :
RI. :
RML.OHMM :
DEN.GM/CC :
SP.MV :
~A
# ...
  262.5000    62.0090    23.6660    10.3250     7.2810     7.7060     2.3480   -27.9560 
  262.6250    62.0090    23.6360    10.0650     7.1610     7.5140     2.3440   -27.8910 
  262.7500    62.0090    23.6080     9.4660     7.0240     7.3150     2.3440   -27.7820 
  262.8750    62.0090    23.5870     8.7640     6.8770     7.1090     2.3480   -27.7430 
  263.0000    62.0090    23.5790     8.0790     6.7320     6.9000     2.3550   -27.6640 
  263.1250    62.0090    23.6240     7.4700     6.5970     6.7010     2.3600   -27.7370 
  263.2500    62.0090    23.7150     6.8660     6.4810     6.5320     2.3600   -27.8100 
  263.3750    62.0090    23.7970     6.2890     6.3880     6.4100     2.3540   -27.8010 
  263.5000    62.0090    23.8370     5.8340     6.3190     6.3390     2.3490   -27.8890 
  263.6250    62.0090    23.8490     5.9370     6.2890     6.3270     2.3510   -28.0110 
  263.7500    62.0090    23.8670     6.3030     6.3100     6.3680     2.3630   -28.0900 
  263.8750    62.0090    23.8850     6.5350     6.4010     6.4750     2.3810   -28.1290 
  264.0000    62.0090    23.8890     6.5750     6.5720     6.6660     2.3990   -28.1150 
  264.1250    62.0090    23.8280     6.5070     6.8270     6.9540     2.4090   -27.8890 
  264.2500    62.0090    23.6910     6.6480     7.1220     7.2880     2.4100   -27.7490 
  264.3750    62.0090    23.5290     7.8530     7.4100     7.6090     2.4080   -27.7140 
  264.5000    62.0090    23.4140     9.3280     7.6510     7.8600     2.4030   -27.6150 
  264.6250    62.0090    23.3600    10.4370     7.8080     8.0030     2.3990   -27.4670 
  264.7500    62.0090    23.3150    10.3250     7.8940     8.0680     2.3960   -27.3160 
  264.8750    62.0090    23.2610     9.9360     7.9270     8.0910     2.3950   -27.1830 
  265.0000    62.0090    23.2160     9.3820     7.9330     8.0950     2.3970   -27.0410 
  265.1250    62.0090    23.2080     9.4740     7.9310     8.0930     2.4030   -27.1220 
  265.2500    62.0090    23.2250     9.7450     7.9330     8.0840     2.4090   -27.1630 
  265.3750    62.0090    23.2320     9.8990     7.9380     8.0630     2.4100   -27.0720 
  265.5000    62.0090    23.2100     9.5450     7.9350     8.0280     2.4080   -27.0660 
  265.6250    62.0090    23.1780     9.4850     7.9050     7.9820     2.4030   -27.1100 
  265.7500    62.0090    23.1500     9.9190     7.8510     7.9360     2.3980   -27.1970 
  265.8750    62.0090    23.1160    10.3390     7.7860     7.8930     2.3950   -27.2060 
  266.0000    62.0090    23.0810    10.2110     7.7260     7.8580     2.3930   -27.2670 
  266.1250    62.0090    23.0680    10.0710     7.6970     7.8590     2.3840   -27.1800 
  266.2500    62.0090    23.0780    10.4380     7.7050     7.9020     2.3650   -27.0930 
  266.3750    62.0090    23.0940    10.6480     7.7440     7.9680     2.3380   -27.0700 
  266.5000    62.0090    23.0970    10.8080     7.8000     8.0270     2.3100   -27.0350 
  266.6250    62.0090    23.0720    11.2640     7.8600     8.0550     2.2900   -26.9120 
  266.7500    62.0090    23.0150    11.5980     7.9070     8.0550     2.2800   -26.7610 
  266.8750    62.0090    22.8960    11.3340     7.9290     8.0390     2.2530   -26.6140 
  267.0000    62.0090    22.5820    10.4220     7.9290     8.0260     2.2220   -26.4370 
  267.1250    62.0090    21.6740     9.3030     7.9170     8.0150     2.1770   -26.3460 
  267.2500    62.0090    20.2010     8.5740     7.9050     8.0000     2.1220   -26.3460 
  267.3750    62.0090    18.6510     8.5330     7.8980     7.9890     2.0660   -26.3460 
  267.5000    62.0090    17.6290     8.9130     7.8930     7.9930     2.0120   -26.3460 
  267.6250    62.0090    17.3720     8.9120     7.8870     8.0170     1.9630   -26.3460 
  267.7500    62.0090    17.4010     8.9430     7.8820     8.0480     1.9180   -26.3460 
  267.8750    62.0090    17.4680     9.0920     7.8810     8.0740     1.8800   -26.3460 
  268.0000    62.0090    17.5400     9.1670     7.8870     8.0880     1.8510   -26.3460 
  268.1250    62.0090    17.6220     9.0440     7.8870     8.0880     1.8290   -26.3460 
  268.2500    62.0090    17.6780     8.8560     7.8870     8.0880     1.8100   -26.3460 
  268.3750    62.0090    17.6940     8.7210     7.8870     8.0880     1.7890   -26.3460 
  268.5000    62.0090    17.7010     8.6410     7.8870     8.0880     1.7670   -26.3460 
  268.6250    62.0090    17.7420     8.7190     7.8870     8.0880     1.7470   -26.3460 
  268.7500    62.0090    17.8070     8.9070     7.8870     8.0880     1.7340   -26.3460 
  268.8750    62.0090    17.8600     8.9790     7.8870     8.0880     1.7320   -26.3460 
  269.0000    62.0090    17.8720     8.7720     7.8870     8.0880     1.7400   -26.3460 
  269.1250    62.0090    17.7750     8.5980     7.8870     8.0880     1.7530   -26.3460 
  269.2500    62.0090    17.5630     8.5030     7.8870     8.0880     1.7660   -26.3460 
  269.3750    62.0090    17.1030     8.3830     7.8870     8.0880     1.7780   -26.3460 
  269.5000    62.0090    16.2330     8.1830     7.8870     8.0880     1.7870   -26.3460 
  269.6250    62.0090    15.1640     8.0220     7.8870     8.0880     1.7940   -26.3460 
  269.7500    62.0090    14.4480     7.9900     7.8870     8.0880     1.7980   -26.3460 
  269.8750    62.0090    14.2300     7.9850     7.8870     8.0880     1.7990   -26.3460 
  270.0000    62.0090    14.2530     7.9850     7.8870     8.0880     1.7980   -26.3460 
  270.1250    62.0090    14.2570     7.9850     7.8870     8.0880     1.7980   -26.3460 
  270.2500    62.0090    14.2560     7.9860     7.8870     8.0880     1.6200   -26.3460 
  270.3750    62.0090    14.2560     7.9860     7.8870     8.0880     1.2740   -26.3460 
  270.5000    62.0090    14.2560     7.9870     7.8870     8.0880     1.6580   -26.3460 
  270.6250    62.0090    14.2560     7.9850     7.8870     8.0880     2.1710   -26.3460 
  270.7500    62.0090    14.2560     7.9840     7.8870     8.0880     2.5710   -26.3460 
  270.8750    62.0090    14.2560     7.9820     7.8870     8.0880     2.8500   -26.3460 
  271.0000    62.0090    14.2560     7.9800     7.8870     8.0880     3.0050   -26.3460 
  271.1250    62.0090    14.2560     7.9770     7.8870     8.0880     3.0510   -26.3460 
  271.2500    62.0090    14.2560     7.9780     7.8870     8.0880     2.8510   -26.3460 
  271.3750    62.0090    14.2560     7.9800     7.8870     8.0880     1.8960   -26.3460 
  271.5000    62.0090    14.2560     7.9820     7.8870     8.0880  -999.2500   -26.3460 
  271.6250    62.0090    14.2560     7.9790     7.8870     8.0880  -999.2500   -26.3460 
  271.7500    62.0090    14.2560     7.9800     7.8870     8.0880  -999.2500   -26.3460 
  271.8750    62.0090    14.2560     7.9820     7.8870     8.0880  -999.2500   -26.3460 
  272.0000    62.0090    14.2550     7.9850     7.8870     8.0880  -999.2500   -26.3460 
  272.1250    62.0090    14.2560     7.9840     7.8870     8.0880  -999.2500  -999.2500 
  272.2500    62.0090    14.2550     7.9830     7.8870     8.0880  -999.2500  -999.2500 
  272.3750    62.0090    14.2510     7.9810     7.8870     8.0880  -999.2500  -999.2500 
  272.5000    62.0090    14.2450     7.9790     7.8870     8.0880  -999.2500  -999.2500 
  272.6250    62.0090    14.2410     7.9770     7.8870     8.0880  -999.2500  -999.2500 
  272.7500    62.0090    14.2400     7.9770     7.8870     8.0880  -999.2500  -999.2500 
  272.8750    62.0090    14.2400     7.9780     7.8870     8.0880  -999.2500  -999.2500 
  273.0000    62.0090    14.2400     7.9800     7.8870     8.0880  -999.2500  -999.2500 
