~V
VERS. 2.00: Ver 2.00
~W
STRT.M 50.0000:
STOP.M 260.0000:
STEP.M 0.1250:
NULL. -999.2500:
UWI. DF5023:
~C
DEPT.M :
GR.API :
RML.OHMM :
RI. :
RXO.OHMM :
CALI.CM :
DEN.GM/CC :
SP.MV :
~A
# ...
  162.5000    76.3970    18.5120    18.0910    21.6390    25.1310     2.4370   -15.5740 
  162.6250    74.8670    16.0850    15.7440    18.6680    25.3730     2.3830   -15.8650 
  162.7500    76.9660    13.7530    13.4130    14.7670    25.5130     2.3300   -16.0800 
  162.8750    80.5080    11.7750    11.3770    10.3900    25.4710     2.2940   -16.3230 
  163.0000    82.2340    10.2990     9.7910     7.7990    25.1680     2.2820   -16.5200 
  163.1250    82.4170     9.4270     8.7890     6.7340    24.9430     2.2910   -16.7320 
  163.2500    82.8770     9.0080     8.2780     6.4480    24.8580     2.3040   -16.9870 
  163.3750    84.7550     9.0710     8.2370     6.7260    24.8140     2.3090   -17.2320 
  163.5000    86.4200     9.6180     8.6690     7.5830    24.7240     2.3110   -17.5880 
  163.6250    88.1700    11.0760     9.7070     8.9230    24.5270     2.3190   -17.9130 
  163.7500    90.0800    13.3620    11.3490    10.7650    24.4000     2.3380   -18.3600 
  163.8750    90.1940    16.6280    13.6520    13.4280    24.3380     2.3610   -18.7660 
  164.0000    85.5110    20.7480    16.5710    17.7430    24.3160     2.3760   -19.1930 
  164.1250    77.4630    24.4610    19.8790    23.7590    24.3110     2.3710   -19.5620 
  164.2500    73.0440    27.7870    22.9870    28.9860    24.3110     2.3500   -19.9040 
  164.3750    72.2490    30.1190    25.3270    33.9670    24.3120     2.3240   -20.2280 
  164.5000    69.9450    31.0850    26.4880    34.8420    24.3150     2.3020   -20.4930 
  164.6250    67.7870    30.6450    26.2960    31.5600    24.3160     2.2950   -20.7010 
  164.7500    71.1300    29.7340    25.5070    29.3350    24.3180     2.3030   -20.8470 
  164.8750    77.6410    29.2060    24.8300    28.0030    24.3220     2.3190   -21.0210 
  165.0000    79.7240    29.8270    24.9510    29.5730    24.3240     2.3350   -21.1770 
  165.1250    75.4220    32.5280    26.7570    30.1730    24.3330     2.3390   -21.3930 
  165.2500    71.6970    37.3950    30.4750    33.0940    24.3720     2.3270   -21.5860 
  165.3750    71.4160    44.4550    36.2470    40.4140    24.3950     2.3060   -21.8240 
  165.5000    71.5000    53.2360    43.7670    54.7150    24.4220     2.2830   -22.0250 
  165.6250    67.0000    62.4940    52.1330    68.9070    24.4590     2.2680   -22.3130 
  165.7500    61.4810    70.3010    59.6490    74.7160    24.5030     2.2620   -22.5470 
  165.8750    59.7540    75.2000    64.9850    74.5740    24.5500     2.2640   -22.7940 
  166.0000    62.6000    76.6060    67.4120    73.1160    24.5970     2.2680   -22.9890 
  166.1250    66.0960    74.7050    66.7100    70.9620    24.6420     2.2690   -23.1890 
  166.2500    68.4410    71.4840    64.4070    67.3430    24.6790     2.2650   -23.3280 
  166.3750    70.5810    68.2080    61.6110    61.0130    24.7080     2.2590   -23.4260 
  166.5000    72.3320    65.5680    59.1340    54.5410    24.7270     2.2530   -23.5940 
  166.6250    73.6180    63.9470    57.5590    50.5550    24.7330     2.2490   -23.6940 
  166.7500    75.5760    63.2750    56.9270    50.2560    24.7270     2.2470   -23.8650 
  166.8750    77.2610    63.5870    57.2770    51.2650    24.7040     2.2480   -23.9490 
  167.0000    76.0210    64.8810    58.5900    52.8460    24.6580     2.2520   -24.0880 
  167.1250    72.2800    67.1380    60.8910    53.8870    24.5900     2.2570   -24.1490 
  167.2500    70.1890    69.9830    63.7950    55.9640    24.5090     2.2620   -24.2770 
  167.3750    70.2670    73.0340    67.0190    60.0780    24.4240     2.2630   -24.4240 
  167.5000    71.1260    75.9030    70.2160    65.6500    24.3430     2.2600   -24.5580 
  167.6250    71.5510    78.2230    72.9560    70.5160    24.2770     2.2530   -24.7090 
  167.7500    72.0120    80.0120    75.1750    73.5160    24.2310     2.2460   -24.9120 
  167.8750    71.3680    81.4930    76.9850    73.4060    24.2110     2.2420   -25.1970 
  168.0000    69.0370    83.0180    78.7010    72.1540    24.2130     2.2420   -25.5410 
  168.1250    66.5840    85.2280    80.9060    70.3730    24.2230     2.2470   -25.9570 
  168.2500    66.3270    88.5170    83.9920    71.0340    24.2330     2.2520   -26.4260 
  168.3750    67.2550    93.0670    88.1370    76.1170    24.2460     2.2540   -26.8990 
  168.5000    66.9670    98.7270    93.2340    86.2360    24.2600     2.2520   -27.4140 
  168.6250    66.0880   104.8750    98.8780    99.3110    24.2770     2.2460   -27.9000 
  168.7500    66.7440   110.4050   104.1960   107.6950    24.2930     2.2380   -28.3450 
  168.8750    69.8120   114.3500   108.3930   110.2830    24.3080     2.2290   -28.8090 
  169.0000    73.6210   115.9910   110.8170   110.4630    24.3250     2.2190   -29.2030 
  169.1250    73.5720   114.7170   110.6890   109.4820    24.3430     2.2110   -29.6440 
  169.2500    69.9750   111.2920   108.4620   110.3960    24.3640     2.2090   -30.0080 
  169.3750    67.8470   106.5610   104.6330   106.1850    24.3850     2.2140   -30.4190 
  169.5000    70.3640   101.4330    99.9200    97.5060    24.4040     2.2250   -30.7040 
  169.6250    71.0440    96.9870    95.2900    86.6230    24.4250     2.2340   -31.1440 
  169.7500    68.5120    94.0730    91.8310    78.9030    24.4480     2.2410   -31.6080 
  169.8750    68.4790    93.5680    90.6410    77.5160    24.4690     2.2450   -32.0580 
  170.0000    71.6690    96.3270    92.8220    77.3570    24.4890     2.2490   -32.5410 
  170.1250    72.8460   103.9660   100.2080    80.4560    24.5080     2.2520   -32.9670 
  170.2500    69.6750   116.4360   112.7080    84.8300    24.5260     2.2510   -33.4360 
  170.3750    65.0410   133.5130   129.8610    95.8270    24.5440     2.2420   -33.8720 
  170.5000    62.0850   153.8010   149.9710   120.6250    24.5620     2.2250   -34.4030 
  170.6250    62.1880   174.1660   169.9030   160.2390    24.5790     2.2060   -34.7690 
  170.7500    63.8720   190.5570   186.0730   194.9780    24.5920     2.1930   -35.1020 
  170.8750    63.6470   200.1120   195.9790   190.7530    24.6020     2.1880   -35.3660 
  171.0000    61.5520   202.0800   198.7820   165.4240    24.6120     2.1910   -35.6420 
  171.1250    59.5540   198.0880   195.2480   146.7950    24.6090     2.2000   -35.8480 
  171.2500    58.2650   193.0990   189.6490   136.6180    24.6050     2.2100   -36.0020 
  171.3750    60.2890   190.6040   185.4690   143.1820    24.6010     2.2180   -36.0740 
  171.5000    65.2290   193.0170   185.6620   153.6550    24.6000     2.2240   -36.0690 
  171.6250    67.1650   202.5360   192.9980   159.1750    24.6000     2.2270   -36.0080 
  171.7500    64.9470   218.4450   206.8670   162.1870    24.6000     2.2260   -35.9070 
  171.8750    62.5950   240.5960   226.7620   169.5010    24.6000     2.2210   -35.7790 
  172.0000    61.9130   268.0040   251.1520   184.2910    24.6000     2.2110   -35.5630 
  172.1250    60.1580   298.2600   277.4110   211.8000    24.6000     2.2000   -35.3800 
  172.2500    58.6330   326.7230   301.7120   233.8410    24.5990     2.1900   -35.1660 
  172.3750    59.7370   349.1550   321.0480   240.5030    24.5980     2.1850   -35.0030 
  172.5000    61.9100   362.2020   333.2930   239.1150    24.5960     2.1840   -34.7260 
  172.6250    63.5410   363.3310   336.6820   233.5630    24.5880     2.1870   -34.5860 
  172.7500    63.9640   356.3860   333.5130   231.9240    24.5650     2.1890   -34.3750 
  172.8750    62.6890   343.7150   325.2080   228.9050    24.5420     2.1880   -34.1740 
  173.0000    59.7930   326.7720   312.8990   220.7950    24.5260     2.1850   -33.9640 
  173.1250    58.8470   305.2750   296.3520   211.3890    24.5050     2.1800   -33.6260 
  173.2500    60.9280   280.1090   275.9450   208.7050    24.4700     2.1760   -33.3170 
  173.3750    63.5330   252.0200   251.8990   211.5430    24.4440     2.1750   -32.9520 
  173.5000    64.0250   222.6330   225.3280   204.4460    24.4260     2.1770   -32.6820 
  173.6250    63.4220   194.1730   198.1920   169.0100    24.3910     2.1840   -32.2850 
