~V
VERS. 2.00: Ver 2.00
~W
STRT.M 59.0000:
STOP.M 275.0000:
STEP.M 0.1250:
NULL. -999.2500:
UWI. DF5021:
~C
DEPT.M :
SP.MV :
GR.API :
CALI.CM :
RXO.OHMM :
RI. :
RML.OHMM :
DEN.GM/CC :
~A
   59.0000    40.1000    49.6460    25.3520     0.2760     0.1290     0.1010     1.8740 
   59.1250    34.9950    51.2370    25.2730     0.5240     0.1990     0.1570     1.9430 
   59.2500    29.1670    55.0790    25.1580     1.2210     0.3510     0.2810     2.1100 
   59.3750    22.6870    61.0810    24.9680     2.7040     0.6450     0.5330     2.2410 
   59.5000    15.7230    66.8370    24.7180     4.3260     1.0970     0.9370     2.2580 
   59.6250     8.6200    71.1950    24.5640     5.5000     1.7100     1.4970     2.2050 
   59.7500     1.7980    74.4420    24.5370     6.0780     2.4450     2.1600     2.1600 
   59.8750    -4.5080    77.1760    24.5220     6.3720     3.2100     2.8030     2.1640 
   60.0000   -10.1060    79.0440    24.4530     6.6990     3.8930     3.3200     2.1950 
   60.1250   -14.6990    79.8290    24.3150     7.0420     4.4300     3.6780     2.2260 
   60.2500   -18.3240    80.4550    24.1780     7.3130     4.8110     3.9120     2.2380 
   60.3750   -20.9650    81.7750    24.1050     7.4000     5.0450     4.0670     2.2270 
   60.5000   -22.7680    82.4950    24.0890     7.3790     5.1770     4.1740     2.2050 
   60.6250   -23.9960    81.4560    24.0860     7.4050     5.2250     4.2350     2.1860 
   60.7500   -24.9890    79.5290    24.0860     7.4950     5.2150     4.2640     2.1780 
   60.8750   -25.8550    78.5030    24.0840     7.4190     5.1700     4.2830     2.1810 
   61.0000   -26.6760    78.3350    24.0810     7.0570     5.1250     4.3100     2.1830 
   61.1250   -27.5400    77.9560    24.0830     6.5450     5.0940     4.3520     2.1760 
   61.2500   -28.4820    76.7090    24.1030     6.0970     5.0830     4.4110     2.1570 
   61.3750   -29.4760    74.8140    24.1750     5.8850     5.0950     4.4880     2.1340 
   61.5000   -30.4430    73.0240    24.2940     5.8830     5.1230     4.5750     2.1220 
   61.6250   -31.3250    71.2650    24.4110     6.0210     5.1660     4.6610     2.1320 
   61.7500   -32.1120    69.0900    24.5030     6.2590     5.2160     4.7370     2.1580 
   61.8750   -32.7840    67.3150    24.5060     6.5830     5.2690     4.7980     2.1770 
   62.0000   -33.3540    67.2100    24.4570     6.9080     5.3150     4.8480     2.1770 
   62.1250   -33.7610    68.3620    24.4130     7.1230     5.3450     4.8870     2.1600 
   62.2500   -34.0730    69.3020    24.3830     7.2230     5.3540     4.9110     2.1420 
   62.3750   -34.2960    69.6390    24.3260     7.2570     5.3360     4.9140     2.1360 
   62.5000   -34.4620    70.0360    24.2370     7.2780     5.3000     4.9050     2.1410 
   62.6250   -34.5730    70.1490    24.1600     7.2110     5.2560     4.8930     2.1500 
   62.7500   -34.6480    69.0060    24.1410     7.0330     5.2170     4.8850     2.1540 
   62.8750   -34.7130    67.0040    24.1290     6.8080     5.1990     4.9000     2.1500 
   63.0000   -34.7500    65.9560    24.1310     6.6120     5.2080     4.9430     2.1370 
   63.1250   -34.7620    66.5620    24.1110     6.4140     5.2490     5.0190     2.1210 
   63.2500   -34.7180    68.1680    24.0610     6.2150     5.3190     5.1240     2.1120 
   63.3750   -34.6590    69.9380    24.0290     6.1190     5.4060     5.2440     2.1170 
   63.5000   -34.6100    71.9440    24.0170     6.1950     5.4930     5.3590     2.1270 
   63.6250   -34.4570    74.4400    24.0150     6.3640     5.5640     5.4530     2.1320 
   63.7500   -34.3400    76.7120    24.0080     6.4870     5.6100     5.5190     2.1340 
   63.8750   -34.2170    77.1050    23.9830     6.4690     5.6250     5.5500     2.1330 
   64.0000   -34.1050    75.9620    23.9620     6.4560     5.6210     5.5610     2.1300 
   64.1250   -33.9840    74.3720    23.9780     6.5680     5.6110     5.5620     2.1250 
   64.2500   -33.8340    72.9490    24.0680     6.7980     5.6010     5.5650     2.1250 
   64.3750   -33.6330    71.9650    24.1740     6.9770     5.5990     5.5770     2.1370 
   64.5000   -33.3400    72.7230    24.2120     6.9820     5.6020     5.6000     2.1560 
   64.6250   -33.0660    76.2820    24.2350     6.8840     5.6100     5.6260     2.1770 
   64.7500   -32.6210    81.3220    24.2260     6.8440     5.6210     5.6440     2.1950 
   64.8750   -32.1280    85.3360    24.1490     6.9680     5.6300     5.6430     2.2120 
   65.0000   -31.6000    88.3630    24.0720     7.0070     5.6340     5.6310     2.2280 
   65.1250   -30.9580    91.2490    24.0520     6.8150     5.6340     5.6140     2.2360 
   65.2500   -30.3800    93.2020    24.1200     6.5030     5.6360     5.5970     2.2290 
   65.3750   -29.7960    92.4790    24.2440     6.3710     5.6420     5.5850     2.2000 
   65.5000   -29.1940    89.7900    24.3000     6.4600     5.6500     5.5780     2.1630 
   65.6250   -28.6210    86.7610    24.2900     6.6120     5.6520     5.5760     2.1330 
   65.7500   -28.1350    85.1720    24.2730     6.6910     5.6370     5.5720     2.1230 
   65.8750   -27.5750    86.5850    24.2850     6.6690     5.5870     5.5430     2.1400 
   66.0000   -26.9420    89.7310    24.3190     6.5700     5.4920     5.4740     2.1640 
   66.1250   -26.3490    92.7840    24.3430     6.4140     5.3480     5.3640     2.1800 
   66.2500   -25.6370    95.4990    24.3510     6.2730     5.1730     5.2460     2.1830 
   66.3750   -24.7890    99.2570    24.3460     6.1210     5.0370     5.2150     2.1850 
   66.5000   -23.9050   103.2920    24.3290     5.8910     5.0280     5.3760     2.1970 
   66.6250   -23.0400   106.1910    24.2950     5.6200     5.2300     5.8240     2.2190 
   66.7500   -22.1580   108.1590    24.2130     5.5360     5.7190     6.6120     2.2420 
   66.8750   -21.3490   109.2040    24.1080     6.0520     6.5750     7.7490     2.2690 
   67.0000   -20.7270   107.0360    24.0860     7.5630     7.6730     9.0220     2.3190 
   67.1250   -20.2030   100.6420    24.1910    10.4850     8.8440    10.1960     2.4000 
   67.2500   -19.7730    92.6150    24.2680    14.3770     9.8380    11.0130     2.4780 
   67.3750   -19.6330    87.1860    24.2320    16.9860    10.3050    11.1700     2.4800 
   67.5000   -19.6610    84.7670    24.1500    17.0060    10.2080    10.7500     2.3950 
   67.6250   -19.6520    84.0430    24.1050    14.7330     9.6490     9.9290     2.2670 
   67.7500   -19.7830    84.6310    24.0870    11.5910     8.8440     8.9670     2.1600 
   67.8750   -20.0200    87.6740    24.0430     9.2400     8.0550     8.1550     2.1150 
   68.0000   -20.1030    92.2470    23.9720     8.0690     7.4630     7.6290     2.1060 
   68.1250   -20.1170    96.0470    23.9240     7.6150     7.1270     7.4090     2.1110 
   68.2500   -20.1900    97.1120    23.8870     7.4940     7.0320     7.4400     2.1220 
   68.3750   -20.0960    96.0830    23.9240     7.4740     7.1340     7.6410     2.1430 
   68.5000   -19.9340    95.2130    23.9580     7.4210     7.3230     7.8880     2.1700 
   68.6250   -19.9030    95.2840    24.0000     7.3790     7.5330     8.1110     2.1910 
   68.7500   -19.7590    95.9860    24.0180     7.5050     7.7090     8.2630     2.1970 
   68.8750   -19.5570    96.4660    24.0000     7.9250     7.7940     8.2940     2.1790 
   69.0000   -19.5200    96.4990    23.9550     8.3570     7.7800     8.2200     2.1530 
   69.1250   -19.4940    96.4690    23.9020     8.4890     7.6760     8.0710     2.1370 
   69.2500   -19.3940    96.6000    23.8530     8.2380     7.5190     7.8980     2.1400 
   69.3750   -19.4360    96.6410    23.8530     7.8380     7.3650     7.7710     2.1520 
   69.5000   -19.4780    96.3800    23.8790     7.5970     7.2560     7.7230     2.1630 
   69.6250   -19.4130    95.7420    23.9020     7.5420     7.2110     7.7580     2.1750 
   69.7500   -19.4920    94.5360    23.9010     7.6510     7.2290     7.8550     2.1920 
   69.8750   -19.5870    93.1650    23.8670     7.9090     7.2930     7.9730     2.2060 
   70.0000   -19.5340    91.9320    23.8210     8.2270     7.3620     8.0620     2.2080 
   70.1250   -19.5730    90.0650    23.8410     8.4910     7.4070     8.0900     2.2010 
