~V
VERS. 2.00: Ver 2.00
~W
STRT.M 50.0000:
STOP.M 245.0000:
STEP.M 0.1250:
NULL. -999.2500:
UWI. DF5062:
~C
DEPT.M :
DEN.GM/CC :
GR.API :
RML.OHMM :
RI. :
RXO.OHMM :
CALI.CM :
SP.MV :
~A
# ...
   83.7500     2.3460    71.7190    10.0720     8.2820     8.5100    21.9600   -42.6150 
   83.8750     2.2820    76.1280     9.6990     7.8340     8.6880    22.0800   -42.5150 
   84.0000     2.2290    79.5580     9.5380     7.5310     8.8860    22.1950   -42.5140 
   84.1250     2.1980    79.1820     9.6310     7.4490     9.0190    22.2590   -42.5810 
   84.2500     2.1880    77.8240     9.8860     7.5430     9.0710    22.2810   -42.5050 
   84.3750     2.1950    76.5490    10.2090     7.7560     9.1300    22.2790   -42.4740 
   84.5000     2.2170    73.9190    10.4920     8.0090     9.2080    22.2700   -42.4930 
   84.6250     2.2470    69.8570    10.6040     8.1910     9.2270    22.2500   -42.3640 
   84.7500     2.2700    68.2030    10.5150     8.2420     9.2580    22.2030   -42.2670 
   84.8750     2.2760    68.0660    10.2510     8.1500     9.2340    22.1610   -42.1650 
   85.0000     2.2640    66.1250     9.8990     7.9560     8.7750    22.1560   -41.8730 
   85.1250     2.2410    64.6980     9.5710     7.7320     8.4270    22.1930   -41.5720 
   85.2500     2.2200    65.1150     9.3110     7.5330     8.3590    22.2410   -41.2660 
   85.3750     2.2080    65.1370     9.0830     7.3540     8.4510    22.2750   -40.9000 
   85.5000     2.2040    64.4540     8.8180     7.1590     8.5510    22.3130   -40.5240 
   85.6250     2.2090    67.3650     8.4680     6.9130     8.5640    22.4000   -40.0850 
   85.7500     2.2220    73.5190     8.0960     6.6510     8.4400    22.5770   -39.5810 
   85.8750     2.2390    80.8030     7.8150     6.4530     8.0760    22.8950   -39.1230 
   86.0000     2.2540    88.0710     7.7350     6.4100     7.5220    23.2300   -38.6380 
   86.1250     2.2550    91.9780     7.9290     6.5990     7.1020    22.9340   -38.1160 
   86.2500     2.2430    90.7390     8.2560     6.9240     7.4640    22.3750   -37.6590 
   86.3750     2.2270    87.2300     8.5470     7.2560     8.2190    22.0540   -37.1950 
   86.5000     2.2200    85.3650     8.6360     7.4460     8.6650    22.0560   -36.6640 
   86.6250     2.2320    86.4960     8.4000     7.3480     8.4110    22.3010   -36.0960 
   86.7500     2.2550    91.2210     7.9580     7.0190     7.5520    22.7630   -35.4980 
   86.8750     2.2790    98.6570     7.4460     6.5570     6.5450    23.4770   -34.9200 
   87.0000     2.2950   104.8070     6.9730     6.0640     5.9360    24.2280   -34.3690 
   87.1250     2.3000   105.5470     6.5680     5.6030     5.7530    24.6990   -33.7950 
   87.2500     2.2990   103.3580     6.1610     5.1760     5.7500    24.8740   -33.3250 
   87.3750     2.2960   102.3510     5.7520     4.7940     5.7480    24.9390   -33.0050 
   87.5000     2.2930   102.7530     5.4970     4.5340     5.7430    24.9670   -32.6840 
   87.6250     2.3020   102.7880     5.8960     4.7110     5.9550    24.9740   -32.5790 
   87.7500     2.3340   101.6850     7.4980     5.6880     6.8780    24.9730   -32.6960 
   87.8750     2.3970    98.5670    10.6660     7.8200     9.6960    24.9940   -32.8830 
   88.0000     2.4840    90.9330    15.2690    11.1740    15.8540    25.0020   -33.2950 
   88.1250     2.5650    79.0110    20.3030    15.2170    26.3630    24.9720   -33.8480 
   88.2500     2.5980    68.8390    23.6090    18.5250    42.0190    24.8850   -34.3380 
   88.3750     2.5650    64.2630    24.0230    19.7840    52.2330    24.6140   -34.9670 
   88.5000     2.4800    66.0720    21.2810    18.4240    38.3620    23.9600   -35.7330 
   88.6250     2.3770    70.1360    16.9060    15.2390    20.7220    23.0540   -36.5080 
   88.7500     2.2890    72.0490    13.2750    12.2070    11.7500    22.5620   -37.2740 
   88.8750     2.2270    71.6770    11.0570    10.0660     9.0810    22.3620   -37.9640 
   89.0000     2.1900    71.5690    10.0600     8.8410     8.3260    22.2570   -38.5710 
   89.1250     2.1750    71.7460     9.9220     8.3610     8.1000    22.1750   -39.1010 
   89.2500     2.1690    71.0900    10.1140     8.2460     7.9920    22.1560   -39.5570 
   89.3750     2.1680    70.0660    10.4090     8.3160     7.9650    22.1920   -39.8560 
   89.5000     2.1660    67.3450    10.6870     8.4500     7.9660    22.2730   -40.0820 
   89.6250     2.1640    63.4860    10.8940     8.5730     7.9910    22.3440   -40.2340 
   89.7500     2.1630    63.2210    11.0330     8.6610     8.1250    22.3670   -40.3870 
   89.8750     2.1620    68.3420    11.0990     8.7090     8.3100    22.3500   -40.6020 
   90.0000     2.1610    73.3330    11.0840     8.7160     8.5440    22.3020   -40.7350 
   90.1250     2.1590    71.9900    10.9880     8.6790     8.7450    22.2860   -40.8950 
   90.2500     2.1530    68.6550    10.8550     8.6140     8.8800    22.3030   -41.1800 
   90.3750     2.1470    67.6290    10.7140     8.5320     8.9650    22.3010   -41.3990 
   90.5000     2.1410    68.2120    10.5810     8.4460     8.9180    22.2250   -41.6500 
   90.6250     2.1390    66.8100    10.4770     8.3650     8.7340    22.0970   -41.9520 
   90.7500     2.1390    65.0640    10.4160     8.2970     8.7610    22.0170   -42.0960 
   90.8750     2.1410    65.2660    10.4070     8.2480     8.9580    21.9900   -42.2010 
   91.0000     2.1420    66.4390    10.4450     8.2190     9.2000    21.9890   -42.3770 
   91.1250     2.1400    68.7960    10.5010     8.2060     9.4210    21.9930   -42.4010 
   91.2500     2.1380    71.9990    10.5390     8.2010     9.4990    21.9870   -42.2910 
   91.3750     2.1390    74.2500    10.5460     8.1960     9.3460    21.9500   -42.2240 
   91.5000     2.1440    72.1090    10.5270     8.1860     9.1560    21.8800   -41.9620 
   91.6250     2.1540    66.7240    10.5000     8.1690     8.9970    21.8720   -41.5980 
   91.7500     2.1660    64.1010    10.4710     8.1390     8.9520    21.9570   -41.2780 
   91.8750     2.1760    64.7190    10.4200     8.0790     8.9670    22.0880   -40.8190 
   92.0000     2.1830    66.2380    10.3070     7.9600     9.0060    22.2770   -40.3040 
   92.1250     2.1900    67.9800    10.0590     7.7300     9.0280    22.4930   -39.7950 
   92.2500     2.2010    70.2510     9.6690     7.3860     8.9320    22.6580   -39.2390 
   92.3750     2.2180    72.7780     9.1650     6.9550     8.6110    22.7270   -38.6760 
   92.5000     2.2390    74.5910     8.6270     6.4990     8.1180    22.7340   -38.2140 
   92.6250     2.2560    79.0190     8.2070     6.1350     7.7550    22.7210   -37.9160 
   92.7500     2.2600    85.5290     8.0220     5.9420     7.3350    22.7140   -37.7140 
   92.8750     2.2490    88.2550     8.1420     5.9640     6.9790    22.7090   -37.7170 
   93.0000     2.2270    83.2870     8.5630     6.2010     7.0320    22.6720   -37.9420 
   93.1250     2.2010    74.5690     9.2060     6.6200     7.6020    22.5750   -38.3380 
   93.2500     2.1830    71.2080     9.8600     7.0940     8.6950    22.4960   -38.8910 
   93.3750     2.1760    71.8440    10.3630     7.5230    10.0380    22.4670   -39.5690 
   93.5000     2.1790    69.4230    10.6240     7.8310    10.2370    22.4600   -40.2620 
   93.6250     2.1870    64.0820    10.6370     7.9630     9.7720    22.4500   -40.8080 
   93.7500     2.1910    62.4000    10.5570     7.9820     9.5060    22.4260   -41.3150 
   93.8750     2.1890    64.7480    10.4910     7.9490     9.5340    22.3900   -41.7820 
   94.0000     2.1820    67.1530    10.4880     7.9170     9.5760    22.3850   -41.9370 
   94.1250     2.1760    68.2300    10.5470     7.9260     9.4800    22.4240   -41.9510 
   94.2500     2.1740    69.2060    10.6170     7.9690     9.5060    22.4500   -41.9620 
   94.3750     2.1790    69.5020    10.6680     8.0280     9.7040    22.4750   -41.7370 
   94.5000     2.1880    68.5000    10.6860     8.0800     9.8170    22.5260   -41.4890 
   94.6250     2.1960    68.0320    10.6690     8.1050     9.7590    22.6210   -41.3270 
   94.7500     2.1980    69.8300    10.6300     8.1030     9.6800    22.6980   -41.0640 
   94.8750     2.1930    71.8380    10.5840     8.0800     9.5760    22.7370   -40.7700 
