~V
VERS. 2.00: Ver 2.00
~W
STRT.M 55.0000:
STOP.M 262.0000:
STEP.M 0.1250:
NULL. -999.2500:
UWI. DF5047:
~C
DEPT.M :
GR.API :
CALI.CM :
RXO.OHMM :
RI. :
RML.OHMM :
DEN.GM/CC :
SP.MV :
~A
# ...
  167.5000    69.4140    26.5350    43.5160    65.2070    67.8920     2.2670   -43.1700 
  167.6250    68.6600    26.5430    64.9600    72.4430    77.4370     2.2530   -43.3480 
  167.7500    66.9990    26.5430    84.3170    84.4370    91.9850     2.2340   -43.2920 
  167.8750    65.2550    26.5520    90.8040   101.6860   111.9600     2.2140   -43.2260 
  168.0000    65.0500    26.5100   104.6020   124.0630   137.2210     2.1980   -43.2730 
  168.1250    65.1680    26.3410   153.4450   150.1920   166.5200     2.1860   -43.2180 
  168.2500    63.3440    26.2150   210.7780   175.6730   195.2850     2.1790   -43.2520 
  168.3750    60.0080    26.2750   239.6850   196.5180   219.0530     2.1710   -43.3080 
  168.5000    57.7730    26.4560   233.7770   209.8530   234.4380     2.1600   -43.1640 
  168.6250    56.9980    26.5510   204.5850   214.0440   239.5840     2.1440   -43.0630 
  168.7500    55.1870    26.5350   193.0750   212.8190   238.7660     2.1300   -43.0290 
  168.8750    54.5610    26.4770   176.4530   209.1760   235.3070     2.1220   -42.9410 
  169.0000    56.6760    26.3900   163.2140   205.3710   231.4560     2.1250   -42.8040 
  169.1250    58.1680    26.3340   163.4710   201.9530   227.1610     2.1370   -42.8480 
  169.2500    57.8430    26.3440   175.3500   197.0180   219.9700     2.1500   -42.6600 
  169.3750    57.9690    26.3670   185.9860   188.0620   207.1910     2.1620   -42.5320 
  169.5000    59.5530    26.3370   184.5130   173.8040   188.1420     2.1730   -42.5900 
  169.6250    60.0650    26.2790   163.4590   155.1560   165.1880     2.1830   -42.4670 
  169.7500    59.5370    26.2640   130.3640   136.3370   143.4750     2.1950   -42.3680 
  169.8750    60.1500    26.2870   101.1860   120.2840   125.9070     2.2060   -42.3140 
  170.0000    60.6580    26.3080    87.4190   108.4380   113.4170     2.2140   -42.2610 
  170.1250    60.4200    26.2930    83.9580   101.2490   105.9900     2.2190   -42.2230 
  170.2500    60.0230    26.2470    82.1620    96.9570   101.5060     2.2200   -42.2000 
  170.3750    59.9590    26.1940    83.9200    94.5140    98.7890     2.2190   -42.1360 
  170.5000    60.9720    26.1860    85.3840    93.0370    96.9160     2.2160   -42.0720 
  170.6250    63.6550    26.2540    82.0360    91.9480    95.3860     2.2140   -42.0340 
  170.7500    67.0580    26.3180    76.0660    91.0110    94.0780     2.2150   -42.0290 
  170.8750    69.7630    26.3200    73.9190    90.2940    93.0840     2.2200   -42.0150 
  171.0000    69.9930    26.2740    79.0730    89.7700    92.3420     2.2280   -41.9380 
  171.1250    66.2270    26.2380    81.7870    89.1930    91.5740     2.2350   -41.9440 
  171.2500    61.4450    26.2170    77.5800    88.3380    90.5610     2.2390   -42.0290 
  171.3750    59.9730    26.1830    75.0910    87.1500    89.2920     2.2410   -42.0920 
  171.5000    62.5180    26.1410    75.3910    85.7130    87.9050     2.2410   -42.1210 
  171.6250    66.0720    26.1190    71.4720    84.2860    86.7030     2.2370   -42.1480 
  171.7500    67.3900    26.1330    65.9090    83.1710    85.8980     2.2310   -42.1850 
  171.8750    65.9020    26.2000    65.3160    82.4870    85.5330     2.2260   -42.2120 
  172.0000    62.7570    26.3170    68.5680    82.2100    85.5570     2.2220   -42.3460 
  172.1250    60.9680    26.4260    68.3980    82.3580    86.0160     2.2230   -42.4410 
  172.2500    62.2520    26.4770    67.2730    82.8750    86.8970     2.2270   -42.4710 
  172.3750    65.5370    26.4830    68.0040    83.7990    88.2690     2.2300   -42.5340 
  172.5000    67.1980    26.4790    69.7510    85.2280    90.2310     2.2320   -42.6390 
  172.6250    64.9950    26.4820    70.7360    87.3640    92.9230     2.2320   -42.7920 
  172.7500    62.7550    26.4750    73.0940    89.9660    95.9930     2.2310   -42.9470 
  172.8750    63.1010    26.4570    79.2170    92.5870    98.9240     2.2300   -43.1250 
  173.0000    64.9180    26.4540    87.0720    94.6000   101.0800     2.2290   -43.2550 
  173.1250    64.0390    26.4740    88.0570    95.2080   101.7010     2.2280   -43.3300 
  173.2500    61.8450    26.4970    82.6730    94.4920   101.0060     2.2270   -43.4780 
  173.3750    61.0930    26.5260    76.4940    92.8970    99.5760     2.2270   -43.5430 
  173.5000    62.2780    26.5770    72.6300    91.2150    98.2970     2.2250   -43.5910 
  173.6250    62.4030    26.6340    69.7400    90.4850    98.2480     2.2230   -43.5480 
  173.7500    60.5320    26.6580    68.2360    91.1020    99.6940     2.2200   -43.4260 
  173.8750    59.7100    26.6600    69.3990    93.1170   102.5980     2.2190   -43.3730 
  174.0000    61.3220    26.6550    74.6190    96.3270   106.6880     2.2200   -43.2610 
  174.1250    63.3130    26.6370    82.9150   100.4910   111.6610     2.2240   -43.0520 
  174.2500    65.1890    26.6420    84.2920   105.0750   116.9670     2.2290   -42.8250 
  174.3750    66.2780    26.6890    77.0990   109.7710   122.2820     2.2320   -42.6250 
  174.5000    63.9420    26.7510    64.1680   114.2970   127.3370     2.2280   -42.3890 
  174.6250    59.7830    26.7730    68.5750   118.2980   131.8150     2.2190   -42.2810 
  174.7500    58.7010    26.7680    78.1030   121.6900   135.6760     2.2080   -42.0380 
  174.8750    59.0550    26.7650    84.7970   124.4710   138.9330     2.2010   -41.7000 
  175.0000    57.4490    26.7660    87.1490   126.7340   141.7060     2.2000   -41.5720 
  175.1250    56.2540    26.7660    85.3640   128.6800   144.2510     2.2050   -41.3750 
  175.2500    56.9810    26.7660    91.8170   130.6350   146.8760     2.2140   -41.1750 
  175.3750    57.6540    26.7650   104.1020   132.6740   149.5870     2.2200   -41.0210 
  175.5000    58.4810    26.7650   112.2510   134.6630   152.1920     2.2240   -40.7600 
  175.6250    60.7610    26.7750   113.4000   136.4080   154.5260     2.2260   -40.6380 
  175.7500    62.6180    26.7830   123.0540   138.0750   156.9180     2.2270   -40.6660 
  175.8750    62.8880    26.7730   138.8760   140.0920   159.9550     2.2300   -40.6060 
  176.0000    62.1360    26.7480   148.3470   143.0200   164.2550     2.2300   -40.4920 
  176.1250    61.3440    26.7410   150.5670   147.5450   170.4380     2.2260   -40.4800 
  176.2500    61.5790    26.7520   156.2800   153.4500   178.0030     2.2190   -40.5220 
  176.3750    63.6270    26.7520   164.0980   160.3140   186.2450     2.2110   -40.5830 
  176.5000    64.7490    26.7250   163.7770   167.4870   194.2110     2.2040   -40.5590 
  176.6250    61.1320    26.6890   160.5810   174.0850   200.5590     2.2010   -40.4610 
  176.7500    55.8680    26.6620   155.9180   179.4530   204.6170     2.2000   -40.4580 
  176.8750    53.6300    26.6330   152.6400   183.0990   205.9110     2.1990   -40.4690 
  177.0000    55.5880    26.5940   151.1700   184.7300   204.2170     2.1980   -40.4490 
  177.1250    57.1040    26.5600   157.4600   183.5190   198.4720     2.2010   -40.3480 
  177.2500    57.4410    26.5350   159.7660   178.5410   187.7880     2.2080   -40.1380 
  177.3750    58.8970    26.4910   151.5790   167.9260   170.6420     2.2150   -40.0420 
  177.5000    61.5230    26.3990   134.4470   150.7700   147.3120     2.2110   -39.9980 
  177.6250    62.9910    26.2650   112.8330   128.2710   120.9700     2.1920   -39.9090 
  177.7500    63.5500    26.0400    80.6720   105.3120    96.7000     2.1690   -39.8210 
  177.8750    64.9710    25.6140    43.5540    85.2150    77.0820     2.1570   -39.6960 
  178.0000    68.1270    24.9830    22.4640    69.7330    62.8400     2.1640   -39.5890 
  178.1250    70.2370    24.3390    21.4580    59.7390    54.1360     2.1970   -39.6210 
  178.2500    69.3830    23.8960    24.6330    53.5640    49.0970     2.2390   -39.7170 
  178.3750    65.9510    23.7080    25.5270    50.3410    46.8160     2.2770   -39.7130 
  178.5000    62.7710    23.7090    26.5960    49.2380    46.4010     2.2980   -39.7050 
  178.6250    62.7390    23.7420    30.7670    49.4340    47.0170     2.2990   -39.6900 
