~V
VERS. 2.00: Ver 2.00
~W
STRT.M 60.0000:
STOP.M 259.0000:
STEP.M 0.1250:
NULL. -999.2500:
UWI. DF5006:
~C
DEPT.M :
SP.MV :
GR.API :
RML.OHMM :
RI. :
RXO.OHMM :
CALI.CM :
DEN.GM/CC :
~A
# ...
  240.0000   -12.7430    60.6780   160.3430   153.2860   144.3300    23.9920     2.1950 
  240.1250   -12.5980    57.3270   157.2230   152.4920   152.9690    24.0530     2.1970 
  240.2500   -12.4540    55.7610   148.3570   145.4700   155.8960    24.0770     2.1990 
  240.3750   -12.3320    58.1220   135.4010   133.5530   144.0920    24.0980     2.2000 
  240.5000   -12.1920    60.8750   121.8550   118.8940   123.4340    24.1170     2.2000 
  240.6250   -12.0670    60.2800   109.8380   104.0560   100.9130    24.1250     2.1980 
  240.7500   -11.9030    59.1410    97.9430    91.2170    85.7520    24.1250     2.1970 
  240.8750   -11.7920    61.4540    88.6030    80.6140    79.2520    24.1250     2.1970 
  241.0000   -11.6810    64.0590    80.1340    72.0650    75.4000    24.1260     2.2000 
  241.1250   -11.6390    64.9470    72.6580    65.3750    70.2520    24.1280     2.2050 
  241.2500   -11.5810    67.0240    67.6940    60.9080    61.6350    24.1300     2.2110 
  241.3750   -11.5360    69.8640    65.1780    58.5660    53.6120    24.1290     2.2150 
  241.5000   -11.5220    71.6890    65.2280    58.4860    52.1590    24.1260     2.2170 
  241.6250   -11.5050    70.8630    67.6100    60.5470    56.4110    24.1250     2.2180 
  241.7500   -11.5590    68.7940    71.7020    64.3440    63.0580    24.1250     2.2180 
  241.8750   -11.5870    67.0360    75.8670    68.4600    68.3290    24.1250     2.2180 
  242.0000   -11.6350    66.9400    78.7440    71.6570    72.8050    24.1250     2.2160 
  242.1250   -11.6390    68.7790    79.2920    72.8980    75.3970    24.1250     2.2150 
  242.2500   -11.6960    68.4950    76.8350    71.3890    72.5130    24.1250     2.2150 
  242.3750   -11.7490    65.8780    72.5880    68.0660    66.8910    24.1250     2.2160 
  242.5000   -11.7980    65.0500    67.7720    63.9660    62.4030    24.1190     2.2190 
  242.6250   -11.8530    68.1600    63.6070    60.2140    59.5670    24.1040     2.2200 
  242.7500   -11.9060    72.2490    61.2800    57.9720    57.5250    24.0680     2.2180 
  242.8750   -11.9540    71.4270    60.6690    57.3140    56.4880    24.0210     2.2140 
  243.0000   -12.0010    67.2150    61.1350    57.7920    57.1510    23.9650     2.2070 
  243.1250   -12.0420    65.6920    61.5240    58.4330    59.3010    23.9350     2.2010 
  243.2500   -12.0680    69.3640    60.2270    57.7500    60.8690    23.9440     2.1970 
  243.3750   -12.0880    73.1480    56.8580    55.1700    59.2450    23.9740     2.1980 
  243.5000   -12.0900    73.9840    51.9450    50.9850    53.1010    23.9880     2.2020 
  243.6250   -12.1340    73.7400    46.7490    46.2360    43.0300    23.9900     2.2110 
  243.7500   -12.1090    76.0290    42.7790    42.3130    34.7880    23.9890     2.2230 
  243.8750   -12.1090    78.5790    40.3010    39.6570    32.4020    23.9880     2.2410 
  244.0000   -12.0640    78.6160    38.8910    38.0150    34.0590    23.9800     2.2650 
  244.1250   -12.0360    76.9550    37.7890    36.7790    34.8200    23.9590     2.2950 
  244.2500   -11.9870    76.5380    36.2310    35.2630    33.9160    23.8890     2.3230 
  244.3750   -11.9600    77.9580    34.1780    33.3260    30.8090    23.8850     2.3390 
  244.5000   -11.9690    80.4970    32.1900    31.3810    28.1540    23.8880     2.3380 
  244.6250   -11.9810    83.4880    31.2370    30.2560    26.5170    23.8100     2.3200 
  244.7500   -12.0740    86.1360    32.8540    31.3610    26.5840    23.6920     2.2890 
  244.8750   -12.1890    85.7880    37.3840    35.1670    30.4980    23.7020     2.2550 
  245.0000   -12.3490    82.4930    44.6200    41.6680    37.6390    23.7980     2.2240 
  245.1250   -12.5300    77.4200    53.3460    49.8850    47.0230    23.8150     2.2080 
  245.2500   -12.7530    70.8640    60.8810    57.3770    55.3100    23.7570     2.2210 
  245.3750   -12.9390    64.7480    64.7660    61.5910    59.3860    23.7110     2.2600 
  245.5000   -13.0940    61.1300    64.1680    61.4050    57.7450    23.7240     2.3120 
  245.6250   -13.1650    60.8730    60.3660    57.8060    52.1520    23.8360     2.3530 
  245.7500   -13.1930    62.8450    56.6010    53.7420    50.0510    23.8220     2.3530 
  245.8750   -13.1530    65.3320    55.5910    52.1290    51.7840    23.6600     2.3280 
  246.0000   -13.0720    67.7910    58.3980    54.3220    68.2890    23.5510     2.3090 
  246.1250   -12.9150    69.1200    64.8740    60.6790    96.0710    23.5950     2.3270 
  246.2500   -12.7010    68.6520    75.0240    71.0450   127.3390    23.4580     2.3940 
  246.3750   -12.4600    67.6020    86.9460    83.0010   154.1810    23.2690     2.4790 
  246.5000   -12.2010    66.5310    98.9900    94.2140   158.2340    23.2920     2.5480 
  246.6250   -11.9990    65.6610   107.7680   102.3780   130.4950    23.4370     2.5800 
  246.7500   -11.7690    65.6950   110.8070   105.2250   110.1860    23.5730     2.5800 
  246.8750   -11.5600    66.5370   109.1060   103.6420    98.5350    23.6680     2.5740 
  247.0000   -11.3370    66.9770   104.1490    98.9020    86.3100    23.7840     2.5690 
  247.1250   -11.1690    65.6770    98.0420    92.8820    77.2910    23.8330     2.5640 
  247.2500   -10.9850    62.8560    94.0080    88.4990    78.1000    23.7850     2.5480 
  247.3750   -10.8180    60.6780    94.6900    88.3270    79.0860    23.7140     2.5250 
  247.5000   -10.6480    59.4990   101.3570    93.8320    78.8380    23.6720     2.5040 
  247.6250   -10.4190    59.2860   112.8220   104.3150    83.1750    23.6680     2.4980 
  247.7500   -10.2000    59.7140   123.7750   115.3850    97.6980    23.6880     2.5170 
  247.8750    -9.9370    59.2610   126.6220   119.8290   118.5510    23.7070     2.5500 
  248.0000    -9.6770    58.3500   115.8320   112.1260   138.3090    23.6760     2.5830 
  248.1250    -9.3750    58.9610    91.5820    91.3770   146.9840    23.5770     2.6020 
  248.2500    -9.1080    62.3430    62.7060    63.9020   123.0200    23.4850     2.5960 
  248.3750    -8.8350    64.6390    39.7460    40.5370    79.8410    23.4760     2.5700 
  248.5000    -8.5850    64.6650    24.7330    24.9020    39.9950    23.4800     2.5270 
  248.6250    -8.3740    63.9620    15.9640    15.9520    17.2060    23.4200     2.4720 
  248.7500    -8.2200    63.5790    11.6560    11.6960     9.3770    23.3240     2.4160 
  248.8750    -8.1390    63.4020     9.8600     9.5250     7.2630    23.2300     2.3710 
  249.0000    -8.1220    64.1580     9.1380     8.5210     6.7200    23.1690     2.3450 
  249.1250    -8.1600    64.4080     8.9500     8.1580     6.5800    23.1410     2.3390 
  249.2500    -8.2550    64.4080     8.9870     8.1430     6.5850    23.1110     2.3450 
  249.3750    -8.4080    64.4080     9.0690     8.2370     6.5620    23.0510     2.3530 
  249.5000    -8.6200    64.4080     9.1550     8.3620     6.5300    22.9750     2.3560 
  249.6250    -8.8680    64.4080     9.2260     8.4730     6.5680    22.8850     2.3570 
  249.7500    -9.1020    64.4080     9.2530     8.5270     6.7350    22.8860     2.3560 
  249.8750    -9.3110    64.4080     9.2230     8.5090     6.9180    22.9480     2.3560 
  250.0000    -9.4700    64.4080     9.1360     8.4150     7.0950    23.0230     2.3560 
  250.1250    -9.5950    64.4080     9.0160     8.2620     7.2910    23.1080     2.3600 
  250.2500    -9.6660    64.4080     8.9150     8.0880     7.4440    23.2000     2.3730 
  250.3750    -9.7080    64.4080     8.8820     7.9450     7.5550    23.2540     2.3960 
  250.5000    -9.6800    64.4080     8.9380     7.8600     7.5530    23.2710     2.4250 
  250.6250    -9.6440    64.4080     9.0750     7.8380     7.4820    23.2730     2.4470 
  250.7500    -9.5780    64.4080     9.2560     7.8620     7.3730    23.2730     2.4480 
  250.8750    -9.5030    64.4080     9.4140     7.8880     7.4670    23.2730     2.4280 
  251.0000    -9.4700    64.4080     9.5060     7.8830     7.6040    23.2730     2.3950 
  251.1250    -9.4670    64.4080     9.5210     7.8280     7.6220    23.2730     2.3580 
