~V
VERS. 2.00: Ver 2.00
~W
STRT.M 65.0000:
STOP.M 272.0000:
STEP.M 0.1250:
NULL. -999.2500:
UWI. DF5002:
~C
DEPT.M :
DEN.GM/CC :
GR.API :
CALI.CM :
RXO.OHMM :
RI. :
RML.OHMM :
SP.MV :
~A
# ...
  188.7500     2.1990    68.2060    24.6930    98.2610    91.9730    99.4180   -31.6290 
  188.8750     2.2070    68.9360    24.6900    80.4690    83.4650    90.3920   -31.1370 
  189.0000     2.2150    67.4910    24.6980    71.8950    79.4520    86.1330   -30.7320 
  189.1250     2.2170    66.3720    24.7190    72.9120    80.7170    87.6670   -30.5170 
  189.2500     2.2120    69.2480    24.7440    82.1490    85.7740    93.2530   -30.3480 
  189.3750     2.2060    74.6090    24.7580    99.7290    92.9790   100.9400   -30.1690 
  189.5000     2.2000    77.9180    24.7620   120.8690    99.4040   107.7010   -29.9820 
  189.6250     2.1940    74.7620    24.7740   130.5190   100.4160   109.2330   -29.8320 
  189.7500     2.1950    69.0310    24.8090   126.1850    95.3330   104.8500   -29.7650 
  189.8750     2.2040    65.6990    24.8270   106.3610    86.1310    96.0170   -29.8170 
  190.0000     2.2210    67.6630    24.7110    84.9960    75.8610    85.4820   -29.8530 
  190.1250     2.2380    73.4930    24.3200    71.8160    67.1720    76.0900   -29.8150 
  190.2500     2.2540    77.1270    23.8850    64.0060    60.8130    69.0590   -29.8500 
  190.3750     2.2700    76.6670    23.6310    59.3010    56.8400    64.6290   -29.9810 
  190.5000     2.2810    76.2580    23.6200    56.6900    54.9560    62.5770   -30.1340 
  190.6250     2.2860    77.8730    23.8740    56.3920    54.8560    62.6530   -30.2530 
  190.7500     2.2900    78.4590    24.2150    59.1660    55.5990    63.8440   -30.2960 
  190.8750     2.2890    75.6320    24.4810    64.4540    56.5560    65.4650   -30.2650 
  191.0000     2.2800    71.7230    24.6010    67.9900    57.2370    66.9370   -30.2740 
  191.1250     2.2680    71.1120    24.6070    65.8170    57.4210    67.8980   -30.3370 
  191.2500     2.2650    72.3250    24.6030    61.8820    57.4520    68.5770   -30.3540 
  191.3750     2.2710    72.4140    24.6010    60.2590    57.6590    69.2580   -30.3110 
  191.5000     2.2770    71.6450    24.6010    61.9600    58.1710    70.0590   -30.2800 
  191.6250     2.2760    72.7350    24.5910    65.1890    58.7390    70.6730   -30.3410 
  191.7500     2.2710    76.0920    24.5680    67.3190    58.8010    70.5570   -30.5270 
  191.8750     2.2670    76.9270    24.5460    66.4920    57.9700    69.3070   -30.7820 
  192.0000     2.2600    74.7780    24.5360    63.0300    56.2940    66.9960   -31.0670 
  192.1250     2.2470    73.6130    24.5360    58.4160    54.3340    64.2570   -31.3080 
  192.2500     2.2380    74.2150    24.5350    55.7020    52.8900    62.0700   -31.5830 
  192.3750     2.2450    76.4020    24.5260    55.3860    52.5160    61.1340   -31.9030 
  192.5000     2.2620    78.5710    24.4690    56.5600    53.6900    62.0380   -32.2810 
  192.6250     2.2710    76.4860    24.2860    59.9370    57.4240    66.0210   -32.6530 
  192.7500     2.2680    70.9310    24.0180    65.7480    64.2260    73.7160   -32.9640 
  192.8750     2.2640    66.1460    23.8000    74.0300    75.1540    86.3310   -33.2160 
  193.0000     2.2560    64.2870    23.7090    87.5410    91.6090   105.2600   -33.4830 
  193.1250     2.2320    61.7060    23.7000   118.8750   116.7030   132.9210   -33.8210 
  193.2500     2.2010    56.9970    23.7420   168.9700   150.3730   167.5240   -34.1290 
  193.3750     2.1830    52.6560    23.8880   218.6920   191.1080   205.8910   -34.3830 
  193.5000     2.1810    51.1300    24.1630   252.7470   233.2750   242.4130   -34.5440 
  193.6250     2.1810    54.1810    24.2930   263.7350   266.1080   269.2850   -34.6620 
  193.7500     2.1810    58.4240    24.1830   264.1950   286.0640   285.8450   -34.7180 
  193.8750     2.1860    59.9170    23.9250   261.5330   296.6260   295.4380   -34.7060 
  194.0000     2.1910    60.0990    23.7440   260.2760   304.3710   303.4060   -34.5080 
  194.1250     2.1830    60.2040    23.6790   258.6250   314.2620   314.1510   -34.1780 
  194.2500     2.1660    58.8700    23.6160   272.3920   325.1480   326.6640   -33.8430 
  194.3750     2.1590    56.9330    23.5520   300.4820   330.1140   335.2270   -33.5210 
  194.5000     2.1690    57.1050    23.5230   317.0810   317.2280   330.2480   -33.2080 
  194.6250     2.1870    60.0160    23.5310   293.8120   274.7000   299.7510   -32.8350 
  194.7500     2.1980    62.0390    23.5790   240.9410   217.9030   250.9110   -32.4700 
  194.8750     2.2040    62.7910    23.7020   186.8810   164.3650   196.5350   -32.1150 
  195.0000     2.2130    64.1550    23.8710   140.7170   123.6580   148.9360   -31.8050 
  195.1250     2.2310    68.3420    24.0200   103.7380    98.2270   116.2040   -31.4930 
  195.2500     2.2510    72.4130    24.1400    79.4340    82.6070    95.6120   -31.1040 
  195.3750     2.2600    72.8720    24.2080    69.4570    74.2100    84.5170   -30.6560 
  195.5000     2.2540    69.8770    24.2400    67.2500    71.2430    80.4240   -30.1520 
  195.6250     2.2470    67.5820    24.2830    68.6880    73.0000    82.0760   -29.6780 
  195.7500     2.2490    67.2940    24.3840    72.3820    77.7440    87.2520   -29.1400 
  195.8750     2.2510    67.9960    24.5540    80.0310    84.7640    95.2070   -28.5600 
  196.0000     2.2390    68.2260    24.7370    93.9650    93.5850   105.5400   -27.9200 
  196.1250     2.2160    66.8220    24.8420   109.1770   104.6490   119.1000   -27.2180 
  196.2500     2.1960    65.1730    24.8570   118.4070   118.8640   137.4790   -26.4590 
  196.3750     2.1840    63.5100    24.8420   132.6580   138.3390   163.9020   -25.6400 
  196.5000     2.1840    60.6000    24.8320   167.2670   165.7920   201.6020   -24.7230 
  196.6250     2.2010    55.8220    24.8190   231.0960   204.4990   251.6640   -23.6920 
  196.7500     2.2320    51.4280    24.7850   297.5990   246.8020   301.2040   -22.5910 
  196.8750     2.2770    48.4630    24.7430   352.2970   274.5670   330.6490   -21.7790 
  197.0000     2.3420    48.3590    24.7380   383.6270   266.4930   322.4780   -21.1910 
  197.1250     2.4210    53.9700    24.7130   352.8650   214.2600   269.5530   -19.9060 
  197.2500     2.4940    61.5060    24.6240   264.2950   147.4630   195.5220   -18.5290 
  197.3750     2.5570    65.8080    24.5010   170.7120    89.5080   122.4900   -17.0780 
  197.5000     2.6170    65.6290    24.4390   113.1190    50.1910    67.4610   -15.5980 
  197.6250     2.6600    63.7080    24.4300    77.3740    28.9680    36.7940   -14.1250 
  197.7500     2.6620    61.5710    24.3790    43.8550    17.0280    20.2590   -12.6670 
  197.8750     2.6170    58.3160    24.2690    18.9130    10.5050    11.8340   -11.2770 
  198.0000     2.5510    54.8290    24.0400     7.9220     7.0820     7.6550    -9.9800 
  198.1250     2.5050    52.0330    23.8770     5.2730     5.6040     5.8280    -8.9060 
  198.2500     2.4900    49.2320    23.8120     4.6990     5.0250     5.0570    -8.0550 
  198.3750     2.4900    46.8070    23.8150     4.7230     4.9600     4.9490    -7.4150 
  198.5000     2.4820    47.3310    23.8520     4.8860     5.1560     5.2300    -6.9420 
  198.6250     2.4610    50.0300    23.8980     5.0880     5.4750     5.7150    -6.6570 
  198.7500     2.4440    51.7180    23.9490     5.3350     5.8570     6.2560    -6.5640 
  198.8750     2.4390    53.0820    23.9900     5.7180     6.3190     6.8120    -6.6170 
  199.0000     2.4450    57.2370    24.0600     6.3530     6.8700     7.3680    -6.8010 
  199.1250     2.4530    64.3490    24.1840     7.1700     7.4570     7.8750    -7.0530 
  199.2500     2.4620    71.5070    24.2960     7.8390     7.9700     8.2620    -7.3630 
  199.3750     2.4710    80.1680    24.3370     8.1770     8.3130     8.4460    -7.7130 
  199.5000     2.4700    90.3650    24.2800     8.2330     8.3810     8.4320    -8.1130 
  199.6250     2.4550    98.8630    24.0680     8.0930     8.0790     8.3330    -8.5260 
  199.7500     2.4440   104.6750    23.9000     7.8660     7.7040     8.1740    -8.8910 
  199.8750     2.4480   109.2050    23.7840     7.5780     7.3930     8.0980    -9.2510 
