~V
VERS. 2.00: Ver 2.00
~W
STRT.M 60.0000:
STOP.M 257.0000:
STEP.M 0.1250:
NULL. -999.2500:
UWI. DF5064:
~C
DEPT.M :
SP.MV :
GR.API :
RML.OHMM :
RI. :
RXO.OHMM :
CALI.CM :
DEN.GM/CC :
~A
# ...
  116.2500   -11.1800    94.7550     6.1950     5.1490     5.1020    26.5750     2.1620 
  116.3750    -9.9580    97.8810     6.1130     5.0510     4.4520    26.7690     2.0960 
  116.5000    -9.0180    99.9640     6.1350     5.0350     4.1730    26.8850     2.0900 
  116.6250    -8.4370   101.8020     6.1980     5.0720     4.3030    26.9250     2.1510 
  116.7500    -8.1260   102.2780     6.2470     5.1190     4.5950    26.9300     2.2260 
  116.8750    -7.9770   101.3550     6.2580     5.1570     4.6230    26.9610     2.2760 
  117.0000    -7.9330    98.6720     6.2310     5.1780     4.4800    27.0410     2.2850 
  117.1250    -7.9430    95.1120     6.1780     5.1800     4.4160    27.1080     2.2640 
  117.2500    -7.9760    90.9900     6.1210     5.1750     4.6290    27.0970     2.2400 
  117.3750    -8.0380    86.4930     6.0810     5.1780     4.8980    27.0280     2.2220 
  117.5000    -8.1320    81.8010     6.0770     5.2040     5.3580    26.9720     2.2110 
  117.6250    -8.2800    79.3000     6.1450     5.2820     5.1620    26.9790     2.2130 
  117.7500    -8.4610    79.9440     6.2850     5.4150     4.7400    26.9790     2.2290 
  117.8750    -8.6730    82.8320     6.4830     5.5990     4.8660    26.9080     2.2560 
  118.0000    -8.9100    87.0750     6.7040     5.8140     5.4380    26.7980     2.2840 
  118.1250    -9.1820    90.8020     6.9170     6.0310     5.8510    26.7090     2.3010 
  118.2500    -9.4580    89.9410     7.1140     6.2260     6.3310    26.6220     2.3060 
  118.3750    -9.7160    84.8500     7.3110     6.3880     6.6640    26.5610     2.3060 
  118.5000    -9.9770    80.3270     7.5210     6.5100     6.0670    26.5270     2.3110 
  118.6250   -10.2030    77.5680     7.7200     6.5650     5.8880    26.4870     2.3280 
  118.7500   -10.3740    76.3600     7.8220     6.5190     6.1700    26.4200     2.3510 
  118.8750   -10.4650    77.9520     7.7190     6.3330     6.4110    26.3790     2.3610 
  119.0000   -10.4140    83.1820     7.3260     5.9820     6.2000    26.3910     2.3380 
  119.1250   -10.2120    87.3680     6.5910     5.4630     5.9560    26.5140     2.2610 
  119.2500    -9.9680    87.6610     5.6930     4.8810     5.0520    26.7220     2.1380 
  119.3750    -9.7290    86.4170     4.8580     4.3450     4.1360    26.9270     1.9900 
  119.5000    -9.5110    85.1180     4.3810     3.9950     3.7030    27.0950     1.8510 
  119.6250    -9.3570    83.8400     4.8750     4.1530     3.6580    27.1750     1.7890 
  119.7500    -9.3130    81.7260     6.8380     5.1460     3.7160    27.0790     1.8370 
  119.8750    -9.4390    80.4580    10.7230     7.3410     4.6720    26.7050     1.9960 
  120.0000    -9.8010    79.1840    16.4850    10.8710     8.4710    26.1840     2.2280 
  120.1250   -10.4410    74.2790    23.0790    15.3270    19.2720    25.8860     2.4550 
  120.2500   -11.2460    66.9870    28.1670    19.2600    35.9210    25.7530     2.6120 
  120.3750   -12.1820    60.5690    29.6360    21.2280    50.7160    25.6980     2.6740 
  120.5000   -13.2580    57.6790    26.7090    20.4170    54.7250    25.6650     2.6480 
  120.6250   -14.4340    58.6790    21.1210    17.3260    42.0130    25.6280     2.5530 
  120.7500   -15.5740    60.5530    16.2510    14.0340    25.6810    25.5750     2.4340 
  120.8750   -16.5940    60.8380    13.1310    11.4680    16.1520    25.5270     2.3210 
  121.0000   -17.4580    60.6040    11.6200     9.8080    12.8980    25.4910     2.2360 
  121.1250   -18.1460    62.4430    11.3450     8.9890    12.3230    25.4800     2.1930 
  121.2500   -18.7100    65.0870    11.5960     8.6470    12.2550    25.4800     2.1800 
  121.3750   -19.1450    67.4590    11.9970     8.5890    12.5660    25.4870     2.1870 
  121.5000   -19.4220    68.8600    12.2960     8.6530    13.1470    25.5020     2.2020 
  121.6250   -19.5330    71.0360    12.3650     8.7240    12.8980    25.5460     2.2140 
  121.7500   -19.5530    72.9720    12.2940     8.7620    12.0550    25.6270     2.2190 
  121.8750   -19.5260    73.9320    12.1750     8.7730    11.3350    25.7560     2.2140 
  122.0000   -19.5020    73.2690    12.0700     8.7720    11.0760    25.8630     2.2030 
  122.1250   -19.5020    72.0110    12.0000     8.7660    11.3520    25.8720     2.1900 
  122.2500   -19.5020    72.0770    11.9380     8.7500    11.6470    25.7620     2.1820 
  122.3750   -19.4930    71.2950    11.8570     8.7140    11.5210    25.6000     2.1810 
  122.5000   -19.4620    68.5100    11.7310     8.6480    11.1610    25.4360     2.1890 
  122.6250   -19.4310    66.6330    11.5440     8.5470    11.2870    25.2620     2.2020 
  122.7500   -19.4280    66.5880    11.3130     8.4250    11.5750    25.1230     2.2130 
  122.8750   -19.4680    66.8500    11.0620     8.3010    11.5320    25.0530     2.2200 
  123.0000   -19.5470    66.9800    10.8250     8.1980    11.1550    25.0460     2.2190 
  123.1250   -19.6240    67.9060    10.6600     8.1530    10.7560    25.0490     2.2140 
  123.2500   -19.6890    69.1280    10.6140     8.1870    10.5770    25.0340     2.2100 
  123.3750   -19.7330    68.6470    10.7230     8.3170    10.7900    25.0010     2.2090 
  123.5000   -19.7510    66.8620    10.9950     8.5430    11.2480    24.9910     2.2130 
  123.6250   -19.6990    66.5770    11.3800     8.8310    11.2120    25.0330     2.2170 
  123.7500   -19.5360    68.2330    11.7060     9.0820    10.9600    25.0950     2.2160 
  123.8750   -19.2190    69.3160    11.7740     9.1800    11.1550    25.1630     2.2090 
  124.0000   -18.6900    69.1780    11.3940     9.0080    11.7100    25.2580     2.2010 
  124.1250   -17.8900    69.5920    10.4140     8.4580    11.6120    25.4070     2.2040 
  124.2500   -16.8420    71.1490     9.0790     7.6560    11.0470    25.6150     2.2220 
  124.3750   -15.5860    74.0700     7.6830     6.7640    10.0390    25.8640     2.2490 
  124.5000   -14.2280    79.0860     6.5320     5.9620     8.4830    26.1320     2.2740 
  124.6250   -12.8990    84.5000     5.9100     5.4330     6.1810    26.3570     2.2870 
  124.7500   -11.6970    87.0010     5.7410     5.1760     4.6320    26.4780     2.2930 
  124.8750   -10.6690    87.1650     5.8820     5.1460     4.2570    26.5360     2.3000 
  125.0000    -9.8410    86.9640     6.1270     5.2520     4.6110    26.5460     2.3110 
  125.1250    -9.2490    85.8320     6.2360     5.3820     5.5750    26.5510     2.3210 
  125.2500    -8.9100    84.9590     6.1240     5.4450     6.0350    26.5980     2.3220 
  125.3750    -8.8300    87.1330     5.8590     5.4350     5.3340    26.6630     2.3120 
  125.5000    -8.9380    91.7090     5.6260     5.4140     4.7460    26.6940     2.2930 
  125.6250    -9.1300    93.3940     5.7200     5.5280     4.8310    26.6920     2.2730 
  125.7500    -9.3100    89.6080     6.2440     5.8610     5.1180    26.6700     2.2660 
  125.8750    -9.4520    82.2660     7.1550     6.4230     5.2780    26.6230     2.2810 
  126.0000    -9.5680    73.9980     8.2390     7.1160     5.8240    26.5820     2.3220 
  126.1250    -9.6930    67.1770     9.0780     7.7020     6.8060    26.5780     2.3740 
  126.2500    -9.7870    64.3630     9.3490     7.9540     8.9860    26.5940     2.4080 
  126.3750    -9.8210    65.0450     8.9300     7.7590    11.0910    26.6000     2.4070 
  126.5000    -9.7950    68.6460     7.9580     7.1730    10.4080    26.5970     2.3720 
  126.6250    -9.7260    76.4060     6.7950     6.4000     7.1300    26.5950     2.3220 
  126.7500    -9.6220    83.9440     5.8800     5.7320     5.6060    26.5920     2.2800 
  126.8750    -9.4800    86.6840     5.5010     5.3550     5.3180    26.5890     2.2520 
  127.0000    -9.2840    85.7110     5.8790     5.4160     5.3780    26.5910     2.2450 
  127.1250    -9.0350    83.8800     7.2800     6.1140     5.4480    26.6030     2.2710 
  127.2500    -8.7850    79.5940     9.4530     7.3660     5.9300    26.6120     2.3310 
  127.3750    -8.5520    71.5700    12.0470     9.0360     8.6970    26.6000     2.4150 
