~V
VERS. 2.00: Ver 2.00
~W
STRT.M 55.0000:
STOP.M 268.0000:
STEP.M 0.1250:
NULL. -999.2500:
UWI. DF5025:
~C
DEPT.M :
SP.MV :
GR.API :
CALI.CM :
RXO.OHMM :
RI. :
RML.OHMM :
DEN.GM/CC :
~A
# ...
  201.2500   -34.2820    87.3310    24.9150    15.2920    10.4740    12.4400     2.4630 
  201.3750   -34.4550    83.3220    24.9330    16.8700    11.3430    13.5580     2.4590 
  201.5000   -34.6620    82.1830    24.9010    18.0710    12.5170    15.0680     2.4400 
  201.6250   -34.9070    86.0260    24.8460    19.0900    13.9870    16.9570     2.4080 
  201.7500   -35.1790    89.1130    24.7970    20.4750    15.7040    19.1400     2.3700 
  201.8750   -35.4900    85.9390    24.7560    22.2950    17.7750    21.8950     2.3330 
  202.0000   -35.8360    79.2050    24.7350    24.7860    20.3770    25.6610     2.3070 
  202.1250   -36.2250    76.0000    24.7630    29.5760    23.8220    30.8640     2.3020 
  202.2500   -36.6650    74.9930    24.8380    37.1740    28.1350    37.1910     2.3160 
  202.3750   -37.1300    72.3720    24.9200    46.0340    33.4500    44.5950     2.3450 
  202.5000   -37.5960    67.5340    24.9600    53.6620    39.9560    53.1850     2.3730 
  202.6250   -38.0320    63.7780    24.9640    60.0260    48.2400    63.3570     2.3740 
  202.7500   -38.4280    63.8470    24.9850    68.4320    58.4260    75.1970     2.3440 
  202.8750   -38.7730    64.9400    25.0260    79.8310    70.6200    89.1010     2.2970 
  203.0000   -39.0600    63.5370    25.0200    91.7180    84.3010   104.9410     2.2540 
  203.1250   -39.3060    61.3140    24.9190   100.6590    97.6680   120.9730     2.2310 
  203.2500   -39.5090    61.3970    24.8070   107.5340   108.2940   133.9740     2.2270 
  203.3750   -39.6470    62.9150    24.7780   114.4580   114.5580   141.6170     2.2330 
  203.5000   -39.7310    62.8740    24.8620   122.2010   116.2930   143.6390     2.2380 
  203.6250   -39.7730    62.4850    25.0270   128.4820   114.5750   141.5890     2.2370 
  203.7500   -39.7820    64.4060    25.1920   130.7170   112.0360   138.7090     2.2350 
  203.8750   -39.7550    64.5670    25.3180   129.0640   110.0560   136.4940     2.2340 
  204.0000   -39.7180    61.5730    25.3960   126.8360   109.2610   135.5040     2.2320 
  204.1250   -39.6780    60.1420    25.4330   128.8270   109.7880   135.6810     2.2250 
  204.2500   -39.6390    62.9720    25.4560   134.9730   110.9970   136.0800     2.2210 
  204.3750   -39.6310    66.4870    25.4770   141.9670   112.4610   135.9300     2.2170 
  204.5000   -39.6580    68.0470    25.4920   145.4910   113.9070   134.8490     2.2050 
  204.6250   -39.7240    68.9450    25.5200   142.9780   115.3350   133.2170     2.1880 
  204.7500   -39.8310    69.9280    25.5630   138.4640   117.0860   132.2440     2.1860 
  204.8750   -39.9570    68.5590    25.5540   135.7940   119.6300   132.8250     2.2080 
  205.0000   -40.0770    64.4580    25.4460   136.0290   123.3110   135.1350     2.2350 
  205.1250   -40.1620    60.7170    25.2920   139.0100   127.8440   138.0410     2.2430 
  205.2500   -40.2150    59.7310    25.1810   146.6700   131.2440   138.6300     2.2380 
  205.3750   -40.2270    61.4930    25.1820   161.2140   130.6460   133.7200     2.2360 
  205.5000   -40.1920    64.6860    25.4510   177.4980   123.3590   121.3920     2.2390 
  205.6250   -40.1250    68.3500    25.7990   177.4870   107.8940   102.3260     2.2410 
  205.7500   -40.0470    70.4980    25.8830   152.6310    88.6600    82.1480     2.2440 
  205.8750   -39.9910    71.3210    25.7040   109.7390    69.8880    64.7130     2.2540 
  206.0000   -39.9910    72.3920    25.4590    66.3690    54.7890    51.8200     2.2700 
  206.1250   -40.0840    74.6970    25.2720    40.4580    45.4660    44.1400     2.2840 
  206.2500   -40.2540    76.4910    25.1090    30.6070    40.7720    40.2650     2.2950 
  206.3750   -40.5160    75.8590    25.0480    30.0800    40.1080    39.8980     2.3070 
  206.5000   -40.8750    73.3290    25.0760    33.6200    43.1460    43.0830     2.3160 
  206.6250   -41.3040    69.2400    25.0910    42.1000    50.4490    50.6330     2.3080 
  206.7500   -41.7720    66.4730    25.1170    57.5440    61.2700    61.8230     2.2830 
  206.8750   -42.2520    66.9860    25.1410    78.6950    74.9180    75.9410     2.2580 
  207.0000   -42.7110    69.6130    25.1450    99.7170    89.9160    91.5330     2.2490 
  207.1250   -43.1180    71.4790    25.1750   115.6860   103.7920   106.2190     2.2530 
  207.2500   -43.4670    69.7850    25.2540   132.0050   114.8740   118.3210     2.2530 
  207.3750   -43.7520    66.6070    25.4690   153.1770   122.8780   127.5720     2.2480 
  207.5000   -43.9710    65.3610    25.9050   173.7710   128.6870   134.9130     2.2450 
  207.6250   -44.1450    65.5740    26.1310   180.6540   133.5800   141.7270     2.2480 
  207.7500   -44.3080    65.6520    25.8140   179.3010   138.4420   148.7060     2.2430 
  207.8750   -44.4680    64.3540    25.2660   183.9730   143.0710   155.2610     2.2260 
  208.0000   -44.6280    62.4230    25.0330   198.1270   146.7370   160.0790     2.2030 
  208.1250   -44.7660    60.8280    25.2080   202.6290   148.1840   161.0670     2.1840 
  208.2500   -44.9020    59.0690    25.3290   184.4590   147.2460   158.2180     2.1720 
  208.3750   -45.0340    58.7500    25.3510   151.6990   144.2710   152.4720     2.1660 
  208.5000   -45.1580    59.7730    25.3260   121.9480   140.3240   145.7890     2.1670 
  208.6250   -45.2710    60.6310    25.2810   109.6230   137.0260   140.7120     2.1740 
  208.7500   -45.3560    60.5050    25.2740   114.0230   135.1860   138.1620     2.1790 
  208.8750   -45.4070    60.6360    25.3300   133.8320   134.6070   137.7640     2.1780 
  209.0000   -45.4100    62.8730    25.4110   163.4580   134.5180   138.3930     2.1750 
  209.1250   -45.3770    65.6890    25.3830   185.7520   134.1750   138.9030     2.1790 
  209.2500   -45.3310    64.7590    25.4280   186.8880   133.6530   139.1110     2.1880 
  209.3750   -45.2660    60.7540    25.6300   170.8220   133.5410   139.6430     2.2020 
  209.5000   -45.2050    58.2640    25.7540   157.0510   134.4310   141.2280     2.2210 
  209.6250   -45.1480    59.5730    25.5050   165.6490   136.4000   143.9700     2.2480 
  209.7500   -45.0720    61.3580    25.1390   185.4020   138.1130   146.3240     2.2690 
  209.8750   -44.9770    61.8520    24.9450   196.9880   137.9090   146.4750     2.2720 
  210.0000   -44.8680    62.5240    24.9310   190.9920   134.4060   143.1340     2.2530 
  210.1250   -44.7480    64.5280    24.9660   173.3010   126.8540   135.9510     2.2310 
  210.2500   -44.6180    65.2140    25.0330   155.2320   117.2610   127.1890     2.2250 
  210.3750   -44.4810    64.6150    25.0560   137.3780   107.5860   118.7410     2.2340 
  210.5000   -44.3210    64.8670    25.0520   118.2060    99.5550   112.0940     2.2500 
  210.6250   -44.1440    65.8750    25.2810   100.7940    94.7940   108.7620     2.2650 
  210.7500   -43.9900    65.5750    25.6670    89.4620    93.3160   108.9320     2.2770 
  210.8750   -43.8520    63.1230    25.8050    85.5290    95.2570   112.9700     2.2770 
  211.0000   -43.7270    59.7140    25.4940    88.2880   100.6530   120.9650     2.2540 
  211.1250   -43.6130    58.0960    25.0940    99.0460   109.9000   133.1810     2.2160 
  211.2500   -43.4930    58.8930    24.9990   119.0980   121.8860   148.1810     2.1880 
  211.3750   -43.3880    61.8220    25.0880   149.8480   135.5160   164.6320     2.1850 
  211.5000   -43.3050    63.3440    25.1480   187.7360   148.9940   180.3400     2.1970 
  211.6250   -43.2340    61.6860    25.3280   220.9500   158.8590   190.7970     2.2080 
  211.7500   -43.1530    59.6620    25.6130   239.6890   162.4260   192.7800     2.2050 
  211.8750   -43.0620    59.4260    25.7820   242.0720   157.9670   184.6660     2.1950 
  212.0000   -42.9970    60.2520    25.7120   230.2010   145.9570   167.9850     2.1860 
  212.1250   -42.9920    60.1080    25.7840   202.5380   129.0500   147.0360     2.1840 
  212.2500   -43.0420    58.4970    26.1600   164.1120   112.2570   127.5180     2.1880 
  212.3750   -43.1180    57.3330    26.4300   125.3360    98.2940   111.9620     2.2030 
