~V
VERS. 2.00: Ver 2.00
~W
STRT.M 59.0000:
STOP.M 243.0000:
STEP.M 0.1250:
NULL. -999.2500:
UWI. DF5058:
~C
DEPT.M :
GR.API :
CALI.CM :
RXO.OHMM :
RI. :
RML.OHMM :
DEN.GM/CC :
SP.MV :
~A
# ...
  194.0000    57.1340    23.1630   493.0010   107.3830   125.0810     2.1720   -27.6350 
  194.1250    58.7490    23.2270   137.1440   108.7610   125.7840     2.1760   -27.9470 
  194.2500    61.8520    23.4510    80.7370   108.8190   125.3630     2.1700   -28.1870 
  194.3750    64.9080    23.7770    64.4640   109.2450   125.7320     2.1540   -28.4750 
  194.5000    66.0660    23.9970    45.6400   111.1130   127.8960     2.1360   -28.6850 
  194.6250    63.5270    23.9830    26.5370   114.7810   131.9080     2.1240   -28.9230 
  194.7500    60.4470    23.9340    16.9720   119.0010   136.0690     2.1200   -29.0740 
  194.8750    60.1130    23.9850    16.9720   122.2430   138.5110     2.1260   -29.3040 
  195.0000    61.6790    24.1350    24.8510   123.0510   137.7150     2.1370   -29.4810 
  195.1250    62.3630    24.3730    41.1880   120.4470   133.1120     2.1460   -29.5790 
  195.2500    62.7610    24.6490    50.3570   115.9740   127.0020     2.1490   -29.6630 
  195.3750    63.5550    24.8120    49.5750   111.2990   121.3790     2.1480   -29.6980 
  195.5000    63.9000    24.8060    45.6030   107.9050   117.6660     2.1440   -29.7470 
  195.6250    64.3460    24.7960    54.2950   106.9440   116.7440     2.1440   -29.7860 
  195.7500    64.5420    24.8950    64.0380   107.9600   117.8440     2.1500   -29.8400 
  195.8750    62.6340    25.0000    68.8300   110.5550   120.5120     2.1590   -29.9510 
  196.0000    59.1220    25.0120    69.0030   114.5590   124.5950     2.1670   -29.8600 
  196.1250    58.1070    24.9720    62.4250   120.1970   130.3450     2.1770   -29.9200 
  196.2500    60.3320    24.9530    53.4040   126.8730   137.1320     2.1940   -29.9310 
  196.3750    62.0730    24.9350    54.4130   133.7100   143.9110     2.2200   -29.9750 
  196.5000    61.1240    24.8700    68.5380   139.2950   148.9700     2.2540   -29.9250 
  196.6250    58.8170    24.7270    77.7540   141.2550   149.5850     2.2820   -29.9240 
  196.7500    58.1930    24.5770    70.7440   139.2000   145.7740     2.2910   -29.9130 
  196.8750    60.0570    24.5170    61.3810   133.9860   139.0260     2.2730   -29.9450 
  197.0000    62.3640    24.5940    57.5950   127.4520   131.6640     2.2400   -29.9420 
  197.1250    63.1720    24.7600    59.0360   121.7830   126.0050     2.2060   -29.9750 
  197.2500    63.2410    24.9050    63.4010   118.1440   122.7480     2.1810   -30.0550 
  197.3750    64.1350    24.9830    72.3100   116.8720   121.9210     2.1650   -30.1460 
  197.5000    64.8100    25.0110    87.7240   117.7610   123.1720     2.1560   -30.1980 
  197.6250    62.5760    25.0140   104.9840   120.5100   126.1080     2.1480   -30.2100 
  197.7500    58.7160    25.0280   121.8210   123.9580   129.4570     2.1420   -30.2130 
  197.8750    56.8630    25.0880   134.5730   126.8560   131.8360     2.1370   -30.1400 
  198.0000    58.6930    25.1900   155.1230   127.8340   131.8720     2.1330   -30.2120 
  198.1250    61.4510    25.2640   175.3530   125.8050   128.7660     2.1290   -30.1130 
  198.2500    62.3130    25.2760   189.5750   122.0080   124.2420     2.1240   -30.0550 
  198.3750    62.3140    25.2590   176.8350   117.9930   120.0670     2.1220   -29.9510 
  198.5000    61.4920    25.2480   166.7210   115.2280   117.6250     2.1260   -29.9950 
  198.6250    60.7110    25.1950   189.4290   114.8830   117.8540     2.1410   -29.9140 
  198.7500    61.9820    25.0660   197.0010   116.6270   120.1530     2.1600   -29.8520 
  198.8750    65.2170    24.8760   160.2120   120.0870   124.0020     2.1770   -29.7380 
  199.0000    67.5000    24.6720   110.1410   124.6660   128.6570     2.1880   -29.5560 
  199.1250    66.6810    24.5560    87.1210   129.2330   132.8140     2.1890   -29.5390 
  199.2500    64.1300    24.5600    88.4320   132.3810   135.1610     2.1840   -29.4040 
  199.3750    61.2850    24.6360    89.6360   133.1430   134.8500     2.1790   -29.3590 
  199.5000    59.0680    24.6990    81.8490   131.1400   131.6970     2.1770   -29.1700 
  199.6250    58.0660    24.7180    67.0570   126.4920   126.1700     2.1780   -29.1090 
  199.7500    57.2980    24.7450    59.0600   120.9320   120.2050     2.1790   -28.9800 
  199.8750    57.7400    24.7890    56.7260   115.8380   115.1500     2.1760   -28.9510 
  200.0000    59.8630    24.8260    57.4490   112.0660   111.6240     2.1700   -28.9750 
  200.1250    62.1680    24.8040    60.1270   109.6890   109.3400     2.1630   -28.8840 
  200.2500    62.2620    24.7430    61.8890   107.5030   106.9030     2.1600   -28.8880 
  200.3750    60.6000    24.7130    69.8580   104.4830   103.3380     2.1610   -28.8470 
  200.5000    58.9650    24.7440    75.6620   100.1650    98.4300     2.1630   -28.9340 
  200.6250    61.0030    24.7440    72.5810    95.0220    92.9910     2.1640   -29.0150 
  200.7500    64.9730    24.6400    61.3510    90.4150    88.4170     2.1670   -29.2010 
  200.8750    65.5740    24.4710    53.3260    87.2530    85.5120     2.1750   -29.2500 
  201.0000    61.6720    24.3170    48.7090    85.9530    84.5280     2.1870   -29.3960 
  201.1250    59.2200    24.2220    45.9110    86.6890    85.4270     2.1990   -29.5150 
  201.2500    61.0370    24.1650    43.7910    88.5870    87.1860     2.2050   -29.5970 
  201.3750    64.5310    24.1430    42.8590    90.7730    88.8700     2.2050   -29.6400 
  201.5000    65.4940    24.1610    45.3370    92.2370    89.5220     2.2010   -29.7150 
  201.6250    63.4610    24.1990    53.8080    91.8210    88.1620     2.1990   -29.7920 
  201.7500    61.0520    24.2330    61.6180    89.5620    85.1250     2.2000   -29.8150 
  201.8750    61.5190    24.2490    61.4480    86.0190    81.1950     2.2030   -29.9140 
  202.0000    64.7540    24.2340    54.8520    82.3190    77.5870     2.2070   -29.8140 
  202.1250    67.3130    24.1850    49.8460    80.0510    75.8000     2.2100   -29.8380 
  202.2500    66.7290    24.1330    50.6650    79.7430    76.0070     2.2110   -29.8580 
  202.3750    64.1520    24.1390    58.2040    81.1420    77.6940     2.2100   -29.9200 
  202.5000    61.1600    24.2500    75.4030    83.2510    79.7120     2.2070   -29.8080 
  202.6250    59.7540    24.4540    88.5760    84.2820    80.2670     2.2030   -29.7990 
  202.7500    60.6800    24.6280    84.2170    83.1270    78.6250     2.1990   -29.7850 
  202.8750    61.4920    24.6830    68.2680    79.8350    75.2100     2.1980   -29.8530 
  203.0000    61.1540    24.6240    58.4360    75.5920    71.4490     2.2030   -29.9540 
  203.1250    61.1120    24.4990    57.1730    72.4430    69.4830     2.2170   -30.0240 
  203.2500    62.0840    24.3650    55.5790    71.7270    70.3690     2.2330   -30.1130 
  203.3750    62.9730    24.2590    57.0510    74.1190    74.5690     2.2440   -30.2740 
  203.5000    63.4480    24.2060    62.9730    79.7280    82.0040     2.2410   -30.4950 
  203.6250    64.3970    24.2010    83.0730    88.3810    92.3950     2.2240   -30.6620 
  203.7500    65.3740    24.2180   100.3500    98.5120   104.2380     2.2040   -30.7910 
  203.8750    65.5490    24.2380   110.6920   109.2060   116.7030     2.1880   -30.9210 
  204.0000    65.1620    24.2330   123.4340   120.0650   129.4720     2.1790   -31.1420 
  204.1250    65.8870    24.1840   122.9370   131.4720   143.0490     2.1780   -31.3050 
  204.2500    67.2950    24.1900   117.9620   144.0180   157.9880     2.1830   -31.4870 
  204.3750    66.6470    24.3580   141.7130   157.7140   174.1190     2.1900   -31.5550 
  204.5000    63.3570    24.6170   200.0430   170.9730   189.4570     2.2000   -31.6800 
  204.6250    58.9450    24.7510   234.1440   179.1750   198.4200     2.2100   -31.6620 
  204.7500    54.6060    24.7690   208.5670   179.3760   197.6840     2.2160   -31.6760 
  204.8750    51.4530    24.8020   177.2320   170.9650   187.0140     2.2200   -31.4760 
  205.0000    52.3670    24.8760   158.4590   156.0360   169.4840     2.2210   -31.2550 
  205.1250    55.6440    24.8970   138.5330   138.2500   149.7410     2.2210   -30.9850 
