~V
VERS. 2.00: Ver 2.00
~W
STRT.M 62.0000:
STOP.M 250.0000:
STEP.M 0.1250:
NULL. -999.2500:
UWI. DF5059:
~C
DEPT.M :
SP.MV :
GR.API :
RML.OHMM :
RI. :
RXO.OHMM :
CALI.CM :
DEN.GM/CC :
~A
# ...
   95.7500   -24.5340    76.3390     7.4990     6.8770     8.4220    21.9330     2.2010 
   95.8750   -23.9430    72.9280     7.2610     6.6260     8.2080    22.0670     2.1830 
   96.0000   -23.2750    69.5330     7.0170     6.4000     7.8950    22.2830     2.1840 
   96.1250   -22.6450    75.9420     6.6670     6.1030     7.3470    22.5330     2.2040 
   96.2500   -22.0480    88.3190     6.2250     5.7150     6.6020    22.8980     2.2330 
   96.3750   -21.5280    97.2210     5.7620     5.2730     5.7280    23.2780     2.2600 
   96.5000   -21.1620   100.2670     5.3910     4.8720     4.9420    23.6160     2.2750 
   96.6250   -20.9730   103.5900     5.2810     4.6720     4.5620    23.8650     2.2680 
   96.7500   -20.9740   107.7180     5.4780     4.7480     4.6230    24.0270     2.2520 
   96.8750   -21.1680   108.8610     5.9750     5.1210     5.2990    24.0660     2.2410 
   97.0000   -21.4340   104.1010     6.6680     5.7190     6.4730    23.9160     2.2450 
   97.1250   -21.6290    94.9060     7.3230     6.3560     8.0820    23.4960     2.2590 
   97.2500   -21.7570    88.1110     7.6840     6.7870     9.1520    22.8780     2.2710 
   97.3750   -21.8750    84.9240     7.6210     6.8660     8.7270    22.3090     2.2720 
   97.5000   -21.9510    86.5360     7.1920     6.5960     7.5610    21.8980     2.2660 
   97.6250   -21.9860    91.7400     6.6500     6.1490     6.6850    22.0130     2.2650 
   97.7500   -22.0200    99.5860     6.3020     5.8000     6.4330    22.6870     2.2740 
   97.8750   -22.0690   106.8360     6.2690     5.6820     6.9660    23.3010     2.2820 
   98.0000   -22.1440   105.3810     6.5370     5.8190     7.9350    23.4960     2.2800 
   98.1250   -22.2770    97.7970     6.9930     6.1570     9.2670    23.2540     2.2610 
   98.2500   -22.4730    94.2480     7.4290     6.5340    10.1230    22.9070     2.2380 
   98.3750   -22.6510    94.6290     7.7130     6.8370     9.3490    22.7110     2.2170 
   98.5000   -22.7950    94.1050     7.7870     6.9990     8.1490    22.6160     2.2060 
   98.6250   -22.9350    91.0970     7.6630     6.9910     7.5650    22.5060     2.2060 
   98.7500   -23.0110    90.7610     7.4720     6.8950     7.4790    22.4290     2.2140 
   98.8750   -23.0180    92.7230     7.2980     6.7700     7.4510    22.4020     2.2260 
   99.0000   -23.0320    93.6290     7.1830     6.6630     7.4650    22.4310     2.2380 
   99.1250   -23.1300    94.2640     7.1450     6.6040     7.5260    22.4580     2.2490 
   99.2500   -23.2230    97.7780     7.1790     6.6070     7.5830    22.4700     2.2560 
   99.3750   -23.2880   100.1620     7.3040     6.6970     7.6270    22.4710     2.2600 
   99.5000   -23.3590    96.7660     7.5380     6.8940     7.7150    22.4690     2.2570 
   99.6250   -23.3740    89.9770     7.8680     7.2000     7.9100    22.4680     2.2470 
   99.7500   -23.3090    86.7470     8.1880     7.5270     8.2410    22.4680     2.2320 
   99.8750   -23.1530    86.0280     8.3680     7.7630     8.6510    22.4710     2.2140 
  100.0000   -22.8810    83.4400     8.2850     7.7860     8.9380    22.4710     2.1990 
  100.1250   -22.4260    81.3180     7.8440     7.4690     8.7480    22.4830     2.1940 
  100.2500   -21.9650    82.3420     7.1960     6.9070     8.0120    22.5660     2.2030 
  100.3750   -21.5950    85.8210     6.5130     6.2350     6.9730    22.8250     2.2240 
  100.5000   -21.2980    91.7860     5.9510     5.6050     5.8390    23.2450     2.2480 
  100.6250   -21.0700    99.0130     5.6190     5.1490     5.0530    23.4540     2.2670 
  100.7500   -20.9460   104.8780     5.4490     4.8570     5.0070    23.3480     2.2750 
  100.8750   -21.0010   107.3840     5.3760     4.6930     5.2980    23.0750     2.2750 
  101.0000   -21.2290   108.6830     5.3540     4.6180     5.5750    22.8690     2.2720 
  101.1250   -21.6530   110.6540     5.4010     4.6320     5.5820    22.8530     2.2700 
  101.2500   -22.1380   112.5270     5.5650     4.7530     5.4310    23.0080     2.2660 
  101.3750   -22.6180   110.5280     5.9020     5.0240     5.4280    23.0000     2.2550 
  101.5000   -23.0700   101.1950     6.4210     5.4650     6.1840    22.6430     2.2360 
  101.6250   -23.4730    87.0950     7.0610     6.0510     7.3500    22.1750     2.2130 
  101.7500   -23.8350    74.4140     7.6610     6.6500     8.2600    21.9760     2.1940 
  101.8750   -24.1750    66.5730     8.0990     7.1410     8.6170    21.9070     2.1820 
  102.0000   -24.5090    64.0430     8.3150     7.4390     8.6810    21.8400     2.1780 
  102.1250   -24.7680    68.2410     8.3160     7.5010     8.6640    21.7640     2.1780 
  102.2500   -24.9690    76.6530     8.2350     7.4370     8.4790    21.7740     2.1820 
  102.3750   -25.1510    80.8870     8.1470     7.3310     8.2990    21.9170     2.1860 
  102.5000   -25.3190    76.5930     8.0770     7.2340     8.2330    22.1980     2.1890 
  102.6250   -25.4300    69.0450     8.0090     7.1640     8.2190    22.3880     2.1870 
  102.7500   -25.4490    67.3320     7.9310     7.1140     8.2160    22.4470     2.1810 
  102.8750   -25.3540    70.5350     7.8580     7.0830     8.1540    22.4300     2.1730 
  103.0000   -25.1520    71.3710     7.8280     7.0870     8.0870    22.3880     2.1650 
  103.1250   -24.8550    69.5380     7.9030     7.1680     8.1930    22.3680     2.1580 
  103.2500   -24.3790    69.3890     8.0760     7.3290     8.3290    22.3680     2.1520 
  103.3750   -23.6780    69.4330     8.2960     7.5460     8.4820    22.3890     2.1470 
  103.5000   -22.8120    65.5330     8.4560     7.7430     8.6770    22.4620     2.1450 
  103.6250   -21.8690    60.6510     8.3720     7.7700     8.8920    22.6250     2.1540 
  103.7500   -20.9190    62.0130     7.9890     7.5400     9.0220    22.9440     2.1740 
  103.8750   -19.9930    69.9390     7.3300     7.0320     8.8690    23.3460     2.2020 
  104.0000   -19.1060    84.7340     6.5240     6.3190     7.9320    23.7900     2.2260 
  104.1250   -18.2920   102.0500     5.7810     5.5620     6.2670    24.0960     2.2260 
  104.2500   -17.6730   114.7790     5.2510     4.9390     4.5910    24.1970     2.2040 
  104.3750   -17.2880   119.1880     4.9840     4.5460     3.9360    24.0470     2.1720 
  104.5000   -17.1140   117.9520     4.9560     4.4060     3.9760    23.8870     2.1510 
  104.6250   -17.0950   115.1660     5.1060     4.5060     4.3900    23.7880     2.1590 
  104.7500   -17.1520   113.3000     5.3000     4.7130     4.8200    23.7370     2.1910 
  104.8750   -17.2280   114.8370     5.4510     4.9300     5.0440    23.7370     2.2330 
  105.0000   -17.3380   118.5120     5.5120     5.0800     4.9790    23.7530     2.2670 
  105.1250   -17.5130   119.3810     5.4780     5.1200     4.8350    23.7560     2.2840 
  105.2500   -17.7000   117.3830     5.4140     5.0940     4.7070    23.7540     2.2870 
  105.3750   -17.8690   114.5910     5.3710     5.0500     4.6310    23.7450     2.2830 
  105.5000   -18.0130   113.9680     5.3730     5.0280     4.6690    23.7200     2.2740 
  105.6250   -18.1730   117.2470     5.4140     5.0380     4.8050    23.6630     2.2650 
  105.7500   -18.2960   119.7320     5.4530     5.0530     4.9570    23.5460     2.2560 
  105.8750   -18.3820   118.0190     5.4670     5.0520     5.1130    23.3220     2.2510 
  106.0000   -18.4320   115.1930     5.4590     5.0330     5.2970    23.1360     2.2510 
  106.1250   -18.4560   115.1800     5.4640     5.0280     5.3790    23.3090     2.2630 
  106.2500   -18.5080   114.5440     5.5190     5.0710     5.4150    23.5330     2.2870 
  106.3750   -18.5910   109.6550     5.6340     5.1760     5.7200    23.6350     2.3200 
  106.5000   -18.7050   104.0490     5.7930     5.3290     6.3790    23.6430     2.3540 
  106.6250   -18.8300   103.7940     5.9520     5.4940     6.9700    23.6310     2.3720 
  106.7500   -19.0150   106.5460     6.0690     5.6270     6.8670    23.6350     2.3660 
  106.8750   -19.3020   109.8410     6.1290     5.7110     6.2030    23.6360     2.3400 
