~V
VERS. 2.00: Ver 2.00
~W
STRT.M 55.0000:
STOP.M 273.0000:
STEP.M 0.1250:
NULL. -999.2500:
UWI. DF5004:
~C
DEPT.M :
GR.API :
CALI.CM :
RXO.OHMM :
RI. :
RML.OHMM :
DEN.GM/CC :
SP.MV :
~A
# ...
  257.5000    65.3640    24.6550     6.7050     5.8100     7.4320     2.3660   -13.3830 
  257.6250    63.0430    24.6540     6.6070     5.8560     7.5270     2.3660   -13.4110 
  257.7500    61.0270    24.6520     6.6340     5.9580     7.7340     2.3660   -13.4780 
  257.8750    61.1970    24.6630     6.6290     6.0820     7.9760     2.3660   -13.5220 
  258.0000    61.4070    24.7160     6.5330     6.1830     8.1480     2.3670   -13.5850 
  258.1250    58.6630    24.8050     6.2810     6.2100     8.1450     2.3720   -13.6060 
  258.2500    57.3850    24.8920     6.0980     6.1690     8.0040     2.3760   -13.5510 
  258.3750    59.3180    24.9270     6.0820     6.0810     7.7980     2.3750   -13.5280 
  258.5000    61.2780    24.9310     6.2620     5.9870     7.6030     2.3720   -13.6030 
  258.6250    59.5950    24.9310     6.3170     5.9260     7.4780     2.3750   -13.6550 
  258.7500    58.1410    24.9310     6.1800     5.8980     7.4160     2.3860   -13.6240 
  258.8750    59.5600    24.9310     6.1620     5.8810     7.3950     2.3960   -13.5390 
  259.0000    61.8580    24.9310     6.5900     5.8610     7.3830     2.3950   -13.4200 
  259.1250    62.6670    24.9300     7.4610     5.8240     7.3460     2.3860   -13.4030 
  259.2500    62.6250    24.9160     7.4590     5.7820     7.2830     2.3810   -13.4230 
  259.3750    61.7730    24.8790     6.6960     5.7500     7.2110     2.3820   -13.3970 
  259.5000    60.8620    24.8500     6.1100     5.7320     7.1580     2.3840   -13.3650 
  259.6250    60.2660    24.8390     6.1880     5.7340     7.1470     2.3840   -13.3670 
  259.7500    60.1040    24.8390     6.4460     5.7600     7.1730     2.3870   -13.4080 
  259.8750    59.8000    24.8390     6.5930     5.8160     7.2390     2.3960   -13.4630 
  260.0000    60.2490    24.8390     6.7690     5.9040     7.3450     2.4080   -13.5240 
  260.1250    62.5340    24.8390     7.0710     6.0110     7.4810     2.4120   -13.5770 
  260.2500    63.3010    24.8430     7.5270     6.1110     7.6080     2.4080   -13.6520 
  260.3750    61.2800    24.8670     8.0500     6.1800     7.6920     2.3990   -13.7400 
  260.5000    59.2620    24.9400     8.5760     6.2070     7.7110     2.3920   -13.7370 
  260.6250    60.5290    25.0490     9.3840     6.1850     7.6660     2.3920   -13.7070 
  260.7500    62.9960    25.0270     9.5330     6.1330     7.5910     2.4030   -13.6270 
  260.8750    63.6550    24.7500     9.1430     6.0680     7.5050     2.4210   -13.5390 
  261.0000    62.4460    24.4370     8.7650     6.0070     7.4160     2.4340   -13.5300 
  261.1250    61.6170    24.4470     8.2360     5.9580     7.3310     2.4240   -13.4930 
  261.2500    62.2600    24.7080     7.6790     5.9190     7.2620     2.3990   -13.4170 
  261.3750    63.1720    24.8850     7.1950     5.8920     7.2180     2.3780   -13.3000 
  261.5000    62.8560    24.9760     6.9060     5.8810     7.2100     2.3720   -13.2800 
  261.6250    62.0930    24.9580     6.6330     5.8910     7.2460     2.3740   -13.2770 
  261.7500    62.9190    24.9500     6.3280     5.9180     7.3070     2.3710   -13.3250 
  261.8750    64.9360    24.9410     6.1710     5.9490     7.3660     2.3660   -13.3880 
  262.0000    65.7080    24.9430     6.3330     5.9730     7.3980     2.3600   -13.4020 
  262.1250    63.2590    24.9410     6.5800     5.9830     7.3910     2.3580   -13.3730 
  262.2500    61.1330    24.9390     6.4900     5.9910     7.3710     2.3620   -13.3040 
  262.3750    61.0340    24.9540     6.1600     6.0060     7.3660     2.3720   -13.3220 
  262.5000    61.9720    24.9740     6.1770     6.0290     7.3900     2.3870   -13.3530 
  262.6250    61.3250    24.9510     6.9450     6.0750     7.4570     2.4010   -13.3290 
  262.7500    61.3760    24.8650     7.9650     6.1500     7.5670     2.4110   -13.2890 
  262.8750    63.4110    24.7750     8.5890     6.2570     7.7270     2.4130   -13.2860 
  263.0000    63.9390    24.7360     8.6580     6.3890     7.9290     2.4020   -13.3040 
  263.1250    63.9390    24.7360     8.6640     6.5310     8.1410     2.3860   -13.3790 
  263.2500    63.9390    24.7360     8.6840     6.6620     8.3160     2.3770   -13.4990 
  263.3750    63.9390    24.7360     8.5760     6.7660     8.4290     2.3790   -13.6110 
  263.5000    63.9390    24.7360     8.3860     6.8300     8.4760     2.3860   -13.6820 
  263.6250    63.9390    24.7360     8.7410     6.8460     8.4760     2.3890   -13.7740 
  263.7500    63.9390    24.7360     9.1470     6.8370     8.4710     2.3840   -13.8810 
  263.8750    63.9390    24.7410     9.1050     6.8320     8.4770     2.3750   -13.9510 
  264.0000    63.9390    24.7550     8.6280     6.8560     8.4990     2.3730   -14.0360 
  264.1250    63.9390    24.7830     8.1850     6.9150     8.5380     2.3870   -14.0860 
  264.2500    63.9390    24.7920     7.9910     6.9800     8.5760     2.4080   -14.1550 
  264.3750    63.9390    24.7940     7.8040     7.0250     8.5980     2.4200   -14.1730 
  264.5000    63.9390    24.7930     7.6230     7.0390     8.5880     2.4190   -14.1460 
  264.6250    63.9390    24.8000     7.7610     7.0230     8.5360     2.4180   -14.0730 
  264.7500    63.9390    24.8160     8.1710     6.9910     8.4580     2.4230   -13.9540 
  264.8750    63.9390    24.8310     8.4400     6.9520     8.3800     2.4230   -13.8580 
  265.0000    63.9390    24.8370     8.3570     6.9230     8.3260     2.4120   -13.7920 
  265.1250    63.9390    24.8420     8.0460     6.9180     8.3020     2.3950   -13.7630 
  265.2500    63.9390    24.8780     7.7730     6.9300     8.2800     2.3860   -13.6430 
  265.3750    63.9390    24.9370     7.5270     6.9460     8.2430     2.3820   -13.4950 
  265.5000    63.9390    24.9670     7.1810     6.9570     8.1930     2.3820   -13.4140 
  265.6250    63.9390    24.9650     6.8230     6.9580     8.1470     2.3850   -13.3880 
  265.7500    63.9390    24.9720     6.5050     6.9530     8.1200     2.3870   -13.3650 
  265.8750    63.9390    24.9610     6.5430     6.9470     8.1070     2.3860   -13.3100 
  266.0000    63.9390    24.9370     6.8450     6.9430     8.0950     2.3790   -13.2190 
  266.1250    63.9390    24.9030     7.1100     6.9400     8.0790     2.3670   -13.1030 
  266.2500    63.9390    24.8960     6.9020     6.9400     8.0670     2.3560   -13.0420 
  266.3750    63.9390    24.9130     6.3900     6.9430     8.0640     2.3500   -12.9810 
  266.5000    63.9390    24.9630     5.9280     6.9480     8.0710     2.3520   -12.8220 
  266.6250    63.9390    24.9720     5.8170     6.9490     8.0850     2.3570   -12.7020 
  266.7500    63.9390    24.9890     6.0090     6.9430     8.0960     2.3650   -12.5900 
  266.8750    63.9390    25.0010     6.4710     6.9320     8.1000     2.3750   -12.4790 
  267.0000    63.9390    24.9840     7.0100     6.9180     8.0940     2.3810   -12.3590 
  267.1250    63.9390    24.9400     7.5040     6.9050     8.0810     2.3790   -12.2340 
  267.2500    63.9390    24.8730     8.0110     6.8980     8.0700     2.3750   -12.1480 
  267.3750    63.9390    24.8440     8.5890     6.8970     8.0700     2.3760   -12.1450 
  267.5000    63.9390    24.8390     9.2450     6.9000     8.0790     2.3870   -12.2120 
  267.6250    63.9390    24.8390    10.3130     6.9040     8.0900     2.4090   -12.2350 
  267.7500    63.9390    24.8390    11.9300     6.9130     8.0960     2.4390   -12.2700 
  267.8750    63.9390    24.8520    14.2370     6.9260     8.1010     2.4700   -12.3280 
  268.0000    63.9390    24.9010    16.1700     6.9370     8.1040     2.4900   -12.3830 
  268.1250    63.9390    24.9460    16.0710     6.9370     8.1040     2.4930   -12.4640 
  268.2500    63.9390    24.8560    14.5640     6.9290     8.0960     2.4890   -12.5390 
  268.3750    63.9390    24.6770    12.7750     6.9150     8.0780     2.4850   -12.5450 
  268.5000    63.9390    24.5510    11.2280     6.9040     8.0550     2.4850   -12.5110 
  268.6250    63.9390    24.5220    11.1640     6.9020     8.0320     2.4900   -12.5080 
