~V
VERS. 2.00: Ver 2.00
~W
STRT.M 55.0000:
STOP.M 271.0000:
STEP.M 0.1250:
NULL. -999.2500:
UWI. DF5032:
~C
DEPT.M :
SP.MV :
GR.API :
CALI.CM :
RXO.OHMM :
RI. :
RML.OHMM :
DEN.GM/CC :
~A
# ...
  133.7500   -21.4850    75.8130    23.1050    11.0750     8.7570     9.0720     2.1520 
  133.8750   -21.3870    77.5050    23.2730    11.1230     8.7930     9.1560     2.1650 
  134.0000   -21.3060    77.2110    23.2660    11.5810     8.9260     9.3140     2.1770 
  134.1250   -21.2450    76.2470    23.2240    12.1100     9.1460     9.5170     2.1760 
  134.2500   -21.1990    76.3110    23.1990    12.4130     9.4050     9.7160     2.1720 
  134.3750   -21.1610    76.9720    23.1600    12.6050     9.6620     9.8770     2.1710 
  134.5000   -21.1230    76.1330    23.0850    12.7850     9.8770     9.9740     2.1760 
  134.6250   -21.0680    71.0710    22.9660    12.8980     9.9970     9.9810     2.1760 
  134.7500   -20.9850    64.0810    22.8770    12.9260    10.0100     9.9030     2.1630 
  134.8750   -20.8680    60.3360    22.9000    12.9280     9.9090     9.7410     2.1450 
  135.0000   -20.7100    63.6150    23.0000    12.9080     9.6940     9.5000     2.1360 
  135.1250   -20.5020    71.9800    23.0120    12.6550     9.3450     9.1690     2.1520 
  135.2500   -20.2470    79.0410    22.9640    11.9200     8.8900     8.7670     2.1840 
  135.3750   -19.9480    82.0960    22.9080    10.7670     8.3480     8.2960     2.2110 
  135.5000   -19.6190    81.1820    22.8810     9.7260     7.7450     7.7670     2.2170 
  135.6250   -19.2780    78.6200    22.9400     9.6680     7.1220     7.2130     2.1990 
  135.7500   -18.9560    78.7540    23.0990    10.0350     6.5340     6.6830     2.1860 
  135.8750   -18.6810    82.8390    23.3750     9.7980     6.0280     6.2270     2.2050 
  136.0000   -18.4780    87.7220    23.7030     8.5290     5.6450     5.8910     2.2550 
  136.1250   -18.3880    88.9030    24.1170     6.9510     5.4400     5.7300     2.3040 
  136.2500   -18.4040    87.7310    24.4400     6.0430     5.3980     5.7360     2.3220 
  136.3750   -18.5240    86.4040    24.5450     5.8720     5.5100     5.9010     2.3120 
  136.5000   -18.7340    85.1590    24.3680     6.1940     5.7500     6.1940     2.2880 
  136.6250   -19.0190    84.4210    24.0060     6.7360     6.0790     6.5640     2.2650 
  136.7500   -19.3330    85.2370    23.6290     7.1960     6.4140     6.9240     2.2530 
  136.8750   -19.6430    86.7300    23.3480     7.4680     6.6960     7.2110     2.2560 
  137.0000   -19.9220    86.9480    23.2240     7.6230     6.8870     7.3830     2.2670 
  137.1250   -20.1340    85.7230    23.2950     7.7470     6.9580     7.4170     2.2750 
  137.2500   -20.2740    84.9240    23.4240     7.8750     6.9420     7.3660     2.2810 
  137.3750   -20.3410    84.8160    23.4980     8.0370     6.8720     7.2730     2.2880 
  137.5000   -20.3400    84.7870    23.5320     8.3060     6.8040     7.2010     2.2940 
  137.6250   -20.2710    84.2830    23.5930     8.6600     6.8290     7.2460     2.2920 
  137.7500   -20.1520    82.8480    23.6790     9.0570     7.0070     7.4630     2.2850 
  137.8750   -19.9870    80.4360    23.7400     9.4080     7.3750     7.8930     2.2820 
  138.0000   -19.7820    77.5070    23.7570     9.6110     7.9540     8.5640     2.2890 
  138.1250   -19.5440    74.8850    23.7370     9.8790     8.7750     9.4810     2.3130 
  138.2500   -19.2950    72.4210    23.7090    11.0670     9.7410    10.5060     2.3590 
  138.3750   -19.0520    69.4560    23.7020    13.9690    10.7280    11.4890     2.4260 
  138.5000   -18.8370    66.4220    23.7850    18.0020    11.5590    12.2380     2.4960 
  138.6250   -18.6880    65.1530    23.9110    20.7310    11.9450    12.4460     2.5370 
  138.7500   -18.6210    65.5940    24.0180    21.1680    11.8090    12.0860     2.5410 
  138.8750   -18.6540    66.8950    24.0150    20.1530    11.1840    11.2440     2.5220 
  139.0000   -18.7920    69.0670    23.9050    18.4610    10.2170    10.1170     2.4940 
  139.1250   -19.0470    73.2570    23.6490    15.8710     9.1340     8.9820     2.4550 
  139.2500   -19.3880    77.8090    23.3470    12.8090     8.1730     8.0850     2.4050 
  139.3750   -19.7960    80.2610    23.1750     9.8430     7.4710     7.5290     2.3580 
  139.5000   -20.2410    79.9620    23.2290     7.7300     7.0930     7.3300     2.3190 
  139.6250   -20.6910    78.2590    23.3260     7.1900     7.1040     7.5020     2.2810 
  139.7500   -21.1110    76.7600    23.2670     7.7510     7.4120     7.9160     2.2400 
  139.8750   -21.4760    75.2340    23.1030     8.7360     7.9420     8.4810     2.2090 
  140.0000   -21.7650    73.0960    22.9760     9.5500     8.5900     9.0870     2.1950 
  140.1250   -21.9460    70.7530    22.9420    10.0550     9.2100     9.5980     2.1950 
  140.2500   -22.0240    69.3060    22.9320    10.4690     9.6790     9.9370     2.1950 
  140.3750   -21.9950    69.1250    22.9050    10.8550     9.9310    10.0760     2.1910 
  140.5000   -21.8550    69.8090    22.8670    11.1930     9.9630    10.0510     2.1880 
  140.6250   -21.5920    72.1650    22.8510    11.3970     9.8330     9.9470     2.1850 
  140.7500   -21.2300    76.2300    22.8260    11.3920     9.6900     9.8950     2.1770 
  140.8750   -20.7810    79.9150    22.7570    11.1510     9.6560    10.0150     2.1640 
  141.0000   -20.2560    80.8670    22.6820    10.7700     9.8650    10.4420     2.1600 
  141.1250   -19.6610    79.4260    22.7110    10.5680    10.5530    11.3870     2.1920 
  141.2500   -19.0270    78.2390    22.8470    10.9240    11.7650    12.8100     2.2590 
  141.3750   -18.3750    77.1740    23.0290    12.2700    13.4530    14.5880     2.3530 
  141.5000   -17.7260    74.5780    23.1580    15.0230    15.3540    16.3800     2.4630 
  141.6250   -17.1070    70.7720    23.2850    20.1370    16.8050    17.4280     2.5600 
  141.7500   -16.5400    68.8140    23.5050    27.0570    17.2040    17.2300     2.6150 
  141.8750   -16.0440    70.9470    23.8120    33.3790    16.2480    15.6420     2.6090 
  142.0000   -15.6410    77.3910    24.0310    35.1430    14.1180    13.0490     2.5520 
  142.1250   -15.3640    86.4860    24.1320    30.0140    11.3970    10.2480     2.4780 
  142.2500   -15.2030    94.9180    24.2540    20.8910     8.8480     7.9120     2.4190 
  142.3750   -15.1580   100.7060    24.4650    12.0490     6.8070     6.2420     2.3730 
  142.5000   -15.2250   104.5910    24.6260     6.4250     5.3820     5.2090     2.3280 
  142.6250   -15.4100   108.4420    24.6980     4.6430     4.5980     4.7470     2.2950 
  142.7500   -15.6820   110.8020    24.6810     4.2320     4.2320     4.6170     2.2870 
  142.8750   -16.0300   108.5240    24.7850     4.1630     4.1850     4.7270     2.2990 
  143.0000   -16.4400   101.3630    24.9130     4.2890     4.3930     5.0290     2.3160 
  143.1250   -16.9060    93.2240    24.8000     4.9790     4.8290     5.5020     2.3370 
  143.2500   -17.4030    87.8300    24.4050     6.2090     5.4120     6.0950     2.3630 
  143.3750   -17.9190    85.5740    24.0350     7.4030     6.1050     6.7920     2.3740 
  143.5000   -18.4390    84.8140    23.8030     7.8980     6.8610     7.5480     2.3460 
  143.6250   -18.9420    82.6360    23.5810     8.4900     7.5830     8.2630     2.2770 
  143.7500   -19.4060    78.8530    23.2740    10.3300     8.1700     8.8340     2.2100 
  143.8750   -19.8080    76.0990    22.9620    12.4610     8.5440     9.1830     2.1740 
  144.0000   -20.1280    76.8350    22.6920    12.9290     8.6660     9.2660     2.1670 
  144.1250   -20.3270    80.1330    22.4700    11.3590     8.5360     9.0910     2.1650 
  144.2500   -20.4050    81.6200    22.3760     9.7910     8.2720     8.8000     2.1550 
  144.3750   -20.3540    80.3210    22.4080     9.0820     7.9250     8.4520     2.1420 
  144.5000   -20.1730    78.6170    22.5180     8.9030     7.5310     8.0820     2.1390 
  144.6250   -19.8560    79.1640    22.5930     8.7460     7.1180     7.7180     2.1490 
  144.7500   -19.4440    81.1480    22.6780     8.4990     6.7050     7.3600     2.1670 
  144.8750   -18.9660    83.9300    22.8620     8.1310     6.2950     6.9990     2.1970 
