~V
VERS. 2.00: Ver 2.00
~W
STRT.M 59.0000:
STOP.M 260.0000:
STEP.M 0.1250:
NULL. -999.2500:
UWI. DF5044:
~C
DEPT.M :
GR.API :
CALI.CM :
RXO.OHMM :
RI. :
RML.OHMM :
DEN.GM/CC :
SP.MV :
~A
# ...
  239.0000    67.2750    23.9920    18.2530    14.8370    16.2640     2.2630   -26.3250 
  239.1250    64.9810    23.9510    19.1990    14.7880    16.1970     2.2530   -26.3880 
  239.2500    66.5810    23.8710    19.2010    14.6220    16.0190     2.2460   -26.4320 
  239.3750    70.3660    23.8000    18.2980    14.4290    15.8340     2.2470   -26.4100 
  239.5000    74.8190    23.7730    17.1250    14.3020    15.7410     2.2520   -26.2960 
  239.6250    79.3090    23.7850    16.6520    14.3630    15.8700     2.2550   -26.1190 
  239.7500    82.3310    23.8010    16.8970    14.6420    16.2360     2.2540   -25.9360 
  239.8750    82.2840    23.8170    17.6150    15.1370    16.8320     2.2490   -25.7490 
  240.0000    79.7140    23.8490    18.6480    15.8090    17.6100     2.2400   -25.4960 
  240.1250    77.4900    23.9020    19.7910    16.5660    18.4590     2.2330   -25.1290 
  240.2500    77.2280    23.9850    20.9510    17.2320    19.1830     2.2460   -24.7370 
  240.3750    78.2060    24.0260    22.0420    17.6590    19.6110     2.2810   -24.4310 
  240.5000    79.0340    24.0230    22.7620    17.7330    19.6270     2.3200   -24.1980 
  240.6250    78.6280    24.0050    22.6860    17.3590    19.1500     2.3280   -23.9600 
  240.7500    77.9480    23.9990    22.1640    16.6670    18.3340     2.3040   -23.6360 
  240.8750    79.0290    23.9950    21.4540    15.7720    17.3140     2.2730   -23.2680 
  241.0000    82.4720    23.9690    20.2620    14.7870    16.2320     2.2590   -22.9920 
  241.1250    85.2970    23.9040    18.2590    13.8360    15.2390     2.2710   -22.8360 
  241.2500    85.6470    23.8070    16.3440    13.0060    14.4150     2.2940   -22.6450 
  241.3750    85.4750    23.7490    15.3180    12.3450    13.7850     2.3270   -22.3270 
  241.5000    86.9510    23.7260    14.9760    11.8750    13.3540     2.3710   -22.0130 
  241.6250    89.5490    23.7220    14.3300    11.6560    13.1740     2.4190   -21.8000 
  241.7500    91.1360    23.7350    13.5060    11.6770    13.2400     2.4450   -21.6310 
  241.8750    91.1690    23.7690    13.1390    11.9710    13.5930     2.4360   -21.4260 
  242.0000    89.7830    23.7940    13.6560    12.5590    14.2570     2.3930   -21.1670 
  242.1250    87.6380    23.7810    15.4880    13.4390    15.2220     2.3420   -20.9420 
  242.2500    85.8630    23.8050    17.5310    14.4010    16.2640     2.3020   -20.7760 
  242.3750    84.5560    23.8410    19.0380    15.2130    17.1260     2.2770   -20.6010 
  242.5000    82.5150    23.8560    20.0280    15.6220    17.5240     2.2680   -20.4250 
  242.6250    77.7480    23.8940    21.5670    15.3130    17.1020     2.2930   -20.2600 
  242.7500    71.3250    23.8880    23.5050    14.3760    15.9630     2.3480   -20.1500 
  242.8750    66.4900    23.8110    23.5330    13.0080    14.2810     2.4190   -20.0660 
  243.0000    65.8900    23.7250    19.6000    11.4980    12.3510     2.4770   -20.0020 
  243.1250    68.5550    23.6960    13.2730    10.1440    10.4970     2.4960   -19.9760 
  243.2500    71.4260    23.6830     9.2270     9.0870     9.2340     2.4760   -20.0020 
  243.3750    75.8840    23.6810     7.8170     8.3650     8.4920     2.4370   -20.1150 
  243.5000    84.5750    23.6900     7.6010     7.9560     8.1360     2.4060   -20.1990 
  243.6250    92.1700    23.6940     7.5870     7.8430     8.0870     2.3940   -20.3010 
  243.7500    90.9250    23.7050     7.7340     7.9130     8.2190     2.3860   -20.4890 
  243.8750    82.8320    23.7280     8.1720     8.1030     8.4520     2.3780   -20.7340 
  244.0000    76.8840    23.7520     8.9150     8.3580     8.7240     2.3780   -20.9410 
  244.1250    78.6690    23.7620     9.8870     8.6430     9.0080     2.3890   -21.1280 
  244.2500    82.2380    23.8190    10.6760     8.9300     9.2920     2.3970   -21.3290 
  244.3750    83.4480    23.8940    11.1160     9.1980     9.5640     2.3980   -21.5130 
  244.5000    81.4960    23.9310    11.3560     9.4220     9.8040     2.3950   -21.7120 
  244.6250    78.4390    23.8760    11.5960     9.5710     9.9780     2.3970   -21.8970 
  244.7500    77.5180    23.8180    12.0380     9.6420    10.0850     2.4060   -22.0010 
  244.8750    79.3260    23.8230    12.3860     9.6330    10.1220     2.4170   -22.0060 
  245.0000    81.8170    23.9120    12.0640     9.5580    10.0980     2.4240   -21.9490 
  245.1250    81.9460    24.0180    11.0780     9.4440    10.0390     2.4160   -21.7650 
  245.2500    79.8690    24.0930    10.2380     9.3340     9.9930     2.3980   -21.4360 
  245.3750    77.5760    24.1160     9.8540     9.2630     9.9930     2.3740   -20.9730 
  245.5000    76.7220    24.0680     9.8120     9.2590    10.0680     2.3470   -20.4020 
  245.6250    76.6680    24.0110    10.1850     9.3490    10.2460     2.3290   -19.7720 
  245.7500    75.8430    23.9670    10.8490     9.5170    10.4960     2.3260   -19.1010 
  245.8750    74.8130    23.9250    11.3260     9.7500    10.7910     2.3270   -18.4430 
  246.0000    74.3640    23.9070    11.3500    10.0240    11.1010     2.3230   -17.8700 
  246.1250    73.5160    23.9590    10.7380    10.3010    11.3830     2.3200   -17.3610 
  246.2500    71.7190    23.9880    10.1280    10.5500    11.6110     2.3370   -16.9080 
  246.3750    70.0950    23.9870    10.1160    10.7460    11.7770     2.3690   -16.6020 
  246.5000    69.1240    23.9460    10.8610    10.8780    11.8810     2.3990   -16.4150 
  246.6250    68.0950    23.8830    12.6160    10.9330    11.9190     2.4110   -16.2190 
  246.7500    67.2180    23.8660    14.3620    10.9300    11.9170     2.4120   -16.0760 
  246.8750    67.6390    23.8910    15.3470    10.8800    11.8890     2.4170   -15.9850 
  247.0000    69.3270    23.8610    15.2770    10.8020    11.8480     2.4250   -15.8880 
  247.1250    70.9100    23.7290    14.0310    10.7170    11.8020     2.4230   -15.8090 
  247.2500    71.6350    23.6440    12.5100    10.6330    11.7580     2.4110   -15.7860 
  247.3750    72.3150    23.6650    11.1300    10.5540    11.7190     2.4050   -15.7940 
  247.5000    73.2710    23.8390    10.3850    10.4780    11.6830     2.4110   -15.7950 
  247.6250    73.5190    23.9480    10.6360    10.4050    11.6310     2.4240   -15.7590 
  247.7500    72.8070    24.0170    11.7490    10.3290    11.5500     2.4340   -15.6850 
  247.8750    71.9390    24.0260    13.1310    10.2490    11.4380     2.4410   -15.6460 
  248.0000    72.1270    24.0000    13.7180    10.1730    11.3170     2.4400   -15.6500 
  248.1250    75.6440    23.9430    13.2380    10.1310    11.2330     2.4240   -15.6780 
  248.2500    81.2250    23.8850    12.8550    10.1530    11.2350     2.4070   -15.6410 
  248.3750    83.8640    23.8740    13.3250    10.2640    11.3550     2.4010   -15.5100 
  248.5000    79.9580    23.9150    15.0630    10.4710    11.5980     2.4030   -15.3840 
  248.6250    72.9660    23.9520    18.2200    10.7800    11.9570     2.4060   -15.3140 
  248.7500    69.1420    23.9030    22.2260    11.1350    12.3520     2.4120   -15.2730 
  248.8750    68.4320    23.7880    25.7640    11.4710    12.7000     2.4260   -15.2200 
  249.0000    68.0220    23.7100    27.4360    11.7140    12.9160     2.4360   -15.1230 
  249.1250    67.3230    23.7030    26.9300    11.7770    12.9020     2.4280   -14.9530 
  249.2500    67.2560    23.7190    24.1670    11.6760    12.6950     2.4080   -14.8190 
  249.3750    67.9950    23.7500    20.3240    11.4470    12.3600     2.3970   -14.7530 
  249.5000    68.5990    23.7480    16.4120    11.1470    11.9860     2.4050   -14.7060 
  249.6250    68.7800    23.7570    13.5180    10.8490    11.6680     2.4260   -14.6980 
  249.7500    68.7800    23.7990    11.9780    10.6110    11.4450     2.4470   -14.6480 
  249.8750    68.7800    23.8750    11.2750    10.4550    11.3230     2.4640   -14.5490 
  250.0000    68.7800    23.9400    10.9430    10.3830    11.2850     2.4700   -14.4450 
  250.1250    68.7800    23.9810    10.6620    10.3860    11.3120     2.4510   -14.4030 
