~V
VERS. 2.00: Ver 2.00
~W
STRT.M 67.0000:
STOP.M 277.0000:
STEP.M 0.1250:
NULL. -999.2500:
UWI. DF5013:
~C
DEPT.M :
SP.MV :
GR.API :
RML.OHMM :
RI. :
RXO.OHMM :
CALI.CM :
DEN.GM/CC :
~A
# ...
  247.0000   -14.2160    72.4020    98.2740    87.0380    70.0760    23.5330     2.3710 
  247.1250   -14.0150    72.2590   100.7550    88.8520    68.8320    23.5220     2.4100 
  247.2500   -13.7770    72.8630   108.1230    95.8310    82.0020    23.6620     2.4520 
  247.3750   -13.5050    74.8240   120.4740   107.6020   105.3510    23.7720     2.4950 
  247.5000   -13.1970    77.0300   136.8130   122.5820   129.1730    23.8030     2.5270 
  247.6250   -12.8520    77.9730   155.1560   137.3820   148.0590    23.7990     2.5420 
  247.7500   -12.4940    79.7050   170.6070   149.8390   155.3720    23.7930     2.5370 
  247.8750   -12.1260    80.7330   182.0490   159.4240   149.5020    23.7960     2.5180 
  248.0000   -11.7770    78.3880   192.3500   168.0350   148.2170    23.8690     2.4930 
  248.1250   -11.4210    75.3590   205.3200   178.6890   166.2320    23.9680     2.4760 
  248.2500   -11.0750    74.5370   220.5360   191.8030   194.0380    24.0570     2.4750 
  248.3750   -10.7340    76.7000   233.0090   204.2630   217.2420    24.0910     2.4970 
  248.5000   -10.4370    77.6430   230.5060   207.1950   231.1780    24.0480     2.5410 
  248.6250   -10.1490    74.5470   206.4250   193.9120   237.5150    24.0070     2.5860 
  248.7500    -9.8510    69.2700   160.9470   161.8470   232.1870    23.9750     2.6130 
  248.8750    -9.5440    65.5590   107.2680   116.7140   199.7560    23.9490     2.6070 
  249.0000    -9.2620    64.9520    69.7000    73.4000   146.9100    23.9300     2.5650 
  249.1250    -9.0590    63.4790    41.3920    42.5070    84.0580    23.8740     2.5080 
  249.2500    -8.8750    61.3290    22.7490    24.2710    35.2940    23.7550     2.4520 
  249.3750    -8.7630    62.4980    14.7860    14.7580    13.5280    23.6470     2.4070 
  249.5000    -8.6690    66.1270    11.3290    10.5790     8.5830    23.6070     2.3790 
  249.6250    -8.6230    66.3960     9.2060     8.5530     7.3940    23.6000     2.3640 
  249.7500    -8.6140    63.2510     8.1350     7.6730     7.2590    23.5880     2.3580 
  249.8750    -8.6720    61.4870     8.0190     7.4070     7.3090    23.5620     2.3550 
  250.0000    -8.7240    61.3510     8.1200     7.4380     7.3410    23.5480     2.3540 
  250.1250    -8.7540    59.3420     8.1540     7.4970     7.3180    23.5440     2.3510 
  250.2500    -8.7750    57.2140     8.0870     7.4980     7.2740    23.5440     2.3470 
  250.3750    -8.7570    58.1190     7.9550     7.4250     7.1890    23.5440     2.3420 
  250.5000    -8.7020    59.7370     7.8070     7.2950     7.1990    23.5420     2.3390 
  250.6250    -8.6470    58.3880     7.6710     7.1390     7.2170    23.5250     2.3380 
  250.7500    -8.5740    57.3540     7.5460     6.9720     7.1580    23.4810     2.3380 
  250.8750    -8.4820    59.4700     7.4180     6.7990     7.0190    23.4340     2.3380 
  251.0000    -8.4150    63.0050     7.2760     6.6290     6.7630    23.4130     2.3360 
  251.1250    -8.3600    65.8000     7.1230     6.4750     6.3980    23.3960     2.3340 
  251.2500    -8.3150    66.8490     6.9960     6.3530     5.9910    23.3620     2.3330 
  251.3750    -8.3300    66.8870     6.9440     6.2810     5.8260    23.3200     2.3320 
  251.5000    -8.3790    66.2100     6.9870     6.2780     6.0800    23.2900     2.3330 
  251.6250    -8.4280    63.1810     7.0790     6.3240     6.6940    23.2650     2.3350 
  251.7500    -8.4670    57.8820     7.2100     6.4050     7.5720    23.2730     2.3420 
  251.8750    -8.4950    53.3450     7.3260     6.4990     8.1520    23.3550     2.3590 
  252.0000    -8.4810    51.4320     7.3670     6.5870     7.9280    23.4950     2.3920 
  252.1250    -8.4400    48.4670     7.3620     6.6540     7.4030    23.5740     2.4340 
  252.2500    -8.4030    44.9300     7.3330     6.6900     6.8880    23.5900     2.4670 
  252.3750    -8.3300    46.5830     7.2850     6.6870     6.2090    23.5720     2.4770 
  252.5000    -8.2600    53.5390     7.2050     6.6360     6.2050    23.5610     2.4540 
  252.6250    -8.1680    58.7810     7.1210     6.5530     6.4560    23.5540     2.4160 
  252.7500    -8.1040    60.0480     7.0260     6.4580     6.6970    23.5530     2.3800 
  252.8750    -8.0800    58.2610     6.9250     6.3770     6.9180    23.5550     2.3580 
  253.0000    -8.0980    56.3390     6.8600     6.3360     7.1310    23.5520     2.3510 
  253.1250    -8.1130    55.8720     6.8470     6.3380     7.3050    23.5450     2.3520 
  253.2500    -8.1330    57.8770     6.8660     6.3720     7.3930    23.5170     2.3560 
  253.3750    -8.1230    61.3530     6.8950     6.4180     7.3410    23.4610     2.3620 
  253.5000    -8.0840    63.1200     6.9270     6.4540     7.0780    23.3970     2.3680 
  253.6250    -8.0310    62.2170     6.9410     6.4760     6.6000    23.3640     2.3730 
  253.7500    -7.9820    60.0800     6.9650     6.4930     6.1250    23.3490     2.3760 
  253.8750    -7.9270    58.9070     7.0030     6.5150     5.9180    23.3430     2.3760 
  254.0000    -7.8890    59.8880     7.0470     6.5530     5.9740    23.3340     2.3760 
  254.1250    -7.8630    60.8120     7.0720     6.6040     6.0700    23.3160     2.3790 
  254.2500    -7.8420    58.7710     7.1030     6.6670     6.1220    23.3000     2.3820 
  254.3750    -7.8540    54.7340     7.1470     6.7370     6.1260    23.2940     2.3820 
  254.5000    -7.9060    53.9680     7.1810     6.8130     6.2770    23.2940     2.3730 
  254.6250    -7.9700    57.5500     7.2370     6.8880     6.4650    23.2940     2.3560 
  254.7500    -8.0480    61.9830     7.3200     6.9540     6.5090    23.2920     2.3360 
  254.8750    -8.0800    63.8820     7.3950     7.0000     6.4560    23.2830     2.3190 
  255.0000    -8.0950    62.5690     7.4330     7.0090     6.5440    23.2580     2.3110 
  255.1250    -8.1100    61.6590     7.4390     6.9880     6.8020    23.2270     2.3110 
  255.2500    -8.1260    61.7920     7.4280     6.9510     7.2160    23.1910     2.3180 
  255.3750    -8.1350    61.5910     7.4190     6.9150     7.6190    23.1280     2.3300 
  255.5000    -8.1460    60.7740     7.4310     6.9000     7.8820    23.0580     2.3440 
  255.6250    -8.1930    61.9930     7.4600     6.9030     7.8110    23.0160     2.3560 
  255.7500    -8.2270    64.7990     7.4920     6.9130     7.5450    22.9720     2.3650 
  255.8750    -8.3180    65.7630     7.5090     6.9160     7.3830    22.9260     2.3680 
  256.0000    -8.3960    63.9540     7.5030     6.9030     7.4930    22.9200     2.3670 
  256.1250    -8.4860    62.5880     7.4910     6.8850     7.8490    23.0000     2.3660 
  256.2500    -8.5490    62.5210     7.4960     6.8790     8.2850    23.1870     2.3670 
  256.3750    -8.5930    62.5310     7.5330     6.8980     8.6310    23.3470     2.3710 
  256.5000    -8.5760    62.5460     7.6030     6.9550     8.5100    23.4050     2.3740 
  256.6250    -8.5290    63.6330     7.6810     7.0340     7.9880    23.4130     2.3750 
  256.7500    -8.4540    64.5580     7.7460     7.1160     7.4270    23.4270     2.3720 
  256.8750    -8.3430    64.0840     7.7890     7.1860     7.1680    23.4710     2.3670 
  257.0000    -8.1990    62.5410     7.8080     7.2330     7.3920    23.5380     2.3630 
  257.1250    -8.0440    62.3370     7.8220     7.2640     7.9280    23.5850     2.3600 
  257.2500    -7.8790    62.9860     7.8440     7.2850     8.6100    23.6010     2.3560 
  257.3750    -7.7380    62.3840     7.8760     7.3010     9.3470    23.6020     2.3520 
  257.5000    -7.6420    59.9030     7.9000     7.3000     9.8570    23.6020     2.3470 
  257.6250    -7.5550    58.3000     7.8850     7.2680    10.1150    23.6020     2.3440 
  257.7500    -7.4820    60.5750     7.8080     7.1940    10.0740    23.6060     2.3420 
  257.8750    -7.4210    64.6750     7.6660     7.0770     9.5810    23.6340     2.3420 
  258.0000    -7.3890    65.5610     7.4920     6.9340     8.7180    23.7140     2.3420 
  258.1250    -7.3600    63.8780     7.3510     6.8040     7.7000    23.8080     2.3440 
