~V
VERS. 2.00: Ver 2.00
~W
STRT.M 61.0000:
STOP.M 247.0000:
STEP.M 0.1250:
NULL. -999.2500:
UWI. DF5042:
~C
DEPT.M :
SP.MV :
GR.API :
CALI.CM :
RXO.OHMM :
RI. :
RML.OHMM :
DEN.GM/CC :
~A
# ...
  196.0000   -19.1770    76.6930    25.6750    29.9710    28.5170    37.2330     2.3080 
  196.1250   -19.7000    74.8010    25.7080    30.5360    31.3010    39.9020     2.2660 
  196.2500   -20.1820    67.5220    25.7140    30.2230    33.3580    42.1340     2.2250 
  196.3750   -20.6610    60.5560    25.7110    30.4180    35.4760    44.9440     2.1940 
  196.5000   -21.1350    59.1380    25.7090    31.9840    38.4190    49.1950     2.1740 
  196.6250   -21.5760    62.9200    25.7080    35.7550    43.1030    55.8590     2.1650 
  196.7500   -22.0030    66.0320    25.7080    39.7010    49.7280    64.8870     2.1630 
  196.8750   -22.4050    67.5720    25.7100    44.1630    58.4000    76.2020     2.1640 
  197.0000   -22.7940    68.4440    25.7080    47.8220    68.8140    89.2840     2.1660 
  197.1250   -23.1890    68.8560    25.7260    48.7200    80.1040   102.8890     2.1700 
  197.2500   -23.4770    68.5670    25.7880    61.0670    90.5810   114.9100     2.1780 
  197.3750   -23.6860    67.9580    25.8750    83.0200    98.7110   123.4010     2.1900 
  197.5000   -24.0930    66.6510    25.9550    91.7160   103.4550   127.2720     2.2010 
  197.6250   -24.4760    64.0690    26.0100    76.3210   104.5460   126.7990     2.2030 
  197.7500   -24.8410    61.8820    26.0520    69.9150   104.0210   125.0010     2.1960 
  197.8750   -25.1620    62.8880    26.0760    71.4730   103.6040   124.0490     2.1840 
  198.0000   -25.4780    66.6420    26.0720    77.0720   104.7780   125.4240     2.1760 
  198.1250   -25.8000    68.5360    26.0390    84.0880   108.7280   130.0300     2.1720 
  198.2500   -26.1220    66.2570    25.9890    89.7720   114.7030   136.6540     2.1710 
  198.3750   -26.4620    62.4500    25.9460    92.2350   121.7860   144.1630     2.1660 
  198.5000   -26.7900    61.3740    25.9480    95.6090   129.2070   151.7640     2.1570 
  198.6250   -27.0840    63.5890    26.0230   100.2480   136.7940   159.4380     2.1460 
  198.7500   -27.3690    64.3960    26.1200   102.7420   144.9260   167.7470     2.1370 
  198.8750   -27.6390    61.8970    26.1860   105.6960   154.0820   177.1280     2.1330 
  199.0000   -27.8980    58.7550    26.2030   108.9420   164.0440   187.0580     2.1330 
  199.1250   -28.1240    60.0890    26.1980   110.1280   172.6240   194.6270     2.1330 
  199.2500   -28.3310    63.2870    26.1980   104.7650   177.0010   196.7280     2.1330 
  199.3750   -28.5360    62.7900    26.2110   102.1770   175.4340   191.8900     2.1300 
  199.5000   -28.7460    59.3890    26.2390   101.3630   168.3070   181.4280     2.1250 
  199.6250   -28.9380    57.5960    26.2760    98.0110   158.0850   168.9890     2.1190 
  199.7500   -29.1080    57.3840    26.3030    93.5190   148.7120   158.4940     2.1150 
  199.8750   -29.2680    57.9720    26.3130    92.8550   141.9640   151.2050     2.1130 
  200.0000   -29.4000    59.6790    26.3120    96.4490   137.9520   146.7210     2.1140 
  200.1250   -29.5060    63.7670    26.3080   100.9250   135.9160   143.9720     2.1140 
  200.2500   -29.5790    68.2410    26.3060   103.4400   134.4710   141.6170     2.1140 
  200.3750   -29.5910    70.3170    26.3060   101.3570   133.1140   139.3740     2.1130 
  200.5000   -29.5350    69.1280    26.3040    95.1080   131.9740   137.6460     2.1130 
  200.6250   -29.4630    67.7450    26.3020    88.5060   131.9220   137.4630     2.1160 
  200.7500   -29.3590    67.3000    26.3000    91.2340   133.3760   138.9920     2.1210 
  200.8750   -29.2250    64.7060    26.2970    98.8530   136.2000   141.8760     2.1270 
  201.0000   -29.0670    60.4940    26.2840   105.0980   139.6720   145.2490     2.1310 
  201.1250   -28.9410    59.7870    26.2660   109.6290   142.6080   147.8910     2.1290 
  201.2500   -28.8670    61.1980    26.2550   106.8660   144.4470   149.3810     2.1250 
  201.3750   -28.7800    61.6990    26.2530   100.6570   145.5410   150.1920     2.1210 
  201.5000   -28.6680    60.8160    26.2530    94.1750   146.9460   151.4170     2.1200 
  201.6250   -28.5390    60.6820    26.2410    90.9940   150.1890   154.4510     2.1210 
  201.7500   -28.4370    62.2160    26.2120    90.3550   155.5070   159.3170     2.1220 
  201.8750   -28.3470    64.7590    26.1630    94.4610   162.4100   165.3140     2.1220 
  202.0000   -28.2250    65.9910    26.1030   100.1620   169.6970   171.0160     2.1190 
  202.1250   -27.9930    62.9260    26.0520    99.6210   175.0470   173.6940     2.1180 
  202.2500   -27.6600    58.1670    26.0140    93.7480   176.0450   171.0070     2.1200 
  202.3750   -27.3280    56.2560    25.9860    85.7680   170.2620   160.9980     2.1230 
  202.5000   -27.0460    59.5610    25.9660    80.5820   156.7010   143.8000     2.1250 
  202.6250   -26.8740    65.2810    25.9500    77.3110   136.3860   122.0750     2.1280 
  202.7500   -26.7420    68.3630    25.9160    69.8970   114.3920   100.8510     2.1320 
  202.8750   -26.6270    68.6700    25.8520    58.0680    94.4740    83.1220     2.1440 
  203.0000   -26.5320    68.1680    25.7750    47.3820    79.3190    70.6000     2.1660 
  203.1250   -26.4830    66.3520    25.7240    45.0030    71.1500    64.8560     2.1960 
  203.2500   -26.4250    63.7590    25.7060    45.5790    69.1100    64.9460     2.2290 
  203.3750   -26.3220    62.9160    25.7050    41.4250    73.3970    70.9080     2.2560 
  203.5000   -26.1630    63.9590    25.7060    44.3690    84.2910    82.6340     2.2660 
  203.6250   -25.9010    64.4580    25.7060    62.7120   101.9380    99.7820     2.2570 
  203.7500   -25.6020    62.9610    25.7060    75.9700   122.1970   118.5860     2.2360 
  203.8750   -25.3090    61.7580    25.7060    76.4190   140.1950   134.7050     2.2150 
  204.0000   -25.0360    63.4890    25.7060    70.6640   151.1920   144.0370     2.1990 
  204.1250   -24.8030    66.6800    25.7060    66.8990   152.5120   144.6840     2.1870 
  204.2500   -24.6290    67.3110    25.7060    64.6830   148.9590   141.4350     2.1770 
  204.3750   -24.5040    65.1760    25.7060    66.0030   144.2610   137.5620     2.1660 
  204.5000   -24.4060    62.9860    25.7060    65.9910   140.0570   134.2080     2.1560 
  204.6250   -24.3420    62.5240    25.7060    68.2050   136.1980   130.8990     2.1480 
  204.7500   -24.2830    61.9180    25.7060    72.3990   131.9330   126.8220     2.1420 
  204.8750   -24.2470    61.3620    25.7060    74.4600   126.7140   121.4540     2.1360 
  205.0000   -24.1800    62.2590    25.7060    71.0450   120.2980   114.6700     2.1310 
  205.1250   -24.0650    64.8140    25.7060    64.7080   112.8620   106.7950     2.1290 
  205.2500   -23.9030    65.9190    25.7050    57.8620   105.2550    98.8040     2.1320 
  205.3750   -23.6990    64.5120    25.7030    52.1680    98.0490    91.3170     2.1380 
  205.5000   -23.5090    62.4130    25.7150    47.9420    91.5630    84.6670     2.1460 
  205.6250   -23.3260    60.7560    25.7690    46.4520    86.0510    79.1510     2.1540 
  205.7500   -23.1210    61.1420    25.8350    46.9380    81.5030    74.7920     2.1610 
  205.8750   -22.8810    64.2460    25.8760    46.3500    78.2620    71.9730     2.1670 
  206.0000   -22.6720    69.0890    25.8930    42.5640    76.9110    71.2250     2.1730 
  206.1250   -22.4970    72.6650    25.9280    40.0990    78.3530    73.1440     2.1760 
  206.2500   -22.3720    73.2870    25.9840    42.5310    81.5620    76.4100     2.1730 
  206.3750   -22.3140    70.5030    26.0380    47.7250    84.5880    79.0500     2.1670 
  206.5000   -22.2880    65.9640    26.0540    56.0160    84.9870    78.9000     2.1710 
  206.6250   -22.2500    62.0710    25.9610    59.3010    80.8910    74.6180     2.1940 
  206.7500   -22.1980    59.5990    25.7930    54.1390    74.4180    68.5830     2.2370 
  206.8750   -22.1060    58.6850    25.6470    41.4720    68.2170    63.4280     2.2920 
  207.0000   -22.0030    60.0420    25.5890    31.9580    64.5600    61.1820     2.3320 
  207.1250   -21.9140    64.3200    25.5950    38.7970    65.1660    63.2130     2.3310 
