~V
VERS. 2.00: Ver 2.00
~W
STRT.M 72.0000:
STOP.M 259.0000:
STEP.M 0.1250:
NULL. -999.2500:
UWI. DF5020:
~C
DEPT.M :
DEN.GM/CC :
GR.API :
RML.OHMM :
RI. :
RXO.OHMM :
CALI.CM :
SP.MV :
~A
# ...
  229.5000     2.3580    92.1240    10.3940     9.0840     8.9310    24.9690   -26.2630 
  229.6250     2.3650    94.6460    10.1650     8.9160     8.8350    24.9760   -26.0270 
  229.7500     2.3730    97.7430    10.0640     8.7750     9.0150    24.9720   -25.8540 
  229.8750     2.3820   101.2250    10.0670     8.6700     9.0820    24.9800   -25.7420 
  230.0000     2.3930   104.8130    10.1210     8.5740     9.3750    24.9960   -25.6710 
  230.1250     2.4050   108.3480    10.1700     8.4600     9.5540    25.0050   -25.6700 
  230.2500     2.4150   111.0140    10.1960     8.3330     9.6180    24.9780   -25.6220 
  230.3750     2.4200   113.4200    10.2100     8.2140     9.5290    24.9950   -25.6210 
  230.5000     2.4180   115.7770    10.2340     8.1340     9.7590    25.1000   -25.5740 
  230.6250     2.4080   115.7590    10.2920     8.1270    10.1730    25.2940   -25.6000 
  230.7500     2.3960   114.5120    10.3770     8.1870     9.6610    25.3650   -25.5740 
  230.8750     2.3860   113.1990    10.4730     8.3010     9.0890    25.2330   -25.5940 
  231.0000     2.3820   111.7320    10.5610     8.4430     9.3360    25.0880   -25.5800 
  231.1250     2.3830   108.8690    10.6280     8.5830     9.9600    24.9910   -25.5580 
  231.2500     2.3860   107.5310    10.6750     8.6980    10.4360    24.9510   -25.4760 
  231.3750     2.3910   110.8490    10.7100     8.7780    10.3370    24.9350   -25.3340 
  231.5000     2.3980   115.4590    10.7430     8.8200    10.0360    24.9240   -25.1830 
  231.6250     2.4100   115.2820    10.7870     8.8240     9.8520    24.9210   -25.0110 
  231.7500     2.4270   111.8580    10.8320     8.7950     9.6610    24.9290   -24.8470 
  231.8750     2.4430   109.4090    10.8440     8.7180     9.3290    24.9440   -24.6520 
  232.0000     2.4510   109.6800    10.7520     8.5630     8.5820    24.9550   -24.4870 
  232.1250     2.4410   111.6210    10.4450     8.2710     8.6450    24.9800   -24.3610 
  232.2500     2.4150   114.1800     9.9570     7.8610     8.7730    25.0930   -24.3100 
  232.3750     2.3820   115.5760     9.4280     7.4070     9.0460    25.3590   -24.3150 
  232.5000     2.3550   113.9150     9.0230     7.0710     9.3460    25.7410   -24.3770 
  232.6250     2.3490   110.4740     9.3460     7.2520     9.7160    25.8860   -24.4830 
  232.7500     2.3620   106.8970    10.9430     8.4120    10.8900    25.6230   -24.6830 
  232.8750     2.3810   100.5120    14.8110    11.2110    14.0950    25.1780   -24.9560 
  233.0000     2.3920    90.0700    21.5680    16.3280    22.8260    24.8430   -25.2620 
  233.1250     2.3810    79.2590    32.6640    24.5640    38.7450    24.6570   -25.5900 
  233.2500     2.3560    72.2410    46.4870    35.0000    63.0930    24.6280   -25.9220 
  233.3750     2.3260    67.2360    60.7030    46.4720   101.7010    24.6970   -26.2620 
  233.5000     2.3010    63.2000    73.5680    57.6400   122.5060    24.7660   -26.5870 
  233.6250     2.2820    61.0460    84.7220    67.6360   106.4660    24.8040   -26.9120 
  233.7500     2.2670    61.1680    95.2140    76.9690   106.9220    24.7990   -27.1640 
  233.8750     2.2530    63.7560   105.6070    85.8460   140.6320    24.7690   -27.3560 
  234.0000     2.2390    67.5710   115.0420    93.5560   200.2680    24.7240   -27.5080 
  234.1250     2.2270    70.5180   120.7940    98.1310   231.2650    24.7200   -27.6140 
  234.2500     2.2210    69.8170   121.8950    99.1150   210.3620    24.7420   -27.6820 
  234.3750     2.2210    66.9530   119.0050    97.0760   204.8070    24.7680   -27.6960 
  234.5000     2.2260    64.5410   114.3630    93.6230   167.5260    24.7660   -27.6670 
  234.6250     2.2320    61.7820   110.7520    90.8300   121.8420    24.7200   -27.5700 
  234.7500     2.2370    58.3500   109.2370    89.6630    96.4230    24.6460   -27.4780 
  234.8750     2.2380    56.6650   109.5120    90.0290    99.9620    24.5780   -27.3360 
  235.0000     2.2370    58.5230   110.4420    91.1580   109.8640    24.5260   -27.1730 
  235.1250     2.2350    59.9070   109.9530    91.5640   116.2720    24.5670   -26.9940 
  235.2500     2.2360    59.4050   106.4740    89.8920   122.9220    24.6690   -26.8370 
  235.3750     2.2390    61.0720    99.4290    85.4190   124.2000    24.7440   -26.6750 
  235.5000     2.2450    65.3670    89.8000    78.4960   112.2910    24.7520   -26.5260 
  235.6250     2.2540    68.5340    80.2650    70.7740   104.6150    24.7100   -26.3700 
  235.7500     2.2650    70.7660    73.4790    64.6500    95.7400    24.6710   -26.2020 
  235.8750     2.2730    73.0590    70.8160    61.6990    77.2820    24.6070   -26.0440 
  236.0000     2.2750    73.8130    72.6550    62.6700    55.6580    24.5370   -25.8970 
  236.1250     2.2680    71.4470    78.7860    67.7310    60.6150    24.5500   -25.6930 
  236.2500     2.2580    68.8700    86.5490    74.6370    84.6860    24.6060   -25.4940 
  236.3750     2.2510    67.8940    93.4650    81.2680   122.3500    24.6310   -25.2500 
  236.5000     2.2500    68.9600    97.3110    85.6710   147.0770    24.6400   -24.9760 
  236.6250     2.2540    71.9840    96.6730    86.3940   123.9180    24.6820   -24.6720 
  236.7500     2.2580    73.8560    93.6020    84.7040   109.7280    24.7300   -24.3220 
  236.8750     2.2610    72.3090    89.9390    81.9430    96.1650    24.7600   -23.9460 
  237.0000     2.2610    69.0140    86.5290    78.9750    80.1840    24.7560   -23.5170 
  237.1250     2.2620    65.6770    82.9680    75.7360    83.0670    24.6990   -23.1260 
  237.2500     2.2640    61.5670    78.7520    71.9590    84.5860    24.6400   -22.6900 
  237.3750     2.2660    58.5040    74.1050    67.8360    84.2000    24.5870   -22.2950 
  237.5000     2.2670    59.9490    69.8760    64.0680    77.7790    24.5590   -21.9300 
  237.6250     2.2650    64.7560    67.4910    61.8700    62.2760    24.5550   -21.5990 
  237.7500     2.2610    67.7080    67.4330    61.6970    51.8940    24.5560   -21.3160 
  237.8750     2.2560    68.0100    69.6620    63.5560    52.6040    24.5640   -21.0710 
  238.0000     2.2510    67.5220    73.4840    66.8670    62.6760    24.5770   -20.8680 
  238.1250     2.2450    69.1960    77.5700    70.5120    63.5220    24.6000   -20.6470 
  238.2500     2.2380    71.4620    80.4090    73.2010    59.5550    24.6250   -20.4530 
  238.3750     2.2350    71.9210    81.1730    74.2370    63.2590    24.6420   -20.2540 
  238.5000     2.2350    69.7100    79.8490    73.5650    70.2940    24.6190   -20.0620 
  238.6250     2.2400    67.1250    77.1780    71.7040    72.2660    24.5860   -19.8880 
  238.7500     2.2450    66.4430    74.6320    69.7920    65.2890    24.5490   -19.7270 
  238.8750     2.2460    66.3810    73.1000    68.5260    55.5990    24.5460   -19.5740 
  239.0000     2.2440    67.0390    72.9970    68.2740    53.5080    24.6170   -19.4640 
  239.1250     2.2380    68.6400    74.3440    69.1510    61.5720    24.7340   -19.3880 
  239.2500     2.2320    68.9160    76.3550    70.6520    70.1740    24.8290   -19.3570 
  239.3750     2.2290    66.8560    78.5890    72.4900    76.2530    24.8630   -19.3590 
  239.5000     2.2290    64.1380    80.9490    74.5920    79.5360    24.8570   -19.3790 
  239.6250     2.2310    64.8230    83.8120    77.2350    83.0060    24.8270   -19.3940 
  239.7500     2.2350    66.6880    87.4190    80.5860    87.4600    24.7700   -19.4240 
  239.8750     2.2410    66.2480    91.6200    84.5750    83.9980    24.7090   -19.4820 
  240.0000     2.2460    62.7980    95.7950    88.7380    84.2940    24.6910   -19.5370 
  240.1250     2.2520    59.7140    98.8240    92.1480    78.3650    24.6850   -19.5890 
  240.2500     2.2570    60.2860   100.1600    94.1880    78.9840    24.6730   -19.6470 
  240.3750     2.2620    63.8980    99.6640    94.5750    79.9970    24.6380   -19.6910 
  240.5000     2.2650    68.6030    97.6030    93.3980    84.3460    24.6130   -19.7330 
  240.6250     2.2630    71.5390    94.3540    90.8860    96.2310    24.6190   -19.7690 
