~V
VERS. 2.00: Ver 2.00
~W
STRT.M 55.0000:
STOP.M 270.0000:
STEP.M 0.1250:
NULL. -999.2500:
UWI. DF5017:
~C
DEPT.M :
SP.MV :
GR.API :
CALI.CM :
RXO.OHMM :
RI. :
RML.OHMM :
DEN.GM/CC :
~A
# ...
  145.0000   -14.0610    96.1100    24.4530     6.0050     5.0730     4.9230     2.3550 
  145.1250   -13.9480   103.3860    24.4500     5.7800     5.0270     4.8110     2.3610 
  145.2500   -13.8740   106.9450    24.4240     5.5750     4.9610     4.6730     2.3610 
  145.3750   -13.8650   105.6110    24.4070     5.3940     4.8560     4.5260     2.3590 
  145.5000   -13.8840   101.0830    24.3970     5.2970     4.7210     4.3870     2.3600 
  145.6250   -13.9320    97.8240    24.4210     5.2240     4.5750     4.2600     2.3670 
  145.7500   -14.0480   100.4420    24.4760     5.1800     4.4590     4.1610     2.3680 
  145.8750   -14.2010   107.9120    24.5340     5.1860     4.4190     4.1290     2.3460 
  146.0000   -14.4330   111.8470    24.5920     5.3560     4.5020     4.2200     2.3000 
  146.1250   -14.7450   105.2730    24.6070     6.0810     4.7880     4.5360     2.2580 
  146.2500   -15.1460    97.0390    24.5080     7.3930     5.2860     5.0890     2.2430 
  146.3750   -15.5610    93.2880    24.2850     8.4500     5.9840     5.8510     2.2530 
  146.5000   -16.0190    91.4520    24.0650     8.7250     6.8060     6.7240     2.2710 
  146.6250   -16.5000    87.1550    23.9730     8.7500     7.5690     7.5110     2.2710 
  146.7500   -16.9670    84.1820    23.9310     8.9140     8.0720     8.0370     2.2530 
  146.8750   -17.4340    84.3490    23.8200     8.8690     8.2110     8.2330     2.2250 
  147.0000   -17.8420    84.6780    23.7980     8.6590     8.0350     8.1570     2.1980 
  147.1250   -18.1700    82.4750    23.8160     8.4540     7.6810     7.9200     2.1850 
  147.2500   -18.4040    81.7180    23.8540     8.0940     7.3250     7.6670     2.1870 
  147.3750   -18.5780    83.0940    23.9370     7.7240     7.0550     7.4740     2.1950 
  147.5000   -18.6660    84.6210    24.0900     7.6260     6.9120     7.3840     2.1960 
  147.6250   -18.7130    85.0710    24.0430     7.8000     6.9020     7.4260     2.1880 
  147.7500   -18.8000    86.5730    24.0110     7.9670     6.9720     7.5640     2.1790 
  147.8750   -18.8830    89.0520    23.9820     8.0880     7.0950     7.7710     2.1740 
  148.0000   -18.9770    87.4280    24.0120     8.2490     7.2380     8.0030     2.1680 
  148.1250   -19.1040    83.3000    24.1270     8.4940     7.3580     8.1840     2.1630 
  148.2500   -19.2760    83.3560    24.2320     8.7670     7.4410     8.2830     2.1670 
  148.3750   -19.4890    87.2340    24.1370     8.9520     7.5000     8.3270     2.1810 
  148.5000   -19.7580    90.5260    23.9440     8.9030     7.5720     8.3760     2.1970 
  148.6250   -20.0810    88.5710    23.9290     8.7550     7.7190     8.5250     2.2000 
  148.7500   -20.3250    83.5700    23.9290     8.9380     7.9640     8.7970     2.1900 
  148.8750   -20.5330    78.8550    23.8090     9.5890     8.2990     9.1670     2.1780 
  149.0000   -20.6970    77.9550    23.7450    10.4040     8.6720     9.5570     2.1750 
  149.1250   -20.7690    81.4190    23.8640    10.7650     8.9840     9.8400     2.1740 
  149.2500   -20.7830    83.2780    23.9660    10.7090     9.1630     9.9490     2.1680 
  149.3750   -20.7190    82.1700    23.9580    10.4510     9.1850     9.8860     2.1600 
  149.5000   -20.5690    81.0460    24.0870    10.1270     9.0930     9.7270     2.1630 
  149.6250   -20.2930    81.5170    24.1660     9.7140     8.9720     9.5910     2.1800 
  149.7500   -19.9960    82.2860    24.1670     9.3050     8.8870     9.5380     2.1930 
  149.8750   -19.6570    83.0100    24.0150     9.0610     8.8230     9.5380     2.1970 
  150.0000   -19.2460    83.5190    23.9680     9.0490     8.7120     9.4800     2.2070 
  150.1250   -18.7790    82.0280    24.0700     9.1930     8.4310     9.1770     2.2410 
  150.2500   -18.3240    79.6720    24.2080     9.1230     7.9630     8.6080     2.2840 
  150.3750   -17.9070    81.1150    24.2340     8.5550     7.3710     7.8790     2.3100 
  150.5000   -17.5380    87.3940    24.1190     7.6390     6.7730     7.1700     2.3040 
  150.6250   -17.2550    93.2650    24.1870     6.8360     6.3160     6.6880     2.2790 
  150.7500   -17.0500    94.2050    24.2290     6.6090     6.0380     6.4660     2.2620 
  150.8750   -16.9530    92.5110    24.1870     6.7890     5.9310     6.4690     2.2540 
  151.0000   -17.0130    91.7660    24.0710     7.0640     5.9510     6.6170     2.2500 
  151.1250   -17.2190    92.3530    24.0110     7.1280     6.0450     6.8230     2.2450 
  151.2500   -17.5070    91.7040    24.0040     7.0640     6.1700     7.0220     2.2430 
  151.3750   -17.8550    89.0640    23.9850     7.0810     6.3230     7.2100     2.2380 
  151.5000   -18.2450    85.6460    23.9580     7.2310     6.5220     7.4070     2.2250 
  151.6250   -18.6550    83.5330    23.9530     7.6320     6.7890     7.6410     2.2070 
  151.7500   -19.0140    83.4660    23.9730     8.0270     7.1030     7.9020     2.1910 
  151.8750   -19.2900    83.8980    23.9570     8.2810     7.4210     8.1660     2.1800 
  152.0000   -19.4410    83.2630    23.9480     8.5170     7.6830     8.3890     2.1760 
  152.1250   -19.4730    80.6840    23.9660     8.8150     7.8140     8.4970     2.1980 
  152.2500   -19.3640    77.8690    24.0770     9.0510     7.8700     8.5420     2.2510 
  152.3750   -19.1560    76.3800    24.0870     9.2500     7.9770     8.6670     2.3310 
  152.5000   -18.8370    77.5830    24.1110     9.5040     8.2560     9.0070     2.4300 
  152.6250   -18.4080    79.2980    24.1060     9.9190     8.7690     9.6090     2.5280 
  152.7500   -17.9520    76.9010    24.1520    11.4070     9.4160    10.3200     2.5960 
  152.8750   -17.5100    72.4890    24.0620    14.4190    10.0940    10.9860     2.6110 
  153.0000   -17.1590    70.7350    24.0260    16.8310    10.6780    11.4440     2.5780 
  153.1250   -16.9310    73.8570    24.0720    15.6780    11.0100    11.5480     2.5300 
  153.2500   -16.8630    77.0480    24.1220    13.7260    11.1160    11.4240     2.4820 
  153.3750   -16.9060    78.0670    24.1580    13.4660    11.0900    11.2320     2.4230 
  153.5000   -17.0800    78.7200    24.2070    13.5760    11.0360    11.1000     2.3590 
  153.6250   -17.3130    79.3520    24.1740    12.2820    11.0190    11.0980     2.3300 
  153.7500   -17.5800    80.3180    24.1890    10.9100    10.9730    11.1110     2.3450 
  153.8750   -17.8060    79.9090    24.2370    11.2120    10.7480    10.9390     2.3740 
  154.0000   -18.0130    78.0910    24.2160    12.4640    10.2150    10.4290     2.3790 
  154.1250   -18.1290    79.6550    24.1120    11.7660     9.3600     9.5870     2.3490 
  154.2500   -18.1780    85.8020    24.1280     9.4740     8.4140     8.6920     2.3140 
  154.3750   -18.1990    93.4240    24.1380     7.5010     7.5590     7.9450     2.2900 
  154.5000   -18.1660    96.8820    24.1360     6.7060     6.9200     7.4690     2.2830 
  154.6250   -18.1260    94.9490    24.1380     6.6450     6.5900     7.3090     2.2930 
  154.7500   -18.1230    92.0570    24.1410     6.9050     6.4400     7.2570     2.3140 
  154.8750   -18.1700    89.4410    24.1420     7.2870     6.3290     7.1010     2.3400 
  155.0000   -18.1900    88.7370    24.1330     7.3030     6.1750     6.7690     2.3650 
  155.1250   -18.2130    89.9010    24.1080     6.9160     6.0960     6.4890     2.4030 
  155.2500   -18.2330    88.9380    24.0770     6.5840     6.2930     6.5850     2.4610 
  155.3750   -18.2570    83.5800    24.0570     7.0160     6.9170     7.2510     2.5260 
  155.5000   -18.2690    76.2620    24.0480     9.1850     8.0130     8.5450     2.5640 
  155.6250   -18.3200    73.6690    24.0460    14.3450     9.4050    10.2860     2.5360 
  155.7500   -18.3370    76.0800    24.0590    17.6780    10.4740    11.6950     2.4540 
  155.8750   -18.3720    81.3860    24.1060    15.9020    10.7100    12.0780     2.3520 
  156.0000   -18.3980    86.4110    24.2260    11.3070    10.1600    11.4570     2.2670 
  156.1250   -18.4830    87.7290    24.3320     8.7590     9.4400    10.6390     2.2270 
