~V
VERS. 2.00: Ver 2.00
~W
STRT.M 60.0000:
STOP.M 261.0000:
STEP.M 0.1250:
NULL. -999.2500:
UWI. DF5055:
~C
DEPT.M :
SP.MV :
GR.API :
RML.OHMM :
RI. :
RXO.OHMM :
CALI.CM :
DEN.GM/CC :
~A
# ...
   82.5000   -20.2800    77.0960    12.4580     9.0570    17.4340    24.1160     2.2470 
   82.6250   -20.4030    79.1190    12.5980     9.2320    15.8640    24.2610     2.2390 
   82.7500   -20.5430    78.9830    12.3890     9.1980    12.4990    24.3230     2.1980 
   82.8750   -20.7470    75.8080    11.9870     9.0240    11.2450    24.3560     2.1450 
   83.0000   -20.9890    72.0270    11.5660     8.8090    11.2650    24.3730     2.1010 
   83.1250   -21.1840    70.7480    11.2570     8.6420    11.2260    24.2100     2.0840 
   83.2500   -21.2660    70.0690    11.0720     8.5480    10.8570    23.9400     2.0870 
   83.3750   -21.1960    67.7120    10.9900     8.5180    10.5110    23.6810     2.0970 
   83.5000   -21.0170    63.8430    10.9910     8.5270    10.4100    23.4600     2.1030 
   83.6250   -20.8570    62.7510    11.0660     8.5540    10.3500    23.3400     2.1000 
   83.7500   -20.7080    65.5080    11.1620     8.5690    10.2430    23.3440     2.0930 
   83.8750   -20.4590    68.6010    11.2080     8.5440    10.0700    23.4410     2.0910 
   84.0000   -20.0840    69.8100    11.1300     8.4460     9.8630    23.5140     2.0980 
   84.1250   -19.6960    72.1240    10.8640     8.2420     9.5150    23.5800     2.1130 
   84.2500   -19.4060    75.4210    10.4770     7.9670     8.9930    23.6250     2.1300 
   84.3750   -19.1850    75.3650    10.0490     7.6630     8.4930    23.6530     2.1470 
   84.5000   -18.9390    72.9580     9.6630     7.3790     8.3590    23.5430     2.1610 
   84.6250   -18.5800    74.4710     9.4020     7.1750     8.4100    23.0880     2.1730 
   84.7500   -18.1290    77.7170     9.2790     7.0710     8.5800    22.4510     2.1820 
   84.8750   -17.6460    78.3480     9.2940     7.0790     8.5330    21.9890     2.1870 
   85.0000   -17.2130    77.8360     9.4390     7.1980     8.5070    21.7950     2.1890 
   85.1250   -16.8650    76.7850     9.7350     7.4400     8.7420    21.7430     2.1840 
   85.2500   -16.5320    73.3530    10.1540     7.7770     9.1320    21.7690     2.1700 
   85.3750   -16.2090    69.8840    10.6370     8.1690     9.5560    21.8470     2.1470 
   85.5000   -15.9070    69.2300    11.0450     8.5260     9.8440    21.9250     2.1210 
   85.6250   -15.5190    70.5910    11.0990     8.6510     9.8560    22.0520     2.1080 
   85.7500   -14.9530    73.7880    10.6840     8.4410     9.6990    22.3280     2.1180 
   85.8750   -14.1650    80.4550     9.8300     7.8970     9.2150    22.7340     2.1480 
   86.0000   -13.1070    89.9890     8.7250     7.1400     8.1560    23.2260     2.1830 
   86.1250   -11.7640    99.5140     7.6930     6.3860     6.7100    23.8340     2.2010 
   86.2500   -10.2990   106.9280     6.9740     5.8110     5.8160    24.4440     2.1970 
   86.3750    -8.8070   109.9990     6.6550     5.4880     5.5640    24.9280     2.1820 
   86.5000    -7.3300   108.1160     6.7060     5.4260     5.5620    25.3290     2.1720 
   86.6250    -5.9860   102.5990     7.0400     5.6060     5.7230    25.4640     2.1780 
   86.7500    -4.9360    97.7120     7.4300     5.8970     6.2150    25.4500     2.1950 
   86.8750    -4.2610    94.8750     7.7260     6.1910     7.0390    25.3560     2.2160 
   87.0000    -3.8980    92.0870     7.8560     6.4080     6.7860    25.1920     2.2350 
   87.1250    -3.8100    88.9560     7.8250     6.5050     6.6210    25.0340     2.2530 
   87.2500    -3.8380    87.8470     7.7350     6.5250     6.3470    24.9470     2.2710 
   87.3750    -3.8560    88.6630     7.6470     6.5020     5.9430    24.9830     2.2850 
   87.5000    -3.8420    89.3140     7.6020     6.4690     5.7660    25.1260     2.2900 
   87.6250    -3.8380    89.2660     7.6120     6.4360     5.9000    25.1350     2.2770 
   87.7500    -3.7920    91.0660     7.6460     6.3920     6.1260    25.0910     2.2520 
   87.8750    -3.6730    94.0660     7.6720     6.3210     6.2120    25.0620     2.2240 
   88.0000    -3.5190    96.3800     7.6500     6.2110     6.0130    25.0740     2.1990 
   88.1250    -3.3380    96.5880     7.5130     6.0440     5.9340    25.0580     2.1830 
   88.2500    -3.1960    93.5060     7.2790     5.8450     6.1010    24.8900     2.1730 
   88.3750    -3.1690    89.3560     7.0540     5.6840     6.2630    24.7230     2.1610 
   88.5000    -3.3010    85.9760     7.0620     5.6820     6.4240    24.5940     2.1470 
   88.6250    -3.5290    83.5640     7.7770     6.0840     6.5910    24.5230     2.1490 
   88.7500    -3.7360    81.0330     9.4890     7.0610     7.7830    24.4570     2.1870 
   88.8750    -3.9120    77.7440    12.4360     8.8290    10.2770    24.4120     2.2700 
   89.0000    -4.1430    73.3010    16.5850    11.5420    15.0490    24.3940     2.3840 
   89.1250    -4.5000    68.7240    21.2320    15.0550    21.0840    24.3630     2.4860 
   89.2500    -4.9440    67.0180    24.6100    18.1320    24.7740    24.3310     2.5360 
   89.3750    -5.4820    68.7110    25.2420    19.4100    23.5150    24.2270     2.5170 
   89.5000    -6.1160    71.2550    23.0190    18.4380    19.4990    23.8740     2.4410 
   89.6250    -6.9090    70.5650    19.3100    16.0170    15.4490    23.0950     2.3400 
   89.7500    -7.8880    69.0230    15.9190    13.5410    12.5640    22.3500     2.2490 
   89.8750    -9.0090    68.7510    13.4200    11.5020    10.6580    22.1190     2.1850 
   90.0000   -10.0950    69.9790    11.8270    10.0100    10.0560    22.4040     2.1520 
   90.1250   -10.9890    71.9990    11.0060     9.0780     9.8950    22.8170     2.1500 
   90.2500   -11.7340    74.6770    10.6280     8.5380     9.4080    22.9120     2.1630 
   90.3750   -12.4220    77.4920    10.5950     8.3390     8.7780    22.7510     2.1820 
   90.5000   -13.0930    78.4130    10.8490     8.4300     8.6290    22.4530     2.2030 
   90.6250   -13.6660    75.3080    11.3430     8.7720     9.3350    22.1280     2.2240 
   90.7500   -14.1590    70.9280    11.9150     9.2250    10.1960    21.8850     2.2430 
   90.8750   -14.6000    67.3920    12.4110     9.6740    10.6380    21.7590     2.2540 
   91.0000   -15.0440    65.4850    12.6770     9.9980    10.8410    21.7160     2.2510 
   91.1250   -15.5470    64.5640    12.5930    10.0820    10.6260    21.7000     2.2280 
   91.2500   -16.0900    64.1780    12.3020     9.9900    10.5940    21.7490     2.1970 
   91.3750   -16.5580    65.3280    11.9640     9.8130    10.4150    21.8260     2.1710 
   91.5000   -16.9250    68.5750    11.7140     9.6390    10.2450    21.9290     2.1630 
   91.6250   -17.2000    72.6170    11.6290     9.5280    10.0930    22.1350     2.1730 
   91.7500   -17.3950    76.1260    11.6500     9.4680    10.0400    22.4770     2.1890 
   91.8750   -17.5370    77.5400    11.6990     9.4300    10.0130    22.8480     2.1990 
   92.0000   -17.6760    75.4110    11.7000     9.3840    10.1140    23.0770     2.1960 
   92.1250   -17.8340    69.2560    11.5940     9.3100    10.3190    23.1630     2.1800 
   92.2500   -17.9950    62.7300    11.4170     9.2260    10.4460    23.1930     2.1630 
   92.3750   -18.1410    58.8210    11.2180     9.1510    10.4030    23.2090     2.1500 
   92.5000   -18.2230    56.7190    11.0450     9.0950    10.2820    23.2220     2.1450 
   92.6250   -18.2060    57.1460    10.9440     9.0580    10.2200    23.2200     2.1480 
   92.7500   -18.0940    60.3830    10.9210     9.0340    10.1770    23.2060     2.1540 
   92.8750   -17.9230    64.3810    10.9560     9.0190    10.1160    23.1920     2.1630 
   93.0000   -17.6970    66.4350    10.9970     9.0000     9.8800    23.1940     2.1730 
   93.1250   -17.3370    66.9730    10.9480     8.9320     9.8100    23.2140     2.1830 
   93.2500   -16.8300    67.6460    10.7680     8.7830    10.1750    23.1780     2.1900 
   93.3750   -16.2550    69.2530    10.4630     8.5470    10.5650    23.0290     2.1940 
   93.5000   -15.6690    72.1160    10.0980     8.2620    10.2020    22.7820     2.1940 
   93.6250   -15.0790    74.3550     9.8000     8.0150     9.4220    22.5810     2.1900 
