~V
VERS. 2.00: Ver 2.00
~W
STRT.M 57.0000:
STOP.M 276.0000:
STEP.M 0.1250:
NULL. -999.2500:
UWI. DF5005:
~C
DEPT.M :
GR.API :
RML.OHMM :
RI. :
RXO.OHMM :
CALI.CM :
DEN.GM/CC :
SP.MV :
~A
# ...
  113.2500   100.2500     6.7090     5.9370     6.0530    24.6480     2.2590   -15.5610 
  113.3750    97.8880     6.7130     5.9510     6.1060    24.6670     2.2650   -15.3620 
  113.5000   100.0320     6.6770     5.9280     6.0150    24.6960     2.2780   -15.2280 
  113.6250   104.2760     6.5950     5.8580     5.9730    24.7100     2.2950   -15.1890 
  113.7500   107.4510     6.4740     5.7440     5.9930    24.7110     2.3110   -15.2240 
  113.8750   106.1330     6.3280     5.6010     6.0030    24.7110     2.3240   -15.3060 
  114.0000   102.0400     6.1870     5.4610     5.9610    24.7110     2.3340   -15.4520 
  114.1250    98.3540     6.0800     5.3490     5.9450    24.7110     2.3410   -15.7040 
  114.2500    99.7030     6.0310     5.2900     5.9490    24.7110     2.3430   -16.0340 
  114.3750   103.7650     6.0830     5.3180     6.1210    24.6920     2.3350   -16.5620 
  114.5000   103.5450     6.2430     5.4400     6.3620    24.6200     2.3150   -17.3060 
  114.6250    99.1350     6.5200     5.6670     6.7610    24.4920     2.2880   -18.1560 
  114.7500    93.3030     6.8970     5.9930     7.5000    24.3650     2.2630   -19.0790 
  114.8750    88.5170     7.3340     6.3970     8.9440    24.2660     2.2510   -20.1910 
  115.0000    85.5300     7.7560     6.8190    10.4560    24.1280     2.2520   -21.3850 
  115.1250    83.2740     8.1240     7.2250    11.7530    23.9860     2.2560   -22.5160 
  115.2500    79.8560     8.4450     7.6040    12.4380    23.9150     2.2500   -23.5640 
  115.3750    74.4590     8.7910     7.9870    10.7420    23.8440     2.2310   -24.4100 
  115.5000    70.1640     9.2310     8.4080    10.0280    23.6790     2.2130   -25.0010 
  115.6250    65.9560     9.7590     8.8580    10.4370    23.5020     2.2130   -25.3850 
  115.7500    63.3560    10.2730     9.2630    11.7190    23.4900     2.2380   -25.6320 
  115.8750    65.7320    10.5460     9.4640    12.9380    23.6240     2.2760   -25.6740 
  116.0000    70.2880    10.4520     9.3700    13.7710    23.6480     2.3040   -25.5490 
  116.1250    73.1540     9.9940     8.9650    13.1880    23.5350     2.3060   -25.3320 
  116.2500    72.1390     9.3100     8.3420    10.5280    23.3580     2.2880   -25.0870 
  116.3750    70.7340     8.6440     7.6960     8.9860    23.2410     2.2660   -24.8800 
  116.5000    72.6360     8.1760     7.2130     8.0990    23.2160     2.2520   -24.7270 
  116.6250    77.1600     7.9720     6.9900     7.7430    23.2780     2.2460   -24.6750 
  116.7500    79.8450     7.9870     7.0550     7.8180    23.3800     2.2390   -24.7260 
  116.8750    75.2720     8.2640     7.4090     8.4080    23.4830     2.2280   -24.8360 
  117.0000    69.7070     8.7540     7.9100     9.0460    23.5490     2.2210   -24.9730 
  117.1250    68.6400     9.4480     8.4400     9.5220    23.5710     2.2220   -25.1370 
  117.2500    71.1730    10.0190     8.8770     9.8200    23.5760     2.2300   -25.3050 
  117.3750    73.3690    10.3080     9.0910     9.9480    23.5790     2.2370   -25.4450 
  117.5000    73.6650    10.3180     9.0910     9.7870    23.5800     2.2340   -25.5670 
  117.6250    72.1040    10.1270     8.9290     9.3500    23.5780     2.2230   -25.6430 
  117.7500    69.8720     9.8340     8.6800     8.9770    23.5770     2.2070   -25.5970 
  117.8750    70.0550     9.5930     8.4230     8.8530    23.5770     2.1960   -25.4220 
  118.0000    74.1940     9.3860     8.2080     8.7700    23.5770     2.1920   -25.2820 
  118.1250    78.1520     9.2010     8.0490     8.6560    23.5770     2.1940   -25.1730 
  118.2500    77.8320     9.1310     7.9450     8.5880    23.5760     2.1980   -25.0520 
  118.3750    74.7890     9.1700     7.8990     8.5850    23.5370     2.2010   -24.9820 
  118.5000    74.9760     9.2750     7.9100     8.6210    23.4570     2.2000   -24.9780 
  118.6250    77.9960     9.4720     7.9910     8.6660    23.4220     2.1960   -24.9290 
  118.7500    79.3970     9.7590     8.1480     8.7310    23.5520     2.1870   -24.7890 
  118.8750    76.3450     9.9760     8.3650     8.8220    23.6860     2.1770   -24.6130 
  119.0000    71.5100    10.1370     8.5570     8.9150    23.7800     2.1680   -24.3390 
  119.1250    67.2360    10.1150     8.6270     8.9230    23.8540     2.1660   -23.9150 
  119.2500    67.4960     9.8320     8.4930     8.7690    23.9050     2.1740   -23.2740 
  119.3750    75.6010     9.2570     8.0990     8.2890    23.9510     2.1930   -22.4050 
  119.5000    86.4990     8.5650     7.5630     7.6400    24.0130     2.2180   -21.4450 
  119.6250    94.1490     7.9390     7.0270     7.0970    24.0700     2.2410   -20.4940 
  119.7500    95.1130     7.5460     6.6290     6.7780    24.0970     2.2560   -19.6350 
  119.8750    93.4870     7.5080     6.4780     6.7730    24.1000     2.2580   -18.9450 
  120.0000    96.1630     7.6960     6.5070     6.8840    24.0880     2.2500   -18.3740 
  120.1250   100.0540     7.9400     6.6150     7.1240    24.0620     2.2400   -17.9270 
  120.2500    98.1890     8.0530     6.6750     7.3670    24.0520     2.2330   -17.6750 
  120.3750    92.8590     7.8620     6.5700     7.4220    24.0740     2.2370   -17.5840 
  120.5000    94.5160     7.4490     6.3270     7.0780    24.1090     2.2490   -17.4630 
  120.6250   102.9410     6.9900     6.0390     6.5440    24.0820     2.2630   -17.3560 
  120.7500   108.3420     6.7010     5.8340     6.3370    23.9520     2.2710   -17.3130 
  120.8750   105.8550     6.8500     5.8860     6.6560    23.7200     2.2690   -17.2140 
  121.0000   100.4820     7.4260     6.2280     7.4170    23.5140     2.2660   -17.0530 
  121.1250    95.5270     8.2840     6.8200     8.4950    23.4320     2.2720   -16.9020 
  121.2500    91.9140     9.1610     7.5260     9.7180    23.5040     2.2910   -16.7570 
  121.3750    88.9980     9.6750     8.0870    10.7220    23.6180     2.3160   -16.6250 
  121.5000    88.1270     9.6890     8.3100    11.1120    23.6050     2.3300   -16.6340 
  121.6250    90.6050     9.2510     8.1400    10.1850    23.4840     2.3240   -16.7440 
  121.7500    95.4860     8.5590     7.6830     8.5540    23.3410     2.2980   -16.8290 
  121.8750    97.8510     7.9550     7.1610     7.5500    23.2610     2.2670   -16.8710 
  122.0000    96.6260     7.4900     6.7710     7.3240    23.2370     2.2440   -16.9440 
  122.1250    95.9630     7.2670     6.5770     7.3110    23.2340     2.2340   -17.0400 
  122.2500    98.3900     7.3850     6.5570     7.2790    23.2340     2.2340   -17.1630 
  122.3750   100.5500     7.5890     6.6420     7.3120    23.2360     2.2370   -17.2480 
  122.5000    99.6900     7.6830     6.7230     7.2760    23.2360     2.2390   -17.2540 
  122.6250    98.3960     7.6550     6.7470     7.2110    23.2400     2.2400   -17.1910 
  122.7500    99.4820     7.5420     6.7050     7.1840    23.2540     2.2420   -17.1250 
  122.8750   102.9960     7.4450     6.6150     6.9790    23.2770     2.2460   -17.0320 
  123.0000   106.4730     7.3450     6.5230     6.7430    23.2660     2.2510   -16.9110 
  123.1250   109.2340     7.2700     6.4540     6.5790    23.1950     2.2540   -16.8130 
  123.2500   110.1630     7.2310     6.4180     6.6470    23.0200     2.2550   -16.7460 
  123.3750   108.1980     7.2180     6.4060     6.8230    22.7550     2.2550   -16.7040 
  123.5000   106.3150     7.2110     6.3990     6.9000    22.6810     2.2550   -16.7060 
  123.6250   105.9340     7.2020     6.3920     6.8090    22.8010     2.2570   -16.7210 
  123.7500   106.4450     7.2030     6.3890     6.6820    22.9470     2.2580   -16.7080 
  123.8750   105.5880     7.2180     6.4020     6.6360    22.9700     2.2560   -16.7900 
  124.0000   103.1770     7.2400     6.4240     6.7200    22.9360     2.2510   -16.9330 
  124.1250   101.0550     7.2400     6.4370     6.8640    22.9130     2.2440   -17.0310 
  124.2500    99.3270     7.2040     6.4190     6.8700    22.9090     2.2370   -17.0980 
  124.3750    97.3200     7.1170     6.3660     6.9380    22.9150     2.2370   -17.2740 
