~V
VERS. 2.00: Ver 2.00
~W
STRT.M 59.0000:
STOP.M 253.0000:
STEP.M 0.1250:
NULL. -999.2500:
UWI. DF5043:
~C
DEPT.M :
SP.MV :
GR.API :
CALI.CM :
RXO.OHMM :
RI. :
RML.OHMM :
DEN.GM/CC :
~A
# ...
  126.5000   -14.2210    79.4600    22.8650    10.8270     7.8250     8.3610     2.2710 
  126.6250   -14.5190    79.6450    22.9840    15.6400     7.4970     7.9180     2.3830 
  126.7500   -14.8050    84.7800    23.1210    18.2590     6.9230     7.2080     2.4840 
  126.8750   -15.0830    90.8570    23.2640    14.9130     6.1940     6.3660     2.5020 
  127.0000   -15.3440    94.2800    23.4470     9.5280     5.4780     5.5790     2.4510 
  127.1250   -15.5600    94.5310    23.6630     5.9870     4.8750     4.9470     2.3770 
  127.2500   -15.7080    92.6030    23.8520     4.8090     4.4310     4.5090     2.3230 
  127.3750   -15.7750    91.4310    24.0030     4.7520     4.1790     4.2880     2.3010 
  127.5000   -15.8030    93.1380    24.0700     4.8070     4.0750     4.2180     2.2910 
  127.6250   -15.8230    96.2930    24.0980     4.8360     4.0900     4.2590     2.2860 
  127.7500   -15.8450    97.2040    24.1160     4.7540     4.1910     4.3720     2.2900 
  127.8750   -15.8470    93.1120    24.1170     4.6010     4.3540     4.5330     2.3080 
  128.0000   -15.8060    87.4560    24.0500     4.5940     4.5370     4.7130     2.3270 
  128.1250   -15.7180    83.9330    23.8840     4.8160     4.7010     4.8750     2.3310 
  128.2500   -15.6010    84.0520    23.6640     5.1670     4.8040     4.9810     2.3120 
  128.3750   -15.4800    87.1630    23.4720     5.4190     4.7970     4.9850     2.2800 
  128.5000   -15.3580    91.7680    23.3990     5.4430     4.6930     4.8920     2.2570 
  128.6250   -15.2210    97.3870    23.4570     5.2600     4.5230     4.7280     2.2530 
  128.7500   -15.0450   102.6410    23.6430     4.9700     4.3390     4.5530     2.2730 
  128.8750   -14.8140   105.0550    23.8810     4.7370     4.2190     4.4570     2.3060 
  129.0000   -14.5540   104.3410    24.0090     4.7190     4.2130     4.4940     2.3320 
  129.1250   -14.2890   102.0690    24.0500     4.9520     4.3490     4.6900     2.3390 
  129.2500   -14.0340    99.6110    23.9860     5.3290     4.6270     5.0360     2.3280 
  129.3750   -13.7840    95.6670    23.7360     5.7150     5.0390     5.5100     2.3070 
  129.5000   -13.5270    89.0020    23.5800     6.1680     5.5130     6.0400     2.2860 
  129.6250   -13.2640    81.6870    23.4810     6.6700     5.9920     6.5630     2.2660 
  129.7500   -13.0170    77.1120    23.3700     6.9750     6.4190     7.0140     2.2450 
  129.8750   -12.8350    76.1740    23.1700     6.8460     6.7320     7.3230     2.2250 
  130.0000   -12.7310    76.1180    22.9660     6.4630     6.9380     7.5120     2.2080 
  130.1250   -12.7010    75.6610    22.8000     6.1180     7.0630     7.6260     2.1990 
  130.2500   -12.7250    74.6160    22.7180     5.8990     7.1560     7.7340     2.1960 
  130.3750   -12.7900    73.6590    22.5740     5.7600     7.2780     7.9160     2.1930 
  130.5000   -12.8940    73.9090    22.3890     5.6760     7.4320     8.1580     2.1850 
  130.6250   -13.0480    75.3060    22.2310     5.7750     7.5750     8.3890     2.1740 
  130.7500   -13.2550    76.2180    22.2660     6.3590     7.6410     8.5150     2.1690 
  130.8750   -13.4930    75.3340    22.5030     7.5980     7.5370     8.4120     2.1880 
  131.0000   -13.7110    74.3880    22.8100     9.0130     7.2540     8.0630     2.2390 
  131.1250   -13.8750    75.9060    23.1430     9.8240     6.8130     7.5030     2.3110 
  131.2500   -13.9740    80.9370    23.5440     9.6210     6.2880     6.8430     2.3710 
  131.3750   -14.0100    87.4790    23.9540     8.1930     5.7990     6.2550     2.3810 
  131.5000   -14.0040    91.6890    24.1830     6.4780     5.4460     5.8520     2.3550 
  131.6250   -13.9520    92.3930    24.1890     5.4610     5.2770     5.6830     2.3170 
  131.7500   -13.8390    90.4420    23.9980     5.3180     5.2850     5.7220     2.2890 
  131.8750   -13.6480    87.1950    23.8270     5.5240     5.4250     5.9040     2.2760 
  132.0000   -13.4120    84.1340    23.7180     5.5950     5.5900     6.1000     2.2650 
  132.1250   -13.1710    81.7740    23.6880     5.6010     5.7050     6.2170     2.2460 
  132.2500   -12.9570    79.9330    23.6820     5.6220     5.7160     6.1950     2.2180 
  132.3750   -12.7800    79.5650    23.6730     5.6520     5.5980     6.0230     2.1940 
  132.5000   -12.6090    82.6690    23.6760     5.6080     5.4210     5.8060     2.1900 
  132.6250   -12.4280    89.3400    23.7570     5.4360     5.2550     5.6340     2.2170 
  132.7500   -12.2420    96.0450    23.9680     5.1860     5.1620     5.5750     2.2650 
  132.8750   -12.0850    96.8480    24.1270     5.0770     5.2060     5.6920     2.2980 
  133.0000   -11.9790    91.8420    24.1100     5.2280     5.3710     5.9450     2.2840 
  133.1250   -11.9180    84.3780    24.0200     5.5760     5.6280     6.2950     2.2350 
  133.2500   -11.8770    78.5210    23.9100     5.9500     5.9350     6.6830     2.1870 
  133.3750   -11.8270    76.7330    23.8340     6.2030     6.2370     7.0370     2.1700 
  133.5000   -11.7710    77.0200    23.7430     6.3520     6.4840     7.3140     2.1670 
  133.6250   -11.7290    77.3990    23.6310     6.3930     6.6510     7.4870     2.1620 
  133.7500   -11.7230    77.5660    23.5120     6.3410     6.7290     7.5560     2.1560 
  133.8750   -11.7610    79.3240    23.3420     6.2050     6.7100     7.5210     2.1580 
  134.0000   -11.8140    82.4080    23.1430     6.0410     6.6240     7.4210     2.1640 
  134.1250   -11.8600    84.2110    23.0810     5.8830     6.4830     7.2720     2.1650 
  134.2500   -11.8930    83.3360    23.2570     5.7900     6.3060     7.0920     2.1640 
  134.3750   -11.9320    82.6400    23.5190     5.8000     6.1250     6.9100     2.1740 
  134.5000   -11.9970    84.9960    23.6800     5.8010     5.9780     6.7750     2.1980 
  134.6250   -12.0890    89.0790    23.7410     5.7050     5.8900     6.7180     2.2210 
  134.7500   -12.1890    91.8380    23.7640     5.5500     5.8700     6.7530     2.2300 
  134.8750   -12.2710    92.0540    23.7530     5.4860     5.9130     6.8670     2.2180 
  135.0000   -12.3380    91.1000    23.6960     5.5720     5.9770     6.9910     2.2020 
  135.1250   -12.4140    89.1200    23.6280     5.7300     6.0160     7.0570     2.1930 
  135.2500   -12.5310    86.1870    23.6000     5.8430     5.9890     7.0120     2.1870 
  135.3750   -12.7110    84.0860    23.5440     5.7720     5.8570     6.8180     2.1760 
  135.5000   -12.9230    85.0830    23.5790     5.5750     5.6470     6.5270     2.1700 
  135.6250   -13.1350    89.2640    23.7930     5.3960     5.3990     6.1960     2.1890 
  135.7500   -13.3230    94.9120    24.0320     5.2920     5.1610     5.8880     2.2350 
  135.8750   -13.4800    99.4460    24.0560     5.1900     4.9820     5.6650     2.2790 
  136.0000   -13.6210   101.1120    24.0230     5.0710     4.8700     5.5290     2.2960 
  136.1250   -13.7460    99.1320    24.0520     5.1010     4.8170     5.4660     2.2830 
  136.2500   -13.8430    94.9390    24.1130     5.4650     4.8060     5.4520     2.2640 
  136.3750   -13.8850    92.7270    24.1080     6.1720     4.8020     5.4380     2.2700 
  136.5000   -13.8860    94.4420    23.9920     6.6520     4.7760     5.3910     2.3000 
  136.6250   -13.8710    98.3280    23.8290     6.4080     4.7100     5.2960     2.3250 
  136.7500   -13.8750   101.5090    23.6830     5.6300     4.6030     5.1530     2.3230 
  136.8750   -13.9300   101.9950    23.5770     5.1490     4.4640     4.9770     2.2950 
  137.0000   -14.0240   101.5780    23.5410     4.9780     4.3200     4.7970     2.2750 
  137.1250   -14.1370   102.7950    23.5580     4.9250     4.1870     4.6390     2.2720 
  137.2500   -14.2550   106.2550    23.5970     4.8180     4.0770     4.5210     2.2820 
  137.3750   -14.3890   109.2130    23.5430     4.6950     4.0030     4.4530     2.3020 
  137.5000   -14.5570   108.8590    23.4560     4.6180     3.9580     4.4270     2.3250 
  137.6250   -14.7660   105.7420    23.3490     4.6800     3.9400     4.4310     2.3430 
