~V
VERS. 2.00: Ver 2.00
~W
STRT.M 55.0000:
STOP.M 274.0000:
STEP.M 0.1250:
NULL. -999.2500:
UWI. DF5015:
~C
DEPT.M :
DEN.GM/CC :
GR.API :
CALI.CM :
RXO.OHMM :
RI. :
RML.OHMM :
SP.MV :
~A
# ...
  178.7500     2.2200    69.6370    24.8060   144.6260   108.9100   116.0800   -34.0910 
  178.8750     2.2230    74.4860    24.6990   135.7540   105.5300   112.4840   -34.0160 
  179.0000     2.2310    77.3150    24.4330   111.0860   103.9320   110.7840   -33.9320 
  179.1250     2.2360    77.3190    24.2180    86.8310   103.5610   110.3890   -33.8350 
  179.2500     2.2320    76.4330    24.1090    75.9290   103.7470   110.5870   -33.7290 
  179.3750     2.2200    75.7080    24.0800    77.4940   104.1180   110.9810   -33.6140 
  179.5000     2.2130    75.6540    24.0830    85.9950   104.0150   110.8720   -33.4900 
  179.6250     2.2220    76.5690    24.1840    94.2350   102.4400   109.1960   -33.3530 
  179.7500     2.2420    77.7790    24.3130    97.9560    99.6010   106.1750   -33.2100 
  179.8750     2.2600    77.9000    24.3890    97.7870    96.2500   102.6100   -33.0680 
  180.0000     2.2650    76.3300    24.3920    95.3970    93.5090    99.6940   -32.9310 
  180.1250     2.2570    74.8020    24.3820    93.4060    93.3270    99.5000   -32.7980 
  180.2500     2.2470    74.4930    24.3800    94.4230    97.0310   103.4410   -32.6730 
  180.3750     2.2400    74.0410    24.3660    96.7490   105.7960   112.7670   -32.5580 
  180.5000     2.2340    71.4130    24.2910    95.5820   120.2840   127.8010   -32.4520 
  180.6250     2.2240    67.1710    24.2680    95.6310   141.0450   148.6550   -32.3520 
  180.7500     2.2070    64.8300    24.4320   114.0340   165.1520   172.4840   -32.2570 
  180.8750     2.1900    65.7030    24.6840   166.5380   189.3600   197.0780   -32.1710 
  181.0000     2.1800    67.9510    24.8250   250.7980   209.9870   218.4260   -32.0960 
  181.1250     2.1750    68.6990    24.8150   326.0150   222.3480   231.2700   -32.0290 
  181.2500     2.1640    68.3780    24.7410   356.9870   225.6040   234.6530   -31.9660 
  181.3750     2.1530    68.3210    24.6990   343.5060   219.8660   228.6910   -31.9020 
  181.5000     2.1580    68.2390    24.6830   317.0970   206.8710   215.1890   -31.8450 
  181.6250     2.1840    67.2030    24.6510   299.0860   188.5410   196.1440   -31.8020 
  181.7500     2.2050    66.4430    24.6000   275.1000   167.9600   174.7610   -31.7720 
  181.8750     2.2060    66.6280    24.5310   242.3250   146.9400   152.9210   -31.7490 
  182.0000     2.1980    67.0520    24.4130   208.9390   127.3000   132.5140   -31.7290 
  182.1250     2.2050    68.1470    24.1780   187.8980   111.2700   115.8590   -31.7180 
  182.2500     2.2270    71.6100    23.8370   173.4190    99.2370   103.3580   -31.7130 
  182.3750     2.2510    76.1670    23.4790   157.9920    91.1000    94.9030   -31.7080 
  182.5000     2.2670    78.1070    23.2370   140.5890    85.9810    89.5840   -31.6970 
  182.6250     2.2760    75.8060    23.1920   126.1240    82.6890    86.1640   -31.6800 
  182.7500     2.2830    73.7610    23.2920   121.8340    79.9050    83.2710   -31.6640 
  182.8750     2.2900    74.8980    23.4760   124.3710    77.2030    80.4630   -31.6510 
  183.0000     2.2950    78.4740    23.6810   129.2270    74.5550    77.7130   -31.6390 
  183.1250     2.2950    80.4350    23.8520   130.2270    72.3840    75.4570   -31.6270 
  183.2500     2.2920    79.0150    24.0000   125.1040    71.1720    74.1970   -31.6190 
  183.3750     2.2870    75.6900    24.0800   115.5760    71.2400    74.2680   -31.6210 
  183.5000     2.2840    73.1350    24.0970   107.8720    72.5490    75.6280   -31.6390 
  183.6250     2.2810    73.5360    24.0690   107.4740    74.9260    78.0980   -31.6680 
  183.7500     2.2710    75.7440    24.0420   114.4510    77.8580    81.1440   -31.7010 
  183.8750     2.2570    77.8840    24.0240   130.3770    81.1480    84.5630   -31.7370 
  184.0000     2.2480    78.2540    24.0210   159.2070    84.8500    88.4090   -31.7770 
  184.1250     2.2500    76.5100    24.0140   199.5180    89.5890    93.3330   -31.8200 
  184.2500     2.2550    73.9540    23.9670   229.1640    95.6760    99.6570   -31.8610 
  184.3750     2.2560    71.7230    23.9000   233.0890   103.1580   107.4310   -31.8960 
  184.5000     2.2540    71.3590    23.8450   218.1570   111.6920   116.2980   -31.9230 
  184.6250     2.2520    73.9810    23.8180   214.0040   120.5030   125.4530   -31.9480 
  184.7500     2.2470    76.8130    23.8500   239.1980   128.3940   133.6510   -31.9770 
  184.8750     2.2390    77.4360    23.9570   286.8410   134.2560   139.7420   -32.0140 
  185.0000     2.2310    76.3760    24.1120   340.1430   137.2940   142.8980   -32.0560 
  185.1250     2.2270    76.5520    24.2590   377.4410   136.9860   142.5780   -32.1010 
  185.2500     2.2230    78.1470    24.3150   400.8100   134.6560   140.1580   -32.1520 
  185.3750     2.2150    79.2030    24.3240   402.4040   131.4990   136.8780   -32.2130 
  185.5000     2.2070    78.3590    24.3120   381.9850   128.4610   133.7210   -32.2860 
  185.6250     2.2100    76.4370    24.2560   352.5810   126.1250   131.2940   -32.3630 
  185.7500     2.2260    75.7460    24.1980   315.8740   124.3660   129.4660   -32.4370 
  185.8750     2.2430    76.8620    24.1840   262.0730   122.8260   127.8670   -32.5090 
  186.0000     2.2500    78.3970    24.1660   194.5220   121.0280   125.9980   -32.5840 
  186.1250     2.2430    78.2020    24.2240   143.4950   118.4520   123.3210   -32.6710 
  186.2500     2.2300    76.8030    24.3350   121.4260   115.1410   119.8820   -32.7650 
  186.3750     2.2210    75.8970    24.3700   124.1560   111.4510   116.0470   -32.8610 
  186.5000     2.2240    76.2700    24.2490   132.6920   108.0380   112.5010   -32.9580 
  186.6250     2.2420    77.1790    24.0160   128.8530   105.8710   110.2500   -33.0630 
  186.7500     2.2540    77.1460    23.8290   115.3670   105.2250   109.5780   -33.1730 
  186.8750     2.2450    75.3460    23.7530    99.9810   106.3230   110.7200   -33.2780 
  187.0000     2.2220    72.0860    23.7570    88.9030   109.2670   113.7790   -33.3600 
  187.1250     2.2160    69.4800    23.8510    89.6700   114.1610   118.8630   -33.4040 
  187.2500     2.2320    68.6110    24.0770    92.4930   120.3270   125.2700   -33.4170 
  187.3750     2.2500    68.5240    24.4480    89.9560   127.5430   132.7680   -33.4020 
  187.5000     2.2490    67.8230    24.8230    87.6180   135.7230   141.2660   -33.3590 
  187.6250     2.2240    66.0180    24.9910   102.8710   144.9970   150.9020   -33.2800 
  187.7500     2.1960    64.0570    24.9470   149.4930   155.2300   161.5340   -33.1720 
  187.8750     2.1760    62.8360    24.8460   242.9120   166.1920   172.9230   -33.0460 
  188.0000     2.1640    63.1530    24.7970   376.2860   177.2650   184.4280   -32.9200 
  188.1250     2.1660    64.8970    24.7820   427.0370   187.6720   195.2420   -32.8070 
  188.2500     2.1810    66.5300    24.6760   372.6960   197.0940   205.0310   -32.7070 
  188.3750     2.2000    67.1870    24.5400   278.7250   205.0920   213.3410   -32.6240 
  188.5000     2.2110    67.0370    24.4480   218.0570   211.2370   219.7250   -32.5570 
  188.6250     2.2060    67.1360    24.4530   194.4630   215.2630   223.9080   -32.5130 
  188.7500     2.2010    68.2620    24.5050   182.6500   217.9340   226.6840   -32.4870 
  188.8750     2.2030    69.9430    24.5370   183.1380   219.5080   228.3190   -32.4720 
  189.0000     2.2070    71.2980    24.5250   195.0610   219.9920   228.8220   -32.4620 
  189.1250     2.2030    71.6340    24.4380   216.1570   218.6600   227.4380   -32.4500 
  189.2500     2.1920    70.8610    24.3870   241.6120   214.8660   223.4950   -32.4300 
  189.3750     2.1800    68.9400    24.3680   262.2090   207.8690   216.2260   -32.3950 
  189.5000     2.1720    66.7950    24.3960   265.3350   197.3130   205.2580   -32.3430 
  189.6250     2.1710    66.1180    24.4740   247.6480   183.3350   190.7350   -32.2670 
  189.7500     2.1760    66.4750    24.5680   239.5490   168.1230   174.9300   -32.1670 
  189.8750     2.1860    66.6750    24.5990   252.1570   153.6270   159.8680   -32.0370 
