~V
VERS. 2.00: Ver 2.00
~W
STRT.M 55.0000:
STOP.M 271.0000:
STEP.M 0.1250:
NULL. -999.2500:
UWI. DF5032:
~C
DEPT.M :
SP.MV :
GR.API :
CALI.CM :
RXO.OHMM :
RI. :
RML.OHMM :
DEN.GM/CC :
~A
# ...
  122.5000   -10.9480    92.6300    22.8110     6.5680     5.5740     6.3440     2.2580 
  122.6250   -10.8890    93.6350    22.5370     7.2630     5.6860     6.3980     2.2460 
  122.7500   -10.7490    93.7060    22.4670     7.4430     5.6750     6.2950     2.2430 
  122.8750   -10.5260    94.1070    22.6590     6.9220     5.5510     6.0950     2.2590 
  123.0000   -10.2300    96.5820    23.0760     6.0010     5.3670     5.8860     2.2920 
  123.1250    -9.8730   100.4140    23.5980     5.4020     5.1970     5.7610     2.3250 
  123.2500    -9.4900   102.6190    23.9380     5.3480     5.0860     5.7500     2.3380 
  123.3750    -9.1050   101.6950    24.0300     5.5450     5.0470     5.8400     2.3280 
  123.5000    -8.7370    98.0420    23.9130     5.6590     5.0690     5.9730     2.3030 
  123.6250    -8.4070    93.0720    23.6460     5.6880     5.1220     6.0710     2.2750 
  123.7500    -8.1140    89.6140    23.3500     5.8650     5.1550     6.0820     2.2580 
  123.8750    -7.8570    90.2260    23.2170     6.0340     5.1380     5.9890     2.2620 
  124.0000    -7.6290    94.7830    23.3590     6.0090     5.0550     5.8060     2.2840 
  124.1250    -7.4310    99.5870    23.5230     5.7570     4.9080     5.5680     2.3090 
  124.2500    -7.2630   102.4690    23.5920     5.4470     4.7370     5.3370     2.3200 
  124.3750    -7.1340   104.5070    23.5600     5.1940     4.5790     5.1630     2.3120 
  124.5000    -7.0550   106.7090    23.5190     5.0440     4.4810     5.1040     2.2950 
  124.6250    -7.0440   108.5880    23.5270     4.9390     4.5130     5.2190     2.2860 
  124.7500    -7.1000   109.2950    23.5740     4.8860     4.6830     5.4750     2.2920 
  124.8750    -7.2300   107.4020    23.6380     4.9830     4.9870     5.8440     2.3090 
  125.0000    -7.4320   101.8680    23.6560     5.4090     5.3880     6.2770     2.3330 
  125.1250    -7.7070    95.0610    23.6230     6.4180     5.7950     6.6660     2.3530 
  125.2500    -8.0220    91.6800    23.4660     7.7350     6.0950     6.8970     2.3520 
  125.3750    -8.3580    92.0840    23.1260     8.6270     6.2070     6.9000     2.3300 
  125.5000    -8.6990    92.7690    22.7670     8.5340     6.0970     6.6680     2.3030 
  125.6250    -9.0360    91.0630    22.7460     7.6700     5.7750     6.2530     2.2890 
  125.7500    -9.3690    90.3150    23.0900     6.7730     5.3680     5.8130     2.2860 
  125.8750    -9.7060    93.6020    23.5350     6.0200     4.9660     5.4410     2.2850 
  126.0000   -10.0600    99.4910    23.8410     5.4030     4.6410     5.1940     2.2860 
  126.1250   -10.4510   102.8850    24.0190     4.9350     4.4600     5.1210     2.2960 
  126.2500   -10.8870   102.2130    24.0850     4.6620     4.4040     5.1640     2.3140 
  126.3750   -11.3800    98.7820    24.0850     4.6050     4.4480     5.2760     2.3270 
  126.5000   -11.9390    93.7340    24.0200     4.7450     4.5690     5.4210     2.3240 
  126.6250   -12.5740    87.7330    23.8270     5.1090     4.7630     5.5990     2.3020 
  126.7500   -13.2590    82.8310    23.4820     5.6350     5.0280     5.8370     2.2760 
  126.8750   -13.9710    80.0630    22.9980     6.2540     5.3930     6.2070     2.2560 
  127.0000   -14.6810    79.2460    22.5340     6.8770     5.9220     6.8090     2.2410 
  127.1250   -15.3530    79.7920    22.3450     7.4730     6.7670     7.8120     2.2310 
  127.2500   -15.9720    80.5900    22.3610     8.3240     7.9910     9.2250     2.2370 
  127.3750   -16.5320    80.3690    22.5420    10.0220     9.6190    11.0160     2.2820 
  127.5000   -17.0360    78.0840    22.8270    13.7210    11.5400    13.0130     2.3820 
  127.6250   -17.4900    73.8520    23.1900    21.2480    13.4230    14.7880     2.5170 
  127.7500   -17.9160    69.7860    23.5050    31.2400    14.7960    15.8450     2.6180 
  127.8750   -18.3300    68.1760    23.6620    39.0760    15.2670    15.8380     2.6380 
  128.0000   -18.7490    70.3710    23.5600    39.6210    14.7150    14.7940     2.5740 
  128.1250   -19.1890    74.6470    23.1790    31.0810    13.3240    13.1140     2.4560 
  128.2500   -19.6480    76.6920    22.7520    20.4920    11.7280    11.4750     2.3390 
  128.3750   -20.1220    75.7410    22.4920    13.2260    10.2960    10.1860     2.2560 
  128.5000   -20.5980    74.0000    22.3810    10.2700     9.2320     9.3540     2.2170 
  128.6250   -21.0580    73.2430    22.2870     9.7970     8.6430     9.0020     2.2080 
  128.7500   -21.4850    72.3510    22.1970     9.7880     8.3910     8.9420     2.1950 
  128.8750   -21.8630    71.0760    22.1450     9.8870     8.3870     9.0560     2.1750 
  129.0000   -22.1740    70.1730    22.1190    10.0260     8.5320     9.2290     2.1620 
  129.1250   -22.3870    69.5390    22.1140    10.2470     8.7220     9.3660     2.1650 
  129.2500   -22.5040    68.6890    22.1110    10.5970     8.8780     9.4320     2.1710 
  129.3750   -22.5230    68.3420    22.1120    11.0960     8.9800     9.4350     2.1730 
  129.5000   -22.4470    69.0370    22.1130    11.7160     9.0270     9.3850     2.1720 
  129.6250   -22.2800    69.2510    22.1100    12.2720     9.0270     9.3030     2.1650 
  129.7500   -22.0550    68.2130    22.1110    12.5440     9.0030     9.2400     2.1530 
  129.8750   -21.7900    67.7320    22.1010    12.4160     8.9750     9.2250     2.1400 
  130.0000   -21.5050    69.9120    22.0940    12.0060     8.9630     9.2670     2.1350 
  130.1250   -21.2240    74.1020    22.0840    11.6660     8.9880     9.3710     2.1390 
  130.2500   -20.9670    76.5410    22.0950    11.5980     9.0320     9.4880     2.1440 
  130.3750   -20.7450    75.8830    22.1190    11.7570     9.0500     9.5500     2.1480 
  130.5000   -20.5620    73.9650    22.1470    11.9450     8.9690     9.4710     2.1530 
  130.6250   -20.4200    73.8840    22.2370    11.9530     8.7080     9.1600     2.1600 
  130.7500   -20.3150    75.4650    22.3590    11.7330     8.2980     8.6640     2.1670 
  130.8750   -20.2460    77.2330    22.4440    11.4640     7.7900     8.0800     2.1750 
  131.0000   -20.2220    78.7020    22.5350    11.2040     7.2770     7.5510     2.1900 
  131.1250   -20.2590    80.3750    22.6840    10.4520     6.9250     7.2700     2.2200 
  131.2500   -20.3590    81.6670    22.8580     9.2210     6.8220     7.2930     2.2530 
  131.3750   -20.5200    81.5480    22.9710     8.3770     7.0130     7.6280     2.2670 
  131.5000   -20.7340    79.8810    22.9320     9.1980     7.4850     8.2230     2.2530 
  131.6250   -20.9920    77.2820    22.8070    12.2400     8.1690     8.9630     2.2470 
  131.7500   -21.2700    74.2930    22.7390    16.2160     8.8540     9.6110     2.2820 
  131.8750   -21.5530    71.4170    22.7260    19.7180     9.3690     9.9900     2.3400 
  132.0000   -21.8250    70.1190    22.7360    20.5290     9.5960    10.0100     2.3730 
  132.1250   -22.0600    71.5150    22.7040    17.4160     9.4660     9.6810     2.3380 
  132.2500   -22.2460    73.4330    22.6230    13.4860     9.1410     9.2430     2.2650 
  132.3750   -22.3760    74.0210    22.5770    11.3190     8.7820     8.8740     2.1940 
  132.5000   -22.4500    73.6500    22.5620    10.8750     8.5250     8.6770     2.1500 
  132.6250   -22.4650    73.7390    22.5400    11.1040     8.4620     8.7080     2.1370 
  132.7500   -22.4370    74.1190    22.4880    11.3450     8.5590     8.8890     2.1350 
  132.8750   -22.3710    73.8090    22.3670    11.6450     8.7560     9.1390     2.1370 
  133.0000   -22.2750    72.4750    22.2180    11.9550     8.9690     9.3620     2.1430 
  133.1250   -22.1510    70.5970    22.1330    12.1460     9.0980     9.4580     2.1510 
  133.2500   -22.0130    69.4070    22.0640    12.1830     9.1210     9.4260     2.1550 
  133.3750   -21.8710    69.4980    22.0930    12.0920     9.0520     9.3090     2.1550 
  133.5000   -21.7310    70.6790    22.2980    11.8610     8.9280     9.1720     2.1490 
  133.6250   -21.6010    73.0110    22.7120    11.4250     8.8120     9.0810     2.1460 
