~V
VERS. 2.00: Ver 2.00
~W
STRT.M 58.0000:
STOP.M 276.0000:
STEP.M 0.1250:
NULL. -999.2500:
UWI. DF5012:
~C
DEPT.M :
SP.MV :
GR.API :
CALI.CM :
RXO.OHMM :
RI. :
RML.OHMM :
DEN.GM/CC :
~A
# ...
  193.0000   -39.9790    74.2170    25.6710    81.7270    99.3620    95.8590     2.2450 
  193.1250   -39.8450    71.4490    25.6710    86.9600   105.9750   104.4030     2.2490 
  193.2500   -39.7420    68.6070    25.6710    93.2100   114.9750   116.1390     2.2500 
  193.3750   -39.6100    67.0500    25.6710   103.2150   128.7100   133.3720     2.2450 
  193.5000   -39.4670    67.3850    25.6710   113.5430   150.1750   159.0570     2.2350 
  193.6250   -39.2600    67.0610    25.6710   129.2020   185.8900   199.9410     2.2210 
  193.7500   -38.9520    64.9280    25.6710   204.2890   238.7570   259.6800     2.2080 
  193.8750   -38.5700    62.5540    25.6710   308.8640   310.7730   342.5530     2.1960 
  194.0000   -38.1430    59.7960    25.6710   367.6140   396.6760   445.8340     2.1850 
  194.1250   -37.6570    56.5180    25.6710   370.0520   472.6200   542.7830     2.1720 
  194.2500   -37.1060    53.5610    25.6710   354.1220   509.5750   591.5220     2.1620 
  194.3750   -36.5370    52.8950    25.6710   339.7670   499.4320   579.3350     2.1560 
  194.5000   -35.9660    54.0370    25.6710   326.2830   459.4540   531.1610     2.1590 
  194.6250   -35.4930    55.9680    25.6710   305.2400   414.2160   479.4920     2.1670 
  194.7500   -35.1600    57.4960    25.6690   280.6010   376.5520   437.8370     2.1750 
  194.8750   -34.9380    57.8790    25.6660   267.9340   347.7710   406.4270     2.1790 
  195.0000   -34.8310    57.5720    25.6640   271.4110   326.7270   383.3950     2.1810 
  195.1250   -34.7780    57.1810    25.6660   277.1650   312.9370   368.2910     2.1840 
  195.2500   -34.8190    57.0100    25.6690   266.2690   304.4270   359.3100     2.1870 
  195.3750   -34.8870    56.7280    25.6690   253.6340   301.0100   356.4140     2.1900 
  195.5000   -35.0020    55.7770    25.6680   249.3810   303.1000   360.0080     2.1900 
  195.6250   -35.0140    54.8770    25.6620   266.8450   312.3010   371.8020     2.1890 
  195.7500   -35.0900    55.4180    25.6510   302.6670   327.0940   390.0740     2.1940 
  195.8750   -35.1070    57.5220    25.6350   325.8760   345.1040   412.0450     2.2100 
  196.0000   -35.1120    59.3540    25.5880   360.0680   360.6600   430.2510     2.2370 
  196.1250   -34.9730    57.5540    25.4930   406.5780   360.3140   426.0310     2.2720 
  196.2500   -34.8310    56.2360    25.4310   385.5310   338.8200   393.8900     2.2980 
  196.3750   -34.6110    57.7630    25.4710   308.3500   301.3700   344.3570     2.3000 
  196.5000   -34.3430    59.9000    25.5810   257.4060   259.4500   293.6970     2.2770 
  196.6250   -34.0730    59.9780    25.6540   205.6490   222.7910   251.9950     2.2530 
  196.7500   -33.7240    58.3990    25.6630   155.1080   192.8620   218.1400     2.2450 
  196.8750   -33.3290    55.9510    25.6210   180.8810   168.1780   189.6560     2.2600 
  197.0000   -32.8550    53.5850    25.5220   246.2020   146.4590   164.0610     2.3000 
  197.1250   -32.4120    54.1040    25.3890   219.2590   126.5970   140.4690     2.3490 
  197.2500   -31.9180    56.9220    25.2980   141.5290   108.6300   119.1920     2.3810 
  197.3750   -31.4200    59.7290    25.2680    94.0960    93.2960   101.3490     2.3770 
  197.5000   -30.8900    61.8630    25.2700    80.0070    81.2860    87.9200     2.3460 
  197.6250   -30.2960    63.6260    25.2740    87.9370    73.9340    80.3360     2.3140 
  197.7500   -29.6770    64.6300    25.2950    88.7290    70.8630    77.7600     2.3040 
  197.8750   -29.0570    64.7310    25.3360    87.3830    71.8970    79.6840     2.3220 
  198.0000   -28.4690    64.3950    25.3800    91.5580    76.0170    84.5500     2.3660 
  198.1250   -27.9110    64.7320    25.3860    96.2790    79.1460    87.1470     2.4300 
  198.2500   -27.3770    65.3950    25.3410   102.2230    74.6810    80.5020     2.4950 
  198.3750   -26.8610    64.0030    25.2780   124.8480    59.8520    62.7320     2.5450 
  198.5000   -26.3890    59.3670    25.1970   123.9560    40.0650    40.5250     2.5690 
  198.6250   -26.0170    56.3060    24.9470    78.2270    24.3700    23.5990     2.5620 
  198.7500   -25.6660    57.3500    24.5690    24.9110    14.6390    13.4840     2.5360 
  198.8750   -25.3740    61.1430    24.2620     8.3580     9.3780     8.3100     2.4970 
  199.0000   -25.1080    65.4340    24.1660     5.9010     6.7580     5.9650     2.4520 
  199.1250   -24.8990    65.9170    24.2580     5.5280     5.6970     5.2120     2.4120 
  199.2500   -24.7320    61.7990    24.4690     5.4170     5.3640     5.1170     2.3790 
  199.3750   -24.6390    56.7680    24.8540     5.4330     5.4860     5.3640     2.3570 
  199.5000   -24.5890    55.3190    25.3200     5.5930     5.8570     5.7340     2.3440 
  199.6250   -24.5830    56.8660    25.6330     5.7570     6.2840     6.0330     2.3340 
  199.7500   -24.6290    57.1790    25.7480     5.9190     6.5910     6.1520     2.3130 
  199.8750   -24.7250    57.4160    25.7530     5.9100     6.6650     6.0370     2.2790 
  200.0000   -24.8450    59.0900    25.7220     5.5860     6.4740     5.7000     2.2360 
  200.1250   -25.0500    58.5070    25.6470     5.0350     6.0740     5.2410     2.1980 
  200.2500   -25.2810    55.1560    25.5430     4.1510     5.6430     4.8280     2.1740 
  200.3750   -25.5770    52.1700    25.4210     3.6420     5.2910     4.5580     2.1720 
  200.5000   -25.8820    51.1090    25.2570     3.9010     5.0780     4.4710     2.1940 
  200.6250   -26.2420    50.1080    25.0490     4.4600     5.0350     4.5770     2.2290 
  200.7500   -26.6050    48.6730    24.8750     4.7340     5.1050     4.8000     2.2590 
  200.8750   -26.9590    48.1840    24.7880     5.0880     5.2420     5.0890     2.2740 
  201.0000   -27.3650    47.2080    24.7680     5.3480     5.4050     5.4030     2.2770 
  201.1250   -27.7840    45.8970    24.7680     5.4770     5.5680     5.7260     2.2770 
  201.2500   -28.2340    46.1740    24.7650     5.6910     5.7280     6.0630     2.2800 
  201.3750   -28.7200    48.8090    24.7770     6.1670     5.8970     6.4270     2.2880 
  201.5000   -29.2490    53.1020    24.8560     6.8490     6.0840     6.8320     2.2950 
  201.6250   -29.8170    56.6440    25.0110     7.6370     6.3140     7.3130     2.2990 
  201.7500   -30.3810    59.0610    25.1440     8.2640     6.6030     7.8970     2.3000 
  201.8750   -30.9820    62.9640    25.1990     8.5090     6.9700     8.6110     2.3000 
  202.0000   -31.5430    70.6340    25.2220     8.6220     7.4160     9.4480     2.3010 
  202.1250   -32.0740    77.1710    25.2870     9.9380     7.9100    10.3330     2.3040 
  202.2500   -32.6010    78.6460    25.3680    11.3140     8.3750    11.1170     2.3110 
  202.3750   -33.0650    79.6100    25.4100    12.1190     8.7420    11.6880     2.3200 
  202.5000   -33.5010    82.6310    25.3470    12.5320     8.9720    12.0190     2.3310 
  202.6250   -33.8640    84.1360    25.1490    12.5570     9.0870    12.2200     2.3450 
  202.7500   -34.1840    82.0760    24.9370    13.0070     9.2370    12.5770     2.3580 
  202.8750   -34.4180    78.3700    24.8130    13.7110     9.5700    13.3220     2.3640 
  203.0000   -34.6170    75.6570    24.7960    14.3720    10.1930    14.5610     2.3630 
  203.1250   -34.7530    75.8930    24.8810    15.8680    11.1580    16.2220     2.3540 
  203.2500   -34.8040    77.9780    25.0560    19.0530    12.2410    17.8330     2.3450 
  203.3750   -34.7940    78.7780    25.2640    23.1710    13.1400    18.8990     2.3380 
  203.5000   -34.7090    77.8350    25.4000    24.4000    13.5490    19.0600     2.3330 
  203.6250   -34.5460    78.5070    25.4250    22.8300    13.2890    18.2620     2.3280 
  203.7500   -34.3700    81.8110    25.4190    18.4860    12.6900    17.1560     2.3200 
  203.8750   -34.1810    85.6170    25.4190    15.2960    12.0450    16.2100     2.3150 
  204.0000   -33.9470    87.9620    25.4180    14.3630    11.5330    15.6320     2.3140 
  204.1250   -33.6640    87.3120    25.4180    14.9990    11.1940    15.3550     2.3190 
