~V
VERS. 2.00: Ver 2.00
~W
STRT.M 58.0000:
STOP.M 240.0000:
STEP.M 0.1250:
NULL. -999.2500:
UWI. DF5049:
~C
DEPT.M :
GR.API :
RML.OHMM :
RI. :
RXO.OHMM :
CALI.CM :
DEN.GM/CC :
SP.MV :
~A
   58.0000    57.7530     3.7390     1.1700     5.0180    29.0100     1.9020    37.1910 
   58.1250    60.4390     6.7160     2.2760     6.3000    32.0120     1.7610    26.3810 
   58.2500    61.2740     9.9470     3.5960     7.3830    34.2460     1.6960    15.8110 
   58.3750    61.5950    12.4150     4.7450     8.2410    35.2290     1.6790     5.9290 
   58.5000    62.6460    14.2410     5.5220     8.7060    35.4810     1.6870    -2.8060 
   58.6250    62.0260    16.6540     5.9900     8.7670    35.4960     1.7080    -9.6410 
   58.7500    59.4550    20.5410     6.3520     8.7550    35.4750     1.7330   -14.5950 
   58.8750    57.2740    26.1510     6.6640     8.7440    35.3940     1.7570   -17.9960 
   59.0000    57.0970    32.6890     6.9310     8.8880    35.2090     1.7760   -20.4680 
   59.1250    57.2990    37.8130     7.1310     8.9730    34.8420     1.7890   -22.2910 
   59.2500    55.8570    40.3710     7.2580     8.7160    34.2100     1.7970   -23.6310 
   59.3750    55.1140    41.0070     7.3050     8.2120    33.2680     1.7960   -24.5900 
   59.5000    59.4310    40.6110     7.2740     8.1140    32.3760     1.7800   -25.3260 
   59.6250    65.1630    39.7670     7.1880     8.3260    31.6370     1.7500   -25.8530 
   59.7500    67.0140    39.4170     7.1220     8.2930    31.0010     1.7280   -26.2390 
   59.8750    67.4030    40.1860     7.1530     7.7990    30.2840     1.7410   -26.4620 
   60.0000    70.0120    42.2660     7.3360     7.1850    28.9270     1.8020   -26.4150 
   60.1250    71.7390    45.5860     7.6810     7.4490    26.6520     1.9030   -26.0740 
   60.2500    70.0410    48.5940     8.0470     8.6290    24.7760     2.0040   -25.5730 
   60.3750    69.2820    48.8800     8.2590     9.5910    23.9490     2.0850   -24.9610 
   60.5000    74.1010    45.4410     8.1520     9.9410    23.8010     2.1430   -24.3000 
   60.6250    85.2100    39.9690     7.6190     9.6580    23.9000     2.1890   -23.6040 
   60.7500    97.7310    34.4640     6.8590     8.6410    24.1250     2.2370   -22.8810 
   60.8750   107.3960    29.5370     6.0790     7.0090    24.4480     2.2850   -22.2400 
   61.0000   111.7170    25.3190     5.4570     5.5900    24.7100     2.3250   -21.7750 
   61.1250   110.7400    20.9360     5.1480     5.1760    24.7890     2.3470   -21.5770 
   61.2500   108.0250    16.5560     5.1240     5.1640    24.7120     2.3510   -21.6790 
   61.3750   102.8630    13.1630     5.3360     5.4830    24.4890     2.3390   -22.0610 
   61.5000    93.5950    11.0330     5.7090     6.3080    24.2380     2.3120   -22.6600 
   61.6250    81.8030     9.9900     6.1550     7.6480    24.1220     2.2760   -23.5170 
   61.7500    74.5530     9.4990     6.5770     8.5960    24.1740     2.2400   -24.5790 
   61.8750    72.7300     9.2650     6.9240     8.9560    24.2230     2.2090   -25.7230 
   62.0000    71.4950     9.0410     7.1610     9.3190    24.2070     2.1890   -26.8830 
   62.1250    70.3060     8.7000     7.2420     9.8490    24.1510     2.1800   -27.9980 
   62.2500    72.6810     8.3490     7.2040    10.2100    24.0960     2.1760   -28.9760 
   62.3750    76.6170     8.0840     7.1030    10.3300    24.1060     2.1720   -29.7940 
   62.5000    78.1210     7.9550     7.0070    10.3370    24.1960     2.1650   -30.3890 
   62.6250    78.2370     8.0170     6.9960    10.2130    24.2290     2.1580   -30.7430 
   62.7500    80.4890     8.2380     7.0900    10.2340    24.1030     2.1550   -30.9650 
   62.8750    81.6250     8.5560     7.2730    10.6770    23.8740     2.1600   -31.0780 
   63.0000    78.5640     8.8890     7.4880    11.3160    23.7240     2.1690   -31.1320 
   63.1250    73.6270     9.1240     7.6400    11.4100    23.6920     2.1750   -31.1870 
   63.2500    71.7780     9.2010     7.6720    11.3000    23.7020     2.1710   -31.2630 
   63.3750    71.9720     9.1150     7.5810    11.1210    23.7280     2.1580   -31.3450 
   63.5000    72.5320     8.9390     7.4270    10.9300    23.7770     2.1390   -31.4850 
   63.6250    71.2760     8.8580     7.3470    10.8930    23.8290     2.1200   -31.6110 
   63.7500    70.5740     9.0510     7.4630    11.2400    23.8970     2.1120   -31.6380 
   63.8750    73.1110     9.6370     7.8640    11.8940    23.9540     2.1260   -31.5980 
   64.0000    77.6780    10.6130     8.5820    12.1940    23.9730     2.1710   -31.4910 
   64.1250    79.2280    11.7090     9.5000    11.8640    23.9260     2.2560   -31.1820 
   64.2500    76.8380    12.3620    10.1960    11.2110    23.8460     2.3610   -30.6930 
   64.3750    75.7930    12.1410    10.2620    10.3920    23.8060     2.4560   -30.1130 
   64.5000    79.3910    10.9920     9.5630     9.4950    23.8530     2.5110   -29.3700 
   64.6250    87.2000     9.3390     8.3610     8.2210    23.8880     2.5000   -28.4310 
   64.7500    93.7990     7.8800     7.2130     6.9660    23.8990     2.4430   -27.5270 
   64.8750    95.4120     6.9180     6.3730     6.4900    23.8780     2.3680   -26.7250 
   65.0000    95.3550     6.4820     5.9080     6.7680    23.8550     2.3010   -25.9600 
   65.1250    97.4100     6.5180     5.8430     7.2050    23.8520     2.2610   -25.2810 
   65.2500    97.5950     6.7950     6.0420     7.0910    23.8590     2.2410   -24.6790 
   65.3750    94.2750     7.1690     6.4080     6.9160    23.8700     2.2400   -24.0910 
   65.5000    90.4120     7.5110     6.8220     7.2610    23.8810     2.2570   -23.5630 
   65.6250    89.6300     7.6810     7.1210     7.7080    23.9230     2.2930   -23.1280 
   65.7500    90.4760     7.6060     7.1830     8.1160    24.0540     2.3340   -22.6280 
   65.8750    95.2880     7.2630     6.9600     7.5880    24.2970     2.3640   -21.9690 
   66.0000   105.6490     6.7550     6.5240     6.1330    24.5770     2.3750   -21.1670 
   66.1250   115.1350     6.2900     6.0360     5.4330    24.7980     2.3650   -20.2370 
   66.2500   117.5220     5.9930     5.6360     5.0680    24.9700     2.3480   -19.2950 
   66.3750   114.6140     5.8820     5.3630     4.9890    25.0710     2.3320   -18.4160 
   66.5000   111.6660     5.8830     5.1910     4.9910    25.0860     2.3210   -17.5840 
   66.6250   110.6460     5.8250     5.0420     4.9930    25.0700     2.3190   -16.8630 
   66.7500   109.5730     5.6050     4.8440     4.8850    25.0580     2.3180   -16.2260 
   66.8750   109.3220     5.2890     4.6260     4.7860    25.0280     2.3170   -15.6940 
   67.0000   110.3340     5.1000     4.5130     4.7770    24.9460     2.3160   -15.3920 
   67.1250   110.3710     5.4630     4.7570     4.8250    24.8710     2.3310   -15.3320 
   67.2500   108.7640     6.6120     5.5000     5.2260    24.8360     2.3760   -15.3960 
   67.3750   103.7260     8.6630     6.8730     7.2760    24.8180     2.4490   -15.6330 
   67.5000    92.3990    11.3890     8.8580    13.4760    24.7990     2.5240   -16.0650 
   67.6250    75.8430    13.8420    10.9310    22.5590    24.7810     2.5520   -16.6970 
   67.7500    64.2480    14.8570    12.0710    22.9820    24.7660     2.5170   -17.5810 
   67.8750    61.6640    14.1090    11.8510    16.4060    24.7630     2.4290   -18.7010 
   68.0000    64.9230    12.3320    10.7490    11.0100    24.8330     2.3220   -19.8660 
   68.1250    66.6020    10.7030     9.5870     9.2710    25.0280     2.2390   -21.0260 
   68.2500    65.6230     9.7710     8.8010     8.7410    25.2390     2.1900   -22.1890 
   68.3750    67.4270     9.5010     8.4340     8.6400    25.3560     2.1710   -23.2320 
   68.5000    72.2710     9.6380     8.3870     8.6120    25.3930     2.1690   -24.0890 
   68.6250    73.4030     9.9390     8.5400     8.6870    25.4320     2.1740   -24.7010 
   68.7500    69.9360    10.2500     8.7460     8.7880    25.5670     2.1770   -25.1020 
   68.8750    67.3510    10.5390     8.9500     8.8440    25.8090     2.1720   -25.3190 
   69.0000    67.0940    10.7960     9.1240     8.8450    26.0270     2.1600   -25.4090 
   69.1250    65.2070    10.9960     9.2420     8.8780    26.1120     2.1450   -25.4320 
