~V
VERS. 2.00: Ver 2.00
~W
STRT.M 55.0000:
STOP.M 274.0000:
STEP.M 0.1250:
NULL. -999.2500:
UWI. DF5018:
~C
DEPT.M :
SP.MV :
GR.API :
CALI.CM :
RXO.OHMM :
RI. :
RML.OHMM :
DEN.GM/CC :
~A
# ...
  201.2500   -16.5290    61.7280    24.4230     8.0350     7.8650     7.2120     2.6110 
  201.3750   -15.9570    59.4650    24.3550     5.9270     5.9950     5.4690     2.6020 
  201.5000   -15.4550    56.5020    24.2170     5.2240     5.1190     4.7850     2.5900 
  201.6250   -15.1790    53.6130    24.0810     5.0770     4.8750     4.7510     2.5700 
  201.7500   -15.0010    51.1600    24.0120     5.0970     4.8400     4.8760     2.5400 
  201.8750   -14.9140    49.4910    23.9870     5.1550     4.8090     4.9090     2.5040 
  202.0000   -14.8880    48.6420    23.9670     5.1370     4.6910     4.7530     2.4710 
  202.1250   -14.9320    48.7600    23.9360     5.0830     4.5110     4.4800     2.4440 
  202.2500   -15.0100    50.2140    23.9230     5.0930     4.3650     4.2530     2.4210 
  202.3750   -15.0880    52.0540    23.9200     5.2460     4.3200     4.1600     2.4060 
  202.5000   -15.2420    52.1660    23.9200     5.5400     4.4060     4.2350     2.3960 
  202.6250   -15.4520    50.7880    23.9190     5.6200     4.6310     4.4890     2.3880 
  202.7500   -15.7850    52.6160    23.9150     5.5070     4.9310     4.8560     2.3840 
  202.8750   -16.1540    59.5380    23.9010     5.4360     5.2480     5.2930     2.3950 
  203.0000   -16.5840    69.1790    23.8650     5.6260     5.5300     5.7480     2.4210 
  203.1250   -17.0410    80.6810    23.8270     6.0810     5.7310     6.1530     2.4460 
  203.2500   -17.6060    90.9590    23.7900     6.5610     5.8590     6.4800     2.4520 
  203.3750   -18.1560    96.7530    23.7760     6.8580     5.9370     6.7440     2.4400 
  203.5000   -18.7130    98.0750    23.7740     6.8680     6.0150     7.0040     2.4220 
  203.6250   -19.3120    98.6450    23.7750     6.8690     6.1650     7.3660     2.4130 
  203.7500   -19.9540    99.3990    23.8000     7.3400     6.4080     7.8820     2.4140 
  203.8750   -20.5910    98.2010    23.9180     8.3410     6.7330     8.5410     2.4210 
  204.0000   -21.2380    96.6900    24.1920     9.4600     7.1160     9.2730     2.4350 
  204.1250   -21.9270    95.6160    24.5520    10.1400     7.5190     9.9850     2.4500 
  204.2500   -22.5530    93.5190    24.8200    10.5130     7.9040    10.6220     2.4470 
  204.3750   -23.2050    91.7890    25.0040    10.9350     8.2550    11.1770     2.4170 
  204.5000   -23.7700    91.2530    25.0270    11.8370     8.5560    11.6460     2.3770 
  204.6250   -24.2820    90.7920    24.8750    13.0310     8.7650    11.9860     2.3630 
  204.7500   -24.6540    90.8660    24.7550    13.7710     8.8900    12.2030     2.3770 
  204.8750   -24.9670    92.5990    24.6920    13.6200     8.9840    12.3570     2.4000 
  205.0000   -25.1970    93.0610    24.6690    12.7200     9.1230    12.5620     2.4170 
  205.1250   -25.3190    88.9520    24.6620    11.9780     9.4120    13.0060     2.4250 
  205.2500   -25.4230    84.8940    24.6580    12.7170     9.8880    13.7740     2.4330 
  205.3750   -25.4170    84.6080    24.6570    15.3670    10.5650    14.8860     2.4490 
  205.5000   -25.3740    85.5120    24.6570    18.1890    11.3790    16.2010     2.4740 
  205.6250   -25.1570    82.5700    24.6570    19.6170    12.1110    17.2950     2.4930 
  205.7500   -24.8770    78.9980    24.6570    20.0880    12.4990    17.7230     2.4950 
  205.8750   -24.4820    79.1680    24.6570    20.2480    12.4190    17.3130     2.4810 
  206.0000   -23.9950    83.3000    24.6570    19.1700    12.0000    16.3610     2.4670 
  206.1250   -23.3720    86.1350    24.6570    16.5430    11.6130    15.5900     2.4800 
  206.2500   -22.7050    86.1410    24.6570    14.5690    11.5780    15.5260     2.5260 
  206.3750   -22.0110    86.1300    24.6590    14.7850    11.9740    16.2870     2.5810 
  206.5000   -21.3110    87.6190    24.6620    17.5670    12.6340    17.5890     2.6070 
  206.6250   -20.6710    89.2020    24.6650    20.3500    12.9890    18.4180     2.5760 
  206.7500   -20.0360    90.0000    24.6710    19.8310    12.4760    17.6780     2.5190 
  206.8750   -19.4710    90.2280    24.6780    15.8220    11.0270    15.2550     2.4620 
  207.0000   -18.9320    88.4810    24.6810    11.2680     9.1390    12.1610     2.4140 
  207.1250   -18.4580    82.9970    24.6810     8.4670     7.5320     9.7220     2.3960 
  207.2500   -17.9320    77.4580    24.6810     7.0380     6.5080     8.3470     2.4100 
  207.3750   -17.5110    75.7490    24.6810     6.7950     6.0960     8.0020     2.4350 
  207.5000   -17.0960    77.5960    24.6810     7.4750     6.2060     8.4760     2.4490 
  207.6250   -16.7060    78.4840    24.6810     8.7220     6.6640     9.4250     2.4480 
  207.7500   -16.3400    75.8160    24.6670     9.5750     7.0940    10.2030     2.4480 
  207.8750   -15.9600    70.3400    24.6070     9.3290     7.2330    10.3530     2.4510 
  208.0000   -15.5960    63.3850    24.4600     7.9890     6.9970     9.7750     2.4520 
  208.1250   -15.2310    55.9810    24.3460     6.6600     6.5020     8.7950     2.4410 
  208.2500   -14.9950    50.5260    24.2850     5.9810     6.0060     7.9310     2.4180 
  208.3750   -14.7080    50.2590    24.2700     5.7580     5.6320     7.3750     2.3930 
  208.5000   -14.4980    55.9020    24.2680     5.6500     5.4170     7.1390     2.3800 
  208.6250   -14.3620    63.6420    24.2650     5.5670     5.3600     7.1520     2.3810 
  208.7500   -14.2900    68.4890    24.2380     5.5590     5.3890     7.2560     2.3840 
  208.8750   -14.3100    70.4900    24.1670     5.6530     5.4660     7.3850     2.3870 
  209.0000   -14.3880    74.5090    24.0900     5.8130     5.5670     7.5250     2.3940 
  209.1250   -14.5680    82.5980    24.1230     5.9700     5.6640     7.6670     2.4050 
  209.2500   -14.7350    89.1510    24.2870     6.0940     5.7370     7.7880     2.4110 
  209.3750   -14.9900    89.8250    24.5130     6.1930     5.7750     7.8640     2.4130 
  209.5000   -15.2660    85.6310    24.6640     6.2280     5.7730     7.8800     2.4150 
  209.6250   -15.5830    81.1490    24.7280     6.1940     5.7170     7.8340     2.4230 
  209.7500   -15.9010    79.5880    24.7430     6.1270     5.6130     7.7530     2.4320 
  209.8750   -16.3050    80.5110    24.7460     6.0190     5.4720     7.6460     2.4340 
  210.0000   -16.7910    81.1950    24.7460     5.9160     5.3140     7.5030     2.4270 
  210.1250   -17.3460    79.9820    24.7460     5.9660     5.1570     7.3050     2.4140 
  210.2500   -17.9230    79.0320    24.7500     6.0940     5.0190     7.0880     2.4040 
  210.3750   -18.5680    80.2570    24.7660     6.1600     4.9200     6.9180     2.3970 
  210.5000   -19.2680    84.6140    24.8030     6.1850     4.8980     6.8860     2.3930 
  210.6250   -19.9860    90.3200    24.8210     6.4910     5.0390     7.1280     2.3880 
  210.7500   -20.7780    93.9600    24.8270     7.2950     5.3520     7.6490     2.3750 
  210.8750   -21.5050    94.1130    24.8270     8.3800     5.8220     8.4080     2.3620 
  211.0000   -22.2080    91.6780    24.8270     9.5800     6.4070     9.3080     2.3550 
  211.1250   -22.7890    87.7300    24.8270    10.7790     7.0640    10.2200     2.3570 
  211.2500   -23.3640    84.1220    24.8270    11.8590     7.7500    11.0860     2.3630 
  211.3750   -23.8200    83.1330    24.8270    12.4710     8.5070    12.0070     2.3700 
  211.5000   -24.1900    83.8340    24.8270    12.9830     9.4280    13.1970     2.3750 
  211.6250   -24.4570    81.9850    24.8270    14.4680    10.6380    14.8850     2.3790 
  211.7500   -24.6080    78.5750    24.8270    16.7620    12.0180    16.8250     2.3890 
  211.8750   -24.7270    77.3930    24.8270    20.2380    13.3060    18.5350     2.4070 
  212.0000   -24.7760    78.8410    24.8270    23.9920    14.1740    19.4830     2.4250 
  212.1250   -24.8430    80.4790    24.8270    24.0860    14.4300    19.4570     2.4220 
  212.2500   -24.8010    80.1730    24.8270    20.4730    14.4850    19.2400     2.3960 
  212.3750   -24.7810    77.5960    24.8270    17.1430    14.7220    19.4850     2.3620 
