~V
VERS. 2.00: Ver 2.00
~W
STRT.M 60.0000:
STOP.M 273.0000:
STEP.M 0.1250:
NULL. -999.2500:
UWI. DF5003:
~C
DEPT.M :
GR.API :
CALI.CM :
RXO.OHMM :
RI. :
RML.OHMM :
DEN.GM/CC :
SP.MV :
~A
# ...
  206.2500    67.9660    23.2840    19.6100    15.3930    18.8160     2.5060   -23.9460 
  206.3750    73.3520    23.3170    13.4520    12.8570    15.2010     2.4980   -23.3520 
  206.5000    80.7900    23.5380     9.2720    10.9370    12.7580     2.4910   -22.7900 
  206.6250    86.5210    23.7240     9.7890     9.8450    11.6390     2.4880   -22.2670 
  206.7500    88.0740    23.7790    10.4220     9.3390    11.3010     2.4880   -21.8010 
  206.8750    86.7200    23.7660    10.6110     9.2440    11.3960     2.4910   -21.4190 
  207.0000    85.0860    23.7570    10.1490     9.3430    11.5810     2.4950   -21.1060 
  207.1250    83.5250    23.7480    10.1200     9.3420    11.4740     2.5000   -20.8210 
  207.2500    82.0660    23.7260     9.9440     9.0350    10.9150     2.5030   -20.5540 
  207.3750    83.0580    23.6650     9.2820     8.3620     9.9040     2.5030   -20.3600 
  207.5000    86.0050    23.4880     8.0740     7.4030     8.5840     2.4940   -20.1360 
  207.6250    84.7210    23.1090     6.4970     6.3420     7.2280     2.4690   -19.9500 
  207.7500    76.9380    22.6840     5.0900     5.3960     6.0900     2.4310   -19.7030 
  207.8750    65.3220    22.3990     4.1500     4.6730     5.2810     2.3900   -19.4740 
  208.0000    55.5430    22.3080     3.6340     4.2070     4.8010     2.3530   -19.2390 
  208.1250    49.9350    22.3150     3.6720     4.0070     4.6150     2.3330   -19.1050 
  208.2500    47.1870    22.3470     3.9270     3.9740     4.5840     2.3310   -18.8830 
  208.3750    47.9620    22.4490     4.2950     4.0480     4.6370     2.3410   -18.7470 
  208.5000    52.9020    22.6190     4.7430     4.1750     4.7180     2.3580   -18.6230 
  208.6250    59.2550    22.7560     5.0380     4.3090     4.7850     2.3790   -18.5680 
  208.7500    63.2900    22.8260     5.1190     4.4080     4.8140     2.3990   -18.5230 
  208.8750    66.6960    22.9500     4.8050     4.4430     4.7880     2.4150   -18.4720 
  209.0000    72.8540    23.2320     4.3970     4.3910     4.7010     2.4230   -18.4100 
  209.1250    79.8460    23.5900     4.2420     4.2370     4.5570     2.4210   -18.3660 
  209.2500    84.5490    23.8430     4.1050     4.0220     4.3840     2.4150   -18.4010 
  209.3750    85.5780    23.9680     3.8550     3.7840     4.2100     2.4080   -18.3630 
  209.5000    83.7000    24.0350     3.7840     3.5680     4.0670     2.4010   -18.3730 
  209.6250    81.5950    24.0780     3.8070     3.4240     4.0000     2.3910   -18.3640 
  209.7500    82.2670    24.0980     3.7550     3.3600     4.0180     2.3790   -18.4830 
  209.8750    84.4700    24.1010     3.7720     3.3780     4.1260     2.3650   -18.6110 
  210.0000    85.6400    24.0960     4.2830     3.4750     4.3140     2.3540   -18.8310 
  210.1250    84.9480    24.0830     4.8550     3.6600     4.5860     2.3480   -18.9770 
  210.2500    83.6980    24.0630     5.4100     3.9190     4.9310     2.3470   -19.2520 
  210.3750    82.1430    24.0470     5.8760     4.2570     5.3710     2.3560   -19.6080 
  210.5000    79.6700    24.0390     7.1130     4.6800     5.9290     2.3750   -19.9710 
  210.6250    76.0080    24.0390     8.6030     5.1780     6.5840     2.4030   -20.5010 
  210.7500    72.5580    24.0410     9.4680     5.6670     7.2010     2.4270   -20.9630 
  210.8750    69.2830    24.0310     9.4230     6.0400     7.6330     2.4310   -21.5210 
  211.0000    66.5670    23.9960    10.6470     6.2040     7.7650     2.4090   -22.0510 
  211.1250    65.8760    23.9370    11.0600     6.1050     7.5710     2.3680   -22.8120 
  211.2500    68.8640    23.8800     9.8030     5.8980     7.2940     2.3330   -23.5400 
  211.3750    73.0530    23.8430     8.3410     5.7380     7.1650     2.3140   -24.3630 
  211.5000    75.0360    23.8270     8.3630     5.7630     7.3770     2.3140   -25.2720 
  211.6250    74.1860    23.8250     9.7500     6.1350     8.1630     2.3300   -26.1420 
  211.7500    73.9130    23.8260    11.9630     6.8890     9.5090     2.3460   -27.1420 
  211.8750    73.4620    23.8260    14.3980     8.0440    11.3590     2.3480   -28.1930 
  212.0000    70.8910    23.8250    16.4230     9.5290    13.5110     2.3300   -29.2680 
  212.1250    67.1420    23.8070    21.0150    11.1450    15.5760     2.2940   -30.2540 
  212.2500    65.4910    23.7670    23.6650    12.5970    17.2250     2.2580   -31.2110 
  212.3750    65.8980    23.7120    22.8180    13.7580    18.4050     2.2320   -32.0570 
  212.5000    66.3830    23.6670    20.2260    14.6920    19.3590     2.2160   -32.8670 
  212.6250    66.4780    23.6410    19.7830    15.6340    20.5680     2.2110   -33.5070 
  212.7500    68.1710    23.5360    21.4930    16.8080    22.3140     2.2110   -34.0010 
  212.8750    71.9400    23.2920    24.4980    18.2800    24.5920     2.2140   -34.3720 
  213.0000    74.6270    22.9990    26.6880    19.9310    27.0870     2.2180   -34.6780 
  213.1250    71.9230    22.8430    27.9900    21.3970    29.1280     2.2190   -34.8370 
  213.2500    67.1830    22.8180    28.5760    22.3860    30.3240     2.2160   -34.9260 
  213.3750    64.2930    22.8250    27.5970    22.8560    30.7090     2.2100   -34.9040 
  213.5000    64.6760    22.8210    24.9180    22.9990    30.6830     2.2020   -34.8610 
  213.6250    66.3480    22.8520    23.4250    23.1480    30.8380     2.1960   -34.7990 
  213.7500    67.3020    22.9480    23.8040    23.5330    31.4690     2.1910   -34.7760 
  213.8750    66.7030    23.0710    24.3470    24.1570    32.4790     2.1860   -34.7260 
  214.0000    64.9600    23.1560    24.4730    24.8150    33.4470     2.1810   -34.6970 
  214.1250    64.4600    23.1890    24.7180    25.0660    33.6270     2.1780   -34.6500 
  214.2500    63.9660    23.2250    25.2570    24.6810    32.7390     2.1790   -34.6850 
  214.3750    63.0790    23.2610    24.8110    23.6910    30.9360     2.1820   -34.7290 
  214.5000    64.8610    23.2730    22.3940    22.3730    28.7450     2.1830   -34.7400 
  214.6250    71.4280    23.3270    20.3360    21.1260    26.8550     2.1820   -34.8430 
  214.7500    74.3650    23.4660    21.3140    20.1750    25.5460     2.1780   -34.9040 
  214.8750    68.9370    23.6290    22.8620    19.5630    24.7960     2.1770   -34.9830 
  215.0000    60.5350    23.7280    22.9180    19.2360    24.4290     2.1790   -35.0510 
  215.1250    57.6930    23.7410    22.5020    19.1160    24.2420     2.1830   -35.1880 
  215.2500    60.5770    23.7390    21.4430    19.0820    24.0790     2.1880   -35.2340 
  215.3750    65.2420    23.7400    20.3440    19.1170    23.9740     2.1930   -35.3940 
  215.5000    67.9800    23.7410    19.9230    19.2520    24.0270     2.1980   -35.5020 
  215.6250    65.4040    23.7440    20.3800    19.5420    24.3380     2.1990   -35.6480 
  215.7500    62.8890    23.7330    21.1890    19.9380    24.8050     2.1960   -35.7860 
  215.8750    64.6370    23.6790    22.1710    20.3700    25.3030     2.1890   -35.9690 
  216.0000    66.9190    23.5330    22.8880    20.7580    25.7130     2.1830   -36.1610 
  216.1250    65.3570    23.2960    22.5630    21.0300    25.9560     2.1820   -36.4030 
  216.2500    62.8320    23.0850    21.6780    21.2080    26.1000     2.1830   -36.5630 
  216.3750    62.3860    23.0020    21.4260    21.3390    26.2280     2.1800   -36.6820 
  216.5000    63.3470    23.0740    21.9440    21.4880    26.4240     2.1710   -36.9170 
  216.6250    64.7390    23.2220    22.5080    21.7600    26.8260     2.1570   -37.0320 
  216.7500    66.2180    23.3290    22.7070    22.2400    27.5350     2.1460   -37.2860 
  216.8750    65.9030    23.3680    22.7080    23.0160    28.6670     2.1410   -37.5230 
  217.0000    64.5390    23.3660    22.7040    24.1610    30.2990     2.1410   -37.8080 
  217.1250    64.7460    23.3640    24.2950    25.7790    32.5210     2.1440   -37.9850 
  217.2500    64.2710    23.3650    27.5060    27.7530    35.1360     2.1450   -38.2680 
  217.3750    62.3580    23.3650    29.9470    29.9580    37.9500     2.1430   -38.5380 
