~V
VERS. 2.00: Ver 2.00
~W
STRT.M 64.0000:
STOP.M 271.0000:
STEP.M 0.1250:
NULL. -999.2500:
UWI. DF5037:
~C
DEPT.M :
SP.MV :
GR.API :
RML.OHMM :
RI. :
RXO.OHMM :
CALI.CM :
DEN.GM/CC :
~A
# ...
  187.7500   -16.6310    54.3250   143.8840   139.1850    63.6500    22.5220     2.2090 
  187.8750   -16.4430    53.1460   128.8250   124.5870    62.0750    22.5220     2.2120 
  188.0000   -16.2640    56.3470   113.0120   108.3870    58.6450    22.5410     2.2150 
  188.1250   -16.0910    61.5310    95.7040    92.0990    50.0650    22.5910     2.2180 
  188.2500   -15.9350    62.2160    79.9550    77.2680    42.3470    22.7580     2.2220 
  188.3750   -15.7750    60.3900    66.6900    64.5110    38.6780    23.0200     2.2290 
  188.5000   -15.6210    62.2430    56.2800    54.2530    36.1060    23.3990     2.2400 
  188.6250   -15.4850    68.0810    49.0750    46.8220    32.3070    23.6890     2.2520 
  188.7500   -15.3970    74.6940    46.1890    43.2420    28.7760    23.7910     2.2640 
  188.8750   -15.3620    77.3710    48.0610    44.0150    30.8680    23.8300     2.2680 
  189.0000   -15.3900    74.5970    56.6490    51.0300    39.7380    23.8510     2.2630 
  189.1250   -15.4340    68.1970    74.3670    66.6250    56.6180    23.8530     2.2490 
  189.2500   -15.4530    59.7340   103.6770    93.3220    84.5150    23.8350     2.2340 
  189.3750   -15.4700    50.4800   138.7970   125.8960   120.9220    23.8200     2.2290 
  189.5000   -15.4540    42.5370   170.7630   156.0790   157.3160    23.8370     2.2410 
  189.6250   -15.3650    37.7240   187.7170   173.0700   179.6640    23.8650     2.2680 
  189.7500   -15.2060    39.2840   176.3200   164.8960   173.6650    23.8760     2.3000 
  189.8750   -14.9670    45.3620   145.2130   138.2840   134.6600    23.8810     2.3200 
  190.0000   -14.6510    52.0510   109.0890   105.0390    78.4860    23.9770     2.3190 
  190.1250   -14.3310    54.6110    79.5930    76.2880    38.6420    24.2160     2.3020 
  190.2500   -13.9950    53.3960    62.4330    58.5840    26.7890    24.3560     2.2820 
  190.3750   -13.6410    56.3250    55.1540    50.0060    24.1750    24.2130     2.2700 
  190.5000   -13.2860    60.4040    56.8590    49.2220    27.5590    23.8310     2.2670 
  190.6250   -12.9320    58.1660    65.4380    55.0820    36.7400    23.4730     2.2650 
  190.7500   -12.5120    51.8680    79.4110    66.5530    51.2060    23.3400     2.2590 
  190.8750   -12.0310    50.9230    94.1470    79.6750    66.6200    23.3170     2.2490 
  191.0000   -11.4900    55.3020   105.5240    90.8270    78.1370    23.3170     2.2420 
  191.1250   -10.8550    59.5870   110.4680    97.0100    79.9440    23.3170     2.2410 
  191.2500   -10.1330    61.7240   107.9690    96.6430    71.0130    23.3160     2.2530 
  191.3750    -9.3490    62.8390   101.9310    92.5540    62.5030    23.3060     2.2790 
  191.5000    -8.4930    63.1420    93.9280    86.1120    56.7910    23.2840     2.3220 
  191.6250    -7.5870    63.2500    82.9380    76.8770    54.7190    23.2660     2.3820 
  191.7500    -6.6910    62.7580    67.1290    62.9930    54.1600    23.2600     2.4520 
  191.8750    -5.8500    61.4900    48.5700    46.1890    52.5870    23.2520     2.5170 
  192.0000    -5.0820    58.5650    31.5070    29.9660    44.3320    23.2460     2.5610 
  192.1250    -4.3930    54.7640    19.3140    17.6050    23.3390    23.2620     2.5760 
  192.2500    -3.8240    50.0070    11.7140    10.5680     9.8930    23.2430     2.5600 
  192.3750    -3.3370    45.3590     7.6210     6.7780     5.0060    23.0960     2.5260 
  192.5000    -2.9500    41.9820     5.6520     4.9560     3.9120    22.8030     2.4760 
  192.6250    -2.6760    40.6540     4.8690     4.2310     3.7010    22.4910     2.4130 
  192.7500    -2.5310    40.5330     4.7610     4.1300     3.6600    22.2670     2.3420 
  192.8750    -2.4890    42.4830     4.8790     4.2400     3.6010    22.2950     2.2780 
  193.0000    -2.5300    45.6900     5.0470     4.3950     3.5220    22.3510     2.2350 
  193.1250    -2.6260    46.0950     5.1850     4.5240     3.4030    22.4180     2.2220 
  193.2500    -2.7660    41.6890     5.2940     4.6240     3.1980    22.5930     2.2410 
  193.3750    -2.9390    37.3620     5.4150     4.7360     3.1410    22.9190     2.2740 
  193.5000    -3.1450    39.3660     5.5700     4.8790     3.3720    23.2210     2.3050 
  193.6250    -3.3870    47.6580     5.7540     5.0500     3.8980    23.2390     2.3250 
  193.7500    -3.6500    57.3180     5.9400     5.2220     4.6800    23.1630     2.3340 
  193.8750    -3.9110    62.8130     6.0980     5.3680     5.1920    23.1090     2.3400 
  194.0000    -4.1670    61.3660     6.2180     5.4800     5.3050    23.0440     2.3490 
  194.1250    -4.4290    57.0110     6.3170     5.5710     5.3420    22.9270     2.3630 
  194.2500    -4.7040    57.6400     6.4420     5.6850     5.5200    22.8160     2.3800 
  194.3750    -5.0290    66.7340     6.6170     5.8500     5.8040    22.7630     2.3980 
  194.5000    -5.4360    81.8760     6.8430     6.0710     6.1990    22.7710     2.4150 
  194.6250    -5.8730    93.8760     7.1080     6.3240     6.7150    22.8510     2.4310 
  194.7500    -6.3340    96.4070     7.3820     6.5640     7.3010    22.9670     2.4420 
  194.8750    -6.8270    97.8900     7.6660     6.7590     7.6960    23.0630     2.4470 
  195.0000    -7.3490   103.8040     7.9620     6.9150     7.8320    23.0890     2.4470 
  195.1250    -7.9040   112.0150     8.3170     7.0720     7.8950    23.0670     2.4410 
  195.2500    -8.4600   117.1180     8.6820     7.2930     8.0690    23.0010     2.4320 
  195.3750    -8.9770   118.5890     8.9670     7.5910     8.4350    22.8620     2.4210 
  195.5000    -9.4210   116.2320     9.2890     7.9390     9.0870    22.6900     2.4100 
  195.6250    -9.8180   112.4550     9.6070     8.2710     9.9230    22.5730     2.4000 
  195.7500   -10.1640   111.0930     9.8620     8.4880    10.3660    22.5130     2.3910 
  195.8750   -10.4670   109.8920     9.9080     8.5670    10.2540    22.5370     2.3790 
  196.0000   -10.7480   106.1740     9.8140     8.5290     9.9820    22.7470     2.3670 
  196.1250   -10.9820   102.2040     9.6920     8.4400     9.6820    23.1540     2.3550 
  196.2500   -11.1800   102.5360     9.6620     8.3830     9.5600    23.4070     2.3480 
  196.3750   -11.3440   104.2760     9.7430     8.4020     9.6860    23.4060     2.3500 
  196.5000   -11.4580   104.0000     9.8980     8.4920     9.9840    23.2960     2.3590 
  196.6250   -11.5170   100.9990    10.0640     8.6200    10.3540    23.2180     2.3720 
  196.7500   -11.5370    98.7140    10.1650     8.7280    10.5580    23.2450     2.3840 
  196.8750   -11.5100    99.7880    10.1730     8.7710    10.4310    23.3680     2.3910 
  197.0000   -11.4470   101.4500    10.0850     8.7270    10.1480    23.5750     2.3910 
  197.1250   -11.3630    99.1190     9.9140     8.5940     9.8310    23.7850     2.3850 
  197.2500   -11.2800    98.0830     9.6830     8.3880     9.5910    23.9370     2.3720 
  197.3750   -11.2310   100.7860     9.4520     8.1650     9.3490    24.0020     2.3490 
  197.5000   -11.2460   101.5170     9.2710     7.9690     9.1340    24.0410     2.3160 
  197.6250   -11.3430    99.2570     9.1860     7.8390     8.9180    24.0090     2.2760 
  197.7500   -11.5250   101.7760     9.2580     7.8230     8.8100    23.8260     2.2450 
  197.8750   -11.7540   109.4050     9.5000     7.9340     9.0570    23.6140     2.2340 
  198.0000   -11.9870   114.3240     9.9620     8.2080     9.6420    23.4660     2.2440 
  198.1250   -12.2200   112.6920    10.7220     8.6970    10.3400    23.3640     2.2710 
  198.2500   -12.3890   107.7660    11.9160     9.5070    11.2970    23.2300     2.3030 
  198.3750   -12.4930   103.1160    13.4570    10.5960    12.7630    23.1400     2.3320 
  198.5000   -12.5160   101.4360    15.1690    11.8670    14.9520    23.1380     2.3580 
  198.6250   -12.4500   101.2700    16.7600    13.1340    17.4810    23.2360     2.3820 
  198.7500   -12.2690    98.5690    17.7920    14.0910    19.3830    23.4300     2.4030 
  198.8750   -12.0060    95.7400    18.1270    14.5870    19.5650    23.6050     2.4180 
