~V
VERS. 2.00: Ver 2.00
~W
STRT.M 53.0000:
STOP.M 257.0000:
STEP.M 0.1250:
NULL. -999.2500:
UWI. DF5014:
~C
DEPT.M :
GR.API :
RML.OHMM :
RI. :
RXO.OHMM :
CALI.CM :
DEN.GM/CC :
SP.MV :
~A
# ...
  244.2500    63.2990   116.3630   102.7230    84.0420    24.1630     2.2400    -8.8120 
  244.3750    62.5510   131.5070   117.1180   105.3150    24.1980     2.2490    -8.8360 
  244.5000    65.3130   142.7460   128.8980   129.2490    24.2320     2.2570    -8.8270 
  244.6250    66.4050   147.3700   135.2450   146.2310    24.2590     2.2600    -8.8270 
  244.7500    63.1140   145.2290   135.3460   143.9630    24.2620     2.2530    -8.8060 
  244.8750    59.7890   138.9450   130.7270   119.8060    24.2340     2.2320    -8.8400 
  245.0000    59.2670   133.2930   125.6800   102.0910    24.1830     2.2110    -8.9100 
  245.1250    58.9750   130.0390   122.2690    99.9870    24.1510     2.2060    -9.0080 
  245.2500    57.6010   128.4260   120.4610   104.0970    24.1620     2.2300    -9.1000 
  245.3750    57.6780   125.5970   118.0810   104.5180    24.2110     2.2810    -9.2130 
  245.5000    59.1110   118.6600   112.6950    99.8410    24.1660     2.3320    -9.2980 
  245.6250    60.3260   106.7970   103.2560    93.2680    24.0510     2.3600    -9.3240 
  245.7500    60.4990    91.6020    90.6220    84.5670    23.9870     2.3550    -9.2890 
  245.8750    60.8320    76.9770    77.6990    74.2590    23.9940     2.3330    -9.1580 
  246.0000    62.1140    67.6420    67.6780    65.5990    23.9860     2.3190    -8.9660 
  246.1250    63.7830    63.1830    62.2240    57.9330    23.9530     2.3190    -8.7190 
  246.2500    64.4590    63.8650    61.8930    49.2050    23.8780     2.3250    -8.4480 
  246.3750    64.7040    69.8610    67.1110    47.8980    23.6720     2.3240    -8.1870 
  246.5000    65.3860    79.2140    75.9690    52.6670    23.4820     2.3120    -8.0110 
  246.6250    66.2000    90.4530    86.9620    61.3880    23.5730     2.2950    -7.9320 
  246.7500    67.0180   101.9340    98.3340    71.8590    23.7540     2.2810    -7.9960 
  246.8750    66.9670   111.8400   108.1170    80.1180    23.8890     2.2750    -8.2030 
  247.0000    66.9670   119.6070   115.6280    89.3470    24.0420     2.2720    -8.5490 
  247.1250    66.9670   125.2700   120.8400   102.7120    24.1520     2.2690    -8.9920 
  247.2500    66.9670   129.0950   123.9990   116.2090    24.1950     2.2650    -9.4800 
  247.3750    66.9670   130.9630   125.0040   120.4930    24.2000     2.2610    -9.9560 
  247.5000    66.9670   131.1150   124.2510   115.1780    24.1910     2.2590   -10.4110 
  247.6250    66.9670   129.2600   121.6790   105.3330    24.1690     2.2590   -10.8200 
  247.7500    66.9670   124.7130   116.9240    98.4840    24.1450     2.2600   -11.1590 
  247.8750    66.9670   116.0370   108.9170    96.9770    24.1450     2.2610   -11.4170 
  248.0000    66.9670   104.0780    98.1970    97.5420    24.1660     2.2650   -11.5930 
  248.1250    66.9670    90.6220    86.0230    94.6400    24.1840     2.2760   -11.7270 
  248.2500    66.9670    78.2570    74.4700    85.4550    24.1770     2.2970   -11.8490 
  248.3750    66.9670    70.0480    66.3400    66.3610    24.1210     2.3260   -11.9720 
  248.5000    66.9670    66.6140    62.5300    55.3510    24.0310     2.3560   -12.0570 
  248.6250    66.9670    67.8860    63.1780    56.7420    23.9350     2.3840   -12.0920 
  248.7500    66.9670    72.9010    67.4950    64.8400    23.9510     2.4080   -12.0640 
  248.8750    66.9670    79.8870    73.9330    71.2040    24.0420     2.4290   -11.9680 
  249.0000    66.9670    85.9870    79.7980    71.5190    24.1120     2.4460   -11.8290 
  249.1250    66.9670    89.2740    83.2030    67.6780    24.0790     2.4520   -11.6400 
  249.2500    66.9670    88.9520    83.1850    58.9240    24.0270     2.4410   -11.3680 
  249.3750    66.9670    85.0840    79.4300    49.9610    24.0760     2.4230   -11.0690 
  249.5000    66.9670    78.7200    72.9120    48.6810    24.1760     2.4170   -10.7550 
  249.6250    66.9670    69.5370    63.5890    58.6840    24.2700     2.4360   -10.4780 
  249.7500    66.9670    57.6870    51.9700    77.5290    24.1680     2.4800   -10.2090 
  249.8750    66.9670    47.4550    42.3230    93.1780    24.0690     2.5320    -9.9580 
  250.0000    66.9670    36.6490    32.4270   105.5130    23.9970     2.5740    -9.7550 
  250.1250    66.9670    29.2600    25.7570    87.1500    23.9810     2.6010    -9.5800 
  250.2500    66.9670    25.1910    22.0860    42.4920    23.9860     2.6190    -9.4160 
  250.3750    66.9670    23.4880    20.5320    15.3720    24.0060     2.6310    -9.2240 
  250.5000    66.9670    23.1250    20.1910     7.9140    23.9670     2.6260    -9.0630 
  250.6250    66.9670    23.0860    20.1480     6.5110    23.8830     2.5910    -8.8970 
  250.7500    66.9670    23.0960    20.1470     6.3940    23.7660     2.5250    -8.7640 
  250.8750    66.9670    23.1110    20.1470     6.3790    23.6860     2.4440    -8.6300 
  251.0000    66.9670    23.1240    20.1450     6.0380    23.6660     2.3720    -8.4800 
  251.1250    66.9670    23.1310    20.1430     5.5080    23.6730     2.3230    -8.3310 
  251.2500    66.9670    23.1300    20.1410     5.1170    23.6780     2.3000    -8.2520 
  251.3750    66.9670    23.1210    20.1400     5.0090    23.6770     2.3020    -8.2380 
  251.5000    66.9670    23.1110    20.1400     5.1410    23.6770     2.3150    -8.2060 
  251.6250    66.9670    23.1060    20.1400     5.3930    23.6760     2.3350    -8.1190 
  251.7500    66.9670    23.1070    20.1410     5.6470    23.6780     2.3530    -7.8920 
  251.8750    66.9670    23.1110    20.1420     5.8170    23.6800     2.3630    -7.6330 
  252.0000    66.9670    23.1130    20.1430     5.8680    23.6590     2.3610    -7.3800 
  252.1250    66.9670    23.1090    20.1430     5.8350    23.6160     2.3520    -7.1500 
  252.2500    66.9670    23.1000    20.1430     5.7530    23.5960     2.3420    -6.9160 
  252.3750    66.9670    23.0910    20.1430     5.6640    23.6420     2.3370    -6.7140 
  252.5000    66.9670    23.0850    20.1440     5.5750    23.7090     2.3390    -6.5230 
  252.6250    66.9670    23.0830    20.1460     5.4900    23.7360     2.3460    -6.2950 
  252.7500    66.9670    23.0830    20.1460     5.3520    23.7410     2.3520    -6.1910 
  252.8750    66.9670    23.0830    20.1460     5.1870    23.7410     2.3560    -6.2250 
  253.0000    66.9670    23.0830    20.1460     5.0950    23.7410     2.3580    -6.3160 
  253.1250    66.9670    23.0830    20.1460     5.0620    23.7410     2.3570    -6.4200 
  253.2500    66.9670    23.0830    20.1460     5.0390    23.7370     2.3520    -6.4630 
  253.3750    66.9670    23.0830    20.1460     5.0070    23.7220     2.3440    -6.4790 
  253.5000    66.9670    23.0830    20.1460     5.0110    23.6930     2.3390    -6.5430 
  253.6250    66.9670    23.0830    20.1460     5.0720    23.6740     2.3410    -6.6300 
  253.7500    66.9670    23.0830    20.1460     5.2200    23.6560     2.3520    -6.6770 
  253.8750    66.9670    23.0830    20.1460     5.4490    23.6190     2.3690    -6.6520 
  254.0000    66.9670    23.0830    20.1460     5.8330    23.5950     2.3840    -6.5980 
  254.1250    66.9670    23.0830    20.1460     6.3330    23.5870     2.3900    -6.5390 
  254.2500    66.9670    23.0830    20.1460     6.8850    23.5920     2.3860    -6.5100 
  254.3750    66.9670    23.0830    20.1460     7.5420    23.5840     2.3740    -6.5270 
  254.5000    66.9670    23.0830    20.1460     7.8900    23.5380     2.3660    -6.5260 
  254.6250    66.9670    23.0830    20.1460     7.7080    23.0970     2.3630    -6.5200 
  254.7500    66.9670    23.0830    20.1460     7.0580    21.6410     2.3630    -6.5720 
  254.8750    66.9670    23.0830    20.1460     6.1990    19.0240     2.3500    -6.6510 
  255.0000    66.9670    23.0830    20.1460     5.6560    17.6390     2.3200    -6.7210 
  255.1250    66.9670    23.0830    20.1460     5.4600    17.1980     2.2760    -6.7630 
  255.2500    66.9670    23.0830    20.1460     5.4310    17.1780     2.2320    -6.8190 
  255.3750    66.9670    23.0830    20.1460     5.4300    17.1780     2.1990    -6.8440 
