~V
VERS. 2.00: Ver 2.00
~W
STRT.M 59.0000:
STOP.M 275.0000:
STEP.M 0.1250:
NULL. -999.2500:
UWI. DF5021:
~C
DEPT.M :
SP.MV :
GR.API :
CALI.CM :
RXO.OHMM :
RI. :
RML.OHMM :
DEN.GM/CC :
~A
# ...
  216.5000   -25.8900    73.8090    25.5720   272.0410   215.8630   232.4680     2.1780 
  216.6250   -26.1060    75.6150    25.5570   263.7500   208.3000   224.3310     2.1770 
  216.7500   -26.2620    75.1600    25.5460   249.0110   195.5190   210.5790     2.1820 
  216.8750   -26.2550    74.8810    25.5440   230.0450   178.9460   192.7460     2.1850 
  217.0000   -26.3740    74.7330    25.5430   203.6350   161.3130   173.7720     2.1770 
  217.1250   -26.5740    72.8270    25.5360   172.5600   144.3890   155.5630     2.1610 
  217.2500   -26.5740    69.1860    25.5250   142.1030   129.5150   139.5580     2.1550 
  217.3750   -26.6050    66.9420    25.4790   120.8410   117.9610   127.1260     2.1760 
  217.5000   -26.8090    67.9220    25.3790   108.9390   109.3590   117.8700     2.2070 
  217.6250   -26.8370    71.1990    25.2860   103.6590   103.4000   111.4580     2.2250 
  217.7500   -26.8330    74.2310    25.3090   102.0310    99.5690   107.3360     2.2250 
  217.8750   -27.0140    74.7690    25.4170   101.7930    97.5960   105.2130     2.2150 
  218.0000   -27.1250    73.9560    25.4630   100.5130    96.8840   104.4470     2.2080 
  218.1250   -27.0420    73.1300    25.4720    97.2360    97.2590   104.8510     2.2110 
  218.2500   -27.0750    72.3880    25.4900    93.5270    98.6890   106.3900     2.2230 
  218.3750   -27.1190    70.8090    25.5160    93.8790   101.6590   109.5850     2.2420 
  218.5000   -26.9490    69.4310    25.5210    99.6710   106.3660   114.6500     2.2570 
  218.6250   -26.8320    69.6360    25.5110   109.0280   113.1380   121.9360     2.2570 
  218.7500   -26.8090    70.6420    25.4740   120.6680   122.2270   131.7160     2.2440 
  218.8750   -26.6070    70.0700    25.3870   134.4540   134.3990   144.8130     2.2300 
  219.0000   -26.2970    68.0010    25.2690   146.2680   149.2870   160.8320     2.2260 
  219.1250   -26.1780    66.3300    25.1750   159.9700   166.5430   179.4010     2.2320 
  219.2500   -26.0370    65.4100    25.1270   180.9140   185.2990   199.5820     2.2450 
  219.3750   -25.7600    63.8870    25.1210   214.2150   203.5790   219.2510     2.2570 
  219.5000   -25.6090    61.8040    25.1510   245.6520   218.8630   235.6970     2.2620 
  219.6250   -25.5480    60.2300    25.1400   269.7870   228.8660   246.4600     2.2560 
  219.7500   -25.3080    59.3500    25.0720   284.1270   231.9270   249.7540     2.2360 
  219.8750   -25.1150    58.7300    25.0590   291.2660   226.4330   243.8420     2.2080 
  220.0000   -25.1250    58.7300    25.1090   290.0780   214.9240   231.4580     2.1850 
  220.1250   -25.0170    59.5600    25.1580   274.4160   199.5640   214.9310     2.1710 
  220.2500   -24.8450    60.7600    25.1420   242.8140   182.4830   196.5520     2.1660 
  220.3750   -24.8520    60.9660    25.0390   202.3550   165.6430   178.4320     2.1680 
  220.5000   -24.8030    59.5170    24.9590   168.2830   150.2540   161.8740     2.1760 
  220.6250   -24.6360    57.1450    24.9190   146.9080   136.8590   147.4600     2.1860 
  220.7500   -24.6690    55.8490    24.8900   134.7370   125.6330   135.3810     2.1940 
  220.8750   -24.7080    57.3010    24.8450   123.3340   116.8030   125.8800     2.1970 
  221.0000   -24.5430    59.6310    24.8060   110.8880   109.7870   118.3310     2.1990 
  221.1250   -24.4900    61.2040    24.8110   100.3840   104.2370   112.3580     2.2010 
  221.2500   -24.5290    61.9910    24.7890    94.7470    99.7110   107.4890     2.1980 
  221.3750   -24.3890    63.5870    24.6780    93.9020    95.8520   103.3370     2.1970 
  221.5000   -24.2980    66.5710    24.5440    92.5140    92.2480    99.4590     2.2060 
  221.6250   -24.3360    70.0390    24.3600    87.3530    88.7760    95.7220     2.2250 
  221.7500   -24.1850    72.3480    24.1080    78.4280    85.4260    92.1180     2.2460 
  221.8750   -24.0030    71.7790    23.8690    68.0750    82.4020    88.8640     2.2550 
  222.0000   -24.0170    69.4780    23.6320    58.3720    79.8890    86.1600     2.2500 
  222.1250   -23.9610    67.1230    23.4650    50.8490    78.0530    84.1850     2.2370 
  222.2500   -23.7750    65.5120    23.3870    46.7400    76.9850    83.0360     2.2250 
  222.3750   -23.7470    63.8990    23.3730    46.3090    76.7390    82.7710     2.2130 
  222.5000   -23.7430    61.9120    23.3330    46.6360    77.0470    83.1030     2.2020 
  222.6250   -23.5500    60.2850    23.2690    46.7290    77.7960    83.9080     2.2010 
  222.7500   -23.5080    59.2990    23.2500    47.4950    78.9750    85.1770     2.2110 
  222.8750   -23.5770    58.5920    23.4210    51.3040    80.8030    87.1440     2.2190 
  223.0000   -23.4700    58.0730    23.8020    57.6570    83.3650    89.9000     2.2110 
  223.1250   -23.3240    58.1930    24.2610    65.9760    86.7390    93.5310     2.1930 
  223.2500   -23.3260    59.3220    24.5950    76.3260    90.8450    97.9490     2.1800 
  223.3750   -23.2010    61.4570    24.8500    89.8080    95.4810   102.9380     2.1790 
  223.5000   -23.0350    63.5960    25.0620   105.8160   100.1050   107.9120     2.1850 
  223.6250   -23.0560    64.1860    25.1930   124.1850   104.1100   112.2220     2.1920 
  223.7500   -22.9400    62.4520    25.2210   140.7340   106.8440   115.1640     2.1990 
  223.8750   -22.7090    59.5200    25.1930   143.6700   107.5500   115.9240     2.2060 
  224.0000   -22.6560    58.1100    25.1980   133.6710   106.5600   114.8590     2.2130 
  224.1250   -22.6750    59.3040    25.2150   121.1820   104.2230   112.3440     2.2140 
  224.2500   -22.5860    61.7660    25.2090   115.8230   100.8940   108.7620     2.2100 
  224.3750   -22.6650    62.9260    25.1740   115.7090    96.8420   104.4020     2.2060 
  224.5000   -22.8100    62.4960    25.1690   110.3790    92.5050    99.7360     2.2060 
  224.6250   -22.7960    61.6850    25.1930   100.4760    88.1040    94.9990     2.2080 
  224.7500   -22.9160    61.7440    25.2180    94.0010    83.7190    90.2820     2.2120 
  224.8750   -23.1720    62.7400    25.2250    94.8120    79.4920    85.7340     2.2230 
  225.0000   -23.2730    63.3610    25.2260    91.9260    75.7640    81.7220     2.2430 
  225.1250   -23.2770    62.9420    25.2310    83.6770    72.9480    78.6920     2.2630 
  225.2500   -23.4030    62.2970    25.2340    76.3410    71.2910    76.9090     2.2730 
  225.3750   -23.4030    63.1200    25.2440    73.7570    70.9070    76.4960     2.2740 
  225.5000   -23.2450    64.6950    25.2840    71.6560    71.2320    76.8460     2.2840 
  225.6250   -23.2300    66.0770    25.3470    70.2530    71.7900    77.4460     2.3080 
  225.7500   -23.1890    67.4450    25.3570    74.1600    72.1100    77.7910     2.3320 
  225.8750   -22.9750    69.5840    25.2340    82.2050    71.7730    77.4280     2.3420 
  226.0000   -22.8030    71.9510    25.0960    80.6520    70.8770    76.4630     2.3470 
  226.1250   -22.7670    73.2590    24.9940    69.5650    69.8080    75.3130     2.3620 
  226.2500   -22.5610    72.4970    24.9060    60.6520    69.1900    74.6480     2.3790 
  226.3750   -22.3460    69.5800    24.8480    60.9770    69.7890    75.2930     2.3710 
  226.5000   -22.2700    67.2250    24.8580    71.3090    71.6540    77.3000     2.3380 
  226.6250   -22.0190    67.2410    24.9000    88.2850    74.6630    80.5380     2.3070 
  226.7500   -21.6810    69.0580    24.9090   103.3910    78.3600    84.5150     2.3010 
  226.8750   -21.4630    70.2760    24.8210   107.2870    81.7910    88.2070     2.3230 
  227.0000   -21.1830    70.1520    24.7100   103.4570    83.7870    90.3550     2.3600 
  227.1250   -20.7390    69.3080    24.7560   100.0710    83.0790    89.5930     2.4150 
  227.2500   -20.4110    68.2650    24.9470   103.3530    78.6000    84.7740     2.4780 
  227.3750   -20.0410    68.0830    25.0550   111.6940    70.0980    75.6260     2.5080 
  227.5000   -19.5270    69.8300    25.0510   112.4430    60.0210    64.7830     2.4830 
  227.6250   -19.1430    73.2070    24.9780   100.0190    50.1950    54.2090     2.4200 
