~V
VERS. 2.00: Ver 2.00
~W
STRT.M 55.0000:
STOP.M 247.0000:
STEP.M 0.1250:
NULL. -999.2500:
UWI. DF5063:
~C
DEPT.M :
SP.MV :
GR.API :
RML.OHMM :
RI. :
RXO.OHMM :
CALI.CM :
DEN.GM/CC :
~A
# ...
   66.2500   -25.1970    76.5060     5.8700     5.6030     7.6690    23.5510     2.1480 
   66.3750   -24.8310    76.3330     5.9160     5.6350     7.8570    23.5110     2.1650 
   66.5000   -24.2430    75.8070     6.0730     5.7720     7.9670    23.4730     2.1900 
   66.6250   -23.4540    77.0870     6.4030     6.0600     8.2030    23.5080     2.2230 
   66.7500   -22.6020    77.3570     6.8510     6.4440     9.5230    23.6540     2.2650 
   66.8750   -21.7050    77.1620     7.3170     6.8450    12.6090    23.8900     2.3170 
   67.0000   -20.7840    78.6830     7.6600     7.1460    15.1150    24.0860     2.3670 
   67.1250   -19.9860    80.4220     7.7050     7.1990    15.2290    24.0720     2.3950 
   67.2500   -19.4100    78.7940     7.4630     7.0080    12.7820    23.9430     2.3960 
   67.3750   -19.1830    76.7420     7.0230     6.6400     9.7370    23.7980     2.3750 
   67.5000   -19.3900    77.7160     6.5410     6.2140     7.3380    23.6950     2.3330 
   67.6250   -20.0610    80.3690     6.2030     5.8770     6.6260    23.6040     2.2780 
   67.7500   -20.9040    79.8770     6.0700     5.6800     6.6690    23.5040     2.2290 
   67.8750   -21.7160    74.9970     6.1230     5.6160     7.1440    23.3890     2.1960 
   68.0000   -22.3700    70.5710     6.2830     5.6310     7.4450    23.3310     2.1780 
   68.1250   -22.7120    71.7310     6.4200     5.6420     7.5330    23.3680     2.1770 
   68.2500   -22.6910    74.9720     6.4230     5.5760     7.5580    23.4410     2.1880 
   68.3750   -22.3430    78.3580     6.2490     5.4040     7.4130    23.5470     2.2090 
   68.5000   -21.6860    83.4450     5.9230     5.1330     7.1500    23.7040     2.2320 
   68.6250   -20.7360    90.8670     5.5540     4.8220     6.6150    23.9090     2.2480 
   68.7500   -19.7040    95.8600     5.3330     4.5930     6.4630    24.0780     2.2570 
   68.8750   -18.7230    95.0330     5.4550     4.5790     6.5680    24.1360     2.2640 
   69.0000   -17.9130    89.0770     6.0860     4.9110     6.7080    24.0660     2.2780 
   69.1250   -17.3950    83.4890     7.3290     5.7170     7.3730    23.8840     2.3000 
   69.2500   -17.2020    82.1310     8.8490     6.8210     9.6900    23.7350     2.3320 
   69.3750   -17.3060    84.8490    10.2190     7.9570    16.3600    23.6240     2.3790 
   69.5000   -17.6810    89.1840    10.9710     8.7720    26.3950    23.6160     2.4360 
   69.6250   -18.3400    93.4930    10.6710     8.8550    24.6980    23.5800     2.4630 
   69.7500   -19.2800    95.0370     9.6640     8.3200    15.4730    23.4830     2.4240 
   69.8750   -20.4920    93.8710     8.4490     7.4670     9.1510    23.3270     2.3300 
   70.0000   -21.8710    93.7770     7.4900     6.6490     7.1730    23.1640     2.2310 
   70.1250   -23.2670    93.6220     7.0660     6.1370     7.8680    23.0370     2.1730 
   70.2500   -24.5750    88.8070     7.0100     5.9110     8.5570    23.0330     2.1510 
   70.3750   -25.7640    81.4040     7.1290     5.8890     8.7750    23.1540     2.1500 
   70.5000   -26.8000    77.9560     7.2430     5.9610     8.6540    23.3400     2.1530 
   70.6250   -27.6250    79.3460     7.2220     6.0250     8.4270    23.4570     2.1510 
   70.7500   -28.2180    79.5860     7.0850     6.0360     8.1640    23.4850     2.1470 
   70.8750   -28.5860    78.2520     6.8950     6.0000     8.0200    23.4880     2.1450 
   71.0000   -28.7410    77.4800     6.7220     5.9450     8.0830    23.4910     2.1480 
   71.1250   -28.6030    76.6050     6.6460     5.9060     8.1960    23.4820     2.1590 
   71.2500   -28.1770    75.9660     6.6810     5.9000     8.2530    23.4890     2.1760 
   71.3750   -27.4130    78.6870     6.8040     5.9210     8.3490    23.6110     2.2020 
   71.5000   -26.4030    85.4490     6.9500     5.9440     9.1760    23.9110     2.2410 
   71.6250   -25.2800    90.6910     7.0080     5.9240     9.9000    24.2790     2.2870 
   71.7500   -24.1100    90.9840     6.9270     5.8440     8.8240    24.4220     2.3140 
   71.8750   -22.9650    89.1160     6.7170     5.7050     6.8140    24.4080     2.3000 
   72.0000   -21.9330    90.2540     6.4450     5.5350     5.9490    24.3050     2.2530 
   72.1250   -21.1570    93.9120     6.2080     5.3760     5.8870    24.2090     2.2120 
   72.2500   -20.7060    94.5090     6.0480     5.2570     6.0560    24.0790     2.1960 
   72.3750   -20.7160    90.0780     5.9490     5.1820     5.9430    24.0590     2.1990 
   72.5000   -21.0850    85.4740     5.8630     5.1370     5.8080    24.0290     2.2090 
   72.6250   -21.6920    85.8370     5.7470     5.1050     5.9680    23.8630     2.2160 
   72.7500   -22.4140    86.5700     5.6440     5.0960     6.3610    23.7520     2.2150 
   72.8750   -23.1480    86.5770     5.6680     5.1690     6.8970    23.7340     2.2080 
   73.0000   -23.8190    86.2260     5.9640     5.4230     7.3880    23.7900     2.2020 
   73.1250   -24.3130    82.8430     6.6870     5.9890     7.4640    23.8630     2.2060 
   73.2500   -24.5400    74.7660     7.6910     6.7940     8.2360    23.9570     2.2220 
   73.3750   -24.3780    67.5580     8.7100     7.6620    11.0330    24.0470     2.2480 
   73.5000   -23.8470    67.6140     9.3820     8.3120    18.6170    24.0840     2.2930 
   73.6250   -22.9730    77.9270     9.2760     8.3560    26.0520    24.2070     2.3620 
   73.7500   -21.9150    93.0510     8.4870     7.7970    19.6520    24.2410     2.4230 
   73.8750   -20.7600   107.1180     7.3180     6.8360     9.3140    24.2070     2.4390 
   74.0000   -19.6080   114.4640     6.1700     5.8020     5.1800    24.0940     2.4150 
   74.1250   -18.6770   113.8500     5.3840     5.0070     4.4340    24.0210     2.3870 
   74.2500   -18.0120   111.4870     4.9300     4.4940     4.5560    24.0350     2.3770 
   74.3750   -17.6190   110.1410     4.6820     4.2050     4.6720    24.1170     2.3730 
   74.5000   -17.4620   111.0680     4.5020     4.0450     4.7700    24.2150     2.3640 
   74.6250   -17.5150   114.0100     4.3280     3.9470     5.0260    24.2390     2.3460 
   74.7500   -17.6640   114.9550     4.2610     3.9270     5.3730    24.1930     2.3290 
   74.8750   -17.8890   112.2400     4.5250     4.1240     5.6330    24.0590     2.3270 
   75.0000   -18.1930   106.7470     5.3800     4.7410     5.6920    23.8890     2.3480 
   75.1250   -18.5490   101.0310     7.0960     6.0480     7.3240    23.8310     2.3910 
   75.2500   -18.9860    93.2860     9.3710     7.8980    13.4970    23.8480     2.4450 
   75.3750   -19.5420    82.3050    11.6990     9.9600    24.6620    23.8800     2.4920 
   75.5000   -20.2920    72.5710    13.3780    11.6770    27.3350    23.8550     2.5060 
   75.6250   -21.2110    69.6850    13.5490    12.2670    18.3250    23.7310     2.4530 
   75.7500   -22.2200    69.6310    12.4460    11.7420    11.4600    23.5310     2.3590 
   75.8750   -23.3100    67.1330    10.7580    10.5540     8.9470    23.4090     2.2630 
   76.0000   -24.4210    61.8120     9.2770     9.3260     8.3420    23.5750     2.1930 
   76.1250   -25.4700    58.1260     8.5170     8.5130     8.2390    23.8210     2.1590 
   76.2500   -26.4030    58.7880     8.2920     8.0840     8.3050    23.8750     2.1430 
   76.3750   -27.1720    61.9930     8.3470     7.9070     8.4980    23.6520     2.1380 
   76.5000   -27.7020    63.7280     8.4480     7.8320     8.7240    23.3630     2.1400 
   76.6250   -28.0730    62.9610     8.4530     7.7640     8.7350    23.0740     2.1490 
   76.7500   -28.3990    63.8080     8.4480     7.7310     8.5580    22.8200     2.1650 
   76.8750   -28.6230    66.2380     8.6340     7.8630     8.5080    22.7090     2.1850 
   77.0000   -28.7270    66.3980     9.2150     8.3100     8.7530    22.8550     2.2110 
   77.1250   -28.7570    62.6600    10.3070     9.1780     9.3790    23.0390     2.2410 
   77.2500   -28.7750    59.7670    11.5910    10.2400    11.8890    23.2070     2.2700 
   77.3750   -28.8710    60.0100    12.6430    11.1750    19.0460    23.4070     2.2960 
