~V
VERS. 2.00: Ver 2.00
~W
STRT.M 55.0000:
STOP.M 253.0000:
STEP.M 0.1250:
NULL. -999.2500:
UWI. DF5051:
~C
DEPT.M :
SP.MV :
GR.API :
RML.OHMM :
RI. :
RXO.OHMM :
CALI.CM :
DEN.GM/CC :
~A
# ...
  156.2500   -17.8740    74.4360    49.0440    46.8060    49.8350    24.5450     2.2760 
  156.3750   -17.9130    75.4370    45.0710    42.6390    43.7740    24.4250     2.2870 
  156.5000   -17.9780    77.0840    43.1910    40.2730    38.9090    24.3900     2.2930 
  156.6250   -17.9990    78.7340    44.0940    40.4670    39.8470    24.5090     2.2910 
  156.7500   -18.0510    78.7460    47.1200    42.7760    44.3750    24.6570     2.2830 
  156.8750   -18.0940    76.1750    51.6290    46.7690    49.7100    24.7580     2.2750 
  157.0000   -18.1670    71.3620    56.7170    51.7220    54.5670    24.8010     2.2710 
  157.1250   -18.2380    67.4550    61.2010    56.5880    59.0630    24.8080     2.2690 
  157.2500   -18.2710    67.0180    64.4110    60.4950    62.6330    24.8060     2.2660 
  157.3750   -18.3030    67.0690    66.2250    63.1100    65.7490    24.8000     2.2580 
  157.5000   -18.3130    66.1140    66.8980    64.5030    68.9290    24.7840     2.2470 
  157.6250   -18.3560    66.0200    66.6130    64.7180    68.0530    24.7420     2.2380 
  157.7500   -18.3440    66.1650    65.5260    63.9370    63.8560    24.6770     2.2330 
  157.8750   -18.3090    65.2170    63.4000    61.9620    60.9900    24.5740     2.2350 
  158.0000   -18.2160    63.4850    60.0080    58.6010    60.2900    24.4280     2.2430 
  158.1250   -18.1330    64.6340    55.3490    53.8620    58.4350    24.3720     2.2560 
  158.2500   -18.0870    67.0580    50.3880    48.7330    52.8750    24.4890     2.2730 
  158.3750   -18.0650    69.1690    46.1330    44.1890    45.1710    24.7070     2.2890 
  158.5000   -18.0510    71.8020    43.5540    41.1370    39.2180    24.8520     2.3020 
  158.6250   -18.0160    72.9370    43.8270    40.6460    38.0840    24.9000     2.3080 
  158.7500   -18.0750    70.0210    46.8300    42.6620    41.5320    24.9300     2.3080 
  158.8750   -18.1670    64.1740    52.4410    47.1630    48.0130    24.9560     2.3030 
  159.0000   -18.2950    60.6790    60.3420    53.9500    54.3440    24.9900     2.2950 
  159.1250   -18.4280    63.1180    70.4320    62.9960    61.0830    24.9990     2.2860 
  159.2500   -18.5510    65.9060    82.0750    73.6170    69.6770    24.9780     2.2790 
  159.3750   -18.6840    66.1240    95.0350    85.4950    80.6100    24.9350     2.2740 
  159.5000   -18.7890    64.3940   108.8620    98.1370    94.5690    24.8900     2.2710 
  159.6250   -18.8700    62.4360   122.1830   110.2450   114.4750    24.8750     2.2680 
  159.7500   -18.8410    61.3810   132.8910   119.9070   132.6590    24.8650     2.2620 
  159.8750   -18.7800    61.8050   138.9510   125.3060   143.5910    24.8560     2.2540 
  160.0000   -18.7400    63.4680   139.2190   125.4540   143.9570    24.8410     2.2510 
  160.1250   -18.6460    64.7690   133.4220   120.1570   135.5140    24.8410     2.2580 
  160.2500   -18.5570    63.5850   124.6080   112.1570   116.8440    24.8260     2.2730 
  160.3750   -18.4140    62.2120   115.1350   103.5620    99.6130    24.8100     2.2910 
  160.5000   -18.2950    62.9160   106.9230    96.1130    94.1290    24.8020     2.3050 
  160.6250   -18.1990    63.6360   101.7050    91.4110    95.6350    24.7980     2.3070 
  160.7500   -18.1330    63.5820    99.7810    89.7390    94.1130    24.8230     2.2960 
  160.8750   -18.0490    63.1110   101.5250    91.4550    89.4210    24.9270     2.2760 
  161.0000   -17.9100    62.1630   106.8290    96.5080    91.0570    25.0620     2.2550 
  161.1250   -17.8100    60.9730   114.5520   103.9720    98.7710    25.0120     2.2400 
  161.2500   -17.6720    60.5190   121.1180   110.6130   106.8180    24.8560     2.2340 
  161.3750   -17.5620    62.0350   122.7660   112.9400   112.9210    24.7320     2.2370 
  161.5000   -17.4100    64.0200   116.4480   107.9740   115.6940    24.6860     2.2460 
  161.6250   -17.2420    63.8980   100.8950    94.1150   106.3800    24.6800     2.2620 
  161.7500   -17.0560    63.3000    81.8620    76.4130    83.9560    24.6840     2.2870 
  161.8750   -16.8970    66.5930    64.6820    59.8840    54.7730    24.7100     2.3190 
  162.0000   -16.8000    75.1140    53.0610    48.2290    31.8600    24.7650     2.3500 
  162.1250   -16.6760    81.4740    49.8560    44.1760    23.3940    24.7930     2.3650 
  162.2500   -16.6040    78.6310    54.1230    46.9270    28.9200    24.8020     2.3590 
  162.3750   -16.4960    70.0390    65.2270    56.1520    46.3360    24.8020     2.3330 
  162.5000   -16.4270    62.3460    81.3560    70.6120    71.6930    24.8020     2.2980 
  162.6250   -16.3830    59.5920    98.7200    87.3910    98.3730    24.7990     2.2700 
  162.7500   -16.3780    59.7450   111.9710   101.4140   113.5320    24.7770     2.2540 
  162.8750   -16.3920    60.4490   117.3670   108.8100   104.4510    24.7220     2.2500 
  163.0000   -16.3540    62.9750   113.8370   107.8680    84.6180    24.6740     2.2500 
  163.1250   -16.3560    67.8870   102.4540    98.5830    77.5420    24.7050     2.2490 
  163.2500   -16.3020    71.1730    87.3870    84.6510    77.2980    24.7600     2.2470 
  163.3750   -16.2810    70.2150    70.7400    68.3540    73.4260    24.7820     2.2490 
  163.5000   -16.2200    67.7830    54.5560    52.1970    60.8800    24.7600     2.2630 
  163.6250   -16.1510    68.7140    41.6960    39.4050    39.1930    24.6980     2.2910 
  163.7500   -16.0550    73.4030    33.3070    31.0000    21.8050    24.6490     2.3210 
  163.8750   -15.9450    79.4240    29.7360    27.0430    15.8490    24.6020     2.3440 
  164.0000   -15.8660    83.9050    30.5130    27.0040    18.7330    24.5770     2.3500 
  164.1250   -15.7800    83.2920    34.7390    30.3450    27.0650    24.4830     2.3380 
  164.2500   -15.7410    79.9120    39.7970    35.0130    36.7880    24.4080     2.3200 
  164.3750   -15.6830    77.3800    43.5630    39.1780    43.5140    24.4200     2.3060 
  164.5000   -15.6950    76.7020    44.4230    41.0970    43.5260    24.5120     2.3030 
  164.6250   -15.6950    78.1950    41.8170    39.6470    37.3160    24.5660     2.3100 
  164.7500   -15.7220    79.6310    38.1370    36.6400    30.5520    24.5110     2.3200 
  164.8750   -15.7730    80.0780    35.5070    34.0100    26.3040    24.3700     2.3280 
  165.0000   -15.8050    79.8960    35.1460    33.0600    26.5400    24.2480     2.3300 
  165.1250   -15.8440    78.3740    37.5100    34.4360    30.4960    24.1690     2.3280 
  165.2500   -15.8690    73.1780    41.2770    37.3400    35.7880    24.0930     2.3230 
  165.3750   -15.9300    66.5550    45.5200    41.0620    39.5880    24.0560     2.3180 
  165.5000   -15.9820    65.8690    49.5260    44.8990    41.5040    24.1070     2.3120 
  165.6250   -16.0370    71.8750    52.9340    48.3360    43.7390    24.2800     2.3040 
  165.7500   -16.1130    74.3590    56.7150    51.4710    47.0080    24.4760     2.2960 
  165.8750   -16.1570    71.9920    60.5130    54.5920    50.6150    24.6110     2.2880 
  166.0000   -16.2380    70.0150    64.4570    57.8590    55.3700    24.6620     2.2810 
  166.1250   -16.3010    71.3180    68.2080    61.0130    60.8380    24.6660     2.2750 
  166.2500   -16.3780    71.8600    71.2220    63.5460    66.3720    24.6660     2.2700 
  166.3750   -16.4430    70.2140    73.1870    65.1280    67.3060    24.6660     2.2680 
  166.5000   -16.5000    68.1260    74.2610    65.8410    65.2630    24.6660     2.2680 
  166.6250   -16.5540    66.8050    75.1920    66.3050    63.9530    24.6660     2.2720 
  166.7500   -16.5890    66.2970    76.9600    67.4450    64.2890    24.6610     2.2760 
  166.8750   -16.6470    67.1640    80.0730    69.8050    66.3300    24.6470     2.2790 
  167.0000   -16.7020    69.4550    84.4040    73.3970    69.7070    24.6180     2.2800 
  167.1250   -16.8120    72.1630    89.0280    77.5650    75.6240    24.5990     2.2770 
  167.2500   -16.9030    73.6460    92.5360    81.0460    77.8720    24.5850     2.2740 
  167.3750   -17.0090    74.4370    93.9530    82.8940    76.6810    24.5850     2.2720 
