~V
VERS. 2.00: Ver 2.00
~W
STRT.M 50.0000:
STOP.M 277.0000:
STEP.M 0.1250:
NULL. -999.2500:
UWI. DF5031:
~C
DEPT.M :
DEN.GM/CC :
GR.API :
CALI.CM :
RXO.OHMM :
RI. :
RML.OHMM :
SP.MV :
~A
   50.0000  -999.2500  -999.2500  -999.2500  -999.2500  -999.2500  -999.2500    88.9080 
   50.1250  -999.2500  -999.2500  -999.2500  -999.2500  -999.2500  -999.2500    88.0410 
   50.2500  -999.2500  -999.2500  -999.2500  -999.2500  -999.2500  -999.2500    87.2090 
   50.3750  -999.2500  -999.2500  -999.2500  -999.2500  -999.2500  -999.2500    86.4630 
   50.5000  -999.2500  -999.2500  -999.2500  -999.2500  -999.2500  -999.2500    85.8450 
   50.6250  -999.2500  -999.2500  -999.2500  -999.2500  -999.2500  -999.2500    85.4840 
   50.7500  -999.2500  -999.2500  -999.2500  -999.2500  -999.2500  -999.2500    85.4490 
   50.8750  -999.2500  -999.2500  -999.2500  -999.2500  -999.2500  -999.2500    85.6200 
   51.0000  -999.2500  -999.2500  -999.2500  -999.2500  -999.2500  -999.2500    86.0100 
   51.1250  -999.2500  -999.2500  -999.2500  -999.2500  -999.2500  -999.2500    86.8180 
   51.2500  -999.2500  -999.2500  -999.2500  -999.2500  -999.2500  -999.2500    87.7850 
   51.3750  -999.2500  -999.2500  -999.2500  -999.2500  -999.2500  -999.2500    88.8300 
   51.5000  -999.2500  -999.2500  -999.2500  -999.2500  -999.2500  -999.2500    90.0420 
   51.6250  -999.2500  -999.2500  -999.2500  -999.2500  -999.2500  -999.2500    91.0990 
   51.7500  -999.2500  -999.2500  -999.2500  -999.2500  -999.2500  -999.2500    92.0030 
   51.8750  -999.2500  -999.2500  -999.2500  -999.2500  -999.2500  -999.2500    92.9260 
   52.0000  -999.2500  -999.2500  -999.2500  -999.2500  -999.2500  -999.2500    93.6780 
   52.1250  -999.2500  -999.2500  -999.2500  -999.2500  -999.2500  -999.2500    94.1610 
   52.2500  -999.2500  -999.2500  -999.2500  -999.2500  -999.2500  -999.2500    94.5800 
   52.3750  -999.2500  -999.2500  -999.2500  -999.2500  -999.2500  -999.2500    94.8440 
   52.5000  -999.2500    51.8630    25.3700    14.1080     0.0500    14.0260    94.8670 
   52.6250  -999.2500    51.8630    25.3700    14.1080     0.0500    14.0260    94.8380 
   52.7500  -999.2500    51.8630    25.3700    14.1080     0.0500    13.9860    94.7120 
   52.8750  -999.2500    53.3910    25.3700    13.9080     0.0460    15.2600    94.4940 
   53.0000  -999.2500    53.9240    25.3700    11.6540     0.0130    17.4170    94.2210 
   53.1250  -999.2500    51.1430    25.3700    10.5880    -0.0380    17.7650    93.8990 
   53.2500  -999.2500    48.8470    25.3700    11.4030    -0.0640    15.7050    93.5160 
   53.3750  -999.2500    49.3130    25.3700    12.5910    -0.0500    12.8510    93.0880 
   53.5000  -999.2500    51.2730    25.3700    13.6650    -0.0040    10.6420    92.6160 
   53.6250  -999.2500    51.3620    25.3700    15.9790     0.0490     9.5710    92.1310 
   53.7500  -999.2500    51.1020    25.3700    16.4040     0.0830     9.1420    91.6160 
   53.8750     1.9110    52.2280    25.3700    13.8050     0.0890     8.8330    91.0000 
   54.0000     1.9110    53.3870    25.3700     9.5600     0.0700     8.3370    90.3960 
   54.1250     1.8800    52.1400    25.3700     4.6610     0.0450     7.7680    89.7130 
   54.2500     1.8470    50.8340    25.3700     1.7540     0.0350     7.4460    88.9620 
   54.3750     1.8270    50.7710    25.3700     0.6940     0.0500     7.4100    88.3080 
   54.5000     1.8230    52.3320    25.3700     0.4600     0.0810     7.4660    87.7790 
   54.6250     1.8330    55.5740    25.3700     0.4510     0.1010     7.3950    87.2960 
   54.7500     1.8380    59.0880    25.3700     0.4690     0.0910     7.2050    86.9550 
   54.8750     1.8300    60.5650    25.3700     0.5090     0.0510     7.0610    86.7480 
   55.0000     1.8170    58.8150    25.3700     0.6440     0.0020     7.1100    86.5710 
   55.1250     1.8230    56.0160    25.3700     1.0240    -0.0300     7.4140    86.6230 
   55.2500     1.8470    55.2380    25.3700     1.5070    -0.0330     7.8950    86.8370 
   55.3750     1.8760    57.2370    25.3700     1.9870    -0.0110     8.3280    87.0550 
   55.5000     1.9000    60.6360    25.3700     2.3570     0.0180     8.1870    87.3030 
   55.6250     1.9190    61.6110    25.3690     3.4630     0.0260     7.0930    87.6250 
   55.7500     1.9350    60.1170    25.3650     5.2510     0.0080     5.9710    87.8770 
   55.8750     1.9480    56.3380    25.3530     6.5130    -0.0200     5.4470    88.1420 
   56.0000     1.9560    52.6000    25.3420     6.5170    -0.0340     5.7460    88.4380 
   56.1250     1.9540    51.1340    25.3390     7.2440    -0.0150     6.9800    88.6330 
   56.2500     1.9450    51.5630    25.3420    10.2680     0.0230     8.0270    88.7460 
   56.3750     1.9430    51.3700    25.3440    14.5200     0.0540     7.1590    88.7630 
   56.5000     1.9640    48.7720    25.3460    16.8060     0.0560     4.9220    88.7000 
   56.6250     2.0000    44.4740    25.3460    14.1330     0.0230     3.3800    88.4060 
   56.7500     2.0220    41.2360    25.3460    10.5930    -0.0150     2.7130    87.9710 
   56.8750     2.0290    40.8200    25.3460    13.6400    -0.0340     2.6510    87.4360 
   57.0000     2.0360    43.4020    25.3470    14.9440    -0.0310     3.0090    86.7790 
   57.1250     2.0450    46.6300    25.3500    10.0640    -0.0240     3.6750    85.8760 
   57.2500     2.0370    48.2610    25.3550     3.1430    -0.0300     4.4650    84.7600 
   57.3750     2.0090    49.9020    25.3700     1.5710    -0.0500     5.1810    83.4420 
   57.5000     1.9790    52.9200    25.4270     1.3990    -0.0700     5.2710    81.8310 
   57.6250     1.9640    55.0400    25.5460     1.9020    -0.0770     3.7160    80.0270 
   57.7500     1.9660    53.7650    25.6350     2.8070    -0.0760     1.9020    77.9000 
   57.8750     1.9750    51.0500    25.6220     3.5520    -0.0820     0.8790    75.1320 
   58.0000     1.9570    49.8930    25.5680     3.6720    -0.1020     0.4380    71.5710 
   58.1250     1.9080    51.4540    25.5520     3.1570    -0.1260     0.3360    66.7580 
   58.2500     1.9080    54.7000    25.5540     2.8610    -0.1270     0.4230    60.6370 
   58.3750     1.9950    58.7990    25.5850     3.2460    -0.0680     0.7330    53.2030 
   58.5000     2.1020    61.6470    25.8380     4.7670     0.0960     1.4110    44.6340 
   58.6250     2.1090    63.2330    27.2090     7.2600     0.4740     2.8660    35.3720 
   58.7500     2.0380    64.8180    29.8090    10.7120     1.1370     5.2350    26.1390 
   58.8750     1.9670    66.8140    32.3380    13.6730     2.1010     8.0240    17.2160 
   59.0000     1.9540    69.1080    33.3290    14.0130     3.1910     9.2880     8.9370 
   59.1250     2.0110    72.5120    32.0710    11.9400     4.0540     8.5550     1.9640 
   59.2500     2.0820    75.9300    29.2850    10.1580     4.6290     7.5460    -3.6230 
   59.3750     2.1290    76.3070    26.3460     9.2080     5.0120     6.9430    -7.6880 
   59.5000     2.1410    74.5370    24.6120     8.6480     5.2930     6.8200   -10.3940 
   59.6250     2.1320    74.3900    23.9120     8.4260     5.5070     7.1020   -12.1440 
   59.7500     2.1230    74.5050    23.5730     8.4540     5.6790     7.6070   -13.5450 
   59.8750     2.1220    72.6200    23.4840     8.5120     5.8050     8.1730   -14.6080 
   60.0000     2.1310    71.5330    23.4470     8.5200     5.8840     8.6440   -15.5240 
   60.1250     2.1490    76.3230    23.5430     8.5660     5.9140     8.8620   -16.3160 
   60.2500     2.1650    81.0420    23.6450     8.6200     5.9050     8.8390   -17.0040 
   60.3750     2.1690    80.8140    23.6770     8.6020     5.8530     8.6550   -17.6960 
   60.5000     2.1590    76.6710    23.6510     8.5000     5.7650     8.4390   -18.2940 
   60.6250     2.1500    74.1650    23.6200     8.4320     5.6670     8.2970   -18.9270 
   60.7500     2.1470    74.6270    23.6230     8.5220     5.5940     8.2210   -19.4800 
   60.8750     2.1490    75.1350    23.6310     8.6960     5.5830     8.2120   -20.0380 
   61.0000     2.1560    73.4770    23.6450     8.8690     5.6640     8.3310   -20.5390 
   61.1250     2.1730    69.6480    23.6540     9.0800     5.8670     8.6450   -21.0190 
