~V
VERS. 2.00: Ver 2.00
~W
STRT.M 58.0000:
STOP.M 256.0000:
STEP.M 0.1250:
NULL. -999.2500:
UWI. DF5024:
~C
DEPT.M :
SP.MV :
GR.API :
CALI.CM :
RXO.OHMM :
RI. :
RML.OHMM :
DEN.GM/CC :
~A
# ...
  114.2500   -23.5330    81.3610    23.1600    11.1860     6.8980     7.6290     2.1130 
  114.3750   -22.7500    88.3000    23.2350    11.1300     6.5580     7.1750     2.1530 
  114.5000   -22.0310    97.4800    23.3110    10.3980     6.1120     6.6210     2.2100 
  114.6250   -21.4380   106.5100    23.4990     8.5690     5.6380     6.0740     2.2690 
  114.7500   -20.9750   113.3030    23.8050     6.6770     5.2200     5.6240     2.3140 
  114.8750   -20.6360   117.1560    24.0510     5.5960     4.9150     5.3270     2.3340 
  115.0000   -20.4010   117.7760    24.0690     5.4700     4.7510     5.1980     2.3210 
  115.1250   -20.2620   115.4030    23.8080     6.0080     4.7440     5.2380     2.2890 
  115.2500   -20.1890   112.5490    23.5080     6.5730     4.8420     5.3810     2.2620 
  115.3750   -20.1670   110.4110    23.4180     6.7360     5.0100     5.5750     2.2490 
  115.5000   -20.1670   108.1120    23.4970     6.4910     5.2000     5.7640     2.2450 
  115.6250   -20.1480   105.1520    23.4520     6.4610     5.3560     5.8880     2.2450 
  115.7500   -20.0900   103.6550    23.2710     6.9300     5.4560     5.9470     2.2440 
  115.8750   -20.0020   104.7990    23.1860     7.4690     5.4900     5.9400     2.2460 
  116.0000   -19.9070   106.9650    23.2960     7.5480     5.4560     5.8660     2.2620 
  116.1250   -19.8290   107.3650    23.4880     7.1250     5.3470     5.7230     2.2830 
  116.2500   -19.7710   106.3820    23.5920     6.7240     5.1920     5.5430     2.2910 
  116.3750   -19.7240   106.1590    23.6310     6.4740     5.0170     5.3630     2.2810 
  116.5000   -19.6900   108.3690    23.6390     6.4350     4.8650     5.2330     2.2650 
  116.6250   -19.6930   112.7700    23.6700     6.5830     4.8000     5.2200     2.2540 
  116.7500   -19.7470   116.9960    23.7430     6.6300     4.8360     5.3220     2.2480 
  116.8750   -19.8540   119.2760    23.8270     6.6350     4.9750     5.5250     2.2510 
  117.0000   -20.0000   118.4360    23.8860     6.9990     5.1990     5.7980     2.2700 
  117.1250   -20.1590   114.5830    23.9340     8.3060     5.4720     6.0860     2.3040 
  117.2500   -20.3200   110.7490    24.0060     9.8330     5.7250     6.3250     2.3380 
  117.3750   -20.4880   109.4240    24.0920    10.7760     5.9150     6.4820     2.3550 
  117.5000   -20.6670   110.6110    24.1130    10.4730     6.0120     6.5300     2.3460 
  117.6250   -20.8500   111.2140    23.9610     9.0420     5.9890     6.4480     2.3110 
  117.7500   -21.0160   109.1000    23.7280     7.9700     5.8870     6.2930     2.2700 
  117.8750   -21.1560   105.1600    23.5940     7.3940     5.7440     6.1120     2.2400 
  118.0000   -21.2770   101.9200    23.6080     7.0450     5.5910     5.9400     2.2320 
  118.1250   -21.4010   100.8910    23.7240     6.8250     5.4650     5.8110     2.2350 
  118.2500   -21.5340   100.5350    23.8570     6.6260     5.3800     5.7290     2.2340 
  118.3750   -21.6620   100.3470    23.8840     6.5040     5.3350     5.6990     2.2260 
  118.5000   -21.7600   100.7610    23.7740     6.5410     5.3430     5.7530     2.2220 
  118.6250   -21.8060   101.6060    23.5890     6.7090     5.4740     5.9830     2.2330 
  118.7500   -21.8110   100.8490    23.3610     7.1090     5.7570     6.4020     2.2450 
  118.8750   -21.7870    97.6870    23.1100     7.9170     6.1910     6.9750     2.2430 
  119.0000   -21.7390    93.6690    22.9330     9.0160     6.7260     7.6140     2.2210 
  119.1250   -21.6620    91.6300    23.0070    10.3190     7.2660     8.1800     2.2150 
  119.2500   -21.5660    91.8340    23.2690    12.6760     7.7180     8.5880     2.2580 
  119.3750   -21.4720    92.7790    23.6460    16.8580     8.0490     8.8270     2.3430 
  119.5000   -21.4080    93.3620    23.9440    21.3080     8.2700     8.9570     2.4230 
  119.6250   -21.4000    93.6240    23.9940    21.3430     8.4340     9.0780     2.4450 
  119.7500   -21.4330    93.2510    23.8260    16.9690     8.6070     9.2490     2.4190 
  119.8750   -21.4880    91.1560    23.5100    13.1770     8.7920     9.4440     2.3850 
  120.0000   -21.5540    87.3010    23.2970    15.2330     8.9060     9.5530     2.3860 
  120.1250   -21.6380    84.6630    23.4660    23.4770     8.7700     9.3630     2.4350 
  120.2500   -21.7570    86.2380    23.7600    28.5950     8.3290     8.8240     2.4790 
  120.3750   -21.9200    92.0790    23.8580    25.1140     7.6150     7.9860     2.4700 
  120.5000   -22.1300   100.1680    23.8000    16.1000     6.7490     7.0060     2.4090 
  120.6250   -22.3930   107.2760    23.9150     9.3460     5.9060     6.1090     2.3540 
  120.7500   -22.7130   111.3680    24.1420     6.5070     5.2240     5.4520     2.3330 
  120.8750   -23.1040   111.7970    24.2770     6.0530     4.7760     5.0970     2.3280 
  121.0000   -23.5740   109.2930    24.2550     6.3180     4.5780     5.0230     2.3210 
  121.1250   -24.1150   104.7140    24.0790     6.4590     4.6330     5.1900     2.3100 
  121.2500   -24.6720    99.3840    23.8790     6.4210     4.8450     5.4870     2.2960 
  121.3750   -25.2010    94.4050    23.7630     6.5490     5.1790     5.8790     2.2790 
  121.5000   -25.6670    90.6380    23.6350     6.9480     5.6130     6.3550     2.2610 
  121.6250   -26.0350    88.2850    23.2980     7.8190     6.1510     6.9240     2.2430 
  121.7500   -26.3000    86.5700    22.8640     8.9290     6.7510     7.5390     2.2190 
  121.8750   -26.4350    84.7500    22.5480    10.0690     7.3410     8.1100     2.1950 
  122.0000   -26.4190    82.3230    22.3970    11.1640     7.8040     8.5060     2.1890 
  122.1250   -26.2250    80.1410    22.3510    12.0830     7.9700     8.5570     2.2200 
  122.2500   -25.9120    79.7780    22.3330    12.7260     7.8240     8.2870     2.2590 
  122.3750   -25.5310    81.6890    22.3650    12.9130     7.4140     7.7740     2.2750 
  122.5000   -25.1240    85.2230    22.4610    12.4480     6.8610     7.1690     2.2580 
  122.6250   -24.7210    89.0010    22.7050    10.9160     6.3250     6.6630     2.2360 
  122.7500   -24.3330    92.0120    23.0150     8.8520     5.9100     6.3370     2.2360 
  122.8750   -23.9750    93.8930    23.2240     7.3460     5.6450     6.1930     2.2500 
  123.0000   -23.6720    94.5820    23.1390     7.0910     5.5190     6.1840     2.2540 
  123.1250   -23.4610    94.6560    22.8260     7.6530     5.4750     6.2080     2.2360 
  123.2500   -23.3340    95.7630    22.6720     8.1530     5.4190     6.1550     2.2140 
  123.3750   -23.2820    97.8770    22.7810     8.1820     5.3010     5.9860     2.2030 
  123.5000   -23.2920    99.4440    23.1320     7.6440     5.1180     5.7220     2.2120 
  123.6250   -23.3810   100.3230    23.6000     6.7860     4.9190     5.4470     2.2370 
  123.7500   -23.5550   102.4560    23.9670     6.0170     4.7810     5.2770     2.2600 
  123.8750   -23.8250   104.4710    24.1560     5.4860     4.7670     5.2870     2.2750 
  124.0000   -24.1790   102.0730    24.1900     5.3060     4.9050     5.5030     2.2790 
  124.1250   -24.5850    93.4060    24.0110     5.8210     5.2060     5.9070     2.2740 
  124.2500   -24.9980    85.0930    23.6530     6.8960     5.5900     6.3770     2.2680 
  124.3750   -25.3990    81.6790    23.1950     8.1270     5.9830     6.8170     2.2590 
  124.5000   -25.7780    82.7030    22.7440     9.0330     6.3100     7.1400     2.2450 
  124.6250   -26.1180    83.9430    22.4730     9.2580     6.5020     7.2810     2.2210 
  124.7500   -26.4010    83.1410    22.3670     9.1270     6.5840     7.2970     2.1980 
  124.8750   -26.6100    81.1740    22.3460     8.9660     6.5930     7.2520     2.1900 
  125.0000   -26.7440    79.4990    22.3400     8.9270     6.5800     7.2150     2.1980 
  125.1250   -26.8170    79.0640    22.3240     8.9940     6.5990     7.2540     2.2090 
  125.2500   -26.8610    79.3210    22.3050     9.1470     6.6670     7.3720     2.2190 
  125.3750   -26.8810    79.6930    22.2960     9.4030     6.7730     7.5380     2.2300 
