~V
VERS. 2.00: Ver 2.00
~W
STRT.M 64.0000:
STOP.M 271.0000:
STEP.M 0.1250:
NULL. -999.2500:
UWI. DF5037:
~C
DEPT.M :
SP.MV :
GR.API :
RML.OHMM :
RI. :
RXO.OHMM :
CALI.CM :
DEN.GM/CC :
~A
# ...
  154.0000   -16.9290    70.5060    15.4730    14.3100    13.3300    22.8460     2.4690 
  154.1250   -16.9770    65.4080    15.2560    14.1400    13.0370    22.8180     2.4690 
  154.2500   -17.0160    60.5540    15.1090    14.0370    13.0170    22.7880     2.4770 
  154.3750   -17.0370    60.4270    14.9760    13.9550    13.0270    22.7500     2.4880 
  154.5000   -17.0530    62.7230    14.8220    13.8620    12.8690    22.7100     2.4980 
  154.6250   -17.0910    61.7760    14.6400    13.7470    12.6220    22.6790     2.5040 
  154.7500   -17.1580    57.2040    14.4730    13.6400    12.5010    22.6510     2.5050 
  154.8750   -17.2300    56.6680    14.4050    13.6040    12.5880    22.6210     2.5020 
  155.0000   -17.3030    61.1770    14.5090    13.7080    12.8450    22.6000     2.4980 
  155.1250   -17.3760    64.6600    14.8190    13.9970    13.2220    22.5810     2.4940 
  155.2500   -17.4520    64.6140    15.3080    14.4820    13.7290    22.5760     2.4920 
  155.3750   -17.5430    63.7220    15.8230    15.0390    14.4430    22.5770     2.4910 
  155.5000   -17.6060    63.3380    16.2240    15.5420    14.9660    22.5810     2.4930 
  155.6250   -17.6000    63.0890    16.4110    15.8730    14.8160    22.5680     2.4980 
  155.7500   -17.5760    62.3890    16.3240    15.9310    14.1300    22.5320     2.5050 
  155.8750   -17.5710    59.3160    16.0780    15.7830    13.3570    22.5210     2.5130 
  156.0000   -17.5850    52.2850    15.7680    15.5090    12.8270    22.5290     2.5170 
  156.1250   -17.6530    45.7470    15.4630    15.1820    12.6060    22.5330     2.5170 
  156.2500   -17.8020    43.3080    15.1700    14.8290    12.4160    22.5230     2.5130 
  156.3750   -18.0060    44.3850    14.8490    14.4430    12.2910    22.5040     2.5090 
  156.5000   -18.2830    48.7160    14.4930    14.0180    12.2050    22.4860     2.5050 
  156.6250   -18.6030    56.4300    14.1860    13.6100    12.0720    22.4800     2.5030 
  156.7500   -18.9020    65.0630    14.2280    13.4310    12.0080    22.4920     2.4960 
  156.8750   -19.1940    65.3100    14.9460    13.7360    12.0710    22.5160     2.4810 
  157.0000   -19.5100    57.9290    16.6930    14.8200    12.6610    22.5550     2.4550 
  157.1250   -19.8220    55.2270    19.7520    16.9620    14.4560    22.6120     2.4190 
  157.2500   -20.1240    69.8310    24.4540    20.5650    18.0640    22.6950     2.3790 
  157.3750   -20.4160    85.9080    30.3080    25.3560    23.0570    22.7310     2.3430 
  157.5000   -20.7040    87.9380    36.7670    30.9650    28.9150    22.7400     2.3170 
  157.6250   -21.0290    78.3930    43.1260    36.7940    33.2300    22.7400     2.3000 
  157.7500   -21.3840    72.3620    48.5360    42.0210    36.3090    22.7300     2.2890 
  157.8750   -21.7260    74.3070    52.7240    46.2100    39.9940    22.7050     2.2790 
  158.0000   -22.0280    80.9960    55.6080    49.1880    43.9120    22.6810     2.2720 
  158.1250   -22.2780    86.3230    57.2670    50.9750    46.2470    22.6650     2.2680 
  158.2500   -22.4530    84.4990    57.8270    51.6290    45.3630    22.6490     2.2700 
  158.3750   -22.5610    77.3520    58.0440    51.7880    43.3730    22.6280     2.2780 
  158.5000   -22.6140    69.2950    58.7680    52.1580    41.3400    22.6180     2.2870 
  158.6250   -22.6060    66.1030    60.9500    53.5830    41.1490    22.6120     2.2940 
  158.7500   -22.5710    70.2990    65.7560    57.1780    44.1660    22.6050     2.2950 
  158.8750   -22.5440    74.9110    73.0270    63.0070    49.4140    22.6010     2.2890 
  159.0000   -22.5380    74.1290    82.3790    70.8970    56.1080    22.6000     2.2780 
  159.1250   -22.5670    70.5850    92.9770    80.2230    63.1180    22.5930     2.2660 
  159.2500   -22.6200    69.8930   103.5910    89.9630    67.8120    22.5720     2.2560 
  159.3750   -22.6940    70.7570   113.1910    99.0390    71.0920    22.5410     2.2510 
  159.5000   -22.7820    69.9120   121.4510   107.0080    73.6310    22.5170     2.2480 
  159.6250   -22.8580    69.4320   128.6100   113.9550    74.9550    22.4870     2.2470 
  159.7500   -22.8880    70.5790   135.1100   120.2070    74.8260    22.4730     2.2450 
  159.8750   -22.8940    72.9860   141.1860   126.0540    74.5380    22.4560     2.2400 
  160.0000   -22.8860    74.1700   146.3850   131.1970    73.9820    22.4250     2.2330 
  160.1250   -22.8740    72.4560   149.9920   135.0900    73.3780    22.4010     2.2260 
  160.2500   -22.8650    70.7070   151.1730   137.0470    72.6500    22.3840     2.2250 
  160.3750   -22.8610    69.8580   150.6600   137.5920    71.1190    22.3610     2.2280 
  160.5000   -22.8530    68.6590   149.5230   137.5660    69.7330    22.3390     2.2340 
  160.6250   -22.8480    67.2180   148.7300   137.9750    71.1610    22.3290     2.2410 
  160.7500   -22.8310    68.6940   149.0890   139.4990    74.4580    22.3260     2.2450 
  160.8750   -22.7830    70.1780   149.7240   141.3770    76.1510    22.3130     2.2450 
  161.0000   -22.7120    68.4230   149.7820   142.3080    74.1960    22.2850     2.2430 
  161.1250   -22.6140    63.6060   147.6240   140.9340    70.5730    22.2420     2.2410 
  161.2500   -22.5040    59.1400   143.3820   136.0460    64.9260    22.1470     2.2400 
  161.3750   -22.3840    60.3100   137.1540   128.7210    57.1050    21.9930     2.2410 
  161.5000   -22.2510    69.0390   128.6120   120.3500    49.2730    21.8220     2.2430 
  161.6250   -22.1300    81.5170   119.8250   112.5590    44.2960    21.6170     2.2460 
  161.7500   -22.0570    89.1180   114.2730   107.3050    43.4420    21.4400     2.2510 
  161.8750   -22.0040    87.4520   112.4950   105.3620    43.5970    21.4020     2.2570 
  162.0000   -21.9430    78.0150   114.9710   107.3340    44.4760    21.4630     2.2610 
  162.1250   -21.8540    67.9860   121.7700   113.4140    46.4560    21.5570     2.2600 
  162.2500   -21.7310    65.8960   132.7140   123.5950    49.8490    21.6140     2.2530 
  162.3750   -21.5870    70.0230   145.3530   135.6590    53.3360    21.6600     2.2440 
  162.5000   -21.4430    76.8430   157.2620   147.3840    54.8860    21.7040     2.2370 
  162.6250   -21.3090    81.6660   165.9320   156.3660    53.0520    21.7560     2.2340 
  162.7500   -21.2100    78.4400   168.8930   160.0400    46.9830    21.7340     2.2350 
  162.8750   -21.1820    69.1480   167.6050   159.3490    39.6420    21.5890     2.2390 
  163.0000   -21.2140    60.2840   164.6060   156.3340    32.3610    21.2780     2.2430 
  163.1250   -21.3070    55.9960   163.2190   153.9890    27.3470    20.8420     2.2440 
  163.2500   -21.4240    55.4950   167.7550   156.3910    26.2510    20.4150     2.2420 
  163.3750   -21.5830    57.1540   179.7800   165.4380    27.8060    20.3820     2.2370 
  163.5000   -21.7750    61.0410   200.0760   182.1830    31.8520    20.7410     2.2320 
  163.6250   -21.9640    63.6110   227.8480   206.1880    39.3430    21.2200     2.2280 
  163.7500   -22.1150    61.8790   260.5470   235.4970    51.6790    21.7610     2.2260 
  163.8750   -22.2320    58.5680   292.2870   264.7890    68.2030    22.3280     2.2250 
  164.0000   -22.3260    58.4890   318.0590   289.4910    87.4750    22.8320     2.2250 
  164.1250   -22.4320    60.6000   334.1190   305.9700   103.6300    23.1760     2.2220 
  164.2500   -22.5800    61.1420   337.7290   311.2530   109.1870    23.3610     2.2170 
  164.3750   -22.7120    60.5270   332.8450   308.4300   104.8610    23.3140     2.2110 
  164.5000   -22.8300    59.7570   322.5900   300.1340    92.4470    23.0780     2.2050 
  164.6250   -22.9490    59.6830   309.9300   289.0660    79.0790    22.8510     2.2030 
  164.7500   -23.0160    61.0970   297.4130   277.6150    77.3990    22.7800     2.2070 
  164.8750   -23.0150    65.5160   286.4400   267.3140    86.4230    22.8180     2.2140 
  165.0000   -22.9830    70.5550   277.3620   258.6170   100.3360    22.9030     2.2240 
  165.1250   -22.8980    71.7720   270.0050   251.4970   113.2150    22.9790     2.2330 
