~V
VERS. 2.00: Ver 2.00
~W
STRT.M 60.0000:
STOP.M 259.0000:
STEP.M 0.1250:
NULL. -999.2500:
UWI. DF5006:
~C
DEPT.M :
SP.MV :
GR.API :
RML.OHMM :
RI. :
RXO.OHMM :
CALI.CM :
DEN.GM/CC :
~A
# ...
  183.7500   -19.7740    63.8850   165.7030   152.4910   114.4460    24.1530     2.2330 
  183.8750   -19.8150    62.7410   175.5690   163.9770   115.7990    24.2560     2.2290 
  184.0000   -19.9200    61.5930   172.7780   164.0420   115.0080    24.3020     2.2240 
  184.1250   -19.9830    59.1610   159.1040   153.6270   115.8520    24.3140     2.2200 
  184.2500   -20.0240    57.7780   139.6120   136.5650   114.3550    24.3040     2.2230 
  184.3750   -20.0290    59.7500   120.9680   119.1460   107.1850    24.2800     2.2350 
  184.5000   -20.0380    63.9260   106.0340   104.4430    92.8070    24.2500     2.2540 
  184.6250   -20.0680    65.5820    95.5610    93.6610    78.2430    24.2270     2.2740 
  184.7500   -20.1110    62.6830    89.3610    87.0570    73.3850    24.2380     2.2850 
  184.8750   -20.1690    59.4690    85.5280    83.0130    72.8690    24.2480     2.2880 
  185.0000   -20.2410    58.4550    83.1840    80.7180    71.1480    24.2410     2.2830 
  185.1250   -20.3370    59.3110    81.9050    79.6800    67.0200    24.2100     2.2780 
  185.2500   -20.4600    60.5700    81.8650    79.8920    62.7580    24.1910     2.2760 
  185.3750   -20.6150    61.7990    83.0490    81.1770    61.3900    24.1850     2.2770 
  185.5000   -20.7780    62.5120    85.4230    83.4660    62.6830    24.1840     2.2790 
  185.6250   -21.0020    63.6910    88.6480    86.4650    65.4600    24.1840     2.2810 
  185.7500   -21.2020    65.1750    92.1240    89.6160    65.7190    24.1840     2.2810 
  185.8750   -21.4450    63.9080    95.2420    92.3380    66.2690    24.1840     2.2810 
  186.0000   -21.6600    61.5350    97.7660    94.3690    70.3170    24.1840     2.2800 
  186.1250   -21.8930    60.3900    99.7390    95.7310    76.7530    24.1880     2.2760 
  186.2500   -22.0980    59.8640   101.5500    96.7550    81.6110    24.2010     2.2710 
  186.3750   -22.2900    61.1330   103.9940    98.2120    84.5550    24.2180     2.2630 
  186.5000   -22.4960    63.7970   108.0560   101.0200    87.9870    24.2210     2.2570 
  186.6250   -22.6680    66.3490   114.9190   106.2930    94.2600    24.2040     2.2540 
  186.7500   -22.8550    66.0830   126.5290   115.8680   106.0440    24.1810     2.2550 
  186.8750   -22.9980    64.3290   142.7830   129.7310   125.4930    24.1690     2.2550 
  187.0000   -23.1640    63.1080   163.0340   147.3420   149.7900    24.1910     2.2520 
  187.1250   -23.2970    62.0420   185.4470   167.0390   169.0230    24.2470     2.2460 
  187.2500   -23.4770    61.1210   206.7930   185.8890   178.5930    24.2920     2.2400 
  187.3750   -23.6660    60.2120   224.3470   201.3870   182.1810    24.3080     2.2360 
  187.5000   -23.8780    59.3360   236.8740   212.3750   184.4120    24.3110     2.2360 
  187.6250   -24.0840    60.3860   244.6460   219.0350   185.9880    24.3110     2.2360 
  187.7500   -24.2860    61.6050   248.5660   222.1120   186.9270    24.3110     2.2360 
  187.8750   -24.5090    60.1470   250.7260   223.4660   189.0260    24.3110     2.2320 
  188.0000   -24.6950    57.0530   252.1660   223.9830   190.3370    24.3110     2.2280 
  188.1250   -24.8410    56.0480   253.6650   224.3240   189.0890    24.3110     2.2240 
  188.2500   -24.8750    58.2650   255.6990   224.9710   185.9700    24.3110     2.2200 
  188.3750   -24.8720    58.1580   257.8950   225.8410   183.0030    24.3110     2.2170 
  188.5000   -24.8280    54.3970   259.5350   226.5170   183.0160    24.3110     2.2140 
  188.6250   -24.7920    51.1780   259.8990   226.4710   188.1770    24.3110     2.2120 
  188.7500   -24.7010    52.7360   258.3620   225.1160   188.0790    24.3110     2.2100 
  188.8750   -24.5640    54.2690   255.3210   222.5840   181.2610    24.3140     2.2080 
  189.0000   -24.3940    51.8360   250.9420   218.9950   168.9100    24.3260     2.2060 
  189.1250   -24.2610    48.6520   245.1770   214.4330   160.0780    24.3460     2.2040 
  189.2500   -24.0970    50.0300   237.6950   208.8960   158.0200    24.3420     2.2010 
  189.3750   -23.8980    53.9060   229.1190   202.9400   160.9940    24.3210     2.1990 
  189.5000   -23.6080    56.3640   220.2800   197.1800   156.7910    24.3030     2.1980 
  189.6250   -23.2910    55.2520   212.1270   192.2110   146.4570    24.2860     2.2000 
  189.7500   -22.9930    52.0930   205.5380   188.5300   139.2810    24.2580     2.2060 
  189.8750   -22.6810    50.7270   200.0540   185.6280   138.2870    24.2460     2.2180 
  190.0000   -22.3630    51.7790   194.6310   182.5660   138.7100    24.2450     2.2320 
  190.1250   -22.0280    53.8490   187.9020   178.0740   131.4780    24.2530     2.2430 
  190.2500   -21.7440    55.1600   178.2160   170.4530   114.8420    24.2730     2.2480 
  190.3750   -21.4420    55.3680   165.4090   159.4580    97.7950    24.2810     2.2480 
  190.5000   -21.1810    55.1800   149.4160   144.9890    84.8840    24.2520     2.2480 
  190.6250   -20.8860    57.3000   130.5770   127.4150    74.4050    24.2050     2.2500 
  190.7500   -20.5690    61.6330   110.0820   107.8420    67.6750    24.1810     2.2610 
  190.8750   -20.2420    62.5480    90.9030    89.1170    61.8700    24.1470     2.2800 
  191.0000   -19.9520    60.0920    75.9130    73.9640    53.5620    24.0450     2.3050 
  191.1250   -19.6960    60.0730    67.5300    64.7590    42.6970    23.8460     2.3240 
  191.2500   -19.5310    62.6820    69.1010    64.7610    40.6900    23.7500     2.3210 
  191.3750   -19.4210    60.4680    80.1990    73.7270    54.9830    23.8660     2.2930 
  191.5000   -19.3850    54.6590   100.1300    91.1550    86.1710    24.1090     2.2500 
  191.6250   -19.3970    52.2670   125.8200   114.3180   127.9040    24.2350     2.2100 
  191.7500   -19.4950    55.1450   150.3040   136.9310   162.6440    24.1880     2.1940 
  191.8750   -19.6690    57.5230   165.7170   151.7030   175.2080    24.0990     2.2050 
  192.0000   -19.8610    57.7580   167.8610   154.7220   158.1160    24.0680     2.2330 
  192.1250   -20.0620    56.7630   158.3490   147.0520   134.2030    24.1030     2.2640 
  192.2500   -20.1720    56.0990   143.6980   133.8480   121.8630    24.1580     2.2810 
  192.3750   -20.3150    57.2690   131.1860   121.7220   108.9400    24.2320     2.2830 
  192.5000   -20.4090    59.2670   123.4620   113.3700    97.5200    24.2840     2.2770 
  192.6250   -20.4960    59.4790   121.1490   109.6500    89.7270    24.3030     2.2700 
  192.7500   -20.4940    58.4220   123.7640   110.4800    92.3340    24.3040     2.2620 
  192.8750   -20.4680    58.7310   127.6600   112.9360   103.3080    24.3050     2.2510 
  193.0000   -20.4190    60.7020   129.3370   114.1410   115.9030    24.3030     2.2400 
  193.1250   -20.3490    62.1260   125.7970   111.4770   119.4580    24.2960     2.2320 
  193.2500   -20.3020    61.5720   115.3160   103.1640   109.2760    24.2670     2.2340 
  193.3750   -20.1960    61.4410   101.5290    91.7590    91.4410    24.2040     2.2440 
  193.5000   -20.1050    62.9850    88.1650    80.2160    72.7130    24.1250     2.2570 
  193.6250   -19.9710    65.9220    78.0510    71.0900    58.3880    24.0440     2.2680 
  193.7500   -19.8700    68.1540    72.8690    66.2180    54.1960    23.9620     2.2710 
  193.8750   -19.7200    68.1440    71.2400    64.7190    56.0340    23.8770     2.2680 
  194.0000   -19.5660    68.4680    71.9240    65.6430    60.7880    23.8370     2.2640 
  194.1250   -19.3850    70.4370    73.5920    67.8360    65.1570    23.8740     2.2610 
  194.2500   -19.2020    71.3350    74.9780    70.0850    66.4840    23.9530     2.2610 
  194.3750   -19.0030    70.4920    75.4830    71.5750    65.2680    24.0150     2.2630 
  194.5000   -18.7960    70.0710    75.0730    72.0770    62.1880    24.0450     2.2660 
  194.6250   -18.6100    70.9430    73.8960    71.6030    59.0520    24.0790     2.2680 
  194.7500   -18.4600    69.8970    71.7090    69.8630    57.2410    24.1500     2.2670 
  194.8750   -18.3440    67.9480    68.1380    66.6140    55.6540    24.2030     2.2630 
