~V
VERS. 2.00: Ver 2.00
~W
STRT.M 55.0000:
STOP.M 253.0000:
STEP.M 0.1250:
NULL. -999.2500:
UWI. DF5051:
~C
DEPT.M :
SP.MV :
GR.API :
RML.OHMM :
RI. :
RXO.OHMM :
CALI.CM :
DEN.GM/CC :
~A
# ...
  167.5000   -17.0860    72.8310    92.9580    82.6590    74.1770    24.5850     2.2710 
  167.6250   -17.2050    67.1370    89.9440    80.4420    70.1420    24.5690     2.2690 
  167.7500   -17.2790    62.2520    86.5670    77.6120    66.3430    24.5220     2.2670 
  167.8750   -17.3290    60.7830    83.9970    75.2330    61.5960    24.4250     2.2640 
  168.0000   -17.3730    61.7220    82.9900    74.0760    53.8280    24.2600     2.2600 
  168.1250   -17.3350    63.6610    84.1370    74.7890    50.5450    24.0910     2.2570 
  168.2500   -17.3120    66.4230    86.9310    77.0340    53.5640    23.9260     2.2560 
  168.3750   -17.2480    68.5990    90.8470    80.4110    59.0880    23.7510     2.2570 
  168.5000   -17.2080    68.3270    95.1640    84.3170    63.6690    23.6590     2.2590 
  168.6250   -17.1200    67.4920    98.9790    87.9570    67.3800    23.7320     2.2610 
  168.7500   -17.0740    68.4340   101.8170    90.8010    72.1440    24.0030     2.2620 
  168.8750   -17.0380    70.1600   103.6230    92.7040    78.3540    24.2090     2.2610 
  169.0000   -16.9830    69.8320   104.6860    93.8500    84.1310    24.2800     2.2580 
  169.1250   -16.9450    66.0980   105.4420    94.5920    84.2140    24.1550     2.2560 
  169.2500   -16.8910    63.8130   106.3190    95.3550    79.8890    23.8180     2.2550 
  169.3750   -16.8330    64.8970   107.5030    96.3360    74.5730    23.3650     2.2550 
  169.5000   -16.7260    66.0460   109.0190    97.5840    71.1660    22.9720     2.2570 
  169.6250   -16.6420    65.6790   110.6900    98.9730    70.9060    22.8500     2.2590 
  169.7500   -16.5280    66.4380   112.1470   100.2150    74.5100    23.0360     2.2610 
  169.8750   -16.4230    67.8190   113.1170   101.0970    81.0300    23.4980     2.2620 
  170.0000   -16.2990    65.8170   113.4470   101.5110    87.8150    24.0180     2.2620 
  170.1250   -16.2240    60.0210   112.9990   101.3710    94.0520    24.3420     2.2590 
  170.2500   -16.1400    57.0640   111.8970   100.7720    96.8700    24.4460     2.2560 
  170.3750   -16.0890    58.7680   110.1230    99.6910    97.5760    24.4530     2.2550 
  170.5000   -16.0790    62.3400   107.6830    98.1100    96.9460    24.4280     2.2570 
  170.6250   -16.0470    65.7250   104.7830    96.1650    93.9710    24.4100     2.2630 
  170.7500   -16.0610    67.7600   102.1800    94.4550    91.3320    24.4000     2.2720 
  170.8750   -16.0430    69.0430   100.6610    93.6620    90.0540    24.3890     2.2800 
  171.0000   -16.0430    70.2250   100.6400    94.2990    88.7870    24.3710     2.2870 
  171.1250   -15.9950    70.8230   102.0520    96.3580    89.5170    24.3690     2.2910 
  171.2500   -15.9630    68.8100   103.1970    98.3240    92.4660    24.3820     2.2930 
  171.3750   -15.9310    65.3420   102.4110    98.3480    97.0980    24.3970     2.2930 
  171.5000   -15.8780    65.4380    97.8560    94.7300    99.8180    24.4020     2.2920 
  171.6250   -15.8830    70.4000    89.1300    86.2190    92.5470    24.4010     2.2910 
  171.7500   -15.8380    74.1770    77.9510    74.9090    78.0750    24.4000     2.2920 
  171.8750   -15.8210    75.7000    65.7890    63.1370    59.4770    24.4020     2.2970 
  172.0000   -15.7990    75.9770    55.0640    53.0780    43.4050    24.4060     2.3050 
  172.1250   -15.7990    75.3820    48.3880    46.5690    33.1240    24.4210     2.3160 
  172.2500   -15.8200    73.5080    45.3730    43.3960    28.5830    24.4190     2.3260 
  172.3750   -15.8600    71.9800    45.7910    43.4220    27.8140    24.3290     2.3340 
  172.5000   -15.9150    71.6910    49.2710    46.4120    30.7800    24.1130     2.3390 
  172.6250   -15.9390    70.2580    55.4610    52.2320    39.1850    23.9950     2.3360 
  172.7500   -16.0000    67.4470    62.6910    59.3610    50.8850    23.9640     2.3250 
  172.8750   -16.0700    65.3160    69.3060    66.1950    62.4290    23.9700     2.3050 
  173.0000   -16.2010    64.0500    73.4870    70.8400    70.7520    23.9930     2.2830 
  173.1250   -16.3330    62.9250    73.2730    71.1150    72.6940    24.0050     2.2670 
  173.2500   -16.4790    62.7280    69.7090    67.7830    69.9290    23.9980     2.2640 
  173.3750   -16.6070    64.5950    64.7930    62.6450    64.2490    23.9660     2.2750 
  173.5000   -16.7510    67.8040    61.1480    58.1970    58.2570    23.9040     2.2940 
  173.6250   -16.9250    69.7760    61.9320    57.4220    64.4010    23.8570     2.3100 
  173.7500   -17.0800    71.2560    67.9200    61.2560    82.5030    23.8240     2.3190 
  173.8750   -17.2540    72.6870    79.1190    69.9030   106.3650    23.8150     2.3190 
  174.0000   -17.3790    72.2420    94.3190    82.4810   121.1960    23.8060     2.3130 
  174.1250   -17.5340    69.2660   110.9210    96.8980   117.4350    23.7750     2.3020 
  174.2500   -17.6510    65.5120   125.2450   109.8100   114.2640    23.8380     2.2870 
  174.3750   -17.7820    62.9440   134.9010   118.9810   116.2030    24.1540     2.2710 
  174.5000   -17.8920    60.8450   139.1860   123.5750   121.0560    24.5620     2.2560 
  174.6250   -17.9780    58.6770   138.6270   123.7950   120.6790    24.7250     2.2470 
  174.7500   -18.0720    59.1980   135.6090   121.6360   117.3950    24.7380     2.2460 
  174.8750   -18.1120    61.9880   131.0970   117.9600   112.9010    24.7270     2.2510 
  175.0000   -18.1420    63.2160   125.7870   113.4080   109.5090    24.7190     2.2560 
  175.1250   -18.0810    62.3880   120.4620   108.6940   104.7200    24.6910     2.2600 
  175.2500   -18.0170    63.0140   115.8120   104.5210    97.6490    24.6270     2.2620 
  175.3750   -17.9210    66.3310   112.2110   101.3040    89.5140    24.5590     2.2630 
  175.5000   -17.8310    69.0730   109.7530    99.2100    83.7610    24.5870     2.2620 
  175.6250   -17.6950    67.9200   108.2710    98.2070    82.7970    24.6510     2.2630 
  175.7500   -17.5500    65.0310   107.0000    97.6260    84.2080    24.7030     2.2650 
  175.8750   -17.3960    61.6700   105.3410    96.9060    86.3160    24.6960     2.2680 
  176.0000   -17.2330    60.3590   102.9330    95.6310    86.6780    24.6330     2.2730 
  176.1250   -17.1760    62.0760    99.8610    93.7060    82.8860    24.5530     2.2770 
  176.2500   -17.1020    63.3210    96.9570    91.7470    79.0180    24.5170     2.2790 
  176.3750   -17.0500    63.4820    94.9950    90.4230    76.6130    24.4870     2.2800 
  176.5000   -17.0070    63.4590    94.4440    90.2150    75.9290    24.4170     2.2800 
  176.6250   -16.9860    64.4250    95.3390    91.2530    76.8130    24.3680     2.2780 
  176.7500   -17.0040    65.6990    96.5950    92.6270    79.0470    24.3620     2.2750 
  176.8750   -17.0540    66.4750    97.0820    93.2950    82.1200    24.3670     2.2720 
  177.0000   -17.1540    66.6960    95.7860    92.2450    84.1220    24.3640     2.2700 
  177.1250   -17.2160    66.0100    92.0530    88.6850    82.0600    24.3600     2.2700 
  177.2500   -17.3090    64.9090    87.1990    83.7430    77.5010    24.3520     2.2720 
  177.3750   -17.4070    64.4320    83.0450    79.0820    71.2960    24.3380     2.2780 
  177.5000   -17.4830    64.6480    81.7950    76.8110    66.0150    24.3260     2.2840 
  177.6250   -17.6270    65.9790    86.7190    80.0760    67.6530    24.3350     2.2860 
  177.7500   -17.7300    66.0650    98.5610    89.8010    83.3790    24.3740     2.2810 
  177.8750   -17.8390    64.2220   117.3300   106.2260   112.7610    24.4280     2.2680 
  178.0000   -17.8920    61.3500   141.0250   127.7940   146.0530    24.4610     2.2520 
  178.1250   -17.9530    59.8620   164.4690   150.3220   176.6920    24.4710     2.2390 
  178.2500   -17.9900    59.2280   181.5510   167.9840   184.2810    24.4630     2.2330 
  178.3750   -18.0080    59.1620   188.1470   176.8010   184.0610    24.4460     2.2340 
  178.5000   -18.0200    58.9140   184.4130   175.6910   183.3710    24.4150     2.2410 
  178.6250   -18.0050    58.4820   172.7010   166.1090   167.9080    24.3920     2.2490 
