~V
VERS. 2.00: Ver 2.00
~W
STRT.M 59.0000:
STOP.M 277.0000:
STEP.M 0.1250:
NULL. -999.2500:
UWI. DF5027:
~C
DEPT.M :
GR.API :
RML.OHMM :
RI. :
RXO.OHMM :
CALI.CM :
DEN.GM/CC :
SP.MV :
~A
# ...
  250.2500    60.1690     7.0460     6.1210     5.8120    24.5790     2.3630   -11.4390 
  250.3750    60.9960     7.0420     6.1250     5.7830    24.5420     2.3860   -11.5150 
  250.5000    59.6800     7.0420     6.1150     5.7830    24.5160     2.4070   -11.5270 
  250.6250    59.3290     7.0410     6.0860     5.7330    24.4890     2.4150   -11.4740 
  250.7500    60.1540     7.0390     6.0450     5.7310    24.4460     2.4110   -11.3810 
  250.8750    59.8370     7.0410     6.0020     5.6750    24.4120     2.3980   -11.2830 
  251.0000    57.8770     7.0500     5.9660     5.6380    24.4360     2.3850   -11.1790 
  251.1250    55.7400     7.0770     5.9510     5.5540    24.4380     2.3780   -11.0270 
  251.2500    55.3880     7.1250     5.9670     5.7090    24.4540     2.3780   -10.8590 
  251.3750    57.8970     7.1930     6.0200     6.0060    24.5280     2.3840   -10.7140 
  251.5000    61.9050     7.2760     6.1110     6.4980    24.5840     2.3960   -10.6050 
  251.6250    65.1300     7.3630     6.2290     6.9730    24.5810     2.4100   -10.5400 
  251.7500    67.0360     7.4450     6.3510     7.2710    24.5620     2.4210   -10.5080 
  251.8750    68.1540     7.5140     6.4580     7.3670    24.5720     2.4250   -10.4890 
  252.0000    68.5640     7.5650     6.5370     7.5170    24.5790     2.4230   -10.4350 
  252.1250    67.3650     7.5910     6.5740     7.9370    24.5730     2.4150   -10.4390 
  252.2500    65.2440     7.6020     6.5800     8.3760    24.5630     2.4080   -10.4380 
  252.3750    64.2570     7.6030     6.5660     9.2350    24.5770     2.4020   -10.4730 
  252.5000    64.3860     7.6020     6.5520    10.8280    24.5770     2.3960   -10.4770 
  252.6250    63.7720     7.6010     6.5590    13.6210    24.5930     2.3900   -10.5140 
  252.7500    61.6030     7.6040     6.5930    16.6000    24.6010     2.3830   -10.5290 
  252.8750    60.3120     7.6160     6.6500    16.5460    24.6050     2.3800   -10.5630 
  253.0000    61.7360     7.6440     6.7240    13.8740    24.6050     2.3800   -10.5930 
  253.1250    64.2810     7.6930     6.8100    11.6410    24.6180     2.3850   -10.6530 
  253.2500    63.9350     7.7590     6.8930     9.8110    24.6490     2.3880   -10.6790 
  253.3750    61.1300     7.8370     6.9680     8.6800    24.6730     2.3880   -10.7050 
  253.5000    60.3720     7.9190     7.0250     7.9580    24.6660     2.3850   -10.7030 
  253.6250    63.9580     7.9910     7.0600     7.7770    24.6270     2.3840   -10.7050 
  253.7500    66.8390     8.0480     7.0800     7.5240    24.6100     2.3870   -10.6940 
  253.8750    65.4850     8.0820     7.0870     7.5100    24.6160     2.3940   -10.6470 
  254.0000    60.8820     8.0860     7.0860     7.6370    24.6530     2.4030   -10.5870 
  254.1250    56.9120     8.0800     7.0800     7.5530    24.7330     2.4080   -10.4710 
  254.2500    55.4910     8.0790     7.0790     7.3490    24.7780     2.4100   -10.3520 
  254.3750    56.0090     8.0890     7.0890     6.9820    24.7460     2.4100   -10.2150 
  254.5000    56.2620     8.1110     7.1110     6.5100    24.6680     2.4110   -10.1230 
  254.6250    56.8640     8.1440     7.1440     6.2380    24.6410     2.4130    -9.9680 
  254.7500    60.0170     8.1870     7.1870     6.3480    24.6550     2.4130    -9.8030 
  254.8750    64.0730     8.2360     7.2360     6.4740    24.6880     2.4110    -9.6330 
  255.0000    64.7240     8.2940     7.2940     6.5560    24.7360     2.4070    -9.5010 
  255.1250    61.9050     8.3600     7.3600     6.5360    24.7710     2.4040    -9.3400 
  255.2500    59.2730     8.4320     7.4320     6.6440    24.7780     2.4030    -9.2600 
  255.3750    57.9080     8.5060     7.5060     6.8090    24.7610     2.4030    -9.1700 
  255.5000    57.3100     8.5810     7.5810     6.7960    24.7230     2.4040    -9.0920 
  255.6250    56.5910     8.6560     7.6560     6.7630    24.7010     2.4060    -8.9820 
  255.7500    56.9960     8.7250     7.7250     6.7750    24.6930     2.4080    -8.9180 
  255.8750    58.5350     8.7900     7.7900     6.7850    24.6850     2.4080    -8.8670 
  256.0000    60.7760     8.8540     7.8540     6.7320    24.6420     2.4060    -8.8350 
  256.1250    63.8620     8.9210     7.9210     6.6630    24.5630     2.4000    -8.8030 
  256.2500    65.4860     8.9940     7.9940     6.7070    24.5660     2.3950    -8.7160 
  256.3750    65.3050     9.0690     8.0690     6.7400    24.5650     2.3940    -8.6020 
  256.5000    64.4100     9.1400     8.1400     6.2430    24.5800     2.3970    -8.4940 
  256.6250    64.7280     9.1890     8.1890     5.8840    24.6120     2.4060    -8.4160 
  256.7500    64.9120     9.2050     8.2050     5.6390    24.6540     2.4170    -8.3650 
  256.8750    64.5170     9.1770     8.1770     5.5530    24.7010     2.4280    -8.3010 
  257.0000    65.3110     9.1050     8.1050     5.4690    24.7550     2.4350    -8.2010 
  257.1250    64.7390     9.0100     8.0100     5.3670    24.8200     2.4380    -8.0830 
  257.2500    61.4580     8.9240     7.9240     5.4820    24.8980     2.4370    -7.9930 
  257.3750    59.2070     8.8660     7.8660     5.7960    24.9860     2.4330    -7.9260 
  257.5000    59.9330     8.8470     7.8470     6.1770    25.0760     2.4290    -7.8590 
  257.6250    61.3430     8.8670     7.8670     6.5080    25.1580     2.4300    -7.8020 
  257.7500    60.8340     8.9030     7.9030     6.8870    25.2270     2.4390    -7.7000 
  257.8750    60.0550     8.9330     7.9370     7.0940    25.2780     2.4550    -7.6210 
  258.0000    60.1960     8.9440     7.9510     7.1760    25.3090     2.4740    -7.5660 
  258.1250    60.6720     8.9210     7.9260     7.3290    25.3130     2.4880    -7.5920 
  258.2500    61.5330     8.8940     7.8790     7.5210    25.2950     2.4890    -7.5870 
  258.3750    61.4530     8.8890     7.8310     7.7630    25.2520     2.4770    -7.6010 
  258.5000    60.2720     8.9280     7.8050     8.3310    25.1890     2.4570    -7.5840 
  258.6250    58.2270     9.0250     7.8210     8.6370    25.0830     2.4350    -7.6070 
  258.7500    55.6310     9.1100     7.8710     8.5480    24.9480     2.4200    -7.6300 
  258.8750    55.0740     9.2070     7.9460     8.2740    24.7950     2.4120    -7.6710 
  259.0000    58.0380     9.3090     8.0330     8.1080    24.6380     2.4110    -7.7120 
  259.1250    64.0990     9.4060     8.1200     7.9890    24.4950     2.4170    -7.7780 
  259.2500    66.9900     9.4930     8.1960     7.5650    24.3760     2.4270    -7.8100 
  259.3750    63.5850     9.5680     8.2630     7.0550    24.2870     2.4380    -7.8510 
  259.5000    56.4570     9.6390     8.3310     6.9680    24.2310     2.4460    -7.8950 
  259.6250    53.9810     9.7110     8.4150     7.4180    24.2170     2.4500    -7.9750 
  259.7500    58.4160     9.7860     8.5260     7.8420    24.2280     2.4500    -8.0270 
  259.8750    63.3340     9.8600     8.6610     8.0700    24.2450     2.4470    -8.0830 
  260.0000    62.8690     9.9260     8.8040     8.2340    24.2670     2.4410    -8.0970 
  260.1250    59.3200     9.9680     8.9340     8.4210    24.2910     2.4320    -8.0690 
  260.2500    59.5970     9.9820     9.0330     8.4430    24.3180     2.4190    -8.0760 
  260.3750    62.5350     9.9630     9.0830     8.7070    24.3480     2.4060    -8.0590 
  260.5000    63.1300     9.9090     9.0820     9.1640    24.3850     2.3990    -8.0540 
  260.6250    60.6520     9.8340     9.0390     9.8020    24.4280     2.4040    -7.9950 
  260.7500    60.0740     9.7640     8.9860     9.7260    24.4730     2.4170    -7.9600 
  260.8750    62.7240     9.7310     8.9430     8.4900    24.6400     2.4330    -7.8970 
  261.0000    65.1920     9.7420     8.9250     7.8570    24.6660     2.4450    -7.8950 
  261.1250    62.5660     9.8290     8.9390     7.7270    24.6170     2.4500    -7.8620 
  261.2500    57.5940     9.9420     8.9760     7.9490    24.5820     2.4510    -7.8650 
  261.3750    54.0090    10.0270     9.0270     7.9880    24.6260     2.4510    -7.8630 
