~V
VERS. 2.00: Ver 2.00
~W
STRT.M 50.0000:
STOP.M 260.0000:
STEP.M 0.1250:
NULL. -999.2500:
UWI. DF5023:
~C
DEPT.M :
GR.API :
RML.OHMM :
RI. :
RXO.OHMM :
CALI.CM :
DEN.GM/CC :
SP.MV :
~A
# ...
  117.5000    72.3190     9.0110     8.1380    10.1640    23.0860     2.1670   -29.0140 
  117.6250    78.0620     8.8140     7.9400     9.6190    23.0960     2.1800   -29.0730 
  117.7500    78.9220     8.7480     7.8310     9.2670    23.0870     2.1940   -29.1480 
  117.8750    74.5810     8.7960     7.8170     9.5210    23.0730     2.1980   -29.3420 
  118.0000    70.8260     8.9220     7.8860    10.2310    23.0620     2.1910   -29.5200 
  118.1250    70.4330     9.0940     8.0250    10.6220    23.0570     2.1770   -29.6880 
  118.2500    68.7830     9.2910     8.2060    10.9440    23.0560     2.1630   -29.8130 
  118.3750    64.8030     9.5180     8.4190    11.3840    23.0640     2.1530   -29.8150 
  118.5000    61.3630     9.7680     8.6520    11.9270    23.0920     2.1470   -29.6910 
  118.6250    61.9560     9.9910     8.8640    12.2980    23.1640     2.1480   -29.2500 
  118.7500    64.7660    10.1160     9.0020    12.6420    23.2930     2.1580   -28.7050 
  118.8750    67.1830    10.0800     9.0170    12.9060    23.4880     2.1770   -27.9040 
  119.0000    68.8110     9.8360     8.8730    13.1600    23.6380     2.2000   -27.0360 
  119.1250    69.9420     9.3560     8.5370    12.8530    23.7140     2.2210   -26.0140 
  119.2500    72.2200     8.7530     8.0800    11.6260    23.8030     2.2310   -24.9520 
  119.3750    77.8580     8.1270     7.5670     9.8280    23.9190     2.2290   -23.8940 
  119.5000    86.7200     7.5670     7.0700     8.2700    23.9850     2.2200   -22.9410 
  119.6250    92.7780     7.1450     6.6560     7.3390    24.0020     2.2140   -22.1820 
  119.7500    93.6080     6.8440     6.3330     7.3160    24.0030     2.2150   -21.5060 
  119.8750    93.1460     6.6420     6.0970     7.4790    24.0040     2.2270   -20.9400 
  120.0000    94.6410     6.5170     5.9370     7.4190    24.0040     2.2440   -20.4990 
  120.1250    97.7530     6.4500     5.8500     6.7840    23.9920     2.2590   -20.1920 
  120.2500    99.0580     6.4120     5.8080     6.3740    23.9650     2.2640   -20.0260 
  120.3750    98.7150     6.4010     5.8020     6.4210    23.9370     2.2590   -19.9510 
  120.5000    99.3260     6.4380     5.8360     6.5490    23.9230     2.2490   -19.8640 
  120.6250    99.5120     6.5580     5.9270     6.5950    23.9190     2.2420   -19.8030 
  120.7500    96.3740     6.7400     6.0600     6.9830    23.9320     2.2420   -19.7150 
  120.8750    91.5690     6.9480     6.2130     7.5400    23.9760     2.2530   -19.7230 
  121.0000    89.8830     7.1390     6.3550     8.1080    24.0350     2.2730   -19.6810 
  121.1250    90.3810     7.2430     6.4420     8.5950    24.0580     2.2970   -19.7440 
  121.2500    89.8170     7.2360     6.4530     9.8190    24.0620     2.3140   -19.7850 
  121.3750    88.8280     7.1210     6.3860    11.4990    24.0570     2.3180   -19.8580 
  121.5000    89.8100     6.9360     6.2640    10.7880    24.0490     2.3060   -19.9250 
  121.6250    93.5490     6.7450     6.1260     8.5630    24.0490     2.2810   -20.0060 
  121.7500    98.6730     6.6240     6.0260     7.1470    24.0540     2.2550   -20.2000 
  121.8750   103.3880     6.6180     5.9980     6.4990    24.0270     2.2320   -20.3800 
  122.0000   103.9830     6.7350     6.0500     6.4650    23.8990     2.2150   -20.6760 
  122.1250    98.1180     6.9590     6.1770     6.8130    23.5870     2.2030   -20.8960 
  122.2500    90.6700     7.2000     6.3260     7.3810    23.2350     2.1960   -21.0760 
  122.3750    85.3110     7.3700     6.4430     7.9220    23.1220     2.1940   -21.1420 
  122.5000    83.7790     7.3950     6.4750     7.8600    23.3780     2.1970   -21.1770 
  122.6250    85.1370     7.2290     6.3820     7.6270    23.7650     2.2040   -21.1320 
  122.7500    87.5360     6.9500     6.2010     7.2180    23.9610     2.2110   -21.0150 
  122.8750    88.8970     6.6380     5.9790     6.9090    24.0250     2.2160   -20.8060 
  123.0000    86.9890     6.3780     5.7700     6.5590    24.0390     2.2160   -20.5240 
  123.1250    86.3700     6.2830     5.6520     6.4020    24.0270     2.2110   -20.2340 
  123.2500    90.8350     6.3690     5.6500     6.2510    24.0010     2.2030   -20.0140 
  123.3750    95.3140     6.6050     5.7600     6.2990    23.9870     2.1990   -19.8950 
  123.5000    93.4500     6.9210     5.9480     6.5760    23.9840     2.2060   -19.8710 
  123.6250    87.2810     7.2240     6.1650     6.9100    23.9840     2.2310   -19.8870 
  123.7500    84.3530     7.4370     6.3530     7.1560    23.9840     2.2660   -19.9290 
  123.8750    84.8910     7.5220     6.4740     7.4680    23.9850     2.2970   -20.0060 
  124.0000    85.9940     7.4990     6.5180     7.4790    23.9870     2.3090   -20.1210 
  124.1250    89.3280     7.4150     6.4970     6.9670    23.9530     2.2940   -20.2250 
  124.2500    91.9340     7.3200     6.4430     6.3900    23.8490     2.2640   -20.2670 
  124.3750    91.5850     7.2300     6.3740     6.4550    23.7110     2.2360   -20.2830 
  124.5000    90.6750     7.1420     6.2940     6.9340    23.6390     2.2180   -20.2060 
  124.6250    91.0850     7.0280     6.1940     7.0490    23.7070     2.2140   -20.1560 
  124.7500    89.6380     6.8820     6.0730     6.9940    23.8950     2.2180   -19.9320 
  124.8750    85.3590     6.7050     5.9360     6.8190    24.0990     2.2300   -19.6980 
  125.0000    84.0610     6.5120     5.7890     6.3920    24.2080     2.2520   -19.3760 
  125.1250    88.6040     6.3510     5.6580     6.0690    24.2230     2.2830   -19.0630 
  125.2500    92.1630     6.2730     5.5740     5.7890    24.2060     2.3100   -18.8180 
  125.3750    93.1130     6.2990     5.5570     5.9370    24.1620     2.3240   -18.6090 
  125.5000    93.7540     6.4180     5.6090     6.4510    24.0990     2.3190   -18.4850 
  125.6250    95.4370     6.5960     5.7200     6.4630    24.0690     2.2950   -18.3860 
  125.7500    93.8370     6.7780     5.8540     6.3690    24.0590     2.2680   -18.4580 
  125.8750    89.3310     6.9400     5.9890     6.4050    24.0580     2.2480   -18.5480 
  126.0000    86.0970     7.0690     6.1060     6.6290    24.0700     2.2390   -18.6320 
  126.1250    85.2610     7.1450     6.1800     7.0900    24.1160     2.2370   -18.6010 
  126.2500    84.8410     7.1650     6.2060     7.3930    24.1780     2.2360   -18.4880 
  126.3750    83.9200     7.1190     6.1780     7.2410    24.2050     2.2320   -18.3070 
  126.5000    83.9800     6.9810     6.0890     6.8070    24.2090     2.2250   -18.0880 
  126.6250    84.9320     6.7220     5.9260     6.7800    24.2090     2.2230   -17.8030 
  126.7500    87.6850     6.3850     5.7170     6.6840    24.2100     2.2270   -17.5050 
  126.8750    92.0390     6.0290     5.4950     6.5710    24.2110     2.2370   -17.1710 
  127.0000    95.2990     5.7470     5.3170     6.3620    24.2170     2.2470   -16.9040 
  127.1250    96.0540     5.6800     5.2680     6.1110    24.2220     2.2500   -16.7130 
  127.2500    96.7620     5.8460     5.3690     5.9380    24.2270     2.2500   -16.5560 
  127.3750    98.0360     6.2310     5.6190     6.1800    24.2280     2.2570   -16.4170 
  127.5000    96.9390     6.7680     5.9850     6.8410    24.2280     2.2830   -16.3240 
  127.6250    93.2730     7.3010     6.3830     8.2750    24.2250     2.3300   -16.3370 
  127.7500    90.4870     7.6480     6.6860    10.5510    24.2210     2.3800   -16.3180 
  127.8750    90.6760     7.7060     6.8090    12.0100    24.2190     2.4120   -16.3920 
  128.0000    94.1240     7.4630     6.7240    10.1980    24.2180     2.4170   -16.3920 
  128.1250    95.7610     6.9810     6.4420     7.2120    24.2140     2.3960   -16.4980 
  128.2500    93.5660     6.4560     6.0850     6.0600    24.2080     2.3710   -16.5930 
  128.3750    90.9800     6.0050     5.7390     5.8450    24.2050     2.3510   -16.7560 
  128.5000    92.3880     5.6760     5.4530     5.8880    24.2040     2.3400   -16.8980 
  128.6250    95.7290     5.5030     5.2760     5.8850    24.2060     2.3320   -17.0720 
