~V
VERS. 2.00: Ver 2.00
~W
STRT.M 72.0000:
STOP.M 259.0000:
STEP.M 0.1250:
NULL. -999.2500:
UWI. DF5020:
~C
DEPT.M :
DEN.GM/CC :
GR.API :
RML.OHMM :
RI. :
RXO.OHMM :
CALI.CM :
SP.MV :
~A
# ...
  240.7500     2.2580    72.8750    90.6630    87.7570   100.5210    24.6210   -19.7750 
  240.8750     2.2530    73.2230    87.0730    84.5170   100.9110    24.5780   -19.7590 
  241.0000     2.2490    72.6710    84.1420    81.7000   101.4290    24.5420   -19.7330 
  241.1250     2.2480    69.6370    82.4110    79.8600    87.3490    24.5630   -19.7540 
  241.2500     2.2480    65.1120    81.5390    78.8130    86.9670    24.5570   -19.7750 
  241.3750     2.2490    63.3200    80.9660    78.1220    86.8650    24.5110   -19.7920 
  241.5000     2.2500    65.3410    80.0100    77.2090    83.4450    24.4900   -19.8300 
  241.6250     2.2560    68.0350    78.0120    75.4860   100.6790    24.5360   -19.9330 
  241.7500     2.2620    69.8320    75.2010    73.0740   106.0190    24.5350   -20.0590 
  241.8750     2.2660    71.9980    72.1460    70.4060    93.1000    24.5250   -20.2180 
  242.0000     2.2680    73.9250    69.5370    68.0580    73.1090    24.5590   -20.3980 
  242.1250     2.2660    72.9030    68.0770    66.6680    70.3620    24.5870   -20.5720 
  242.2500     2.2620    72.8050    67.7990    66.3340    66.4400    24.5890   -20.7340 
  242.3750     2.2520    75.0370    68.6950    67.0990    66.2150    24.5670   -20.9270 
  242.5000     2.2310    74.3580    70.6940    68.9220    67.1840    24.5040   -21.1000 
  242.6250     2.1940    67.7630    73.7510    71.7620    66.9460    24.4130   -21.2430 
  242.7500     2.1510    63.3370    77.2010    74.9910    60.6660    24.3050   -21.3990 
  242.8750     2.1160    64.1370    80.1650    77.8230    54.0910    24.2370   -21.5500 
  243.0000     2.1000    66.0650    81.5610    79.2700    59.3550    24.2210   -21.6920 
  243.1250     2.1110    65.2320    80.1600    78.1170    66.9870    24.2750   -21.8350 
  243.2500     2.1360    65.2250    76.6140    74.7740    67.3910    24.3720   -21.9700 
  243.3750     2.1630    66.8800    72.1100    70.1770    59.3600    24.4500   -22.0670 
  243.5000     2.1850    69.0400    68.0380    65.6390    50.4220    24.4790   -22.1740 
  243.6250     2.2060    70.6620    65.5970    62.5520    48.9670    24.4740   -22.2320 
  243.7500     2.2350    71.5430    64.7030    61.1480    49.2600    24.3840   -22.2200 
  243.8750     2.2790    74.3190    65.0150    61.1900    51.3720    24.1320   -22.1430 
  244.0000     2.3330    79.8990    66.0110    62.1110    55.4760    23.7980   -21.9790 
  244.1250     2.3790    80.5850    67.1100    63.2280    61.9310    23.6650   -21.6900 
  244.2500     2.4000    75.1970    67.9020    64.0430    62.0680    23.6910   -21.3440 
  244.3750     2.3910    71.4200    68.2950    64.4370    63.4010    23.6300   -20.9560 
  244.5000     2.3610    74.7960    68.3660    64.4720    60.9050    23.3750   -20.5080 
  244.6250     2.3300    77.6700    68.2140    64.2040    51.1730    22.9610   -20.0410 
  244.7500     2.3090    76.0110    67.8770    63.6680    40.4880    22.6520   -19.5920 
  244.8750     2.3000    77.5540    67.1930    62.7460    38.5370    22.5140   -19.1620 
  245.0000     2.2950    84.7140    65.9270    61.2980    41.4850    22.6220   -18.7620 
  245.1250     2.2900    87.4870    63.8280    59.1780    47.5980    22.7660   -18.4080 
  245.2500     2.2850    82.5370    61.1380    56.5950    53.5230    22.8980   -18.0390 
  245.3750     2.2900    77.8430    58.1660    53.7850    53.9240    23.1230   -17.7150 
  245.5000     2.3090    78.4140    55.3690    51.1230    50.5090    23.4500   -17.4250 
  245.6250     2.3460    79.0940    53.6150    49.4380    50.2070    23.7890   -17.1740 
  245.7500     2.3910    76.6470    53.9120    49.6640    51.8280    24.0950   -16.9620 
  245.8750     2.4340    73.4140    57.7410    53.0350    58.4720    24.3200   -16.7680 
  246.0000     2.4730    71.6100    66.2110    60.5210    67.0580    24.4290   -16.6630 
  246.1250     2.5060    72.1960    79.1890    72.1360    76.6910    24.3940   -16.5650 
  246.2500     2.5320    74.5850    91.9480    83.9620    99.4010    24.3030   -16.5560 
  246.3750     2.5500    75.8850    98.6200    91.0030   150.4110    24.2370   -16.5420 
  246.5000     2.5580    74.6850    93.4310    88.3670   210.5510    24.2800   -16.5340 
  246.6250     2.5530    74.7410    73.5770    72.9350   304.2620    24.3170   -16.5080 
  246.7500     2.5360    77.2830    50.0050    52.0020   318.5290    24.3020   -16.4640 
  246.8750     2.5040    79.3070    31.3290    32.8900   234.0850    24.2260   -16.4200 
  247.0000     2.4590    78.0890    19.5890    19.5880    56.0610    24.1010   -16.3020 
  247.1250     2.4100    75.5500    13.5530    12.5530    17.3280    23.9540   -16.1990 
  247.2500     2.3700    74.4770     9.8330     8.8330     6.8870    23.8670   -16.0430 
  247.3750     2.3460    75.1010     8.0110     7.0110     5.0760    23.8680   -15.8740 
  247.5000     2.3380    74.7600     7.2400     6.2400     4.8280    23.9730   -15.6740 
  247.6250     2.3400    72.1910     7.0810     6.0810     4.7850    24.2000   -15.4970 
  247.7500     2.3400    71.2980     7.1360     6.1360     4.7710    24.3920   -15.3140 
  247.8750     2.3330    73.2370     7.2470     6.2470     4.7670    24.4970   -15.1530 
  248.0000     2.3210    75.9460     7.3290     6.3290     4.8230    24.4970   -15.0150 
  248.1250     2.3080    75.9370     7.3490     6.3490     4.8420    24.5020   -14.9000 
  248.2500     2.2990    75.9370     7.3190     6.3190     4.9170    24.5560   -14.8130 
  248.3750     2.2960    75.9370     7.2510     6.2510     4.9600    24.6520   -14.7670 
  248.5000     2.2990    75.9370     7.1550     6.1550     4.9160    24.7320   -14.7520 
  248.6250     2.3040    75.9370     7.0420     6.0420     4.9710    24.7660   -14.7580 
  248.7500     2.3110    75.9370     6.9260     5.9260     4.9260    24.7360   -14.7740 
  248.8750     2.3160    75.9370     6.8160     5.8160     4.9850    24.6490   -14.7890 
  249.0000     2.3200    75.9370     6.7160     5.7160     5.0780    24.5610   -14.8070 
  249.1250     2.3220    75.9370     6.6230     5.6230     5.1260    24.5070   -14.8410 
  249.2500     2.3210    75.9370     6.5340     5.5340     5.1470    24.4970   -14.8500 
  249.3750     2.3200    75.9370     6.4520     5.4520     5.1050    24.4950   -14.8500 
  249.5000     2.3200    75.9370     6.3840     5.3840     5.0980    24.4950   -14.8440 
  249.6250     2.3260    75.9370     6.3440     5.3440     5.2020    24.5070   -14.8270 
  249.7500     2.3370    75.9370     6.3330     5.3330     4.9750    24.5340   -14.8320 
  249.8750     2.3500    75.9370     6.3450     5.3450     4.9230    24.5610   -14.8090 
  250.0000     2.3630    75.9370     6.3720     5.3720     5.0570    24.5730   -14.7950 
  250.1250     2.3700    75.9370     6.4010     5.4010     5.2000    24.5730   -14.7900 
  250.2500     2.3720    75.9370     6.4230     5.4230     5.2730    24.5670   -14.8070 
  250.3750     2.3720    75.9370     6.4350     5.4350     5.3470    24.5450   -14.8190 
  250.5000     2.3720    75.9370     6.4370     5.4370     5.3990    24.5000   -14.8190 
  250.6250     2.3710    75.9370     6.4300     5.4300     5.5190    24.4750   -14.8220 
  250.7500     2.3660    75.9370     6.4170     5.4170     5.5650    24.4660   -14.8190 
  250.8750     2.3550    75.9370     6.4010     5.4010     5.5850    24.4580   -14.8250 
  251.0000     2.3400    75.9370     6.3920     5.3920     5.6030    24.4180   -14.8740 
  251.1250     2.3290    75.9370     6.4060     5.4060     5.7310    24.2940   -14.8880 
  251.2500     2.3260    75.9370     6.4460     5.4460     5.9920    24.1430   -14.9230 
  251.3750     2.3300    75.9370     6.5040     5.5040     6.2560    24.0620   -14.9310 
  251.5000     2.3360    75.9370     6.5650     5.5650     6.6220    24.1240   -14.9540 
  251.6250     2.3400    75.9370     6.6110     5.6110     6.8880    24.2360   -14.9870 
  251.7500     2.3390    75.9370     6.6390     5.6390     7.1880    24.2990   -15.0240 
  251.8750     2.3360    75.9370     6.6550     5.6550     7.3620    24.3290   -15.0650 
