~V
VERS. 2.00: Ver 2.00
~W
STRT.M 65.0000:
STOP.M 258.0000:
STEP.M 0.1250:
NULL. -999.2500:
UWI. DF5030:
~C
DEPT.M :
SP.MV :
GR.API :
RML.OHMM :
RI. :
RXO.OHMM :
CALI.CM :
DEN.GM/CC :
~A
# ...
   87.5000   -30.8040    75.1870     8.6360     7.0390     8.4660    23.0900     2.1260 
   87.6250   -31.2770    72.1370     8.7190     7.0880     8.4400    23.4460     2.1300 
   87.7500   -31.7440    71.1870     8.8790     7.1850     8.5410    23.6290     2.1380 
   87.8750   -32.2080    69.2120     9.1200     7.3400     8.7950    23.5830     2.1480 
   88.0000   -32.6260    65.0580     9.3980     7.5290     9.0710    23.4730     2.1600 
   88.1250   -32.9160    59.6970     9.6840     7.7320     9.2760    23.4270     2.1720 
   88.2500   -33.0930    53.2260     9.9450     7.9250     9.3590    23.4500     2.1820 
   88.3750   -33.1450    46.1320    10.1350     8.0760     9.4080    23.5170     2.1890 
   88.5000   -33.0320    43.1940    10.2100     8.1580     9.4430    23.5790     2.1910 
   88.6250   -32.7220    46.9380    10.1090     8.1270     9.4880    23.6380     2.1890 
   88.7500   -32.2750    53.3390     9.7830     7.9430     9.5730    23.6630     2.1860 
   88.8750   -31.7050    59.9110     9.2030     7.5620     9.4080    23.6700     2.1900 
   89.0000   -31.0390    68.9440     8.5090     7.0660     8.9410    23.6590     2.2040 
   89.1250   -30.3920    82.7890     7.8570     6.5520     8.1300    23.6340     2.2260 
   89.2500   -29.8220    98.2630     7.4060     6.1330     7.1370    23.6540     2.2480 
   89.3750   -29.4050   103.3670     7.3060     5.9330     6.4040    23.7290     2.2530 
   89.5000   -29.1930    93.7110     7.4940     5.9440     6.3950    23.7460     2.2370 
   89.6250   -29.1730    75.0370     7.8680     6.1250     6.8400    23.7020     2.2050 
   89.7500   -29.3090    60.0180     8.2950     6.4000     7.3970    23.6760     2.1710 
   89.8750   -29.5790    59.3520     8.6300     6.6730     7.6890    23.6930     2.1490 
   90.0000   -29.8830    67.6860     8.8290     6.8780     7.8850    23.7240     2.1410 
   90.1250   -30.1590    77.2950     8.9130     7.0030     8.0210    23.7640     2.1430 
   90.2500   -30.4260    79.8410     8.9400     7.0730     8.1410    23.8210     2.1460 
   90.3750   -30.5910    74.3370     8.9610     7.1220     8.2710    23.8570     2.1450 
   90.5000   -30.5510    71.0510     8.9690     7.1660     8.3770    23.8510     2.1410 
   90.6250   -30.3370    73.0900     8.9090     7.1790     8.4070    23.8160     2.1370 
   90.7500   -29.9990    73.5330     8.7090     7.1150     8.3560    23.7770     2.1380 
   90.8750   -29.4910    69.3110     8.3010     6.9100     8.1450    23.7420     2.1460 
   91.0000   -28.8330    72.6180     7.7610     6.5810     7.7480    23.7320     2.1610 
   91.1250   -28.0840    86.6250     7.2010     6.1820     7.2560    23.7300     2.1810 
   91.2500   -27.2770   101.3590     6.7520     5.7980     6.6920    23.7220     2.2020 
   91.3750   -26.4170   107.0410     6.5390     5.5370     6.0810    23.7200     2.2170 
   91.5000   -25.5980   107.2850     6.5190     5.4190     5.7120    23.7050     2.2220 
   91.6250   -24.8470   106.3380     6.6030     5.4180     5.7320    23.6640     2.2190 
   91.7500   -24.1520   103.0400     6.6730     5.4720     5.9540    23.6050     2.2130 
   91.8750   -23.5720   101.8480     6.6070     5.5010     5.9800    23.5650     2.2130 
   92.0000   -23.1170   106.3020     6.3990     5.4570     5.7870    23.5640     2.2210 
   92.1250   -22.7260   113.1640     6.0990     5.3360     5.4410    23.6220     2.2360 
   92.2500   -22.3750   115.7650     5.7870     5.1650     5.1240    23.6940     2.2510 
   92.3750   -22.1150   112.0590     5.5420     4.9840     5.0630    23.6800     2.2630 
   92.5000   -21.8750   108.5930     5.3740     4.8220     5.0680    23.5980     2.2730 
   92.6250   -21.6580   109.1290     5.2620     4.6870     4.9400    23.5450     2.2820 
   92.7500   -21.5030   114.7040     5.1790     4.5710     4.7550    23.5480     2.2920 
   92.8750   -21.3560   119.0890     5.0940     4.4630     4.5780    23.6150     2.2980 
   93.0000   -21.2250   119.0980     4.9890     4.3510     4.4330    23.7280     2.3000 
   93.1250   -21.1900   118.6050     4.8590     4.2290     4.3300    23.8160     2.2990 
   93.2500   -21.2280   121.4120     4.7100     4.1020     4.2710    23.8520     2.3010 
   93.3750   -21.2420   123.4310     4.5760     3.9890     4.2130    23.8540     2.3100 
   93.5000   -21.2620   121.1750     4.5010     3.9150     4.1560    23.8580     2.3220 
   93.6250   -21.3180   118.3780     4.5160     3.8990     4.1810    23.8770     2.3330 
   93.7500   -21.4110   117.2680     4.6310     3.9480     4.3020    23.8840     2.3380 
   93.8750   -21.5380   116.0040     4.8400     4.0650     4.5350    23.8420     2.3350 
   94.0000   -21.7040   116.8000     5.0950     4.2280     4.8360    23.7740     2.3260 
   94.1250   -21.9120   119.7460     5.3730     4.4290     5.0850    23.7300     2.3140 
   94.2500   -22.0950   119.9460     5.6600     4.6660     5.2380    23.7570     2.3020 
   94.3750   -22.2490   114.8280     5.9390     4.9290     5.3730    23.7920     2.2880 
   94.5000   -22.4150   110.0220     6.1850     5.1890     5.7930    23.7640     2.2710 
   94.6250   -22.5630   107.9310     6.3710     5.4130     6.4130    23.7170     2.2550 
   94.7500   -22.6010   108.0020     6.4740     5.5690     6.9170    23.7370     2.2440 
   94.8750   -22.5250   107.4680     6.4760     5.6200     6.6280    23.8510     2.2400 
   95.0000   -22.3910   106.4230     6.4020     5.5830     5.9790    23.9890     2.2420 
   95.1250   -22.1880   105.3890     6.2610     5.4760     5.5800    24.0770     2.2460 
   95.2500   -21.9910   105.5990     6.0490     5.3130     5.4570    24.1270     2.2490 
   95.3750   -21.8180   108.0200     5.7560     5.1020     5.3270    24.1920     2.2540 
   95.5000   -21.6120   107.1580     5.4270     4.8630     5.0360    24.2670     2.2630 
   95.6250   -21.4020   105.0490     5.1380     4.6290     4.8180    24.3290     2.2770 
   95.7500   -21.2520   106.6630     5.0010     4.4560     4.7000    24.3530     2.2920 
   95.8750   -21.1750   111.4100     5.1830     4.4590     4.7000    24.3380     2.3050 
   96.0000   -21.1820   111.8000     5.6760     4.6740     4.8910    24.2970     2.3180 
   96.1250   -21.2490   107.9980     6.3970     5.0880     5.4510    24.2400     2.3350 
   96.2500   -21.2890   107.8690     7.1700     5.6150     6.4740    24.1620     2.3620 
   96.3750   -21.3060   107.2200     7.7240     6.0890     7.4600    24.0790     2.3920 
   96.5000   -21.3930    99.7860     7.9180     6.3650     8.1650    24.0400     2.4070 
   96.6250   -21.5620    89.5500     7.7550     6.3930     8.0680    24.0780     2.3980 
   96.7500   -21.7770    83.0680     7.3840     6.2330     6.6960    24.1060     2.3620 
   96.8750   -21.9890    82.3700     7.0410     6.0300     6.2930    24.1090     2.3160 
   97.0000   -22.1530    82.8090     6.8620     5.9130     6.3640    24.1040     2.2770 
   97.1250   -22.2880    84.2690     6.8450     5.9030     6.5900    24.1020     2.2520 
   97.2500   -22.4120    84.2940     6.9030     5.9460     6.6900    24.0880     2.2410 
   97.3750   -22.4850    79.6920     6.8940     5.9370     6.6250    24.0710     2.2400 
   97.5000   -22.4940    77.2540     6.7450     5.8130     6.3740    24.0820     2.2460 
   97.6250   -22.4300    79.8680     6.4770     5.5840     6.0570    24.1310     2.2560 
   97.7500   -22.3020    86.1770     6.1860     5.3210     5.8370    24.1720     2.2680 
   97.8750   -22.1560    92.5480     6.0480     5.1570     5.6560    24.2070     2.2760 
   98.0000   -21.9940    97.5870     6.1610     5.1780     5.5580    24.2530     2.2800 
   98.1250   -21.8180   100.3280     6.5350     5.4110     5.7830    24.2860     2.2860 
   98.2500   -21.6860    99.9140     7.0660     5.7970     6.5550    24.2830     2.3050 
   98.3750   -21.6350    97.8570     7.5250     6.1830     7.5130    24.2320     2.3440 
   98.5000   -21.6030    98.1130     7.7070     6.3980     8.4700    24.1570     2.3880 
   98.6250   -21.6120   100.2730     7.5290     6.3470     8.7830    24.1150     2.4150 
