~V
VERS. 2.00: Ver 2.00
~W
STRT.M 53.0000:
STOP.M 257.0000:
STEP.M 0.1250:
NULL. -999.2500:
UWI. DF5014:
~C
DEPT.M :
GR.API :
RML.OHMM :
RI. :
RXO.OHMM :
CALI.CM :
DEN.GM/CC :
SP.MV :
~A
# ...
  154.2500    68.3310    19.2240    16.6000    17.7190    24.2030     2.3230   -13.6910 
  154.3750    61.4710    20.7100    17.9890    18.7420    24.2160     2.4140   -13.5870 
  154.5000    56.2800    22.2260    19.4120    21.4730    24.2230     2.4960   -13.5840 
  154.6250    53.5450    23.7910    20.9050    23.3890    24.2360     2.5540   -13.5950 
  154.7500    51.7550    25.3090    22.4020    23.9150    24.2400     2.5840   -13.5820 
  154.8750    50.0870    26.5100    23.6660    24.3470    24.2250     2.5940   -13.5210 
  155.0000    48.6500    27.2480    24.5220    24.7240    24.2020     2.5970   -13.4290 
  155.1250    45.9350    27.5030    24.9100    25.3590    24.1950     2.5960   -13.3150 
  155.2500    42.4890    27.3820    24.9010    25.8130    24.2140     2.5940   -13.1670 
  155.3750    41.2740    27.0320    24.6200    25.5890    24.2310     2.5920   -12.9960 
  155.5000    43.2850    26.6290    24.2610    26.0590    24.2440     2.5900   -12.7770 
  155.6250    45.7700    26.2310    23.9090    27.3310    24.2560     2.5890   -12.5570 
  155.7500    47.1800    25.8570    23.6020    28.8770    24.2590     2.5870   -12.3800 
  155.8750    49.8020    25.5650    23.3890    29.7940    24.2720     2.5820   -12.2720 
  156.0000    52.7370    25.4550    23.3250    27.9920    24.3000     2.5720   -12.1950 
  156.1250    52.7480    25.6540    23.4990    24.8030    24.3280     2.5580   -12.1490 
  156.2500    49.4990    26.2490    23.9960    23.4200    24.3340     2.5440   -12.1550 
  156.3750    46.4670    27.2780    24.8860    24.2460    24.3520     2.5350   -12.1250 
  156.5000    46.4570    28.5210    26.0080    25.7690    24.3600     2.5320   -12.0550 
  156.6250    48.7080    29.7720    27.1890    27.5970    24.3630     2.5370   -11.9760 
  156.7500    49.9500    30.8350    28.2450    28.9470    24.3630     2.5470   -11.8990 
  156.8750    48.9880    31.5090    28.9960    29.9010    24.3630     2.5590   -11.8140 
  157.0000    48.4230    31.8020    29.4540    30.6380    24.3630     2.5680   -11.7810 
  157.1250    48.7520    31.7430    29.6450    31.5040    24.3570     2.5720   -11.8020 
  157.2500    48.3350    31.4000    29.6070    32.2680    24.3450     2.5690   -11.7960 
  157.3750    47.5010    30.8480    29.3500    32.3170    24.3280     2.5580   -11.8560 
  157.5000    48.5260    30.2420    28.9620    31.1130    24.3390     2.5450   -12.0280 
  157.6250    48.8590    29.6800    28.5120    28.0890    24.3440     2.5330   -12.2470 
  157.7500    47.4450    29.2130    28.0560    25.2340    24.3200     2.5250   -12.4440 
  157.8750    47.7440    28.8210    27.6110    24.6600    24.2490     2.5230   -12.5960 
  158.0000    50.7380    28.3830    27.1250    25.5100    24.2000     2.5240   -12.6640 
  158.1250    54.0930    27.7910    26.5330    26.3620    24.1970     2.5240   -12.6710 
  158.2500    54.8950    26.9830    25.7860    26.0510    24.2340     2.5240   -12.6640 
  158.3750    54.5910    25.9620    24.8640    24.4570    24.1970     2.5270   -12.6290 
  158.5000    54.9960    24.8960    23.8770    22.0090    24.0820     2.5340   -12.5150 
  158.6250    56.2660    23.9380    22.9470    19.9600    23.9510     2.5380   -12.4050 
  158.7500    57.5980    23.2020    22.1900    18.6580    23.8690     2.5320   -12.3350 
  158.8750    58.8920    22.7840    21.7090    17.8440    23.8580     2.5090   -12.3720 
  159.0000    59.2600    22.6160    21.4500    17.0160    23.8910     2.4780   -12.4540 
  159.1250    58.9810    22.6390    21.3600    16.9430    23.9680     2.4500   -12.5600 
  159.2500    58.4420    22.7640    21.3690    17.7500    24.0940     2.4340   -12.6650 
  159.3750    57.9740    22.8910    21.4170    18.7160    24.2470     2.4360   -12.7670 
  159.5000    57.2550    22.9690    21.4790    19.0400    24.3100     2.4480   -12.8480 
  159.6250    56.6430    23.0260    21.5840    18.8430    24.2730     2.4590   -12.8790 
  159.7500    58.0470    23.1390    21.7790    18.3400    24.1790     2.4650   -12.8920 
  159.8750    61.7110    23.4010    22.1100    18.1180    24.1090     2.4640   -12.8670 
  160.0000    64.5990    23.7730    22.5160    18.9450    24.1140     2.4610   -12.8610 
  160.1250    64.3310    24.1410    22.8980    20.5100    24.1750     2.4610   -12.8740 
  160.2500    62.5330    24.3410    23.1250    22.0070    24.2090     2.4650   -12.9100 
  160.3750    62.8100    24.1700    23.0260    21.8880    24.1130     2.4720   -12.9680 
  160.5000    63.5330    23.6350    22.5980    20.7210    23.9790     2.4780   -13.1150 
  160.6250    61.4020    22.7850    21.8620    19.4800    23.9090     2.4780   -13.3210 
  160.7500    55.6480    21.7090    20.8790    18.6110    23.9210     2.4720   -13.5270 
  160.8750    52.5700    20.4980    19.7130    17.5680    23.9740     2.4640   -13.6740 
  161.0000    55.1790    19.2810    18.5110    16.5710    24.0630     2.4590   -13.7500 
  161.1250    58.6980    18.1650    17.3850    16.1000    24.2030     2.4570   -13.7900 
  161.2500    58.7110    17.2550    16.4460    15.8410    24.2820     2.4590   -13.8270 
  161.3750    56.3160    16.7010    15.8320    15.3280    24.2830     2.4630   -13.8610 
  161.5000    54.8350    16.4830    15.5250    14.9770    24.2740     2.4700   -13.8180 
  161.6250    53.2400    16.5480    15.4860    15.4790    24.2770     2.4790   -13.7160 
  161.7500    51.7740    16.7890    15.6380    15.8160    24.2740     2.4890   -13.6320 
  161.8750    51.7890    17.0750    15.8920    15.8290    24.2560     2.4970   -13.6130 
  162.0000    50.7470    17.2940    16.1460    16.0930    24.2530     2.5030   -13.6420 
  162.1250    48.7150    17.4180    16.3570    16.6030    24.2630     2.5080   -13.6620 
  162.2500    48.9490    17.4580    16.5130    17.1640    24.2610     2.5120   -13.6690 
  162.3750    52.3480    17.4480    16.6070    17.7770    24.2710     2.5150   -13.6570 
  162.5000    54.5730    17.4040    16.6460    17.8830    24.2520     2.5130   -13.6540 
  162.6250    54.4070    17.3490    16.6270    17.3120    24.1870     2.5080   -13.6330 
  162.7500    53.3600    17.2920    16.5640    16.7590    24.1190     2.5020   -13.5720 
  162.8750    53.6480    17.2350    16.4930    16.3640    24.1410     2.5000   -13.4810 
  163.0000    55.4430    17.2270    16.4660    15.8710    24.1820     2.5020   -13.4410 
  163.1250    57.8360    17.3320    16.5200    15.6070    24.1910     2.5060   -13.4570 
  163.2500    60.4340    17.5170    16.6580    15.6020    24.1750     2.5070   -13.4810 
  163.3750    62.3440    17.7020    16.8310    15.5870    24.1730     2.5010   -13.4950 
  163.5000    62.4160    17.8120    16.9120    15.5990    24.2130     2.4870   -13.5820 
  163.6250    59.1210    17.6580    16.7620    15.6150    24.2400     2.4680   -13.7750 
  163.7500    56.5390    17.0420    16.2570    15.4310    24.2700     2.4450   -13.9820 
  163.8750    60.7030    15.8830    15.3280    14.8840    24.3560     2.4200   -14.1790 
  164.0000    68.4060    14.6320    14.2010    13.6930    24.4560     2.3970   -14.3310 
  164.1250    74.1350    13.5640    13.1220    12.1360    24.4540     2.3770   -14.4500 
  164.2500    77.0540    12.9030    12.3230    10.7150    24.2880     2.3630   -14.5870 
  164.3750    80.2300    12.8070    11.9990    10.3570    23.9930     2.3570   -14.7720 
  164.5000    85.5160    13.0800    12.0460    11.1580    23.8210     2.3560   -14.8840 
  164.6250    88.5140    13.5290    12.3320    12.5010    23.8070     2.3600   -14.9400 
  164.7500    84.8620    14.0100    12.7250    13.6940    23.9150     2.3640   -15.0150 
  164.8750    79.8100    14.5970    13.2170    14.0910    24.0690     2.3690   -15.1630 
  165.0000    80.3160    15.6020    13.9780    14.2410    24.2170     2.3700   -15.3050 
  165.1250    83.5820    17.4070    15.3040    15.5540    24.3160     2.3670   -15.4340 
  165.2500    83.9090    20.2620    17.4750    19.3400    24.3560     2.3550   -15.5160 
  165.3750    81.3150    24.1860    20.7060    26.2850    24.3630     2.3360   -15.5850 
