~V
VERS. 2.00: Ver 2.00
~W
STRT.M 57.0000:
STOP.M 276.0000:
STEP.M 0.1250:
NULL. -999.2500:
UWI. DF5005:
~C
DEPT.M :
GR.API :
RML.OHMM :
RI. :
RXO.OHMM :
CALI.CM :
DEN.GM/CC :
SP.MV :
~A
# ...
   79.5000    61.4800    10.2380     8.4830     9.0340    23.2240     2.1490   -30.3520 
   79.6250    65.7550    10.2970     8.5230     8.8890    23.1600     2.1520   -30.1250 
   79.7500    72.1570    10.3610     8.5670     8.8060    23.1390     2.1590   -29.9520 
   79.8750    73.2360    10.4180     8.5960     8.7550    23.1400     2.1670   -29.8970 
   80.0000    68.6620    10.4690     8.6050     8.7240    23.1480     2.1730   -29.8960 
   80.1250    64.3890    10.5150     8.6010     8.7390    23.1730     2.1740   -29.8460 
   80.2500    64.1180    10.5820     8.5960     8.7360    23.2130     2.1690   -29.7190 
   80.3750    64.9890    10.6670     8.6050     8.7210    23.2540     2.1570   -29.5320 
   80.5000    64.1870    10.7580     8.6330     8.7850    23.2710     2.1420   -29.3460 
   80.6250    63.3290    10.8070     8.6740     8.9400    23.2850     2.1290   -29.1460 
   80.7500    64.7570    10.7760     8.7100     9.1110    23.3250     2.1230   -28.8750 
   80.8750    66.8030    10.6540     8.7040     9.1900    23.4050     2.1270   -28.4160 
   81.0000    68.1590    10.4520     8.6320     9.0840    23.4560     2.1400   -27.7550 
   81.1250    70.2590    10.2170     8.4780     8.7980    23.4730     2.1570   -26.9980 
   81.2500    74.4600    10.0020     8.2410     8.3360    23.4670     2.1730   -26.2130 
   81.3750    80.3900     9.7860     7.9340     7.8170    23.4470     2.1850   -25.4120 
   81.5000    86.2130     9.5240     7.6050     7.3380    23.4200     2.1950   -24.5860 
   81.6250    91.2410     9.2120     7.2890     6.9890    23.4090     2.2070   -23.8240 
   81.7500    95.1100     8.8700     7.0140     6.7970    23.4030     2.2220   -23.2090 
   81.8750    94.7970     8.5500     6.8130     6.7110    23.3830     2.2360   -22.8510 
   82.0000    91.8160     8.3330     6.6840     6.8020    23.3540     2.2470   -22.7720 
   82.1250    90.6100     8.2980     6.6340     6.8630    23.3290     2.2510   -22.9070 
   82.2500    93.2370     8.3650     6.6750     6.7610    23.3020     2.2500   -23.2200 
   82.3750    93.8080     8.5920     6.8490     6.7400    23.3060     2.2410   -23.7980 
   82.5000    87.7190     8.9880     7.1560     6.9090    23.3380     2.2270   -24.6260 
   82.6250    78.7560     9.5310     7.5920     7.2510    23.3950     2.2070   -25.6010 
   82.7500    71.0330    10.1470     8.1180     7.7590    23.5180     2.1850   -26.6550 
   82.8750    66.0550    10.6950     8.6490     8.3490    23.6770     2.1680   -27.7120 
   83.0000    63.8810    11.0760     9.0840     8.8710    23.7890     2.1600   -28.7300 
   83.1250    63.1510    11.2520     9.3610     9.2120    23.8630     2.1620   -29.7380 
   83.2500    59.9760    11.2530     9.4680     9.4490    23.9290     2.1670   -30.6880 
   83.3750    53.7910    11.1180     9.4240     9.6840    24.0200     2.1670   -31.4190 
   83.5000    50.8360    10.9220     9.3170     9.8090    24.0570     2.1600   -31.8810 
   83.6250    53.7950    10.6930     9.2030     9.8550    24.0560     2.1470   -32.1280 
   83.7500    59.8060    10.4760     9.1090     9.8310    24.0160     2.1340   -32.1890 
   83.8750    63.6550    10.2860     9.0490     9.7630    23.9280     2.1230   -32.0720 
   84.0000    64.0380    10.1710     9.0150     9.7240    23.8520     2.1150   -31.7910 
   84.1250    61.9670    10.1620     9.0200     9.7790    23.8130     2.1060   -31.2900 
   84.2500    60.6630    10.2740     9.1010     9.9250    23.8020     2.0960   -30.5940 
   84.3750    60.7330    10.4890     9.3230    10.0780    23.8160     2.0900   -29.7520 
   84.5000    61.4460    10.8140     9.6470    10.3750    23.8640     2.0940   -28.7930 
   84.6250    63.0760    11.1960     9.9430    11.0600    23.9690     2.1200   -27.6650 
   84.7500    66.1760    11.4450    10.0020    12.0350    24.1450     2.1740   -26.3630 
   84.8750    70.9960    11.1400     9.5470    12.7970    24.3170     2.2490   -24.9270 
   85.0000    79.0270    10.1120     8.6410    12.8690    24.4380     2.3180   -23.4790 
   85.1250    90.6370     8.6870     7.5030    11.1290    24.5090     2.3570   -22.1080 
   85.2500   102.5330     7.4050     6.4730     7.7710    24.5340     2.3570   -20.8690 
   85.3750   108.8480     6.8820     5.9700     6.5110    24.4810     2.3270   -19.7990 
   85.5000   109.0570     7.2000     6.1040     6.4650    24.3200     2.2940   -18.9340 
   85.6250   103.9030     8.2420     6.8670     7.1800    24.0930     2.2750   -18.3150 
   85.7500    96.4190     9.6670     8.0740     8.3870    23.9670     2.2750   -17.9320 
   85.8750    91.9070    10.8480     9.2970     9.5830    24.0390     2.2950   -17.6890 
   86.0000    91.7840    11.2630    10.0210    10.4390    24.2110     2.3220   -17.4560 
   86.1250    95.3460    10.7260     9.9590    10.3740    24.4070     2.3440   -17.2220 
   86.2500   102.1820     9.4660     9.1660     8.8810    24.5060     2.3550   -16.9850 
   86.3750   109.8060     8.0580     8.0070     7.3130    24.5160     2.3510   -16.7790 
   86.5000   115.1200     7.0170     6.9630     6.2420    24.5190     2.3430   -16.5660 
   86.6250   119.6400     6.4730     6.2090     5.8690    24.5450     2.3380   -16.3170 
   86.7500   123.7850     6.3420     5.7670     5.7550    24.5790     2.3360   -16.0440 
   86.8750   123.4770     6.4620     5.6060     5.6970    24.5810     2.3350   -15.8650 
   87.0000   120.1310     6.6380     5.5930     5.6190    24.5600     2.3310   -15.8540 
   87.1250   119.5410     6.8050     5.6580     5.6230    24.5160     2.3260   -15.9300 
   87.2500   121.4640     6.9520     5.7530     5.7210    24.4470     2.3230   -16.0060 
   87.3750   120.0560     7.0310     5.8500     5.8740    24.3830     2.3270   -16.0530 
   87.5000   115.4320     6.9960     5.9300     5.9500    24.3500     2.3370   -16.1340 
   87.6250   111.6070     6.9200     5.9810     5.9700    24.3290     2.3460   -16.2460 
   87.7500   110.2220     6.8590     5.9940     5.9820    24.2860     2.3510   -16.3530 
   87.8750   110.4430     6.8020     5.9550     6.0120    24.1960     2.3480   -16.4410 
   88.0000   110.6980     6.7960     5.8780     6.0640    24.2310     2.3410   -16.5320 
   88.1250   110.8410     6.8770     5.7870     6.1480    24.3000     2.3360   -16.6740 
   88.2500   110.9080     7.0330     5.7220     6.2710    24.3330     2.3340   -16.9070 
   88.3750   113.5800     7.2720     5.7480     6.4730    24.3330     2.3360   -17.2330 
   88.5000   116.0940     7.5170     5.8840     6.7770    24.3330     2.3370   -17.6080 
   88.6250   114.1630     7.8890     6.1270     7.1280    24.3130     2.3300   -18.0930 
   88.7500   105.7850     8.3440     6.4460     7.5630    24.2350     2.3130   -18.7610 
   88.8750    98.3620     8.7970     6.7840     8.0850    24.0580     2.2840   -19.5830 
   89.0000    95.2740     9.1610     7.0800     8.3010    23.9230     2.2530   -20.4180 
   89.1250    92.5680     9.3910     7.2980     8.4710    23.8580     2.2280   -21.1930 
   89.2500    88.7570     9.4880     7.4190     8.7440    23.8350     2.2120   -21.8790 
   89.3750    86.6650     9.4750     7.4260     9.0800    23.8780     2.2070   -22.4810 
   89.5000    87.0760     9.4240     7.3580     9.1130    23.9860     2.2090   -23.0260 
   89.6250    87.5320     9.3690     7.2500     8.5190    24.1130     2.2120   -23.4280 
   89.7500    88.9580     9.3240     7.1390     7.8260    24.2050     2.2140   -23.6970 
   89.8750    93.1780     9.3080     7.0650     7.5150    24.1760     2.2120   -23.9590 
   90.0000    94.3940     9.3370     7.0480     7.5880    24.0330     2.2100   -24.3130 
   90.1250    89.6150     9.4740     7.0960     7.8180    23.8670     2.2100   -24.7620 
   90.2500    81.9750     9.7070     7.2090     8.0310    23.7970     2.2130   -25.2460 
   90.3750    79.5100    10.0980     7.3780     7.9130    23.8180     2.2130   -25.7370 
   90.5000    80.1520    10.4610     7.5670     7.9860    23.8080     2.2070   -26.2740 
   90.6250    77.6580    10.7380     7.7490     8.4260    23.7660     2.1920   -26.8700 
