~V
VERS. 2.00: Ver 2.00
~W
STRT.M 53.0000:
STOP.M 257.0000:
STEP.M 0.1250:
NULL. -999.2500:
UWI. DF5014:
~C
DEPT.M :
GR.API :
RML.OHMM :
RI. :
RXO.OHMM :
CALI.CM :
DEN.GM/CC :
SP.MV :
~A
# ...
  109.2500    52.5890    15.7470    13.0720    15.1630    23.4930     2.3560   -18.7430 
  109.3750    55.5870    15.9310    13.5640    17.0970    23.5070     2.4000   -18.6060 
  109.5000    58.7410    14.9860    13.1130    17.2590    23.4360     2.4100   -18.4810 
  109.6250    59.7270    13.3290    11.9320    14.5160    23.2600     2.3810   -18.3700 
  109.7500    59.9660    11.6130    10.5030    11.1990    23.0410     2.3260   -18.3040 
  109.8750    61.2220    10.4720     9.3540     9.9240    22.9170     2.2690   -18.2460 
  110.0000    62.8150     9.9620     8.6490     9.6620    22.8540     2.2260   -18.2280 
  110.1250    65.5100     9.9400     8.3570     9.6250    22.8070     2.2000   -18.2420 
  110.2500    69.6030    10.1760     8.3610     9.5860    22.7740     2.1870   -18.2500 
  110.3750    73.2910    10.4320     8.5180     9.5810    22.7610     2.1840   -18.2510 
  110.5000    75.7840    10.5630     8.6740     9.5190    22.7440     2.1860   -18.2380 
  110.6250    76.7440    10.5450     8.7640     9.3150    22.7140     2.1910   -18.2290 
  110.7500    75.5490    10.4120     8.7750     8.9600    22.6920     2.1980   -18.1890 
  110.8750    73.7060    10.2250     8.7170     8.5710    22.6880     2.2080   -18.1190 
  111.0000    73.4390    10.0580     8.6390     8.3650    22.7110     2.2160   -18.0490 
  111.1250    73.4130     9.9580     8.5820     8.4650    22.7950     2.2190   -17.9750 
  111.2500    72.3290     9.9570     8.5750     8.6020    22.9410     2.2160   -17.9210 
  111.3750    70.6780    10.0490     8.6290     8.7970    23.0120     2.2070   -17.8820 
  111.5000    69.4520    10.1420     8.6980     9.1120    22.9480     2.1960   -17.8360 
  111.6250    68.8280    10.1370     8.7190     9.4600    22.8590     2.1900   -17.7810 
  111.7500    68.4100     9.9550     8.6360     9.6390    22.8220     2.1900   -17.7330 
  111.8750    68.7820     9.5940     8.4290     9.5760    22.8300     2.1970   -17.7190 
  112.0000    69.1210     9.2670     8.2190     9.3570    22.8540     2.2050   -17.6690 
  112.1250    68.6760     9.2360     8.1790     9.0330    22.8920     2.2150   -17.6050 
  112.2500    67.6890     9.7160     8.4720     9.0170    22.9430     2.2330   -17.5320 
  112.3750    68.0760    10.7960     9.2090    10.4490    22.9930     2.2720   -17.4980 
  112.5000    69.7410    12.0910    10.1720    13.5970    23.0570     2.3320   -17.4470 
  112.6250    72.0670    13.1570    11.0660    17.3880    23.0780     2.3960   -17.3770 
  112.7500    72.5860    13.5580    11.5510    20.7100    22.9900     2.4360   -17.3130 
  112.8750    69.4360    12.9440    11.2810    20.3200    22.8030     2.4230   -17.2760 
  113.0000    65.3330    11.6970    10.4520    15.2150    22.6740     2.3720   -17.2730 
  113.1250    63.7920    10.2650     9.3680    11.1810    22.6300     2.3100   -17.2930 
  113.2500    66.2450     9.0510     8.3470     9.6320    22.6260     2.2610   -17.3070 
  113.3750    71.4280     8.3490     7.6450     8.9870    22.6260     2.2380   -17.2950 
  113.5000    76.1830     8.0890     7.2750     8.4210    22.6260     2.2310   -17.2890 
  113.6250    76.1390     8.1880     7.2150     7.8940    22.6260     2.2310   -17.3240 
  113.7500    69.8330     8.5660     7.4260     7.7100    22.6260     2.2310   -17.4300 
  113.8750    63.5710     9.1670     7.8800     8.2040    22.6350     2.2300   -17.6100 
  114.0000    63.1350     9.8470     8.4450     8.9200    22.6590     2.2300   -17.8240 
  114.1250    66.8630    10.4770     9.0090     9.3090    22.6940     2.2330   -18.0600 
  114.2500    70.1810    10.9250     9.4610     9.3860    22.7330     2.2370   -18.2910 
  114.3750    69.5050    11.0610     9.6870     9.3810    22.7490     2.2400   -18.5230 
  114.5000    67.3350    10.9480     9.7160     9.3810    22.7540     2.2380   -18.7790 
  114.6250    65.1640    10.6820     9.6030     9.3830    22.7590     2.2330   -19.0410 
  114.7500    65.1030    10.3800     9.4150     9.3900    22.7740     2.2240   -19.2440 
  114.8750    67.1800    10.1420     9.2150     9.4210    22.8050     2.2170   -19.3690 
  115.0000    67.5400    10.0000     9.0450     9.4720    22.8180     2.2120   -19.4790 
  115.1250    65.8540     9.9440     8.9210     9.5060    22.8220     2.2100   -19.5890 
  115.2500    64.1660     9.9530     8.8460     9.4810    22.8220     2.2100   -19.7260 
  115.3750    63.5620    10.0090     8.8220     9.4660    22.8290     2.2090   -19.8450 
  115.5000    64.4460    10.0940     8.8280     9.5010    22.8480     2.2080   -19.9250 
  115.6250    66.6470    10.1910     8.8450     9.5260    22.8730     2.2050   -19.9220 
  115.7500    69.6310    10.2690     8.8510     9.4890    22.8870     2.2010   -19.8610 
  115.8750    68.1770    10.2720     8.8200     9.4000    22.8910     2.1990   -19.7320 
  116.0000    64.9340    10.1870     8.7450     9.3090    22.9040     2.2010   -19.5530 
  116.1250    65.9880    10.0310     8.6370     9.2550    22.9450     2.2090   -19.3110 
  116.2500    71.3960     9.8640     8.5240     9.2760    23.0120     2.2220   -19.0260 
  116.3750    75.3640     9.7750     8.4520     9.3850    23.0920     2.2370   -18.7740 
  116.5000    75.0730     9.7980     8.4480     9.4880    23.1290     2.2460   -18.5680 
  116.6250    74.0710     9.9240     8.5220     9.5140    23.1070     2.2490   -18.4490 
  116.7500    75.2180    10.1070     8.6520     9.4770    23.0350     2.2450   -18.3850 
  116.8750    74.5910    10.2680     8.7880     9.6160    22.9790     2.2370   -18.3760 
  117.0000    69.6340    10.3220     8.8540     9.7510    22.9610     2.2270   -18.3790 
  117.1250    64.7320    10.2060     8.7900     9.6780    22.9670     2.2150   -18.3960 
  117.2500    64.7990     9.8870     8.5620     9.3780    23.0000     2.2040   -18.3670 
  117.3750    68.8970     9.3750     8.1640     8.8770    23.0480     2.1980   -18.2560 
  117.5000    72.0410     8.8160     7.7020     8.2860    23.1020     2.2020   -18.0930 
  117.6250    74.5440     8.3470     7.2800     7.6720    23.0900     2.2130   -17.8430 
  117.7500    77.4800     8.0860     7.0000     7.1210    22.9090     2.2260   -17.5990 
  117.8750    78.4930     8.1380     6.9710     7.0140    22.5750     2.2310   -17.4470 
  118.0000    77.5260     8.4280     7.1640     7.3050    22.3430     2.2260   -17.3520 
  118.1250    75.9340     8.8630     7.5240     7.9930    22.2500     2.2140   -17.3490 
  118.2500    73.8280     9.3210     7.9580     8.7290    22.2420     2.1990   -17.4650 
  118.3750    69.9340     9.6630     8.3370     9.0770    22.2600     2.1860   -17.6790 
  118.5000    65.9180     9.8390     8.5780     9.2270    22.2970     2.1770   -17.9200 
  118.6250    63.0820     9.8530     8.6530     9.2920    22.3630     2.1720   -18.1890 
  118.7500    62.2590     9.7350     8.5790     9.2590    22.4720     2.1720   -18.3870 
  118.8750    63.9500     9.5080     8.3890     9.1270    22.5900     2.1770   -18.4320 
  119.0000    65.2910     9.2410     8.1640     8.9430    22.6900     2.1820   -18.3970 
  119.1250    64.7050     9.0220     7.9720     8.7770    22.7400     2.1860   -18.2610 
  119.2500    63.5220     8.9990     7.9080     8.7030    22.7540     2.1840   -18.0040 
  119.3750    64.3640     9.3810     8.1110     8.8220    22.7480     2.1830   -17.6190 
  119.5000    64.9090    10.0950     8.5530     9.2620    22.6880     2.1930   -17.1460 
  119.6250    63.2800    10.9070     9.1030    10.1860    22.5090     2.2230   -16.6140 
  119.7500    62.8700    11.4450     9.5260    11.2680    22.2770     2.2760   -16.0020 
  119.8750    68.4780    11.2270     9.4680    12.0600    22.4100     2.3360   -15.3080 
  120.0000    78.3030    10.2900     8.8870    11.7910    22.9320     2.3720   -14.5590 
  120.1250    89.0350     8.9450     7.9440     9.5520    23.5060     2.3730   -13.7730 
  120.2500    99.4310     7.6880     6.9730     6.8610    23.7730     2.3480   -13.0240 
  120.3750   107.7410     7.0200     6.3560     6.1590    23.8090     2.3260   -12.3670 
