~V
VERS. 2.00: Ver 2.00
~W
STRT.M 58.0000:
STOP.M 250.0000:
STEP.M 0.1250:
NULL. -999.2500:
UWI. DF5046:
~C
DEPT.M :
GR.API :
CALI.CM :
RXO.OHMM :
RI. :
RML.OHMM :
DEN.GM/CC :
SP.MV :
~A
# ...
  226.7500    94.8890    24.8660    19.1410    15.2960    18.0480     2.3470   -16.7290 
  226.8750    98.7360    24.8730    14.8570    13.4540    15.8380     2.3540   -17.1330 
  227.0000    97.1000    24.8730    12.6210    12.8270    15.4910     2.3500   -17.6620 
  227.1250    89.0350    24.8660    15.3390    13.9920    17.6900     2.3370   -18.2920 
  227.2500    78.4380    24.8620    24.8200    17.2560    22.5710     2.3280   -18.9830 
  227.3750    70.7270    24.8590    42.5000    23.3080    30.7210     2.3230   -19.6690 
  227.5000    68.1130    24.8400    62.8830    32.5750    42.4660     2.3180   -20.2850 
  227.6250    67.3230    24.7990    73.0650    44.4280    56.8910     2.3050   -20.8050 
  227.7500    66.5160    24.7560    74.5200    55.4270    69.6250     2.2900   -21.2520 
  227.8750    66.1970    24.6930    77.8530    62.5670    76.6920     2.2890   -21.6480 
  228.0000    65.7680    24.6120    89.4580    64.6850    77.0830     2.3120   -22.0050 
  228.1250    65.7850    24.5430    96.8150    62.1720    72.4110     2.3500   -22.3800 
  228.2500    67.7070    24.5190    87.0660    57.4090    65.9550     2.3680   -22.7580 
  228.3750    71.4050    24.5580    68.0670    51.8280    59.3510     2.3530   -23.1500 
  228.5000    75.0980    24.6250    55.5370    46.7300    53.8840     2.3200   -23.5970 
  228.6250    75.9860    24.6410    50.6520    43.3340    50.7230     2.2980   -24.0700 
  228.7500    72.7960    24.5830    46.7620    41.9310    49.9690     2.2900   -24.5490 
  228.8750    68.1950    24.4920    45.8370    42.8700    51.8980     2.2840   -25.0280 
  229.0000    66.8660    24.3940    51.5060    46.3210    56.6380     2.2770   -25.4580 
  229.1250    67.8540    24.2510    62.2900    52.4970    64.4910     2.2720   -25.8240 
  229.2500    67.4270    24.0850    75.1510    60.4950    74.5390     2.2680   -26.1470 
  229.3750    67.1450    23.9640    90.3970    69.4480    85.8000     2.2670   -26.4340 
  229.5000    69.1300    23.9300   101.4260    78.0630    96.5650     2.2740   -26.6720 
  229.6250    69.6810    23.9660   100.8960    84.8460   104.7710     2.2950   -26.8560 
  229.7500    65.8440    24.0690    97.7480    89.9740   110.8320     2.3170   -27.0010 
  229.8750    60.1180    24.2500    99.0480    94.0710   115.7650     2.3260   -27.1050 
  230.0000    56.5680    24.4660   104.0410    97.6320   120.2840     2.3200   -27.1720 
  230.1250    57.7160    24.6270   113.4900   100.5900   124.2520     2.3090   -27.1460 
  230.2500    59.7680    24.7200   124.7470   102.3190   126.5640     2.3020   -27.0590 
  230.3750    61.0970    24.7680   130.0630   102.0100   125.9780     2.2960   -26.8850 
  230.5000    62.8980    24.7910   124.6250    99.5600   122.4610     2.2830   -26.5740 
  230.6250    64.4150    24.8120   113.2380    95.6930   117.2660     2.2650   -26.1490 
  230.7500    62.8200    24.8260   104.8540    91.7640   112.1890     2.2570   -25.6380 
  230.8750    58.4510    24.8150   102.1440    88.3350   107.8130     2.2630   -25.0580 
  231.0000    56.9090    24.7940   104.1950    85.4250   103.9930     2.2720   -24.4570 
  231.1250    59.5420    24.7880   105.7830    82.5550   100.0060     2.2700   -23.8520 
  231.2500    59.9700    24.7920   101.4320    79.1570    95.2460     2.2700   -23.2250 
  231.3750    57.4730    24.7760    91.2320    75.0020    89.5400     2.2950   -22.5940 
  231.5000    55.7110    24.7200    79.7310    70.1630    83.0680     2.3440   -21.9990 
  231.6250    56.5000    24.6420    72.2960    64.9780    76.3640     2.3850   -21.4120 
  231.7500    57.2950    24.5860    68.9950    60.0150    70.1280     2.3970   -20.8310 
  231.8750    57.8410    24.5630    67.2820    55.6300    64.7600     2.3860   -20.2590 
  232.0000    60.2000    24.5700    64.5470    51.9770    60.3830     2.3650   -19.6810 
  232.1250    62.9620    24.6150    60.5680    49.0800    56.9380     2.3360   -19.1020 
  232.2500    63.1140    24.6620    57.0100    46.5760    53.9140     2.3030   -18.5190 
  232.3750    60.7930    24.6580    54.1140    44.2190    50.9940     2.2780   -17.9230 
  232.5000    60.0830    24.6100    50.7280    41.8400    47.9900     2.2670   -17.3140 
  232.6250    64.4970    24.5830    46.1840    39.3620    44.8380     2.2700   -16.7090 
  232.7500    70.3870    24.5510    42.2700    36.8550    41.6780     2.2730   -16.1310 
  232.8750    74.2390    24.4660    40.3640    34.4870    38.7560     2.2720   -15.5670 
  233.0000    75.0010    24.3550    39.2550    32.4690    36.3560     2.2670   -15.0020 
  233.1250    73.7070    24.2930    36.6910    31.1000    34.8510     2.2590   -14.4520 
  233.2500    72.0720    24.2650    33.6680    30.3810    34.1760     2.2560   -13.9440 
  233.3750    71.2120    24.2310    31.7970    30.1790    34.1060     2.2710   -13.4860 
  233.5000    72.5640    24.1900    30.7370    30.1010    34.1000     2.3120   -13.0690 
  233.6250    74.8180    24.1560    29.3820    29.4100    33.2180     2.3770   -12.6830 
  233.7500    74.4650    23.9750    27.6450    27.7330    31.0700     2.4330   -12.3150 
  233.8750    71.2540    23.5530    25.2770    25.1390    27.8300     2.4570   -11.9710 
  234.0000    67.1950    23.0580    22.0800    22.1170    24.1670     2.4400   -11.6530 
  234.1250    64.7840    22.8230    19.1840    19.3690    20.9560     2.3920   -11.3650 
  234.2500    64.1090    22.8140    17.7090    17.2340    18.5510     2.3410   -11.0800 
  234.3750    64.2800    22.8540    17.3100    15.7670    16.9840     2.3040   -10.7900 
  234.5000    64.1850    22.8810    17.0480    14.9090    16.1650     2.2840   -10.5250 
  234.6250    63.1490    22.9240    16.4660    14.6400    16.0320     2.2740   -10.3050 
  234.7500    63.3920    22.9520    16.0600    14.7200    16.2730     2.2670   -10.0890 
  234.8750    64.8960    22.9510    16.6430    14.9630    16.6500     2.2700    -9.8720 
  235.0000    67.0380    22.9440    18.5480    15.1640    16.9110     2.2870    -9.6830 
  235.1250    69.2990    22.9450    19.9610    15.0650    16.7390     2.3080    -9.5250 
  235.2500    69.6650    22.9240    18.9200    14.5950    16.0830     2.3120    -9.3810 
  235.3750    67.1310    22.8870    16.1870    13.8220    15.0660     2.3050    -9.2650 
  235.5000    64.8720    22.9830    13.9610    12.9410    13.9690     2.3050    -9.1590 
  235.6250    66.1160    23.3970    13.2950    12.2110    13.1370     2.3180    -9.0720 
  235.7500    67.5000    23.9550    13.2670    11.7660    12.7130     2.3230    -9.0060 
  235.8750    65.8980    24.4150    13.5020    11.6470    12.7100     2.3050    -8.9400 
  236.0000    63.1140    24.6730    13.9860    11.7960    13.0140     2.2810    -8.8780 
  236.1250    63.5500    24.7620    14.5360    12.0600    13.3940     2.2770    -8.8150 
  236.2500    66.4050    24.7670    14.8370    12.2320    13.6090     2.2930    -8.7530 
  236.3750    69.5940    24.7470    14.6960    12.2310    13.5850     2.3120    -8.7040 
  236.5000    72.0290    24.7470    14.0520    12.0880    13.3960     2.3220    -8.6710 
  236.6250    72.3570    24.7560    13.2010    11.9190    13.2180     2.3170    -8.6370 
  236.7500    70.1330    24.7580    12.8630    11.8250    13.1770     2.3060    -8.5910 
  236.8750    67.8040    24.7620    13.4220    11.8170    13.2730     2.3040    -8.5450 
  237.0000    68.1440    24.7520    14.4890    11.8390    13.4100     2.3210    -8.5000 
  237.1250    69.2440    24.7080    14.7740    11.7800    13.4090     2.3460    -8.4740 
  237.2500    68.7930    24.6810    14.0110    11.5960    13.2150     2.3580    -8.4720 
  237.3750    68.7360    24.7050    13.0330    11.3420    12.9190     2.3480    -8.4890 
  237.5000    70.7620    24.7450    12.5380    11.1390    12.7110     2.3230    -8.5120 
  237.6250    70.8320    24.7440    12.5020    11.1460    12.8130     2.3000    -8.5840 
  237.7500    67.6670    24.7140    12.9790    11.3770    13.2190     2.2960    -8.7130 
  237.8750    65.2830    24.6620    14.2780    11.7940    13.8380     2.3130    -8.8890 
