~V
VERS. 2.00: Ver 2.00
~W
STRT.M 55.0000:
STOP.M 271.0000:
STEP.M 0.1250:
NULL. -999.2500:
UWI. DF5028:
~C
DEPT.M :
SP.MV :
GR.API :
RML.OHMM :
RI. :
RXO.OHMM :
CALI.CM :
DEN.GM/CC :
~A
# ...
  178.7500   -25.4470    71.9420   110.1480   107.0860    81.9760    23.7460     2.2520 
  178.8750   -25.2600    73.4320   104.7330   103.7690    78.2720    23.7830     2.2480 
  179.0000   -25.1600    73.8200    95.5850    96.9030    74.0960    23.7880     2.2510 
  179.1250   -25.0660    73.0740    82.7810    86.0680    71.3190    23.7200     2.2590 
  179.2500   -24.9890    72.3440    68.7000    73.1500    68.4270    23.6000     2.2700 
  179.3750   -24.9090    72.8960    55.2410    59.8910    63.7680    23.4950     2.2810 
  179.5000   -24.8190    75.8750    43.9380    47.9980    54.0960    23.4810     2.2920 
  179.6250   -24.7940    80.4660    36.2740    39.2770    37.8820    23.6180     2.3060 
  179.7500   -24.8310    82.6370    31.9550    33.8380    26.1670    23.8180     2.3250 
  179.8750   -24.9630    83.1390    30.8210    31.7180    20.5140    23.9560     2.3460 
  180.0000   -25.0930    83.9610    32.5430    32.6950    18.7530    23.9770     2.3600 
  180.1250   -25.3830    84.2240    37.0840    36.7860    20.6240    23.9600     2.3590 
  180.2500   -25.6180    81.5760    43.5550    43.0290    26.5340    23.9550     2.3420 
  180.3750   -25.9540    76.5260    51.5410    50.9530    37.2980    23.9180     2.3160 
  180.5000   -26.2770    73.4250    60.6710    60.0960    53.9160    23.8500     2.2890 
  180.6250   -26.6790    73.8530    70.8980    70.2800    70.1400    23.8250     2.2710 
  180.7500   -27.0460    73.9270    82.3370    81.5310    67.9470    23.8510     2.2630 
  180.8750   -27.4190    70.9840    95.5090    94.2780    55.3730    23.8680     2.2610 
  181.0000   -27.8210    66.2160   110.9030   108.7310    51.9250    23.8230     2.2590 
  181.1250   -28.0750    63.8740   129.0440   124.8460    66.7770    23.6890     2.2520 
  181.2500   -28.4350    63.7000   148.8670   141.5290    97.1520    23.5170     2.2440 
  181.3750   -28.7220    64.7180   168.8800   157.5190   146.7420    23.3850     2.2390 
  181.5000   -29.0180    66.1330   187.1710   171.4830   204.7830    23.3250     2.2410 
  181.6250   -29.1890    66.6810   201.7100   182.2610   200.2820    23.3360     2.2470 
  181.7500   -29.2370    66.4210   212.8370   190.5900   169.5050    23.3960     2.2520 
  181.8750   -29.4330    65.5140   221.4330   197.3290   160.5040    23.4710     2.2510 
  182.0000   -29.5730    63.1160   228.4600   203.3000   177.5600    23.5090     2.2430 
  182.1250   -29.6740    61.0820   232.7630   207.8400   217.9270    23.4760     2.2330 
  182.2500   -29.8080    61.9860   231.9290   208.8840   255.7400    23.3900     2.2230 
  182.3750   -29.8190    64.1650   223.7370   204.2950   268.7250    23.2560     2.2160 
  182.5000   -29.8910    64.5480   207.9160   193.2490   267.3360    23.1070     2.2130 
  182.6250   -29.8920    63.1510   185.7650   175.8420   256.4540    22.9990     2.2170 
  182.7500   -29.9700    62.7900   161.9010   155.5750   224.5940    22.9310     2.2240 
  182.8750   -29.9930    64.6310   139.7820   135.4210   177.3860    22.8650     2.2340 
  183.0000   -30.0610    68.6830   122.0640   118.0820   128.7900    22.7820     2.2460 
  183.1250   -30.1360    71.7300   111.3610   106.5340    93.1040    22.7070     2.2550 
  183.2500   -30.2630    71.0080   107.4430   101.4150    72.2930    22.7370     2.2620 
  183.3750   -30.4310    68.6620   110.8520   103.7120    61.8750    22.9670     2.2650 
  183.5000   -30.6110    66.5600   122.3060   114.1880    58.5340    23.3490     2.2650 
  183.6250   -30.9080    63.5930   144.4150   134.7830    71.4300    23.6260     2.2600 
  183.7500   -31.1540    59.6730   176.1050   163.3860   112.9740    23.6800     2.2520 
  183.8750   -31.4770    57.6420   215.8220   197.7560   187.7790    23.6100     2.2420 
  184.0000   -31.6670    58.8060   259.0390   233.6610   319.2330    23.5620     2.2300 
  184.1250   -31.9380    61.4890   296.4700   263.5700   551.8770    23.5820     2.2210 
  184.2500   -32.1610    61.6690   320.1030   282.0140   567.8290    23.6170     2.2160 
  184.3750   -32.3240    60.8090   325.7530   286.2540   541.1570    23.6380     2.2130 
  184.5000   -32.4850    62.2370   314.9150   277.3400   514.5770    23.6310     2.2140 
  184.6250   -32.5030    65.6910   293.2910   259.1040   502.1790    23.6050     2.2190 
  184.7500   -32.5730    66.7560   269.9830   238.8700   505.4640    23.5920     2.2270 
  184.8750   -32.5610    64.8690   248.8840   220.2040   511.3150    23.6100     2.2400 
  185.0000   -32.6490    63.4180   231.6440   204.7660   511.3380    23.6620     2.2540 
  185.1250   -32.6200    63.8540   219.3600   193.8300   474.8190    23.7420     2.2670 
  185.2500   -32.5640    63.4500   210.7570   186.4370   300.5700    23.8500     2.2730 
  185.3750   -32.5530    62.9060   205.0450   181.8840   158.0480    23.9640     2.2710 
  185.5000   -32.5330    64.3200   201.5650   179.4840   150.7790    24.0420     2.2630 
  185.6250   -32.5780    66.3220   200.1320   178.9290   144.4390    24.0520     2.2520 
  185.7500   -32.5670    64.8650   199.9990   179.4100   136.8650    23.9900     2.2430 
  185.8750   -32.5700    60.9590   200.7670   180.5420   135.8680    23.8820     2.2370 
  186.0000   -32.5460    59.8130   202.1940   182.1130   142.1330    23.7870     2.2350 
  186.1250   -32.6170    64.0500   204.0570   183.9310   145.4780    23.7730     2.2350 
  186.2500   -32.6340    66.3130   205.9910   185.6710   144.1090    23.8070     2.2350 
  186.3750   -32.6690    64.0830   208.1200   187.3680   150.7630    23.8240     2.2340 
  186.5000   -32.6000    59.9090   210.9460   189.4470   171.6200    23.8150     2.2340 
  186.6250   -32.5780    59.3080   215.3970   192.7850   186.6280    23.8030     2.2350 
  186.7500   -32.5270    61.9600   221.9300   197.8700   173.3490    23.7900     2.2370 
  186.8750   -32.5360    64.4000   230.7260   204.9250   155.4420    23.7800     2.2370 
  187.0000   -32.5270    63.5700   241.1730   213.4790   154.6820    23.7830     2.2330 
  187.1250   -32.5120    58.5620   251.5810   222.1900   173.5650    23.7940     2.2270 
  187.2500   -32.6040    54.6300   259.8110   229.4070   208.6560    23.7830     2.2210 
  187.3750   -32.6630    55.6240   263.9600   233.6980   262.5790    23.7500     2.2170 
  187.5000   -32.8750    59.7190   262.9900   234.1550   315.5080    23.7230     2.2170 
  187.6250   -32.9640    62.4330   257.0770   230.6450   296.4770    23.7270     2.2180 
  187.7500   -33.1500    63.9650   249.0560   225.2310   244.0960    23.7480     2.2190 
  187.8750   -33.3080    65.1790   240.7390   219.3600   210.6330    23.7700     2.2180 
  188.0000   -33.4490    65.2660   233.4150   214.1800   197.3940    23.7890     2.2170 
  188.1250   -33.6030    65.0420   227.9510   210.5990   192.5600    23.8030     2.2170 
  188.2500   -33.6530    64.5740   223.8800   208.2040   184.4730    23.8190     2.2200 
  188.3750   -33.7310    62.1130   220.4310   206.1930   174.7280    23.8450     2.2250 
  188.5000   -33.6440    59.2950   216.6490   203.5950   169.3420    23.8650     2.2290 
  188.6250   -33.6610    62.0500   211.2600   199.0930   169.3180    23.8510     2.2310 
  188.7500   -33.5920    67.2360   203.7700   192.2910   168.3950    23.8120     2.2320 
  188.8750   -33.5370    67.5000   194.2540   183.2760   165.1410    23.7790     2.2320 
  189.0000   -33.4920    62.8450   183.6780   172.9850   157.1050    23.7720     2.2330 
  189.1250   -33.4210    61.1740   174.0830   163.4900   141.5230    23.7800     2.2360 
  189.2500   -33.3300    62.8020   167.4840   157.0320   125.1500    23.7940     2.2390 
  189.3750   -33.2570    62.9380   165.8250   155.7490   110.1560    23.8100     2.2420 
  189.5000   -33.2170    60.3340   170.9200   161.4880    95.4250    23.8100     2.2450 
  189.6250   -33.1820    57.9490   185.8650   176.5860    84.3300    23.7710     2.2470 
  189.7500   -33.1350    57.1100   209.9190   198.8280    83.9250    23.6770     2.2460 
  189.8750   -33.0410    57.7750   241.8570   225.6560    98.0120    23.5530     2.2400 
