~V
VERS. 2.00: Ver 2.00
~W
STRT.M 50.0000:
STOP.M 277.0000:
STEP.M 0.1250:
NULL. -999.2500:
UWI. DF5031:
~C
DEPT.M :
DEN.GM/CC :
GR.API :
CALI.CM :
RXO.OHMM :
RI. :
RML.OHMM :
SP.MV :
~A
# ...
  151.2500     2.5930    56.5000    25.1510    22.1900    20.3010    23.6980   -15.6530 
  151.3750     2.5840    56.3950    25.1510    23.0470    20.4880    23.7730   -15.6020 
  151.5000     2.5840    56.0900    25.1510    23.2270    20.7990    24.0050   -15.5860 
  151.6250     2.5870    55.1700    25.1510    22.7670    21.2190    24.3860   -15.5600 
  151.7500     2.5830    56.1670    25.1510    22.4310    21.6760    24.8400   -15.5920 
  151.8750     2.5730    58.0160    25.1490    22.4860    22.0680    25.2560   -15.6280 
  152.0000     2.5710    57.4140    25.1460    23.1140    22.2380    25.4420   -15.6710 
  152.1250     2.5860    55.8830    25.1430    24.5010    21.8810    25.0220   -15.6130 
  152.2500     2.6020    59.1040    25.1490    24.7480    20.9290    23.8820   -15.5850 
  152.3750     2.6030    65.4060    25.1570    22.6060    19.5060    22.1600   -15.5530 
  152.5000     2.5900    69.3150    25.1620    18.9460    17.9390    20.2620   -15.4880 
  152.6250     2.5770    67.8870    25.0370    16.0780    16.6510    18.7320   -15.3960 
  152.7500     2.5680    64.0290    24.7570    14.8770    15.8400    17.8270   -15.2930 
  152.8750     2.5580    61.7820    24.4850    14.9900    15.5770    17.6240   -15.2620 
  153.0000     2.5500    61.8960    24.3580    15.9530    15.8060    18.0170   -15.2740 
  153.1250     2.5460    63.4040    24.3030    17.1260    16.3770    18.7440   -15.2960 
  153.2500     2.5440    64.6070    24.2760    18.0430    16.9980    19.4050   -15.3350 
  153.3750     2.5400    65.7820    24.2590    18.4460    17.5160    19.8320   -15.4250 
  153.5000     2.5340    67.2280    24.3220    18.5060    17.8790    20.0340   -15.5180 
  153.6250     2.5200    67.9740    24.5490    18.3380    18.1140    20.1400   -15.6210 
  153.7500     2.5010    69.7720    24.8570    18.8330    18.2980    20.2900   -15.7200 
  153.8750     2.4880    73.0270    24.9930    19.9910    18.4220    20.4740   -15.7550 
  154.0000     2.4900    74.9010    24.9860    20.7860    18.4050    20.5510   -15.7930 
  154.1250     2.4960    72.7460    24.8600    20.0200    18.0530    20.2300   -15.8230 
  154.2500     2.4960    69.9970    24.7430    18.6010    17.3080    19.4090   -15.7960 
  154.3750     2.4940    70.8640    24.8160    16.7750    16.2120    18.1470   -15.6770 
  154.5000     2.5010    74.8600    24.8430    14.6630    14.9550    16.6990   -15.5550 
  154.6250     2.5180    77.0510    24.5950    13.0660    13.8260    15.4510   -15.5150 
  154.7500     2.5330    76.7550    24.4460    11.9810    12.9860    14.5880   -15.4850 
  154.8750     2.5330    74.6690    24.4090    11.9340    12.4820    14.1350   -15.4450 
  155.0000     2.5160    70.5220    24.4540    13.0640    12.2830    14.0230   -15.3230 
  155.1250     2.4920    65.3870    24.5910    13.7750    12.3200    14.1460   -15.3190 
  155.2500     2.4770    61.7920    24.7720    13.6620    12.4510    14.3360   -15.2740 
  155.3750     2.4780    61.0600    24.9060    13.2460    12.6150    14.5350   -15.2530 
  155.5000     2.4850    61.4060    25.0470    13.5210    12.8060    14.7620   -15.2380 
  155.6250     2.4850    62.1570    25.2120    14.6780    13.1040    15.1240   -15.2070 
  155.7500     2.4780    64.5290    25.2710    15.7400    13.5750    15.6880   -15.2100 
  155.8750     2.4760    67.5320    25.2890    16.1250    14.2430    16.4740   -15.2590 
  156.0000     2.4880    69.6370    25.2760    16.3820    15.0490    17.4100   -15.3420 
  156.1250     2.5080    70.2190    25.2670    17.9170    15.8130    18.2940   -15.3930 
  156.2500     2.5190    69.3550    25.2050    19.9100    16.3280    18.8860   -15.5490 
  156.3750     2.5140    67.9510    25.1780    20.7710    16.4620    19.0270   -15.7780 
  156.5000     2.5030    67.4210    25.1860    19.8290    16.2190    18.7190   -15.9820 
  156.6250     2.5000    67.5970    25.2190    18.2020    15.7380    18.1470   -16.2030 
  156.7500     2.5080    66.6040    25.2510    17.2710    15.2760    17.6300   -16.3820 
  156.8750     2.5180    65.0060    25.2740    16.9770    14.9540    17.3130   -16.5780 
  157.0000     2.5270    63.9010    25.2860    16.7330    14.7810    17.1980   -16.8050 
  157.1250     2.5380    62.6290    25.2920    16.1470    14.6750    17.1620   -16.9780 
  157.2500     2.5480    61.4010    25.2920    15.5820    14.5290    17.0480   -17.0770 
  157.3750     2.5520    61.4290    25.2900    15.0740    14.3150    16.8090   -17.1440 
  157.5000     2.5490    62.0880    25.2900    14.6410    14.0620    16.4890   -17.2320 
  157.6250     2.5480    62.7240    25.2940    14.4150    13.8260    16.1800   -17.2690 
  157.7500     2.5520    64.3950    25.3090    14.5370    13.6530    15.9580   -17.2810 
  157.8750     2.5530    66.7010    25.3350    14.7290    13.5700    15.8580   -17.2520 
  158.0000     2.5420    69.1270    25.3550    14.8600    13.5880    15.8850   -17.2200 
  158.1250     2.5270    72.0780    25.3550    15.1300    13.7110    16.0230   -17.1940 
  158.2500     2.5230    74.6500    25.3500    15.6880    13.8920    16.2090   -17.2140 
  158.3750     2.5270    75.2400    25.3740    16.4300    14.0820    16.3910   -17.1880 
  158.5000     2.5290    73.4130    25.4150    16.6650    14.2370    16.5200   -17.1530 
  158.6250     2.5240    72.1610    25.4700    16.1550    14.3460    16.5810   -17.1030 
  158.7500     2.5140    74.2000    25.4930    15.5980    14.4750    16.6480   -17.1290 
  158.8750     2.5010    78.9950    25.4930    15.6130    14.7010    16.8090   -17.1590 
  159.0000     2.4820    83.3580    25.4890    16.2220    15.0780    17.1390   -17.1840 
  159.1250     2.4600    81.9070    25.5030    17.1080    15.6140    17.6730   -17.2310 
  159.2500     2.4490    77.8830    25.5760    18.1440    16.1850    18.2730   -17.2750 
  159.3750     2.4540    77.0900    25.6190    19.1920    16.6620    18.7770   -17.3700 
  159.5000     2.4670    80.0180    25.6290    19.8240    16.9350    19.0280   -17.4950 
  159.6250     2.4780    81.0070    25.6290    19.9070    16.9130    18.8840   -17.6120 
  159.7500     2.4830    78.8330    25.6260    19.6410    16.6690    18.4530   -17.7200 
  159.8750     2.4820    77.5580    25.6140    19.4340    16.2820    17.8620   -17.8700 
  160.0000     2.4790    78.6900    25.5930    19.0320    15.8470    17.2470   -18.0500 
  160.1250     2.4720    80.6410    25.5940    17.8580    15.4790    16.7420   -18.2130 
  160.2500     2.4620    83.3600    25.5710    16.7640    15.2510    16.4190   -18.3610 
  160.3750     2.4560    84.7870    25.4870    16.4070    15.1970    16.3100   -18.5230 
  160.5000     2.4550    81.8960    25.3120    16.7940    15.2970    16.3760   -18.7090 
  160.6250     2.4550    76.0700    25.3000    17.2200    15.4690    16.5130   -18.9210 
  160.7500     2.4510    74.1470    25.2800    17.3100    15.5730    16.5850   -19.0990 
  160.8750     2.4470    76.5050    25.2700    16.9590    15.5370    16.5250   -19.3000 
  161.0000     2.4430    77.7940    25.2630    16.2940    15.3410    16.3240   -19.5500 
  161.1250     2.4370    76.4150    25.2590    15.6020    15.0330    16.0270   -19.9200 
  161.2500     2.4280    76.3740    25.2560    15.2350    14.7630    15.7670   -20.3100 
  161.3750     2.4140    76.8930    25.2570    15.5460    14.6610    15.6720   -20.7230 
  161.5000     2.3920    76.7380    25.2640    15.9100    14.8570    15.8920   -21.1000 
  161.6250     2.3560    76.9360    25.2800    15.7960    15.5830    16.7250   -21.5920 
  161.7500     2.3180    78.5660    25.3010    16.4010    16.9400    18.2970   -22.1060 
  161.8750     2.2910    80.9280    25.3320    19.1830    19.0780    20.7570   -22.5790 
  162.0000     2.2830    83.0270    25.3870    24.0800    22.1290    24.2090   -22.9910 
  162.1250     2.2880    83.6750    25.4140    29.6820    26.3170    28.8300   -23.3710 
  162.2500     2.2880    81.8510    25.4270    34.3760    31.3400    34.2520   -23.7930 
  162.3750     2.2800    78.1310    25.4440    38.8140    36.8250    40.0550   -24.1830 
