~V
VERS. 2.00: Ver 2.00
~W
STRT.M 58.0000:
STOP.M 250.0000:
STEP.M 0.1250:
NULL. -999.2500:
UWI. DF5046:
~C
DEPT.M :
GR.API :
CALI.CM :
RXO.OHMM :
RI. :
RML.OHMM :
DEN.GM/CC :
SP.MV :
~A
# ...
   80.5000    69.4850    22.1120     7.4110     6.8450     9.6900     2.1770   -27.8980 
   80.6250    69.8770    22.1280     7.3520     6.7990     9.6420     2.1740   -27.7030 
   80.7500    70.0780    22.1710     7.2780     6.7540     9.6120     2.1700   -27.5160 
   80.8750    70.1930    22.1920     7.2630     6.7330     9.6330     2.1650   -27.3210 
   81.0000    69.8390    22.2240     7.3830     6.7520     9.7250     2.1580   -27.1600 
   81.1250    67.1740    22.3480     7.6000     6.8180     9.8900     2.1530   -27.0670 
   81.2500    63.7420    22.5220     7.7500     6.9060    10.0710     2.1520   -27.0100 
   81.3750    61.3740    22.6490     7.7870     6.9940    10.2170     2.1550   -26.9950 
   81.5000    61.9010    22.6470     7.8030     7.0640    10.2950     2.1610   -27.0380 
   81.6250    63.7550    22.4810     7.9170     7.0990    10.2920     2.1640   -27.1430 
   81.7500    61.6380    22.2920     8.0930     7.1070    10.2470     2.1660   -27.2450 
   81.8750    57.0000    22.2180     8.2360     7.0980    10.1980     2.1730   -27.3430 
   82.0000    54.5640    22.2960     8.2810     7.0830    10.1740     2.1880   -27.3910 
   82.1250    57.8100    22.4460     8.2070     7.0670    10.1820     2.2070   -27.3900 
   82.2500    62.7190    22.5530     8.0770     7.0470    10.1890     2.2190   -27.3370 
   82.3750    65.4820    22.5910     7.9200     7.0120    10.1590     2.2180   -27.2280 
   82.5000    66.4820    22.5740     7.7390     6.9540    10.0740     2.2070   -27.0500 
   82.6250    66.2720    22.5300     7.5580     6.8740     9.9430     2.1950   -26.8150 
   82.7500    66.6930    22.5110     7.4440     6.7860     9.8030     2.1890   -26.5370 
   82.8750    68.1320    22.5620     7.4430     6.7030     9.6740     2.1890   -26.2320 
   83.0000    68.7650    22.6840     7.5590     6.6370     9.5700     2.1870   -25.9210 
   83.1250    67.0570    22.8060     7.7340     6.6160     9.5370     2.1780   -25.5740 
   83.2500    65.1380    22.8960     7.8470     6.6580     9.6030     2.1670   -25.2470 
   83.3750    66.5180    22.9840     7.8270     6.7710     9.7810     2.1660   -24.9530 
   83.5000    68.9970    23.0690     7.7060     6.9390    10.0420     2.1930   -24.6950 
   83.6250    68.7580    23.1390     7.5600     7.1140    10.2990     2.2660   -24.4450 
   83.7500    67.2700    23.1890     7.3700     7.2300    10.4350     2.3530   -24.2100 
   83.8750    65.5680    23.1510     7.1290     7.2390    10.3750     2.3980   -23.9750 
   84.0000    64.9950    22.9370     6.9710     7.1310    10.1010     2.3640   -23.7190 
   84.1250    65.8900    22.6080     7.0340     6.9260     9.6730     2.2740   -23.4420 
   84.2500    69.1910    22.3770     7.1590     6.7070     9.2570     2.2000   -23.0880 
   84.3750    72.5210    22.3020     7.1560     6.5310     8.9690     2.1650   -22.6200 
   84.5000    73.6350    22.3030     6.9700     6.4370     8.8580     2.1610   -22.0480 
   84.6250    73.9790    22.2220     6.7570     6.4230     8.8800     2.1750   -21.4090 
   84.7500    74.7460    22.0300     6.8090     6.4080     8.8690     2.1950   -20.7420 
   84.8750    77.5270    21.8290     7.2240     6.3130     8.6870     2.2130   -20.0710 
   85.0000    84.0720    21.7310     7.6030     6.0790     8.2610     2.2250   -19.4190 
   85.1250    94.1460    21.8030     7.1350     5.6880     7.5990     2.2410   -18.8330 
   85.2500   101.3640    22.0860     6.0200     5.2360     6.8810     2.2640   -18.3120 
   85.3750   104.2010    22.7010     4.9670     4.8100     6.2520     2.2890   -17.8820 
   85.5000   108.6280    23.5840     4.4380     4.4770     5.8030     2.3080   -17.5340 
   85.6250   114.2320    24.3420     4.3720     4.2790     5.5820     2.3160   -17.2870 
   85.7500   111.2010    24.7020     4.3930     4.1790     5.5070     2.3210   -17.1100 
   85.8750   101.4480    24.7460     4.4030     4.1360     5.4970     2.3290   -17.0150 
   86.0000    97.0090    24.6990     4.4150     4.1110     5.4770     2.3410   -17.0030 
   86.1250   101.0200    24.6960     4.4250     4.0760     5.4020     2.3480   -17.0400 
   86.2500   101.9950    24.7150     4.4060     4.0370     5.3140     2.3430   -17.1100 
   86.3750    98.7010    24.7220     4.3740     4.0180     5.2770     2.3310   -17.1980 
   86.5000    97.4190    24.7050     4.3770     4.0480     5.3500     2.3240   -17.2710 
   86.6250   101.7890    24.6710     4.4710     4.1480     5.5600     2.3280   -17.2990 
   86.7500   106.8280    24.6150     4.6530     4.2830     5.8070     2.3310   -17.3140 
   86.8750   107.0010    24.4890     4.9240     4.4100     5.9970     2.3210   -17.3340 
   87.0000   102.4570    24.2560     5.2110     4.5140     6.1090     2.2970   -17.3450 
   87.1250    97.9740    23.9730     5.2360     4.6280     6.2350     2.2790   -17.3580 
   87.2500    95.6500    23.7590     5.1690     4.7920     6.4910     2.2930   -17.4120 
   87.3750    94.0220    23.6620     6.0080     5.0210     6.9160     2.3450   -17.5340 
   87.5000    93.6030    23.6180     8.8190     5.2860     7.4410     2.4140   -17.7720 
   87.6250    95.9530    23.5690    11.6550     5.4980     7.8470     2.4530   -18.1730 
   87.7500    97.6850    23.5950    11.2410     5.5740     7.9490     2.4410   -18.6780 
   87.8750    95.2850    23.6840     8.2640     5.5000     7.7430     2.3840   -19.2510 
   88.0000    90.4510    23.7050     5.7950     5.3390     7.3950     2.3120   -19.8820 
   88.1250    86.0830    23.5950     5.1990     5.2070     7.1570     2.2620   -20.5080 
   88.2500    83.4410    23.4790     5.3840     5.1990     7.1670     2.2370   -21.0750 
   88.3750    81.1470    23.4090     5.8280     5.3430     7.4320     2.2270   -21.5370 
   88.5000    78.3520    23.3200     6.2870     5.6100     7.8600     2.2150   -21.8400 
   88.6250    77.6630    23.1960     6.5560     5.9260     8.3060     2.2010   -21.8710 
   88.7500    78.1560    23.0920     6.6870     6.2190     8.6730     2.1900   -21.6700 
   88.8750    77.4660    23.0350     6.7870     6.4630     8.9470     2.1820   -21.2080 
   89.0000    75.7390    23.0190     6.8970     6.6460     9.1200     2.1770   -20.5170 
   89.1250    75.3330    22.9910     6.9990     6.7250     9.1400     2.1760   -19.6830 
   89.2500    76.9820    22.9280     7.1140     6.6800     8.9750     2.1800   -18.8060 
   89.3750    79.1790    22.8610     7.1980     6.4850     8.5930     2.1880   -17.9470 
   89.5000    81.9520    22.8630     7.0460     6.1470     8.0210     2.1990   -17.1860 
   89.6250    83.9760    23.0470     6.4340     5.7110     7.3600     2.2210   -16.6520 
   89.7500    86.2610    23.3430     5.7000     5.2760     6.7550     2.2520   -16.3140 
   89.8750    90.7280    23.6070     5.2120     4.9010     6.2790     2.2800   -16.2130 
   90.0000    94.1280    23.7840     5.0520     4.6190     5.9550     2.2920   -16.3380 
   90.1250    93.0210    23.9440     5.0030     4.4620     5.8100     2.2910   -16.6740 
   90.2500    91.8650    24.1120     4.8830     4.4080     5.8060     2.2950   -17.1370 
   90.3750    93.1380    24.2360     4.7700     4.4400     5.9280     2.3060   -17.6970 
   90.5000    93.3540    24.2610     4.8310     4.5430     6.1570     2.3130   -18.2960 
   90.6250    88.7600    24.1450     5.1510     4.6960     6.4560     2.3020   -18.8540 
   90.7500    83.8010    23.9930     5.4630     4.8570     6.7370     2.2820   -19.3150 
   90.8750    80.8440    23.9400     5.5680     4.9840     6.9140     2.2700   -19.6470 
   91.0000    79.4980    23.9850     5.5300     5.0480     6.9330     2.2660   -19.8400 
   91.1250    78.4060    23.9000     5.6330     5.0540     6.8280     2.2590   -19.8880 
   91.2500    76.1630    23.6190     5.9000     5.1040     6.8190     2.2480   -19.8700 
   91.3750    73.5200    23.2490     6.2400     5.3480     7.1880     2.2440   -19.8290 
   91.5000    71.1070    22.8390     6.8500     5.9880     8.2580     2.2620   -19.8090 
   91.6250    66.9060    22.3840     9.1950     7.4700    10.6520     2.3170   -19.8470 
