~V
VERS. 2.00: Ver 2.00
~W
STRT.M 50.0000:
STOP.M 258.0000:
STEP.M 0.1250:
NULL. -999.2500:
UWI. DF5038:
~C
DEPT.M :
GR.API :
CALI.CM :
RXO.OHMM :
RI. :
RML.OHMM :
DEN.GM/CC :
SP.MV :
~A
# ...
   95.0000    97.1150    25.4750     4.8460     4.5210     5.2240     2.3130   -26.3030 
   95.1250    93.0990    25.4010     5.5910     4.9280     5.7340     2.2680   -26.4280 
   95.2500    88.6760    25.3820     6.2850     5.3620     6.2190     2.2290   -26.6140 
   95.3750    83.1040    25.3870     6.7080     5.6940     6.5270     2.2250   -26.7450 
   95.5000    78.1650    25.3870     6.8450     5.8280     6.5780     2.2640   -26.8710 
   95.6250    78.1820    25.3870     6.2710     5.7250     6.3830     2.3140   -26.7910 
   95.7500    80.6050    25.3870     5.5970     5.5060     6.1120     2.3330   -26.6480 
   95.8750    82.7580    25.3870     5.3740     5.2660     5.8740     2.3160   -26.5780 
   96.0000    84.6030    25.3870     5.5590     5.0600     5.7080     2.2850   -26.3580 
   96.1250    87.1240    25.3870     5.6570     4.9080     5.5970     2.2680   -26.2120 
   96.2500    87.1480    25.3870     5.6130     4.7940     5.4970     2.2670   -26.0990 
   96.3750    83.1250    25.3870     5.6000     4.7150     5.4160     2.2750   -25.9680 
   96.5000    78.8560    25.3870     5.5700     4.7140     5.4380     2.2860   -25.9370 
   96.6250    79.2150    25.3870     5.5580     4.9260     5.7830     2.3020   -26.0120 
   96.7500    81.5230    25.3870     5.9840     5.4210     6.5270     2.3310   -26.0650 
   96.8750    81.5680    25.3870     7.0330     6.2000     7.6100     2.3790   -26.0680 
   97.0000    79.9330    25.3870     9.2740     7.1290     8.7710     2.4350   -26.0470 
   97.1250    78.5690    25.3870    11.9330     7.8180     9.4310     2.4630   -26.0990 
   97.2500    78.0350    25.3870    13.0890     7.9250     9.2510     2.4450   -26.1480 
   97.3750    78.0500    25.3870    10.5180     7.4040     8.3120     2.3920   -26.2880 
   97.5000    80.7480    25.3870     6.6580     6.5400     7.0780     2.3330   -26.4740 
   97.6250    85.0460    25.3870     5.6640     5.7360     6.0930     2.2960   -26.6480 
   97.7500    85.9130    25.3870     5.6010     5.2040     5.5300     2.2830   -26.9500 
   97.8750    84.0000    25.3870     5.6070     4.9760     5.3580     2.2790   -27.2290 
   98.0000    81.9770    25.3880     5.5970     4.9970     5.4580     2.2710   -27.5660 
   98.1250    79.7250    25.3820     5.9610     5.1550     5.6640     2.2530   -27.8770 
   98.2500    76.9190    25.3950     6.2420     5.3030     5.8210     2.2430   -28.1030 
   98.3750    74.5020    25.4920     6.2610     5.3820     5.8880     2.2520   -28.4060 
   98.5000    73.2400    25.6850     5.7920     5.3930     5.8970     2.2700   -28.5970 
   98.6250    74.1820    25.8690     5.7630     5.3740     5.9050     2.2800   -28.8870 
   98.7500    76.1660    25.9560     5.9880     5.3680     5.9490     2.2800   -29.1820 
   98.8750    78.1010    25.9670     6.2940     5.3770     6.0080     2.2810   -29.4000 
   99.0000    80.1160    25.9640     6.8800     5.3670     6.0220     2.2900   -29.6950 
   99.1250    84.0840    25.9620     7.1520     5.3110     5.9600     2.3010   -29.9920 
   99.2500    86.4150    25.9670     7.1540     5.2840     5.9600     2.3030   -30.3020 
   99.3750    84.4490    25.9840     7.0190     5.4220     6.2210     2.3020   -30.6110 
   99.5000    80.7100    26.0090     6.7420     5.8530     6.9090     2.3210   -30.9390 
   99.6250    78.5730    26.0310     7.5360     6.6860     8.1260     2.3780   -31.2820 
   99.7500    77.2340    26.0180    11.9220     7.7370     9.5400     2.4400   -31.7260 
   99.8750    73.5330    25.9230    15.2140     8.6690    10.6420     2.4650   -32.2840 
  100.0000    67.5920    25.7440    13.6310     9.0500    10.8860     2.4310   -32.7140 
  100.1250    63.9750    25.5810     9.7870     8.5980    10.0330     2.3520   -33.1550 
  100.2500    64.3900    25.5090     8.2900     7.7540     8.7910     2.2760   -33.6320 
  100.3750    68.4180    25.5030     7.8000     6.9180     7.7110     2.2270   -34.0410 
  100.5000    74.1200    25.5060     7.7960     6.3390     7.0800     2.2040   -34.5560 
  100.6250    77.2080    25.5060     7.7310     6.1260     6.9590     2.1970   -34.9300 
  100.7500    75.3630    25.5060     7.7380     6.1330     7.0820     2.1960   -35.1020 
  100.8750    70.7330    25.5060     7.7470     6.2370     7.2740     2.1960   -35.2380 
  101.0000    68.7700    25.5060     7.7730     6.3470     7.4310     2.1950   -35.3620 
  101.1250    71.5380    25.5060     7.8330     6.4270     7.5230     2.1920   -35.4640 
  101.2500    75.3370    25.5060     7.9040     6.4950     7.5880     2.1860   -35.5870 
  101.3750    76.3450    25.5060     7.9370     6.5690     7.6530     2.1790   -35.6700 
  101.5000    73.1250    25.5060     7.9840     6.6550     7.7310     2.1730   -35.6300 
  101.6250    69.3840    25.5080     8.2810     6.7430     7.8140     2.1680   -35.5390 
  101.7500    66.8270    25.4950     8.6980     6.8180     7.8800     2.1630   -35.4650 
  101.8750    65.9610    25.4450     9.0130     6.8670     7.9090     2.1570   -35.3100 
  102.0000    66.4890    25.3710     9.1430     6.8900     7.8960     2.1520   -35.1910 
  102.1250    67.0580    25.3220     9.0440     6.9000     7.8580     2.1480   -34.9350 
  102.2500    66.4250    25.3110     8.9020     6.9240     7.8410     2.1450   -34.6360 
  102.3750    65.2050    25.3140     8.7780     6.9800     7.8730     2.1440   -34.3190 
  102.5000    65.5200    25.3140     8.6960     7.0560     7.9330     2.1490   -33.9340 
  102.6250    66.3010    25.3140     8.6170     7.0750     7.9130     2.1630   -33.5470 
  102.7500    65.1770    25.3140     8.5640     6.9550     7.7080     2.1820   -33.1410 
  102.8750    63.0970    25.3130     8.4280     6.6450     7.2700     2.2040   -32.7310 
  103.0000    62.0700    25.3070     7.9890     6.1620     6.6440     2.2310   -32.2930 
  103.1250    67.4600    25.3330     6.6970     5.5890     5.9640     2.2580   -31.9340 
  103.2500    77.3330    25.4350     5.4870     5.0530     5.3790     2.2770   -31.5610 
  103.3750    86.0300    25.5860     4.9690     4.6130     4.9470     2.2810   -31.2900 
  103.5000    89.6050    25.7030     4.8400     4.2910     4.6710     2.2780   -31.1160 
  103.6250    87.6200    25.7310     4.7910     4.0940     4.5360     2.2840   -31.2010 
  103.7500    85.1650    25.7270     4.6450     3.9800     4.4780     2.2930   -31.3390 
  103.8750    83.6320    25.7300     4.5090     3.9180     4.4560     2.2920   -31.6770 
  104.0000    83.8700    25.7260     4.5820     3.8860     4.4410     2.2740   -32.1960 
  104.1250    84.5890    25.6290     5.0410     3.8910     4.4450     2.2540   -32.7570 
  104.2500    85.1630    25.4460     5.6920     3.9710     4.5360     2.2430   -33.4740 
  104.3750    86.2250    25.2710     5.9630     4.2200     4.8630     2.2390   -34.1490 
  104.5000    86.7680    25.2070     5.9000     4.7740     5.6320     2.2440   -34.8000 
  104.6250    84.0580    25.3250     6.8070     5.8590     7.1320     2.2790   -35.4390 
  104.7500    78.0660    25.5410     9.2500     7.4560     9.2340     2.3330   -36.0910 
  104.8750    70.1960    25.7620    15.6870     9.3750    11.5610     2.3630   -36.7010 
  105.0000    63.9380    25.8920    23.2210    11.0530    13.3360     2.3350   -37.1860 
  105.1250    63.3100    25.8110    22.1820    11.4830    13.4310     2.2620   -37.7190 
  105.2500    66.3760    25.5550    14.9070    10.7080    12.1360     2.1980   -38.0760 
  105.3750    67.9080    25.2520    10.4590     9.3590    10.3190     2.1640   -38.3870 
  105.5000    65.5280    25.0630     9.4020     8.0690     8.7680     2.1510   -38.7720 
  105.6250    64.4580    25.0380     9.1270     7.2180     7.9130     2.1450   -38.9130 
  105.7500    65.3790    25.0470     9.0000     6.7680     7.5920     2.1390   -39.0090 
  105.8750    65.1650    25.0480     9.0070     6.6270     7.6150     2.1340   -39.0420 
  106.0000    64.4130    25.0480     9.0800     6.6690     7.7860     2.1380   -38.9910 
  106.1250    64.4020    25.0480     9.0760     6.7990     7.9780     2.1530   -38.8080 
