~V
VERS. 2.00: Ver 2.00
~W
STRT.M 55.0000:
STOP.M 274.0000:
STEP.M 0.1250:
NULL. -999.2500:
UWI. DF5015:
~C
DEPT.M :
DEN.GM/CC :
GR.API :
CALI.CM :
RXO.OHMM :
RI. :
RML.OHMM :
SP.MV :
~A
# ...
  167.5000     2.2230    70.8550    24.4380   119.3100   136.7520   145.7050   -32.7160 
  167.6250     2.2230    71.0610    24.3570   124.6200   143.8230   153.2280   -32.6060 
  167.7500     2.2100    72.4230    24.3120   129.8990   151.1070   160.9780   -32.4600 
  167.8750     2.1910    73.5720    24.2980   135.0240   158.4130   168.7520   -32.2840 
  168.0000     2.1790    73.0360    24.2300   140.2590   165.6350   176.4350   -32.0960 
  168.1250     2.1840    71.5900    24.0450   147.5650   172.6890   183.9410   -31.9190 
  168.2500     2.1960    71.5760    23.8720   153.9120   179.4530   191.1380   -31.7730 
  168.3750     2.2040    72.8490    23.7870   151.9810   185.6990   197.7840   -31.6670 
  168.5000     2.2070    72.9790    23.7890   136.6080   191.0830   203.5120   -31.6030 
  168.6250     2.2150    69.9890    23.8690   113.3480   194.8520   207.5230   -31.5860 
  168.7500     2.2300    66.7180    23.9710    97.0290   196.4990   209.2750   -31.6030 
  168.8750     2.2470    66.4890    24.0040    96.3950   195.3630   208.0670   -31.6500 
  169.0000     2.2600    69.3720    23.9180   109.7660   191.0640   203.4920   -31.7250 
  169.1250     2.2550    71.6180    23.5900   125.6940   183.3050   195.2360   -31.8170 
  169.2500     2.2330    71.3460    23.0440   134.0480   173.5190   184.8240   -31.9120 
  169.3750     2.2040    69.9400    22.4450   132.6310   163.0750   173.7110   -32.0060 
  169.5000     2.1900    68.8230    22.1000   123.6400   153.5390   163.5650   -32.0980 
  169.6250     2.2030    67.6370    22.4480   113.8950   147.0750   156.6880   -32.1930 
  169.7500     2.2300    66.7990    23.1460   110.5180   144.4700   153.9160   -32.2940 
  169.8750     2.2540    67.6590    23.7190   114.0410   146.1940   155.7500   -32.4000 
  170.0000     2.2600    70.2120    23.9010   121.1690   152.0870   162.0210   -32.5070 
  170.1250     2.2440    71.8930    23.6320   127.0830   161.5200   172.0570   -32.6100 
  170.2500     2.2240    71.5290    23.0700   127.8630   171.5520   182.7320   -32.7080 
  170.3750     2.2120    70.3460    22.4210   121.1240   179.0680   190.7280   -32.8010 
  170.5000     2.2080    69.8740    22.1550   110.3860   181.0690   192.8570   -32.8910 
  170.6250     2.2020    70.3740    22.5630   104.7790   174.8880   186.2810   -32.9740 
  170.7500     2.1970    71.0200    23.1650   107.1970   163.0030   173.6350   -33.0470 
  170.8750     2.2010    71.6420    23.5070   108.0180   148.2580   157.9470   -33.1050 
  171.0000     2.2190    71.9940    23.5390   100.7890   133.7110   142.4680   -33.1490 
  171.1250     2.2430    72.0430    23.4860    88.4760   122.2840   130.3110   -33.1800 
  171.2500     2.2630    71.8130    23.4100    78.7680   114.5070   122.0350   -33.2060 
  171.3750     2.2720    70.4070    23.3140    75.1650   110.0550   117.2980   -33.2320 
  171.5000     2.2640    67.3020    23.1550    81.0290   107.8310   114.9320   -33.2620 
  171.6250     2.2430    65.0860    23.0470    94.6210   106.1150   113.1060   -33.3020 
  171.7500     2.2240    67.0010    23.0760   101.9540   103.4130   110.2310   -33.3620 
  171.8750     2.2190    72.7600    23.2670    96.1850    99.2590   105.8110   -33.4500 
  172.0000     2.2280    79.3110    23.5920    83.7340    93.8680   100.0760   -33.5680 
  172.1250     2.2450    83.1030    23.8020    76.4060    88.0170    93.8500   -33.7150 
  172.2500     2.2620    83.9130    23.8260    74.3810    82.9060    88.4120   -33.8780 
  172.3750     2.2730    83.2110    23.7560    70.9500    79.4900    84.7770   -34.0460 
  172.5000     2.2780    82.4720    23.6980    64.0810    78.3900    83.6070   -34.2140 
  172.6250     2.2800    82.5740    23.6910    60.1050    80.3720    85.7160   -34.3770 
  172.7500     2.2850    82.9680    23.7750    61.4630    84.9460    90.5820   -34.5320 
  172.8750     2.2880    82.3090    23.9800    67.0400    91.7790    97.8530   -34.6760 
  173.0000     2.2840    79.7370    24.2390    75.1930   100.1840   106.7960   -34.8010 
  173.1250     2.2660    76.7770    24.4230    88.4800   109.0460   116.2240   -34.8970 
  173.2500     2.2480    75.5620    24.4760   103.4810   116.8810   124.5620   -34.9710 
  173.3750     2.2370    75.5570    24.3980   116.2930   122.6220   130.6700   -35.0310 
  173.5000     2.2340    75.2920    24.2650   124.8570   125.8030   134.0540   -35.0850 
  173.6250     2.2320    74.6570    24.1390   128.0290   126.3430   134.6290   -35.1340 
  173.7500     2.2290    74.3890    24.0420   124.8810   125.3970   133.6230   -35.1730 
  173.8750     2.2290    74.2590    24.0130   117.1490   123.6560   131.7700   -35.2010 
  174.0000     2.2280    73.4400    24.0960   111.0330   121.6640   129.6500   -35.2250 
  174.1250     2.2240    71.9080    24.2530   115.1770   119.5380   127.3880   -35.2570 
  174.2500     2.2200    71.6100    24.4110   128.3400   116.9590   124.6440   -35.2940 
  174.3750     2.2230    73.6970    24.4950   142.4210   113.6900   121.1660   -35.3310 
  174.5000     2.2330    77.2350    24.5100   147.5590   109.9040   117.1380   -35.3610 
  174.6250     2.2470    79.8600    24.4360   136.3460   106.3480   113.3540   -35.3910 
  174.7500     2.2550    81.0230    24.2830   117.7130   104.1050   110.9680   -35.4240 
  174.8750     2.2550    81.7130    24.0740   101.8040   104.3550   111.2340   -35.4610 
  175.0000     2.2490    82.6970    23.8950    93.7110   108.2900   115.4210   -35.4960 
  175.1250     2.2430    83.9090    23.7690    93.8820   117.7610   125.4980   -35.5280 
  175.2500     2.2390    83.9470    23.6700   101.0930   132.4680   141.1460   -35.5630 
  175.3750     2.2390    81.2840    23.6490   114.9560   152.0810   162.0140   -35.6060 
  175.5000     2.2390    75.9330    23.7190   129.1020   175.3950   186.8210   -35.6540 
  175.6250     2.2340    70.0340    23.9310   138.4770   199.9550   212.9520   -35.6910 
  175.7500     2.2200    65.6350    24.2160   149.1140   222.1780   236.5980   -35.7090 
  175.8750     2.2030    62.5880    24.5100   162.6670   239.5080   255.0360   -35.7100 
  176.0000     2.1900    60.0060    24.7460   172.7670   250.9290   267.1880   -35.6990 
  176.1250     2.1830    58.0110    24.7910   172.5420   256.9160   273.5580   -35.6730 
  176.2500     2.1820    57.0270    24.7200   168.3030   261.2950   278.2180   -35.6340 
  176.3750     2.1890    57.3750    24.6680   168.1990   266.7430   284.0140   -35.5840 
  176.5000     2.1980    58.7520    24.7250   175.4180   275.2280   293.0420   -35.5270 
  176.6250     2.2030    59.9740    24.7980   189.5910   288.6870   307.3630   -35.4630 
  176.7500     2.1990    59.5250    24.8370   209.1920   306.6450   326.4700   -35.3990 
  176.8750     2.1880    57.3290    24.8640   230.2700   328.2690   349.4780   -35.3410 
  177.0000     2.1770    55.1400    24.9000   246.6180   352.1320   374.8680   -35.2920 
  177.1250     2.1730    55.1830    24.8820   252.0380   375.9980   400.2620   -35.2520 
  177.2500     2.1710    56.4390    24.7860   254.4680   395.1430   420.6320   -35.2120 
  177.3750     2.1630    56.9920    24.7080   261.9790   402.2210   428.1630   -35.1610 
  177.5000     2.1500    56.4380    24.7700   273.2810   390.8140   416.0260   -35.0940 
  177.6250     2.1420    55.8900    24.9110   283.8130   358.2510   381.3790   -35.0100 
  177.7500     2.1460    55.7660    25.0090   287.0170   314.5230   334.8530   -34.9150 
  177.8750     2.1560    56.0570    25.0830   280.6130   267.0490   284.3400   -34.8100 
  178.0000     2.1640    57.1060    25.1140   255.3260   221.8970   236.2980   -34.6980 
  178.1250     2.1720    59.3730    25.0200   205.2430   184.7730   196.7990   -34.5820 
  178.2500     2.1840    61.6660    24.7990   168.5210   156.4170   166.6280   -34.4660 
  178.3750     2.2010    62.7700    24.5780   170.4620   136.4200   145.3510   -34.3520 
  178.5000     2.2160    63.1300    24.5410   160.6740   123.0430   131.1180   -34.2480 
  178.6250     2.2200    65.2200    24.7110   148.8280   114.5810   122.1150   -34.1640 
