~V
VERS. 2.00: Ver 2.00
~W
STRT.M 55.0000:
STOP.M 271.0000:
STEP.M 0.1250:
NULL. -999.2500:
UWI. DF5009:
~C
DEPT.M :
GR.API :
CALI.CM :
RXO.OHMM :
RI. :
RML.OHMM :
DEN.GM/CC :
SP.MV :
~A
# ...
  212.5000    67.3380    25.9490   195.3770   131.1680   143.2450     2.1630   -13.1150 
  212.6250    67.2870    26.0190   171.9410   149.5580   162.7810     2.1440   -13.2570 
  212.7500    70.4480    26.0520   152.9270   157.7140   170.3890     2.1250   -13.3930 
  212.8750    72.9530    26.0400   154.5850   158.5720   170.0920     2.1130   -13.4460 
  213.0000    72.5360    26.0090   159.9450   157.7750   168.5900     2.1100   -13.4320 
  213.1250    69.6850    26.0200   159.6000   159.5850   169.9980     2.1170   -13.5020 
  213.2500    67.3040    26.0720   165.2150   163.8110   173.3900     2.1280   -13.4230 
  213.3750    66.7020    26.1050   169.9970   168.4920   176.2610     2.1410   -13.4670 
  213.5000    67.3610    26.0460   171.3870   170.5450   175.1330     2.1530   -13.3710 
  213.6250    65.7470    25.8480   169.8060   165.4740   165.5710     2.1610   -13.2490 
  213.7500    62.4620    25.6780   164.2340   153.4330   149.2580     2.1670   -13.1180 
  213.8750    60.9140    25.6800   150.9490   137.0210   130.1300     2.1710   -12.9960 
  214.0000    62.4110    25.7910   123.5740   120.2950   112.6010     2.1730   -13.0110 
  214.1250    65.4140    25.7870    92.5000   107.3290   100.2020     2.1740   -12.8160 
  214.2500    68.8880    25.6610    74.9570    98.8880    92.5920     2.1750   -12.7250 
  214.3750    72.3170    25.5410    76.9940    94.5860    88.9500     2.1750   -12.7290 
  214.5000    74.5950    25.4630    89.8940    93.4500    88.1860     2.1760   -12.7120 
  214.6250    75.3580    25.4100    95.0440    94.7250    89.6180     2.1760   -12.6510 
  214.7500    76.5590    25.4240    89.9570    97.4560    92.5620     2.1760   -12.5930 
  214.8750    76.4970    25.4960    79.5630   101.8000    97.4140     2.1710   -12.5450 
  215.0000    74.6910    25.5490    78.3220   108.6590   105.1650     2.1650   -12.5050 
  215.1250    73.7970    25.5220    98.1530   120.2200   117.9270     2.1620   -12.5140 
  215.2500    72.6610    25.4580   117.1520   136.9650   136.0370     2.1660   -12.6030 
  215.3750    69.7140    25.3790   141.0520   158.9710   159.6440     2.1710   -12.5580 
  215.5000    66.4280    25.3130   178.4610   185.1620   187.8420     2.1740   -12.5660 
  215.6250    66.6710    25.3970   207.2100   213.1100   218.4430     2.1720   -12.6450 
  215.7500    68.3010    25.6320   227.0940   239.3750   247.8390     2.1650   -12.6450 
  215.8750    69.4240    25.8690   248.7810   261.9660   273.8050     2.1580   -12.7140 
  216.0000    68.9990    25.9490   265.8720   280.0830   295.2870     2.1510   -12.6030 
  216.1250    64.9530    25.8500   273.8840   293.1270   311.3700     2.1410   -12.6390 
  216.2500    61.8150    25.7690   276.9930   302.4910   323.2230     2.1320   -12.5360 
  216.3750    63.1860    25.7940   275.4630   308.7270   331.2370     2.1260   -12.3770 
  216.5000    67.0400    25.8850   275.8610   312.1570   335.7990     2.1240   -12.3160 
  216.6250    67.4860    25.9410   278.0900   313.0660   337.3530     2.1260   -12.0570 
  216.7500    66.6190    25.9470   283.7770   313.0310   337.5740     2.1300   -11.9410 
  216.8750    67.0160    25.8850   285.7190   312.9480   337.1890     2.1380   -11.7290 
  217.0000    67.0440    25.7000   283.7250   312.9660   336.2350     2.1520   -11.6570 
  217.1250    65.7550    25.4470   283.2960   312.1260   333.6850     2.1690   -11.4190 
  217.2500    64.0810    25.2970   280.2170   309.2460   328.6290     2.1840   -11.2420 
  217.3750    62.0640    25.3180   268.6840   303.5920   320.4580     2.1930   -11.1660 
  217.5000    59.7670    25.4360   226.8140   295.2100   309.1660     2.1940   -10.8520 
  217.6250    57.8710    25.5480   201.1330   283.6170   293.8200     2.1900   -10.7540 
  217.7500    58.7630    25.6150   199.9650   267.9050   273.4790     2.1860   -10.5290 
  217.8750    62.3100    25.6140   210.3400   246.7720   247.4110     2.1820   -10.3210 
  218.0000    65.3930    25.5490   208.3660   220.8530   217.4020     2.1800   -10.1260 
  218.1250    64.7920    25.4610   184.7800   193.5230   188.1080     2.1810    -9.9290 
  218.2500    64.0400    25.3960   147.0290   169.2680   163.5990     2.1830    -9.8000 
  218.3750    65.9920    25.3580   108.8480   150.5460   145.5940     2.1840    -9.5470 
  218.5000    68.4320    25.3230    92.5550   138.0430   134.0670     2.1840    -9.4920 
  218.6250    68.7410    25.3090   101.0710   131.6520   128.4220     2.1800    -9.4920 
  218.7500    68.4380    25.3220    99.5990   128.6450   125.7380     2.1740    -9.4730 
  218.8750    67.5200    25.3720    97.3550   127.0630   123.9820     2.1690    -9.4690 
  219.0000    66.2030    25.4640    97.6270   124.9450   121.3120     2.1650    -9.3330 
  219.1250    66.5320    25.5560    97.1320   120.8370   116.6540     2.1620    -9.4430 
  219.2500    67.7890    25.6010    93.7150   115.6160   111.2710     2.1600    -9.3450 
  219.3750    67.4190    25.5960    92.3340   110.7790   106.7910     2.1580    -9.3390 
  219.5000    65.1680    25.5010    84.0430   107.7520   104.5790     2.1560    -9.4430 
  219.6250    64.8480    25.2420    79.2690   108.0410   105.9310     2.1540    -9.2690 
  219.7500    67.5670    24.9890    86.4140   111.4250   110.2800     2.1520    -9.2450 
  219.8750    68.7510    24.9420    96.0300   117.3360   116.8430     2.1500    -9.2060 
  220.0000    65.1970    25.1350   105.5640   124.5380   124.2490     2.1450    -9.2480 
  220.1250    61.8780    25.4410   117.9420   130.8740   130.2430     2.1400    -9.1500 
  220.2500    65.2690    25.7120   133.2110   134.3910   133.0600     2.1360    -9.1130 
  220.3750    70.9520    25.9000   144.9030   133.9400   131.7210     2.1380    -9.2280 
  220.5000    72.5710    25.9680   149.3450   129.3980   126.3070     2.1450    -9.1320 
  220.6250    71.0970    25.9320   131.1830   121.4630   117.8390     2.1520    -9.0890 
  220.7500    70.5130    25.8500   110.5680   112.6730   109.0120     2.1530    -9.0400 
  220.8750    69.1540    25.7480    96.2770   104.8680   101.6480     2.1460    -8.9870 
  221.0000    66.4070    25.6950    88.3850    99.2030    96.7310     2.1360    -9.0280 
  221.1250    65.9650    25.7750    85.6870    96.1680    94.5270     2.1270    -9.0220 
  221.2500    68.0590    25.9410    92.2610    94.4490    93.5240     2.1220    -9.0520 
  221.3750    69.0120    26.1010   106.3750    92.6800    92.2490     2.1230    -9.0280 
  221.5000    68.2420    26.1900   109.5040    89.6180    89.4120     2.1300    -8.9790 
  221.6250    68.2130    26.2050    93.8890    84.4250    84.2220     2.1420    -9.0600 
  221.7500    69.5500    26.2030    81.2190    77.9480    77.7690     2.1560    -9.0980 
  221.8750    70.7610    26.2040    73.0080    71.2690    71.3170     2.1700    -9.1040 
  222.0000    71.3720    26.1920    63.4130    65.4870    66.0250     2.1810    -9.0400 
  222.1250    72.3120    26.0900    55.4040    61.6080    62.8380     2.1860    -8.9400 
  222.2500    72.4010    25.8950    54.0700    59.4380    61.4240     2.1880    -8.9090 
  222.3750    71.3870    25.6940    54.8190    58.7190    61.4800     2.1880    -8.7180 
  222.5000    70.6520    25.5630    56.6320    59.1590    62.6980     2.1880    -8.6190 
  222.6250    68.5470    25.5080    58.2780    60.6720    64.9730     2.1880    -8.5130 
  222.7500    65.4240    25.4610    60.4620    62.9820    68.0150     2.1900    -8.3200 
  222.8750    63.3540    25.4140    62.0300    66.0880    71.8230     2.1910    -8.1880 
  223.0000    66.0640    25.3720    67.2650    70.0220    76.4340     2.1930    -7.9480 
  223.1250    72.0150    25.3380    74.5760    74.7380    81.8010     2.1940    -7.8830 
  223.2500    74.7630    25.3240    81.9290    79.5390    87.2120     2.1950    -7.6460 
  223.3750    73.3280    25.3110    86.1120    83.4910    91.6450     2.1980    -7.4600 
  223.5000    71.5200    25.2730    88.9190    85.4870    93.8600     2.2060    -7.3570 
  223.6250    72.3640    25.2080    86.4530    84.2670    92.4790     2.2170    -7.1020 
