~V
VERS. 2.00: Ver 2.00
~W
STRT.M 58.0000:
STOP.M 250.0000:
STEP.M 0.1250:
NULL. -999.2500:
UWI. DF5046:
~C
DEPT.M :
GR.API :
CALI.CM :
RXO.OHMM :
RI. :
RML.OHMM :
DEN.GM/CC :
SP.MV :
~A
   58.0000    46.3310    25.9800    -0.3020     3.9060   169.1440  -999.2500    71.9650 
   58.1250    46.3310    25.9800    -0.3020     3.9060   169.1440  -999.2500    73.1140 
   58.2500    44.2530    25.9790    -0.2920     4.2370   164.8410  -999.2500    73.9330 
   58.3750    40.1620    25.9780    -0.2630     5.2740   160.9960     2.1040    74.4770 
   58.5000    39.5410    25.9790    -0.2250     6.4610   160.5350     2.1040    74.8260 
   58.6250    41.4840    25.9600    -0.1720     6.6370   151.4920     2.0890    75.0030 
   58.7500    41.7000    25.9280    -0.1450     5.7910   142.9230     2.0910    75.0640 
   58.8750    39.5230    25.9110    -0.1700     4.8560   145.4710     2.0990    75.0200 
   59.0000    37.5400    25.9240    -0.2090     4.3770   162.6980     2.1070    74.8510 
   59.1250    37.8770    25.9480    -0.2150     4.4170   194.5560     2.1180    74.5080 
   59.2500    39.4570    25.9600    -0.2150     4.8190   224.6720     2.1250    73.8930 
   59.3750    41.6130    25.9650    -0.2370     5.3430   236.3440     2.1260    72.8210 
   59.5000    43.6030    25.9610    -0.2700     5.6640   235.9900     2.1290    71.1360 
   59.6250    44.9660    25.9310    -0.2900     5.7230   262.7290     2.1440    68.8330 
   59.7500    45.8910    25.8980    -0.2750     5.6560   332.9850     2.1590    66.1610 
   59.8750    46.3100    25.8840    -0.2220     5.4250   443.9280     2.1640    63.2610 
   60.0000    45.9070    25.8880    -0.1670     5.0500   539.3960     2.1630    60.1740 
   60.1250    45.7230    25.8870    -0.1540     4.6240   462.7720     2.1630    56.7890 
   60.2500    48.2250    25.8200    -0.1540     4.3280   261.1100     2.1660    52.9730 
   60.3750    51.0260    25.6450    -0.1080     4.1900   108.1860     2.1680    48.4990 
   60.5000    50.2660    25.3950     0.0100     4.0640    40.1590     2.1670    43.1430 
   60.6250    48.0510    25.1820     0.2240     3.3190    17.8930     2.1590    36.6570 
   60.7500    49.8910    25.1760     0.8280     2.1010     7.9860     2.1440    29.3480 
   60.8750    53.1720    25.4570     1.3660     1.1790     3.4070     2.1340    21.5400 
   61.0000    53.1450    25.8640     1.4640     0.7540     1.4270     2.1550    13.6250 
   61.1250    54.1080    25.8760     1.2160     0.6490     0.7650     2.2300     5.9740 
   61.2500    62.3890    25.3410     2.1220     0.6710     0.6320     2.3180    -1.0940 
   61.3750    74.9710    24.5540     3.5440     0.7920     0.8750     2.3580    -7.2020 
   61.5000    83.9260    23.9010     5.1030     1.0360     1.5060     2.3270   -11.9640 
   61.6250    85.5360    23.5730     5.9720     1.4690     2.6300     2.2660   -15.0660 
   61.7500    85.8400    23.4540     5.9750     2.0480     3.7930     2.2400   -16.9760 
   61.8750    88.3510    23.5330     5.4640     2.6700     4.4120     2.2540   -18.0890 
   62.0000    92.2950    23.8140     4.9540     3.2350     4.5800     2.2740   -18.7720 
   62.1250    92.5780    24.0690     4.9050     3.7190     4.7640     2.2660   -19.1880 
   62.2500    87.7160    24.0190     5.2570     4.1630     5.1210     2.2410   -19.4520 
   62.3750    81.3110    23.6840     5.6880     4.5620     5.5660     2.2160   -19.6200 
   62.5000    78.1100    23.3290     6.0110     4.8660     5.9470     2.1970   -19.8030 
   62.6250    81.3900    23.1980     6.1930     5.0040     6.1000     2.1890   -20.0680 
   62.7500    88.5330    23.2720     6.1190     5.0040     6.0600     2.2020   -20.4740 
   62.8750    95.3630    23.5380     5.6720     4.9170     5.9270     2.2350   -21.0630 
   63.0000    96.5310    23.9600     5.0890     4.8070     5.7980     2.2710   -21.8710 
   63.1250    89.1220    24.3220     4.9650     4.7400     5.7480     2.2750   -22.8550 
   63.2500    81.7140    24.3740     5.3410     4.7410     5.7850     2.2510   -23.9020 
   63.3750    81.6090    24.1310     5.7340     4.8140     5.9060     2.2240   -24.9090 
   63.5000    84.4770    23.8590     5.7460     4.9530     6.1010     2.2170   -25.8050 
   63.6250    80.1570    23.7620     5.6010     5.1540     6.3700     2.2190   -26.5440 
   63.7500    71.4070    23.7050     5.7690     5.3920     6.6970     2.2070   -27.1350 
   63.8750    67.4220    23.5660     6.1470     5.6500     7.0610     2.1850   -27.5620 
   64.0000    71.1900    23.3710     6.3720     5.9060     7.4110     2.1730   -27.8120 
   64.1250    76.7030    23.2760     6.3670     6.1190     7.6490     2.1810   -27.9360 
   64.2500    78.5920    23.3290     6.4200     6.2480     7.7450     2.1930   -28.0350 
   64.3750    77.8050    23.4530     6.6030     6.2760     7.7180     2.2000   -28.1290 
   64.5000    77.1640    23.5390     6.7650     6.2240     7.6310     2.2050   -28.2150 
   64.6250    77.0710    23.6060     6.7340     6.1650     7.6030     2.2160   -28.2700 
   64.7500    74.3510    23.7660     6.6390     6.1920     7.7290     2.2270   -28.3060 
   64.8750    70.7530    23.9360     6.6790     6.3710     8.0680     2.2290   -28.3660 
   65.0000    68.1500    23.9850     6.8730     6.7130     8.6160     2.2190   -28.4410 
   65.1250    67.6280    23.9220     7.0260     7.1570     9.2750     2.2090   -28.5380 
   65.2500    67.0230    23.7290     7.0680     7.5420     9.7700     2.2110   -28.6360 
   65.3750    66.0120    23.2870     7.0970     7.7400     9.8890     2.2150   -28.7520 
   65.5000    64.1550    22.6560     7.1740     7.7130     9.6420     2.2080   -28.8740 
   65.6250    63.1290    22.1800     7.2520     7.5400     9.2740     2.1870   -29.0510 
   65.7500    66.8080    22.0010     7.2720     7.3890     9.0540     2.1780   -29.2730 
   65.8750    73.0730    21.9990     7.2640     7.3440     9.0650     2.1890   -29.5230 
   66.0000    78.1240    22.0750     7.3220     7.4140     9.2550     2.2120   -29.7830 
   66.1250    79.1300    22.2530     7.4790     7.5390     9.4710     2.2270   -30.0400 
   66.2500    78.7830    22.5170     7.5570     7.6090     9.5470     2.2250   -30.2740 
   66.3750    79.4530    22.7900     7.4660     7.5710     9.4370     2.2130   -30.4660 
   66.5000    80.2590    22.9610     7.3070     7.4320     9.1940     2.1990   -30.6370 
   66.6250    78.2410    22.9340     7.2390     7.2560     8.9230     2.1880   -30.7830 
   66.7500    73.1350    22.8070     7.2190     7.1230     8.7260     2.1830   -30.9320 
   66.8750    69.6070    22.6990     7.1820     7.0710     8.6530     2.1790   -31.0640 
   67.0000    71.0080    22.6860     7.1390     7.0970     8.7080     2.1770   -31.2040 
   67.1250    72.4700    22.7440     7.1210     7.1740     8.8530     2.1770   -31.3370 
   67.2500    69.6180    22.7920     7.1120     7.2450     8.9810     2.1800   -31.4480 
   67.3750    64.3600    22.8210     7.1110     7.2800     9.0220     2.1890   -31.5320 
   67.5000    62.2780    22.8430     7.1320     7.2610     8.9580     2.1950   -31.5820 
   67.6250    65.1850    22.8500     7.1740     7.1850     8.8140     2.1880   -31.6260 
   67.7500    66.0510    22.8430     7.1930     7.0800     8.6620     2.1680   -31.6710 
   67.8750    63.6540    22.8360     7.1470     6.9740     8.5360     2.1470   -31.7380 
   68.0000    61.2120    22.8410     7.0390     6.8880     8.4460     2.1390   -31.7830 
   68.1250    62.7100    22.8560     6.9740     6.8420     8.4030     2.1420   -31.7910 
   68.2500    64.1790    22.8800     7.0650     6.8270     8.4070     2.1400   -31.8020 
   68.3750    63.5650    22.9240     7.2860     6.8310     8.4500     2.1310   -31.8220 
   68.5000    63.5150    22.9850     7.4770     6.8370     8.5160     2.1240   -31.8200 
   68.6250    65.9350    23.0340     7.4950     6.8250     8.5760     2.1220   -31.7350 
   68.7500    69.2370    23.0540     7.4250     6.7880     8.6070     2.1220   -31.5460 
   68.8750    71.1260    23.0900     7.3610     6.7290     8.5990     2.1220   -31.2510 
   69.0000    70.2040    23.1970     7.3300     6.6530     8.5500     2.1210   -30.8680 
   69.1250    69.1140    23.2990     7.3280     6.5560     8.4530     2.1170   -30.4380 
