~V
VERS. 2.00: Ver 2.00
~W
STRT.M 60.0000:
STOP.M 259.0000:
STEP.M 0.1250:
NULL. -999.2500:
UWI. DF5006:
~C
DEPT.M :
SP.MV :
GR.API :
RML.OHMM :
RI. :
RXO.OHMM :
CALI.CM :
DEN.GM/CC :
~A
# ...
  161.2500   -10.7220    77.2910    12.2160    11.4710    11.5030    24.0820     2.4180 
  161.3750   -11.0290    84.3350    10.4830     9.8390     9.4290    24.1340     2.4270 
  161.5000   -11.3310    88.4640     9.2660     8.6120     7.8210    24.1460     2.4350 
  161.6250   -11.6880    91.4970     8.6580     7.8910     7.1590    24.0790     2.4380 
  161.7500   -12.0670    96.7980     8.7210     7.7750     7.1300    24.0400     2.4330 
  161.8750   -12.4630   101.7530     9.2740     8.1450     7.3710    24.0340     2.4220 
  162.0000   -12.8970   102.1820    10.2240     8.9450     7.9950    24.0500     2.4080 
  162.1250   -13.3540   100.8220    11.4680    10.0930     9.1180    24.0680     2.3930 
  162.2500   -13.8660   100.7670    12.8610    11.4670    10.7030    24.0010     2.3790 
  162.3750   -14.3190    98.8900    14.1540    12.8150    12.4450    23.9180     2.3670 
  162.5000   -14.7810    93.4930    15.1280    13.9160    13.9100    23.9160     2.3590 
  162.6250   -15.1730    88.7350    15.6260    14.5870    15.1800    24.0030     2.3560 
  162.7500   -15.5380    89.7860    15.5690    14.6860    16.1550    24.1070     2.3590 
  162.8750   -15.8750    93.1480    15.2360    14.4270    16.0800    24.1450     2.3670 
  163.0000   -16.1710    96.7240    14.9260    14.0610    14.7510    24.1440     2.3760 
  163.1250   -16.4120    99.1860    14.9290    13.8580    13.9340    24.1390     2.3800 
  163.2500   -16.5740    98.8200    15.5240    14.0830    14.2030    24.1360     2.3770 
  163.3750   -16.6840    96.3100    16.6360    14.7360    15.5190    24.1380     2.3710 
  163.5000   -16.7660    93.1190    18.1070    15.7400    17.3180    24.1400     2.3650 
  163.6250   -16.8520    92.3320    19.6510    16.9100    19.1850    24.1340     2.3620 
  163.7500   -16.8960    92.8630    20.7710    17.9120    20.5990    24.1190     2.3620 
  163.8750   -16.9490    90.9070    21.1790    18.5010    21.7490    24.1180     2.3620 
  164.0000   -16.9710    85.8050    20.9320    18.6190    23.1590    24.1690     2.3600 
  164.1250   -17.0100    80.0430    20.3590    18.4350    24.7760    24.2570     2.3570 
  164.2500   -17.0490    80.9730    20.4240    18.3950    24.1140    24.3260     2.3540 
  164.3750   -17.1810    86.7320    21.6250    18.9730    21.5510    24.3620     2.3500 
  164.5000   -17.3550    89.6620    24.3430    20.4950    22.1100    24.3750     2.3390 
  164.6250   -17.5780    85.6920    28.4450    23.0770    26.5620    24.3790     2.3220 
  164.7500   -17.8190    79.3870    32.6830    26.6710    33.3380    24.3780     2.3030 
  164.8750   -18.0690    78.3360    36.9280    30.6670    38.1460    24.3700     2.2880 
  165.0000   -18.3290    81.7370    40.7560    34.6090    40.9390    24.3520     2.2820 
  165.1250   -18.5730    86.7950    44.1810    38.2670    41.3230    24.3400     2.2840 
  165.2500   -18.8290    88.8990    47.8180    41.9100    43.6470    24.3360     2.2900 
  165.3750   -19.0430    86.3370    52.3460    46.1320    49.4840    24.3360     2.2940 
  165.5000   -19.2570    82.2960    58.0270    51.2940    57.5190    24.3360     2.2960 
  165.6250   -19.4460    79.5890    64.6860    57.3840    66.7230    24.3360     2.2970 
  165.7500   -19.6590    77.1160    71.8680    64.0710    71.4140    24.3360     2.2950 
  165.8750   -19.8240    73.1790    78.8690    70.6640    73.2030    24.3340     2.2910 
  166.0000   -19.9800    69.6370    85.0660    76.5600    76.2420    24.3270     2.2820 
  166.1250   -20.1170    69.1260    89.6870    81.0830    80.8570    24.3160     2.2720 
  166.2500   -20.2700    69.1180    91.2720    83.0120    85.0420    24.3260     2.2610 
  166.3750   -20.4070    67.5060    89.5550    82.0850    85.3050    24.3240     2.2560 
  166.5000   -20.5310    68.3800    84.8320    78.4200    80.0970    24.3040     2.2560 
  166.6250   -20.6480    74.2010    78.4500    72.9970    70.7520    24.2800     2.2620 
  166.7500   -20.7580    81.1940    72.7490    67.6940    62.0480    24.2810     2.2700 
  166.8750   -20.8890    83.6430    69.6000    64.3490    56.6690    24.3020     2.2780 
  167.0000   -21.0660    82.6280    70.0480    64.0980    56.2240    24.3260     2.2820 
  167.1250   -21.2770    81.7330    74.4960    67.5030    60.2640    24.3380     2.2830 
  167.2500   -21.4520    81.3070    83.1890    74.9830    67.3550    24.3490     2.2790 
  167.3750   -21.6580    78.8790    94.2820    84.9420    76.1040    24.3710     2.2730 
  167.5000   -21.8550    74.9390   105.9930    95.8240    85.3400    24.3880     2.2670 
  167.6250   -22.0700    71.4880   116.3070   105.8000    94.1820    24.3950     2.2610 
  167.7500   -22.2170    70.1870   122.9620   112.7640    97.7620    24.3950     2.2570 
  167.8750   -22.3390    70.2690   126.0400   116.5340    95.7740    24.3950     2.2520 
  168.0000   -22.4150    70.8840   126.3010   117.5890    95.9280    24.3950     2.2450 
  168.1250   -22.4730    71.6280   124.9560   116.9250   100.9690    24.3950     2.2390 
  168.2500   -22.5430    73.0720   123.0800   115.5510   106.5420    24.3940     2.2360 
  168.3750   -22.5650    75.9810   121.2850   114.2260   107.1030    24.3830     2.2360 
  168.5000   -22.6000    77.3390   119.6500   113.1380   101.7040    24.3600     2.2380 
  168.6250   -22.6010    74.3220   118.1750   112.3180    97.2240    24.3350     2.2390 
  168.7500   -22.6560    69.4960   117.0160   111.8360    98.4310    24.3080     2.2380 
  168.8750   -22.7050    67.9800   116.4000   111.6650    98.4830    24.2780     2.2370 
  169.0000   -22.7580    68.3590   116.3840   111.7530    98.1840    24.2650     2.2380 
  169.1250   -22.7900    67.9120   116.8550   111.9360    98.3920    24.2720     2.2380 
  169.2500   -22.8320    67.5960   117.4450   111.9270    99.6340    24.2930     2.2360 
  169.3750   -22.9030    69.0060   117.2380   111.5340    99.5550    24.3200     2.2330 
  169.5000   -22.9520    71.4780   115.8950   110.6020    99.4510    24.3330     2.2300 
  169.6250   -22.9740    73.5650   113.3730   108.9690   100.4660    24.3360     2.2300 
  169.7500   -22.9600    74.1150   110.2610   106.3680    98.6590    24.3360     2.2330 
  169.8750   -22.9770    73.4610   106.1950   102.9930    93.9440    24.3310     2.2380 
  170.0000   -22.9840    71.7190   101.5050    99.0810    87.6850    24.3040     2.2440 
  170.1250   -23.0410    70.9120    97.0580    95.0160    80.4220    24.2350     2.2490 
  170.2500   -23.0820    72.1580    93.4910    91.4720    72.2240    24.1310     2.2560 
  170.3750   -23.1380    73.7150    91.2060    89.0300    65.2570    23.9930     2.2610 
  170.5000   -23.1900    75.5170    90.5770    88.1500    60.6730    23.7550     2.2650 
  170.6250   -23.2910    76.7570    91.8030    89.0670    58.1580    23.4750     2.2650 
  170.7500   -23.4150    74.8340    95.1240    92.0310    59.5010    23.3540     2.2610 
  170.8750   -23.5530    71.4000    99.9360    96.4670    64.3210    23.4100     2.2540 
  171.0000   -23.6650    70.3990   105.8420   101.9910    69.8720    23.5870     2.2450 
  171.1250   -23.7550    71.3240   112.4580   108.2110    72.4800    23.7380     2.2380 
  171.2500   -23.8520    71.2570   119.5140   114.8360    71.0410    23.7180     2.2340 
  171.3750   -23.9290    70.3400   126.6650   121.5340    68.2870    23.5610     2.2320 
  171.5000   -24.0050    70.6930   133.6340   128.0540    65.8700    23.3880     2.2320 
  171.6250   -24.0360    69.2910   140.1200   134.1240    63.1860    23.3020     2.2340 
  171.7500   -24.0770    64.5900   145.6470   139.3120    61.1230    23.2890     2.2350 
  171.8750   -24.0780    60.6360   149.8970   143.3550    60.6390    23.2890     2.2360 
  172.0000   -24.1350    59.3710   152.2460   145.7180    61.5860    23.2890     2.2360 
  172.1250   -24.1760    59.0670   151.9300   145.7300    64.1460    23.2890     2.2360 
  172.2500   -24.2020    57.5530   147.7870   142.3040    66.6160    23.2890     2.2340 
  172.3750   -24.1940    56.6570   140.6060   136.0210    68.5730    23.2890     2.2330 
