~V
VERS. 2.00: Ver 2.00
~W
STRT.M 55.0000:
STOP.M 273.0000:
STEP.M 0.1250:
NULL. -999.2500:
UWI. DF5004:
~C
DEPT.M :
GR.API :
CALI.CM :
RXO.OHMM :
RI. :
RML.OHMM :
DEN.GM/CC :
SP.MV :
~A
# ...
  201.2500    57.2620    24.7090   433.3760   369.9720   412.8910     2.2430   -23.9300 
  201.3750    57.0640    24.7270   394.4240   321.7720   333.7280     2.2340   -23.8710 
  201.5000    57.0420    24.7200   318.6730   256.7030   247.9290     2.2260   -23.7720 
  201.6250    56.2420    24.6770   226.5430   195.5590   184.0280     2.2290   -23.6220 
  201.7500    57.1480    24.6900   154.2270   149.8360   142.0950     2.2450   -23.3630 
  201.8750    60.9130    24.8050   105.6990   120.2770   116.5640     2.2640   -22.9890 
  202.0000    67.0390    24.9190    92.3860   103.3150   101.9220     2.2770   -22.5030 
  202.1250    72.3260    25.1360   108.8070    94.4160    93.8310     2.2800   -21.8500 
  202.2500    74.0090    25.2090   117.4170    87.2580    86.8180     2.2740   -21.0720 
  202.3750    72.1760    24.9780   104.4940    79.2350    78.4420     2.2690   -20.2310 
  202.5000    68.4760    24.5950    84.6510    70.1570    68.8060     2.2710   -19.4040 
  202.6250    66.4280    24.3440    67.4740    62.2300    60.5960     2.2750   -18.6870 
  202.7500    67.1170    24.1340    51.5920    57.9190    56.2130     2.2660   -18.1140 
  202.8750    70.2080    23.8430    42.9300    59.6580    57.3300     2.2430   -17.6500 
  203.0000    72.6140    23.6480    56.0920    70.8450    65.7500     2.2150   -17.3000 
  203.1250    69.1490    23.7820   110.6880   100.2850    87.3370     2.1940   -17.0330 
  203.2500    62.1300    24.1850   217.8520   152.7350   128.2260     2.1790   -16.9180 
  203.3750    55.6440    24.6990   352.6070   229.0050   198.1850     2.1600   -16.8770 
  203.5000    51.8440    24.9630   445.7850   309.2790   291.9160     2.1310   -16.8730 
  203.6250    49.5130    25.0530   436.2950   331.2230   327.2820     2.1040   -16.8220 
  203.7500    48.1900    25.1810   359.0060   281.5230   267.3330     2.0930   -16.7900 
  203.8750    48.7530    25.3210   253.1210   202.5240   183.5200     2.0990   -16.7450 
  204.0000    51.8610    25.4290   143.9770   135.2730   123.1860     2.1190   -16.6960 
  204.1250    57.2460    25.5260    76.0990    94.7680    90.3330     2.1440   -16.6680 
  204.2500    63.5110    25.5950    48.1320    72.0130    71.9820     2.1650   -16.6410 
  204.3750    68.7730    25.3760    49.7300    61.5410    63.2810     2.1760   -16.6270 
  204.5000    70.8640    24.8660    66.7390    59.8610    61.8210     2.1780   -16.6160 
  204.6250    68.0320    24.3120    73.1390    66.7000    67.8660     2.1800   -16.6290 
  204.7500    63.8710    23.9370    60.1960    81.9630    81.1810     2.1810   -16.6010 
  204.8750    62.7080    23.7800    54.0630   108.1600   103.8390     2.1750   -16.5870 
  205.0000    64.0830    23.9800    89.1990   144.7850   136.6200     2.1610   -16.5680 
  205.1250    63.3020    24.6620   189.6590   173.0370   160.8350     2.1550   -16.5450 
  205.2500    60.6270    25.0580   295.9280   161.0030   141.3760     2.1800   -16.4400 
  205.3750    59.2840    25.0810   344.2830   111.3460    91.1200     2.2440   -16.2660 
  205.5000    60.6100    24.9290   305.3070    60.7880    49.3410     2.3380   -16.0490 
  205.6250    64.5440    24.8080   183.4300    32.1290    27.7970     2.4290   -15.8310 
  205.7500    70.6600    24.6660    69.6740    17.8730    16.5710     2.4800   -15.6430 
  205.8750    78.9290    24.4750    19.4530    11.4580    10.9750     2.4830   -15.4740 
  206.0000    87.5510    24.3870     9.6490     8.7490     8.5090     2.4560   -15.3290 
  206.1250    92.1070    24.4000     9.9380     7.9550     8.0950     2.4340   -15.2070 
  206.2500    92.9520    24.4400    10.4670     8.0600     8.7040     2.4270   -15.1550 
  206.3750    92.6820    24.4890    10.7070     8.7000     9.8240     2.4250   -15.1810 
  206.5000    93.1170    24.6500    10.8590     9.5210    10.9540     2.4170   -15.2870 
  206.6250    94.7710    24.8500    11.4100    10.1840    11.6840     2.4060   -15.4220 
  206.7500    97.3110    24.9900    12.2030    10.5960    12.0520     2.4010   -15.5760 
  206.8750    98.7440    24.9110    12.6740    10.7880    12.1890     2.3980   -15.7210 
  207.0000    96.8740    24.8120    12.4400    10.8220    12.2130     2.3950   -15.8970 
  207.1250    93.3760    24.7790    11.9640    10.7560    12.2160     2.3910   -16.0450 
  207.2500    92.9820    24.7850    11.8340    10.6510    12.2660     2.3880   -16.2260 
  207.3750    96.4320    24.8510    12.2380    10.5150    12.3810     2.3870   -16.4120 
  207.5000    99.1710    25.0500    12.7560    10.3440    12.5390     2.3860   -16.6290 
  207.6250    96.3910    25.1540    12.8320    10.1380    12.6820     2.3790   -16.8570 
  207.7500    90.7130    25.1720    12.8580     9.9490    12.7950     2.3670   -17.1100 
  207.8750    85.9680    25.1050    13.0750     9.8580    12.9500     2.3570   -17.3640 
  208.0000    82.4670    25.0390    13.3390     9.9410    13.2550     2.3600   -17.5740 
  208.1250    77.5890    25.0210    13.6070    10.2930    13.8610     2.3770   -17.7240 
  208.2500    74.4170    25.0230    14.7780    10.9190    14.8270     2.4030   -17.7570 
  208.3750    76.1440    25.0500    17.2000    11.8690    16.2660     2.4340   -17.6760 
  208.5000    79.9380    25.1100    20.1290    13.2110    18.3310     2.4680   -17.4460 
  208.6250    79.4070    25.1320    22.7310    15.1250    21.4080     2.5040   -17.0940 
  208.7500    74.4140    24.9820    26.8420    17.5190    25.3850     2.5410   -16.6190 
  208.8750    70.2640    24.9400    32.8640    19.9580    29.5010     2.5750   -16.0950 
  209.0000    69.8550    25.0550    38.4910    21.3890    31.8490     2.5930   -15.5370 
  209.1250    73.5020    25.1160    39.3700    20.2340    29.6050     2.5870   -14.9660 
  209.2500    76.6070    25.1980    33.7790    17.1530    24.0920     2.5750   -14.3870 
  209.3750    77.6410    25.3360    23.5220    13.5510    17.9450     2.5620   -13.8300 
  209.5000    77.5790    25.3280    14.0590    10.5700    13.1540     2.5410   -13.3290 
  209.6250    79.7700    25.3160     9.5060     8.8110    10.6410     2.5130   -12.9080 
  209.7500    83.7100    25.3100     8.8610     8.0320     9.8170     2.4970   -12.5750 
  209.8750    85.8880    25.3510     9.6290     8.0590    10.2910     2.4950   -12.2880 
  210.0000    86.5620    25.3220    10.7650     8.6580    11.5870     2.4950   -12.0600 
  210.1250    88.1380    25.1960    12.1250     9.3920    12.8590     2.4910   -11.8520 
  210.2500    91.4480    25.0690    12.7820     9.6730    13.1700     2.4990   -11.7150 
  210.3750    94.3080    25.0770    12.0800     9.2520    12.2450     2.5250   -11.6140 
  210.5000    94.4320    25.1700    10.2180     8.3090    10.5420     2.5580   -11.5530 
  210.6250    92.8240    25.1350     8.0840     7.2440     8.7920     2.5750   -11.4850 
  210.7500    90.2630    24.9020     6.4620     6.3620     7.4150     2.5780   -11.3920 
  210.8750    88.8820    24.6750     5.7310     5.7470     6.4970     2.5720   -11.2670 
  211.0000    89.7740    24.6710     5.5750     5.3950     6.0040     2.5530   -11.1020 
  211.1250    92.9930    24.7650     5.4540     5.2910     5.8930     2.5130   -10.9360 
  211.2500    94.9280    24.7450     5.3130     5.3480     6.0110     2.4660   -10.8090 
  211.3750    92.5760    24.8730     5.3720     5.5280     6.2820     2.4260   -10.7150 
  211.5000    87.2660    25.0730     5.7740     5.7820     6.6240     2.3990   -10.6260 
  211.6250    83.3870    25.0720     6.2430     6.0380     6.9320     2.3910   -10.5470 
  211.7500    83.4390    24.8050     6.5340     6.2390     7.1560     2.3960   -10.4950 
  211.8750    86.7440    24.6680     6.6710     6.3640     7.2950     2.4020   -10.4980 
  212.0000    89.5770    24.6660     6.8070     6.4240     7.3850     2.3990   -10.5770 
  212.1250    89.9980    24.7110     6.9480     6.4390     7.4670     2.3880   -10.7470 
  212.2500    89.2810    24.7200     7.1390     6.4320     7.5590     2.3760   -10.9220 
  212.3750    88.6510    24.7080     7.2250     6.3900     7.6290     2.3650   -11.1020 
