~V
VERS. 2.00: Ver 2.00
~W
STRT.M 59.0000:
STOP.M 243.0000:
STEP.M 0.1250:
NULL. -999.2500:
UWI. DF5058:
~C
DEPT.M :
GR.API :
CALI.CM :
RXO.OHMM :
RI. :
RML.OHMM :
DEN.GM/CC :
SP.MV :
~A
# ...
  171.5000    55.8960    24.4440   142.2750   144.4650   145.1220     2.1990   -40.8460 
  171.6250    60.6860    24.6110   134.6730   138.8830   137.5090     2.2050   -40.8700 
  171.7500    65.5010    24.7790   135.6090   130.5800   126.8940     2.2060   -40.7530 
  171.8750    66.7750    24.8020   146.5620   118.3250   112.5790     2.2060   -40.6140 
  172.0000    65.0400    24.6840   146.5330   102.7840    95.8980     2.2060   -40.4770 
  172.1250    62.3620    24.5920   113.8640    86.8040    80.1730     2.2130   -40.2630 
  172.2500    60.8350    24.5530    68.2160    73.4970    67.9230     2.2280   -40.1180 
  172.3750    62.9620    24.4670    41.4620    64.1590    59.8970     2.2460   -39.8270 
  172.5000    68.0260    24.4010    35.7680    58.6360    55.5580     2.2630   -39.6410 
  172.6250    70.0460    24.4410    36.4410    56.0020    53.7520     2.2740   -39.3450 
  172.7500    67.6560    24.4190    39.7380    54.1380    52.4040     2.2810   -39.0950 
  172.8750    64.3670    24.2470    41.3450    51.8850    50.4640     2.2860   -39.0460 
  173.0000    63.4170    24.0370    35.7590    48.9000    47.8000     2.2890   -38.7880 
  173.1250    64.3130    23.9370    26.6390    45.9350    45.4530     2.2890   -38.6160 
  173.2500    64.1710    23.8610    22.3600    44.2570    44.7880     2.2830   -38.4120 
  173.3750    63.4850    23.7640    24.8910    44.8500    46.7750     2.2720   -38.1980 
  173.5000    62.7620    23.6970    30.5030    48.4560    52.0360     2.2590   -38.0580 
  173.6250    62.7720    23.6390    33.1840    56.2560    61.6040     2.2480   -37.9080 
  173.7500    62.9490    23.5530    34.8770    67.7870    74.9430     2.2370   -37.8690 
  173.8750    62.1690    23.4740    39.2760    82.3990    91.5120     2.2220   -37.6740 
  174.0000    60.9580    23.4500    46.4450    98.5150   109.8560     2.2050   -37.6320 
  174.1250    60.7710    23.4610    56.1780   113.2010   126.7940     2.1920   -37.5790 
  174.2500    61.3840    23.5260    69.0850   123.5340   138.5600     2.1890   -37.4850 
  174.3750    60.7520    23.7880    88.5220   127.0250   141.8240     2.1970   -37.4850 
  174.5000    59.5070    24.2900   108.3140   122.5780   135.3380     2.2110   -37.3120 
  174.6250    59.2590    24.7720   127.5000   110.9910   120.9400     2.2270   -37.2100 
  174.7500    59.4240    24.9830   127.7270    97.3470   105.2600     2.2420   -36.9930 
  174.8750    60.5250    24.9750   102.8580    85.2350    92.3970     2.2550   -36.8810 
  175.0000    63.0490    24.9200    72.1040    77.0850    84.5950     2.2720   -36.6000 
  175.1250    63.8020    24.9050    60.5140    74.5190    82.8430     2.2990   -36.2830 
  175.2500    61.0190    24.8770    62.7830    75.0030    83.6920     2.3390   -35.9840 
  175.3750    57.0620    24.8030    75.7670    74.3080    82.1580     2.3960   -35.5630 
  175.5000    54.9030    24.7020   101.0400    67.2180    72.7710     2.4680   -35.2690 
  175.6250    54.2690    24.6240   111.6000    51.7260    54.6040     2.5340   -34.8370 
  175.7500    53.6090    24.5860    81.3700    35.1860    36.2840     2.5750   -34.4600 
  175.8750    53.7010    24.5730    36.1640    22.4850    22.7040     2.5830   -33.9470 
  176.0000    55.5260    24.5650    11.4890    14.5760    14.4640     2.5650   -33.4630 
  176.1250    58.9900    24.5590     6.6710    10.6230    10.5280     2.5350   -33.0130 
  176.2500    60.4470    24.5390     6.1820     8.5730     8.6580     2.5060   -32.5040 
  176.3750    58.0160    24.4730     6.2350     7.6570     7.9600     2.4800   -32.1040 
  176.5000    55.1400    24.4010     6.2620     7.4560     7.9100     2.4570   -31.5750 
  176.6250    54.6990    24.4020     6.2550     7.7330     8.2240     2.4400   -31.2200 
  176.7500    54.2780    24.4100     6.3070     8.2000     8.6490     2.4290   -30.8230 
  176.8750    52.3460    24.3270     6.5750     8.6910     9.0220     2.4240   -30.5060 
  177.0000    50.4760    24.1610     6.5420     8.9850     9.1270     2.4280   -30.2440 
  177.1250    49.8140    23.9910     6.3430     8.6970     8.6190     2.4430   -29.9420 
  177.2500    49.0190    23.8120     6.1430     7.7860     7.5270     2.4630   -29.7040 
  177.3750    47.3380    23.5880     5.3130     6.4780     6.1110     2.4830   -29.4390 
  177.5000    45.5590    23.3640     3.6710     5.1480     4.7730     2.4970   -29.2690 
  177.6250    45.3090    23.2600     2.3350     4.1470     3.8880     2.4930   -28.9290 
  177.7500    47.5510    23.3160     1.8830     3.5250     3.4450     2.4680   -28.6670 
  177.8750    50.7040    23.4690     2.1600     3.2560     3.3730     2.4310   -28.3470 
  178.0000    51.9880    23.5360     2.5970     3.2800     3.5920     2.3950   -28.0310 
  178.1250    51.0170    23.3920     2.7050     3.5530     4.0380     2.3660   -27.7310 
  178.2500    50.2330    23.3720     2.7970     3.9450     4.5620     2.3420   -27.4030 
  178.3750    49.8440    23.7060     2.9930     4.3740     5.0600     2.3240   -27.1150 
  178.5000    48.5890    24.1890     3.3940     4.7740     5.4680     2.3120   -26.7150 
  178.6250    47.9960    24.3710     3.8880     5.0870     5.7460     2.3100   -26.5050 
  178.7500    49.3660    24.3180     4.5540     5.2820     5.8960     2.3150   -26.1980 
  178.8750    51.4890    24.2750     4.7750     5.3280     5.9020     2.3220   -25.8950 
  179.0000    54.5970    24.2930     4.5720     5.2290     5.7770     2.3220   -25.6550 
  179.1250    61.1280    24.2790     4.3430     5.0200     5.5720     2.3110   -25.3610 
  179.2500    66.8190    24.1870     3.8470     4.8020     5.3930     2.2980   -25.1440 
  179.3750    65.6300    24.0810     3.3960     4.6470     5.3110     2.2900   -24.8700 
  179.5000    59.1840    24.1070     3.3680     4.5940     5.3610     2.2940   -24.7930 
  179.6250    54.6850    24.3510     3.7050     4.6640     5.5410     2.3100   -24.7050 
  179.7500    52.6070    24.5650     4.1800     4.8060     5.7700     2.3290   -24.6390 
  179.8750    49.8150    24.5560     4.4040     4.9730     5.9810     2.3370   -24.7480 
  180.0000    46.8280    24.3860     4.2370     5.1110     6.1140     2.3230   -24.8590 
  180.1250    46.5280    24.2580     3.9500     5.1660     6.1240     2.2860   -25.1170 
  180.2500    46.5460    24.1960     3.8420     5.1430     6.0430     2.2440   -25.3790 
  180.3750    45.4500    24.1440     3.7860     5.0630     5.9080     2.2070   -25.7720 
  180.5000    44.8180    24.2340     3.7760     4.9540     5.7550     2.1830   -26.2180 
  180.6250    46.0810    24.5500     3.7240     4.8420     5.6210     2.1760   -26.6780 
  180.7500    46.9980    24.8250     3.5210     4.7500     5.5270     2.1840   -27.3040 
  180.8750    47.2750    24.8980     3.3150     4.6870     5.4820     2.2050   -27.8280 
  181.0000    45.6080    24.8470     3.3300     4.6560     5.4820     2.2360   -28.5690 
  181.1250    41.5860    24.8620     3.4120     4.6520     5.5160     2.2710   -29.3530 
  181.2500    40.2920    24.9110     3.4980     4.6620     5.5610     2.3000   -30.2190 
  181.3750    42.9000    24.9940     3.5340     4.6820     5.6150     2.3180   -31.1160 
  181.5000    46.2630    25.1750     3.4900     4.7180     5.6860     2.3240   -32.0810 
  181.6250    47.3690    25.3090     3.4590     4.7900     5.8010     2.3170   -33.1570 
  181.7500    48.9640    25.1970     3.3970     4.9040     5.9690     2.3070   -34.1220 
  181.8750    52.9200    24.8510     3.3570     5.0630     6.1980     2.3010   -35.2400 
  182.0000    57.9060    24.4760     3.3680     5.2650     6.4920     2.3000   -36.2360 
  182.1250    64.9910    24.2060     3.3740     5.5150     6.8670     2.3070   -37.2220 
  182.2500    75.5680    23.9520     3.3900     5.8030     7.3090     2.3170   -38.1540 
  182.3750    87.4290    23.7520     3.5220     6.1230     7.8080     2.3300   -39.0640 
  182.5000    95.1900    23.7640     4.1470     6.4610     8.3290     2.3420   -39.8770 
  182.6250    94.8840    24.0910     5.6190     6.7740     8.7800     2.3540   -40.5340 
