~V
VERS. 2.00: Ver 2.00
~W
STRT.M 50.0000:
STOP.M 260.0000:
STEP.M 0.1250:
NULL. -999.2500:
UWI. DF5023:
~C
DEPT.M :
GR.API :
RML.OHMM :
RI. :
RXO.OHMM :
CALI.CM :
DEN.GM/CC :
SP.MV :
~A
# ...
  185.0000    64.0660   250.6680   208.4650   178.6300    24.2120     2.2010   -26.8220 
  185.1250    65.0500   265.0040   217.9030   184.8080    24.2540     2.2040   -26.2270 
  185.2500    64.7950   275.9300   225.1500   180.4310    24.3020     2.2060   -25.7210 
  185.3750    63.9780   281.4720   229.4250   173.3960    24.3570     2.2040   -25.1590 
  185.5000    64.9760   279.4190   229.5680   174.8450    24.4150     2.1940   -24.7170 
  185.6250    64.0200   266.9450   223.6290   188.5780    24.4650     2.1790   -24.2180 
  185.7500    59.3470   246.8330   212.3380   209.4630    24.5000     2.1640   -23.6880 
  185.8750    54.6250   222.0610   196.7830   219.0080    24.5190     2.1550   -23.2370 
  186.0000    55.6640   196.1720   178.9300   207.3820    24.4530     2.1570   -22.7210 
  186.1250    62.7170   172.8210   161.2230   170.3310    24.4440     2.1720   -22.3530 
  186.2500    67.8420   152.9910   145.0140   128.4670    24.4430     2.1920   -21.9460 
  186.3750    67.6120   135.7590   130.1100   101.3150    24.4430     2.2130   -21.6390 
  186.5000    64.2540   119.2210   115.3550    91.2940    24.4410     2.2290   -21.2870 
  186.6250    63.9140   101.7320    99.2140    87.0310    24.4350     2.2380   -21.0410 
  186.7500    68.6270    83.6760    82.0290    79.5220    24.4310     2.2430   -20.8260 
  186.8750    76.7380    66.3700    65.1100    69.9460    24.4300     2.2490   -20.6240 
  187.0000    83.0420    51.2620    50.0690    55.7020    24.4280     2.2630   -20.4630 
  187.1250    83.2610    39.9910    38.7360    33.5070    24.4180     2.2890   -20.3480 
  187.2500    81.1750    32.4360    31.0180    18.9300    24.3910     2.3190   -20.3010 
  187.3750    80.7340    28.3940    26.6190    15.2540    24.3660     2.3420   -20.3360 
  187.5000    81.4150    27.3680    25.0350    18.1570    24.3570     2.3510   -20.4870 
  187.6250    80.2840    29.1030    26.1020    26.2980    24.3590     2.3400   -20.7160 
  187.7500    77.1270    32.5610    28.9420    39.5700    24.3630     2.3230   -21.0000 
  187.8750    73.3580    37.2380    33.1530    55.4750    24.3650     2.3110   -21.3290 
  188.0000    70.8950    42.7670    38.3720    55.1330    24.3650     2.3120   -21.7500 
  188.1250    71.5770    49.0630    44.3710    41.8580    24.3670     2.3230   -22.1240 
  188.2500    72.0180    55.9830    50.7920    38.4200    24.3810     2.3310   -22.5320 
  188.3750    69.1850    63.6990    57.6150    44.2070    24.4110     2.3280   -22.8750 
  188.5000    64.6990    72.4750    64.9650    53.8640    24.4340     2.3110   -23.2640 
  188.6250    63.7310    82.3930    72.7900    65.2090    24.4350     2.2840   -23.4870 
  188.7500    65.2260    92.5060    80.3480    76.7830    24.4260     2.2570   -23.7340 
  188.8750    65.5410   101.5910    86.7370    87.4760    24.4140     2.2330   -23.9670 
  189.0000    63.1790   108.2190    90.9830    91.6550    24.4040     2.2150   -24.0940 
  189.1250    59.8210   110.6530    91.8660    95.8450    24.3810     2.2030   -24.2090 
  189.2500    58.8660   109.4030    89.9940    97.1830    24.3630     2.1980   -24.2100 
  189.3750    60.6310   105.4800    86.1870    94.4250    24.3540     2.2010   -24.1660 
  189.5000    63.2080   100.3690    81.5620    82.3230    24.3500     2.2100   -23.9540 
  189.6250    64.6270    95.8920    77.5240    70.6790    24.3490     2.2220   -23.8070 
  189.7500    66.2290    93.2740    75.0350    68.3110    24.3510     2.2340   -23.5910 
  189.8750    69.0400    93.3630    74.8180    73.3200    24.3530     2.2450   -23.3240 
  190.0000    70.5610    96.4210    77.2400    72.5120    24.3550     2.2520   -23.0570 
  190.1250    68.5670   101.9610    82.2040    71.6500    24.3690     2.2540   -22.8060 
  190.2500    65.0280   107.9310    88.1300    80.1470    24.4130     2.2480   -22.5680 
  190.3750    61.4940   112.2780    93.4420    92.3420    24.4850     2.2330   -22.3670 
  190.5000    60.2270   112.7760    96.3050   103.5230    24.5570     2.2130   -22.1960 
  190.6250    61.2830   107.4840    94.7200   113.7180    24.5820     2.1950   -22.0650 
  190.7500    63.0310    98.2480    89.4030   113.1390    24.5850     2.1860   -21.9240 
  190.8750    65.5460    86.9710    81.4070    91.9020    24.5790     2.1890   -21.7890 
  191.0000    69.8850    75.5020    72.1270    70.3080    24.5740     2.2030   -21.6890 
  191.1250    72.9760    65.8080    63.3530    57.7980    24.6670     2.2220   -21.5050 
  191.2500    72.2950    58.5900    56.3770    49.9460    24.7410     2.2410   -21.3840 
  191.3750    71.4200    53.8130    51.5320    47.2070    24.8100     2.2560   -21.2540 
  191.5000    73.0340    50.8890    48.4730    44.3090    24.8740     2.2670   -21.2320 
  191.6250    73.5210    48.9030    46.4640    40.6760    24.9280     2.2720   -21.1480 
  191.7500    70.5430    46.8320    44.4850    35.9170    24.9660     2.2730   -21.2010 
  191.8750    67.4760    44.3490    42.1720    32.1670    24.9890     2.2690   -21.2410 
  192.0000    66.6090    41.5310    39.5100    38.3970    25.0000     2.2620   -21.3230 
  192.1250    67.8400    38.9590    36.9380    53.1190    24.9480     2.2570   -21.5640 
  192.2500    70.5680    37.4810    35.2300    51.3420    24.8450     2.2550   -21.8270 
  192.3750    72.2840    38.0920    35.3410    30.3980    24.6990     2.2550   -22.1990 
  192.5000    71.2440    41.7190    38.2780    22.5110    24.5250     2.2540   -22.5740 
  192.6250    69.0210    50.1020    45.8350    34.5720    24.3400     2.2450   -23.0790 
  192.7500    67.6680    63.5780    58.2630    60.1110    24.1660     2.2330   -23.5020 
  192.8750    65.9750    82.5490    75.7690    94.9210    24.0190     2.2200   -24.0070 
  193.0000    63.2740   106.5030    97.6040   119.8270    23.9140     2.2110   -24.4790 
  193.1250    61.2990   133.4340   121.6720   128.8880    23.8700     2.2050   -24.9030 
  193.2500    58.7670   159.1660   144.2750   137.4240    23.8670     2.2020   -25.2720 
  193.3750    54.6850   180.4040   162.7660   153.4080    23.8670     2.1980   -25.5590 
  193.5000    53.5520   195.7490   176.2000   177.8820    23.8670     2.1960   -25.7540 
  193.6250    58.3050   205.5230   184.6220   191.2030    23.8670     2.1950   -25.8640 
  193.7500    62.1210   210.8560   188.9290   198.1340    23.8760     2.1950   -25.9250 
  193.8750    60.8750   210.7610   188.7110   203.1800    23.9020     2.1940   -25.9130 
  194.0000    57.5190   204.4840   183.7120   204.7600    23.9480     2.1910   -25.8340 
  194.1250    57.4430   191.5050   173.6500   203.9510    24.0160     2.1850   -25.7300 
  194.2500    59.5030   174.6330   160.3150   181.4470    24.1020     2.1770   -25.5990 
  194.3750    61.5720   155.8000   145.0020   142.3780    24.1980     2.1700   -25.4400 
  194.5000    62.8870   136.6020   129.0110   108.9020    24.2960     2.1640   -25.3450 
  194.6250    62.8620   118.1790   113.3600    93.6320    24.3800     2.1640   -25.1790 
  194.7500    60.6980   101.1510    98.4400    85.3440    24.4420     2.1700   -25.1130 
  194.8750    57.9270    85.8840    84.5780    77.3770    24.4800     2.1820   -24.9970 
  195.0000    58.8490    72.8150    72.2660    64.5400    24.4920     2.2000   -24.9790 
  195.1250    64.1840    62.8330    62.4870    54.2890    24.4910     2.2230   -24.9820 
  195.2500    68.5430    55.7640    55.2710    47.2460    24.4870     2.2460   -25.0400 
  195.3750    69.6370    51.6420    50.8380    41.5140    24.4850     2.2680   -25.1620 
  195.5000    67.9590    50.4430    49.2890    35.4450    24.4850     2.2830   -25.2600 
  195.6250    66.9000    52.3670    51.0260    34.7750    24.4910     2.2860   -25.4520 
  195.7500    68.0080    56.4660    55.1900    40.8060    24.4950     2.2750   -25.5960 
  195.8750    71.1610    62.0270    61.0400    52.9580    24.4950     2.2570   -25.8350 
  196.0000    72.6920    68.0990    67.5260    62.9350    24.4930     2.2360   -26.0350 
  196.1250    69.8020    73.3880    73.2400    66.6060    24.4920     2.2220   -26.2960 
