~V
VERS. 2.00: Ver 2.00
~W
STRT.M 60.0000:
STOP.M 249.0000:
STEP.M 0.1250:
NULL. -999.2500:
UWI. DF5060:
~C
DEPT.M :
GR.API :
CALI.CM :
RXO.OHMM :
RI. :
RML.OHMM :
DEN.GM/CC :
SP.MV :
~A
# ...
   71.2500    88.0730    23.5640     6.8130     4.9440     5.8990     2.3000   -31.7750 
   71.3750    82.2300    23.4410     6.9040     4.9200     5.8050     2.2670   -31.8070 
   71.5000    77.8210    23.3860     6.5520     4.9210     5.7580     2.2320   -31.9580 
   71.6250    77.3220    23.3880     6.5390     4.9940     5.8060     2.2120   -32.0460 
   71.7500    78.8200    23.3880     6.7620     5.1320     5.9270     2.2060   -32.1260 
   71.8750    79.5780    23.3570     6.8220     5.3040     6.0810     2.2090   -32.1500 
   72.0000    79.1300    23.2660     6.7420     5.4680     6.2190     2.2100   -32.0980 
   72.1250    77.1290    23.1640     7.0550     5.5590     6.2640     2.2030   -31.9370 
   72.2500    75.4970    23.1850     7.4440     5.5410     6.1780     2.1940   -31.6960 
   72.3750    77.0790    23.3400     7.3450     5.4050     5.9580     2.1900   -31.4130 
   72.5000    85.7290    23.4880     6.3750     5.1760     5.6500     2.2000   -31.0490 
   72.6250   101.3070    23.5040     5.2470     4.9050     5.3380     2.2280   -30.7240 
   72.7500   112.2170    23.4130     4.7230     4.6560     5.0980     2.2620   -30.3930 
   72.8750   113.1220    23.3330     4.6340     4.4610     4.9490     2.2930   -30.1170 
   73.0000   109.0930    23.5010     4.6210     4.3230     4.8610     2.3130   -29.8840 
   73.1250   107.6080    23.8310     4.6790     4.2120     4.7500     2.3230   -29.7620 
   73.2500   108.2120    23.9280     4.7380     4.0860     4.5820     2.3300   -29.7310 
   73.3750   106.7520    24.0480     4.7620     3.9700     4.4450     2.3360   -29.8200 
   73.5000   102.6650    24.3530     4.7310     3.9600     4.5340     2.3420   -29.9510 
   73.6250   100.0170    24.3230     4.7560     4.2610     5.1950     2.3510   -30.1750 
   73.7500   100.2210    23.7770     5.1910     4.9860     6.5810     2.3660   -30.4480 
   73.8750   100.0630    23.4110     7.9280     6.2470     8.7800     2.3880   -30.7580 
   74.0000    93.1930    23.6600    14.2790     8.0410    11.5680     2.4150   -31.1160 
   74.1250    78.5840    24.0240    19.0200     9.9790    13.9930     2.4330   -31.4820 
   74.2500    65.5990    24.2200    17.7700    11.2120    14.9400     2.4180   -31.8790 
   74.3750    60.0750    24.4730    13.2350    11.2810    14.1540     2.3590   -32.2520 
   74.5000    60.2810    24.7910     9.7820    10.4830    12.4120     2.2760   -32.6290 
   74.6250    61.2400    24.8900     8.8050     9.5280    10.8850     2.2030   -32.9430 
   74.7500    61.3110    24.6220     8.6780     8.8800    10.0500     2.1530   -33.2240 
   74.8750    62.6830    24.1370     8.6670     8.5930     9.8050     2.1260   -33.4860 
   75.0000    64.0730    23.7430     8.7230     8.5580     9.8680     2.1170   -33.6480 
   75.1250    63.2570    23.7500     8.9250     8.6160     9.9850     2.1230   -33.7640 
   75.2500    61.6680    24.0870     9.0090     8.6430    10.0440     2.1330   -33.8180 
   75.3750    60.6680    24.4900     8.8150     8.6190    10.0540     2.1410   -33.8550 
   75.5000    60.8630    24.6920     8.5220     8.5680    10.0490     2.1460   -33.8860 
   75.6250    63.0740    24.6150     8.4580     8.5310    10.0580     2.1470   -33.9050 
   75.7500    65.2480    24.4790     8.5090     8.5180    10.0820     2.1460   -33.9250 
   75.8750    65.9130    24.3540     8.5960     8.5170    10.1030     2.1470   -33.9310 
   76.0000    65.8770    24.1740     8.6970     8.5060    10.1060     2.1490   -33.9460 
   76.1250    65.8050    23.9170     8.7440     8.4610    10.0700     2.1510   -33.9920 
   76.2500    65.1200    23.6890     8.6440     8.3850     9.9950     2.1490   -33.9890 
   76.3750    63.3590    23.5520     8.3070     8.2770     9.8860     2.1460   -34.0090 
   76.5000    60.7670    23.4990     7.8360     8.1440     9.7570     2.1450   -34.0260 
   76.6250    58.2950    23.4810     7.8300     7.9940     9.6330     2.1500   -34.0210 
   76.7500    58.1610    23.4450     8.2620     7.8510     9.5330     2.1590   -33.9980 
   76.8750    61.3170    23.3640     8.6760     7.7390     9.4740     2.1660   -33.9750 
   77.0000    65.0610    23.2500     8.8090     7.6750     9.4680     2.1700   -33.9890 
   77.1250    65.6190    23.1480     8.8160     7.6690     9.5280     2.1700   -33.9820 
   77.2500    63.8110    23.0940     8.8860     7.7030     9.6390     2.1660   -34.0170 
   77.3750    61.0290    23.0810     9.0380     7.7660     9.7870     2.1610   -34.0150 
   77.5000    60.1400    23.0830     9.1190     7.8470     9.9420     2.1570   -34.0320 
   77.6250    63.7730    23.0840     9.1110     7.9310    10.0640     2.1580   -34.0790 
   77.7500    68.2130    23.0820     8.9690     7.9940    10.1280     2.1640   -34.1260 
   77.8750    70.0650    23.0850     8.7640     8.0220    10.1250     2.1720   -34.1460 
   78.0000    69.4960    23.1180     8.5900     8.0110    10.0720     2.1780   -34.1480 
   78.1250    67.3160    23.2110     8.6000     7.9760    10.0070     2.1750   -34.1040 
   78.2500    64.9350    23.3260     8.7660     7.9460     9.9660     2.1680   -34.0170 
   78.3750    64.3280    23.4310     9.0160     7.9360     9.9540     2.1630   -33.9020 
   78.5000    66.6410    23.5310     9.2610     7.9420     9.9580     2.1670   -33.7390 
   78.6250    68.7960    23.6320     9.3270     7.9440     9.9560     2.1810   -33.5350 
   78.7500    68.3470    23.7080     9.2440     7.9270     9.9390     2.1950   -33.3370 
   78.8750    67.8060    23.7480     9.1430     7.8980     9.9200     2.2030   -33.1430 
   79.0000    68.2070    23.7700     9.1520     7.8810     9.9090     2.2010   -32.9520 
   79.1250    67.3100    23.7860     9.2680     7.8920     9.8920     2.1920   -32.7040 
   79.2500    66.5210    23.7880     9.3520     7.9020     9.8300     2.1820   -32.5250 
   79.3750    67.3380    23.7840     9.3230     7.8660     9.6870     2.1760   -32.3330 
   79.5000    67.0600    23.7890     9.1450     7.7520     9.4580     2.1720   -32.1900 
   79.6250    64.0020    23.8150     8.5460     7.5660     9.1890     2.1700   -32.0190 
   79.7500    62.9070    23.8380     7.7900     7.3780     8.9640     2.1700   -31.8390 
   79.8750    65.9930    23.8410     7.5720     7.2420     8.8350     2.1690   -31.6820 
   80.0000    68.5150    23.8350     8.0710     7.1870     8.8200     2.1680   -31.4940 
   80.1250    67.0840    23.8420     8.2970     7.2190     8.9160     2.1650   -31.3910 
   80.2500    65.5030    23.8410     8.5510     7.2940     9.0620     2.1590   -31.2290 
   80.3750    65.2810    23.7470     8.5250     7.3830     9.2160     2.1510   -31.1220 
   80.5000    65.6150    23.6400     8.2900     7.4630     9.3440     2.1440   -30.9820 
   80.6250    64.6950    23.8540     8.1090     7.5150     9.4190     2.1380   -30.8830 
   80.7500    63.5400    24.0730     8.1530     7.5360     9.4430     2.1330   -30.7900 
   80.8750    63.9360    23.9020     8.3080     7.5220     9.4250     2.1290   -30.6420 
   81.0000    67.0620    23.4150     8.3970     7.4730     9.3780     2.1250   -30.5550 
   81.1250    69.9280    23.1560     8.4590     7.3970     9.3110     2.1230   -30.4130 
   81.2500    69.8200    23.2320     8.4950     7.3220     9.2420     2.1220   -30.2620 
   81.3750    68.5820    23.3240     8.4880     7.2740     9.1830     2.1220   -30.0560 
   81.5000    68.9170    23.3710     8.4620     7.2710     9.1420     2.1230   -29.8660 
   81.6250    68.9890    23.3730     8.4350     7.3210     9.1220     2.1250   -29.6400 
   81.7500    69.3050    23.3690     8.4230     7.3960     9.1150     2.1300   -29.3810 
   81.8750    70.5140    23.3430     8.3420     7.4720     9.1190     2.1370   -29.0850 
   82.0000    70.4550    23.2620     8.1030     7.5300     9.1250     2.1410   -28.7310 
   82.1250    66.8750    23.0940     7.8040     7.5500     9.1010     2.1390   -28.3530 
   82.2500    63.2060    22.8910     7.5950     7.5140     8.9950     2.1330   -27.9870 
   82.3750    63.1020    22.7310     7.4790     7.3900     8.7540     2.1260   -27.5980 
