~V
VERS. 2.00: Ver 2.00
~W
STRT.M 58.0000:
STOP.M 261.0000:
STEP.M 0.1250:
NULL. -999.2500:
UWI. DF5035:
~C
DEPT.M :
DEN.GM/CC :
GR.API :
CALI.CM :
RXO.OHMM :
RI. :
RML.OHMM :
SP.MV :
~A
   58.0000     2.1550    59.7750    24.1450     1.9600     0.1410     0.4910   -14.6700 
   58.1250     2.1690    64.2050    24.6950     3.8920     0.3300     0.9100   -20.3500 
   58.2500     2.1620    71.3610    24.9790     5.6750     0.7290     1.6570   -25.6660 
   58.3750     2.1350    80.6620    24.7630     6.5930     1.4220     2.7390   -30.4050 
   58.5000     2.1070    88.2660    24.3080     7.0020     2.3830     3.7800   -34.5380 
   58.6250     2.0970    90.4270    24.0760     7.1960     3.3530     4.2570   -38.1070 
   58.7500     2.0990    88.7890    24.0300     7.5850     4.0800     4.3760   -41.0350 
   58.8750     2.1070    86.6620    23.9940     8.3720     4.5560     4.3960   -43.2580 
   59.0000     2.1160    87.4940    23.9560     9.1080     4.8720     4.4390   -44.8960 
   59.1250     2.1200    88.8790    23.9280     9.0010     5.0870     4.5720   -46.0570 
   59.2500     2.1220    87.3750    23.9060     8.4750     5.2410     4.7940   -46.9700 
   59.3750     2.1230    85.5150    23.9090     8.0070     5.3340     5.0460   -47.6780 
   59.5000     2.1260    85.6710    23.9600     7.8140     5.3570     5.2080   -48.3000 
   59.6250     2.1290    88.1500    24.0750     7.7000     5.2980     5.1890   -48.7280 
   59.7500     2.1320    89.7650    24.2230     7.6270     5.2070     5.1080   -49.0750 
   59.8750     2.1350    89.2980    24.3550     7.5200     5.1530     5.0780   -49.3290 
   60.0000     2.1410    88.4070    24.4280     7.4440     5.2090     5.1840   -49.5560 
   60.1250     2.1560    87.3840    24.4420     7.5870     5.4770     5.5140   -49.7090 
   60.2500     2.1810    84.3760    24.4390     7.7780     5.9790     6.0400   -49.8460 
   60.3750     2.2140    79.2800    24.4130     8.0060     6.6970     6.7320   -49.9740 
   60.5000     2.2470    75.9590    24.3540     8.2850     7.4900     7.5180   -50.0200 
   60.6250     2.2730    78.0890    24.2890     9.2550     7.9670     8.0210   -50.0050 
   60.7500     2.2860    79.7710    24.2660    11.8000     7.8390     7.8020   -49.9650 
   60.8750     2.2850    79.2270    24.3170    12.9070     7.0990     6.9190   -49.8610 
   61.0000     2.2720    80.4710    24.4190    10.4000     6.0390     5.8650   -49.7580 
   61.1250     2.2500    87.6610    24.5150     6.3870     5.0690     5.0960   -49.6600 
   61.2500     2.2240    95.3840    24.5600     5.2180     4.4050     4.6870   -49.6360 
   61.3750     2.1960    98.7440    24.5350     5.3370     4.1020     4.6330   -49.6620 
   61.5000     2.1690    96.8880    24.4460     6.2660     4.1480     4.8850   -49.7760 
   61.6250     2.1470    91.4590    24.3420     7.1460     4.5080     5.3570   -49.9210 
   61.7500     2.1330    86.3260    24.2860     7.4120     4.9870     5.8560   -50.1180 
   61.8750     2.1270    83.2730    24.2710     7.4950     5.4190     6.2310   -50.2960 
   62.0000     2.1290    82.6230    24.2440     7.3940     5.6890     6.3870   -50.4530 
   62.1250     2.1360    82.3650    24.1770     7.2140     5.7570     6.3540   -50.5890 
   62.2500     2.1440    82.6010    24.0960     7.0500     5.7250     6.2910   -50.6180 
   62.3750     2.1510    84.1820    24.0250     6.9350     5.6720     6.2690   -50.5550 
   62.5000     2.1540    86.6870    23.9770     6.8390     5.6520     6.3050   -50.4230 
   62.6250     2.1540    87.4260    23.9570     6.7320     5.6990     6.3910   -50.2320 
   62.7500     2.1560    85.5300    23.9690     6.7680     5.7850     6.4860   -49.9530 
   62.8750     2.1590    81.7380    24.0390     6.9930     5.8630     6.5420   -49.7150 
   63.0000     2.1640    77.8010    24.1760     7.0790     5.8710     6.5060   -49.3800 
   63.1250     2.1740    76.7340    24.3630     6.8780     5.7670     6.3460   -48.9980 
   63.2500     2.1930    80.6820    24.5380     6.4740     5.5970     6.1200   -48.5900 
   63.3750     2.2220    89.3590    24.6790     5.9590     5.4120     5.8910   -48.2080 
   63.5000     2.2580    98.6470    24.7920     5.4990     5.2580     5.7060   -47.8730 
   63.6250     2.2900   101.5690    24.8810     5.6730     5.1570     5.5790   -47.5980 
   63.7500     2.3060   100.2120    24.9480     5.9370     5.0730     5.4650   -47.3820 
   63.8750     2.3040    99.4300    24.9770     5.6770     4.9740     5.3270   -47.2800 
   64.0000     2.2930   102.3470    24.9700     5.2740     4.8450     5.1580   -47.3300 
   64.1250     2.2850   106.0460    24.9530     5.1630     4.6940     4.9840   -47.5460 
   64.2500     2.2840   106.9270    24.9450     5.0060     4.5460     4.8380   -47.8880 
   64.3750     2.2890   104.8360    24.9420     4.8950     4.4210     4.7370   -48.2980 
   64.5000     2.2970   104.4990    24.9330     4.9390     4.3260     4.6820   -48.7390 
   64.6250     2.3020   108.6090    24.9280     4.9580     4.2600     4.6490   -49.2290 
   64.7500     2.3000   111.3100    24.9330     4.8400     4.2230     4.6120   -49.8190 
   64.8750     2.2910   109.2610    24.9360     4.7480     4.2400     4.6160   -50.4000 
   65.0000     2.2740   106.3820    24.9100     4.7690     4.3510     4.7400   -51.0200 
   65.1250     2.2480   107.5010    24.8160     5.0350     4.6090     5.1010   -51.6010 
   65.2500     2.2190   108.8930    24.6670     5.5070     4.9930     5.6750   -52.2680 
   65.3750     2.1910   105.4800    24.4930     6.3720     5.4610     6.3490   -52.9250 
   65.5000     2.1680    95.7090    24.3280     7.1760     5.9300     6.9170   -53.5580 
   65.6250     2.1540    83.4800    24.1970     7.2590     6.2770     7.1730   -54.2580 
   65.7500     2.1460    76.0060    24.1160     6.9440     6.4630     7.2070   -54.8020 
   65.8750     2.1390    75.3140    24.0830     6.8960     6.5120     7.1430   -55.3740 
   66.0000     2.1300    78.3220    24.0710     7.1700     6.4860     7.0720   -55.8460 
   66.1250     2.1190    79.2140    24.0560     7.5360     6.4580     7.0730   -56.3260 
   66.2500     2.1080    77.6350    24.0440     7.9270     6.4640     7.1390   -56.6230 
   66.3750     2.1000    74.9610    24.0630     8.2850     6.4960     7.2320   -56.9160 
   66.5000     2.0980    72.7510    24.1250     8.4790     6.5330     7.3240   -57.1510 
   66.6250     2.1010    72.4190    24.1990     8.3740     6.5490     7.3900   -57.2360 
   66.7500     2.1070    73.3120    24.2440     8.1700     6.5460     7.4270   -57.3980 
   66.8750     2.1170    74.8080    24.2590     8.0640     6.5340     7.4440   -57.3950 
   67.0000     2.1310    75.1440    24.2670     8.0020     6.5250     7.4520   -57.4440 
   67.1250     2.1490    75.1290    24.3190     7.5250     6.5260     7.4610   -57.3710 
   67.2500     2.1630    75.8350    24.4650     6.9560     6.5310     7.4720   -57.3250 
   67.3750     2.1670    77.8750    24.6590     6.8550     6.5390     7.4790   -57.2330 
   67.5000     2.1560    81.2060    24.7570     7.2140     6.5450     7.4730   -57.1020 
   67.6250     2.1350    83.3740    24.6620     7.6330     6.5450     7.4400   -57.1160 
   67.7500     2.1140    81.9720    24.5210     7.9040     6.5360     7.3930   -56.9950 
   67.8750     2.1010    77.3400    24.4480     8.1410     6.5250     7.3480   -56.9570 
   68.0000     2.0950    72.5300    24.4370     8.3060     6.5250     7.3290   -56.8400 
   68.1250     2.0950    69.5580    24.4290     8.4010     6.5550     7.3590   -56.6980 
   68.2500     2.0950    68.7090    24.4160     8.5150     6.6190     7.4260   -56.5170 
   68.3750     2.0970    69.1440    24.4140     8.6690     6.7010     7.4990   -56.2530 
   68.5000     2.1010    68.7670    24.4210     8.8460     6.7610     7.5300   -56.0830 
   68.6250     2.1130    68.5100    24.4280     8.9520     6.7340     7.4640   -55.7110 
   68.7500     2.1330    70.0070    24.4250     8.8940     6.6120     7.3140   -55.2750 
   68.8750     2.1640    72.8380    24.4040     8.8610     6.4200     7.1160   -54.8570 
   69.0000     2.2010    75.6710    24.3650     8.6600     6.2050     6.9180   -54.4060 
   69.1250     2.2370    80.6160    24.3570     7.7920     6.0110     6.7620   -53.9580 
