~V
VERS. 2.00: Ver 2.00
~W
STRT.M 50.0000:
STOP.M 277.0000:
STEP.M 0.1250:
NULL. -999.2500:
UWI. DF5031:
~C
DEPT.M :
DEN.GM/CC :
GR.API :
CALI.CM :
RXO.OHMM :
RI. :
RML.OHMM :
SP.MV :
~A
# ...
   95.0000     2.3740   102.2480    24.8160     4.7380     3.8370     5.8730   -13.5540 
   95.1250     2.3770   105.6960    24.7990     4.6420     3.7150     5.6910   -13.6960 
   95.2500     2.3620   109.7430    24.7200     4.6880     3.6730     5.6630   -13.8350 
   95.3750     2.3370   113.2110    24.5940     4.9200     3.7470     5.8290   -14.0150 
   95.5000     2.3090   116.0120    24.4740     5.2900     3.9630     6.2290   -14.2560 
   95.6250     2.2800   117.4330    24.3550     5.5150     4.3520     6.8950   -14.4360 
   95.7500     2.2430   112.9530    24.2930     5.7940     4.8440     7.7010   -14.6030 
   95.8750     2.2010   102.8480    24.2240     6.6690     5.3380     8.4890   -14.7070 
   96.0000     2.1650    95.5240    24.1310     8.5120     5.6970     9.0430   -14.7860 
   96.1250     2.1610    97.5280    24.0850    10.3990     5.7630     9.0840   -14.7380 
   96.2500     2.1910   101.2920    24.1590    10.1800     5.5880     8.7090   -14.6740 
   96.3750     2.2310   100.8800    24.3520     8.0230     5.2940     8.1540   -14.5360 
   96.5000     2.2510    96.5880    24.3820     5.9990     5.0310     7.6940   -14.2560 
   96.6250     2.2420    94.1360    24.3030     5.6180     4.9180     7.5420   -13.9460 
   96.7500     2.2350    96.5390    24.1630     5.8000     4.9270     7.6270   -13.7370 
   96.8750     2.2440   100.3800    24.0890     6.0320     4.9750     7.7870   -13.6290 
   97.0000     2.2660   100.8050    24.1220     6.1910     4.9610     7.8240   -13.5600 
   97.1250     2.2880    97.7350    24.1270     6.1430     4.8100     7.6030   -13.5040 
   97.2500     2.3070    97.7490    24.1850     5.8490     4.5900     7.2690   -13.4900 
   97.3750     2.3200    99.8090    24.2780     5.4930     4.3950     7.0010   -13.5630 
   97.5000     2.3230    99.5250    24.3550     5.3670     4.3140     6.9420   -13.6820 
   97.6250     2.3070    94.6050    24.3570     5.5420     4.4290     7.2320   -13.9170 
   97.7500     2.2730    88.0980    24.2900     5.8270     4.6960     7.7870   -14.1370 
   97.8750     2.2300    82.5890    24.1380     6.1300     5.0400     8.4290   -14.3150 
   98.0000     2.1950    79.6250    23.9430     6.4080     5.3410     8.8880   -14.4750 
   98.1250     2.1870    80.0000    23.8300     6.5860     5.4400     8.8650   -14.5900 
   98.2500     2.2060    82.5660    23.8260     6.5590     5.3470     8.4900   -14.6830 
   98.3750     2.2460    87.1100    23.9250     6.3830     5.1790     8.0640   -14.6660 
   98.5000     2.2980    91.8820    24.0960     6.2610     5.1160     7.9330   -14.6280 
   98.6250     2.3500    90.8770    24.1960     6.3070     5.3720     8.4330   -14.4630 
   98.7500     2.4060    84.2170    24.3320     7.1620     5.9490     9.4990   -14.3230 
   98.8750     2.4700    77.8040    24.3240     9.6250     6.7300    10.8990   -14.1320 
   99.0000     2.5250    77.2010    24.2760    13.4670     7.4110    12.0570   -13.9260 
   99.1250     2.5230    81.9550    24.2620    15.1270     7.5030    11.9820   -13.7250 
   99.2500     2.4620    87.2400    24.2890    13.1730     7.0220    10.8110   -13.5540 
   99.3750     2.3750    90.8810    24.2990     9.4400     6.3070     9.3580   -13.4470 
   99.5000     2.3060    92.1140    24.2710     6.6610     5.7460     8.3780   -13.4020 
   99.6250     2.2960    88.3050    24.1830     6.5060     5.6170     8.2710   -13.4180 
   99.7500     2.3390    83.9060    24.1280     7.8650     5.8400     8.7940   -13.3740 
   99.8750     2.4050    83.6740    24.2170    10.7650     6.2340     9.5900   -13.3250 
  100.0000     2.4540    86.7250    24.2460    13.4740     6.5230    10.1080   -13.2920 
  100.1250     2.4400    88.6710    24.2530    12.0310     6.4170     9.7840   -13.3360 
  100.2500     2.3760    86.5960    24.2420     8.6310     6.0310     8.9580   -13.4470 
  100.3750     2.2940    83.1860    24.2330     6.5190     5.5830     8.1250   -13.5540 
  100.5000     2.2310    82.0110    24.1020     6.1460     5.2530     7.6080   -13.6090 
  100.6250     2.2110    84.7940    24.0420     6.3250     5.1420     7.5250   -13.7140 
  100.7500     2.2150    87.2850    23.9660     6.4590     5.1610     7.6640   -13.7460 
  100.8750     2.2270    86.2250    23.9580     6.3930     5.2010     7.8110   -13.7560 
  101.0000     2.2420    85.6070    24.0270     6.2320     5.1670     7.8100   -13.7370 
  101.1250     2.2610    89.2920    24.1910     6.0120     5.0230     7.6240   -13.6490 
  101.2500     2.2820    94.7970    24.4890     5.8160     4.8260     7.3630   -13.4600 
  101.3750     2.2970    98.8910    24.7500     5.5770     4.6220     7.0940   -13.2390 
  101.5000     2.2990   100.6890    24.8780     5.4170     4.4480     6.8560   -13.0660 
  101.6250     2.2910   100.2930    24.9070     5.2230     4.3260     6.6650   -12.8390 
  101.7500     2.2890    98.1430    24.9090     5.0070     4.2540     6.5260   -12.8070 
  101.8750     2.2980    92.9770    24.9410     4.8890     4.2450     6.4820   -12.8940 
  102.0000     2.3060    85.4150    24.9050     5.0910     4.3140     6.5810   -13.1270 
  102.1250     2.2960    80.2440    24.6920     5.2920     4.4850     6.8870   -13.4990 
  102.2500     2.2690    78.2920    24.3830     5.5220     4.7430     7.3640   -14.0390 
  102.3750     2.2350    77.1000    24.1620     5.9770     5.0650     7.9530   -14.6930 
  102.5000     2.2030    75.9190    24.0070     6.6660     5.4150     8.5490   -15.3600 
  102.6250     2.1800    77.5350    23.8650     7.1960     5.7530     9.0290   -16.1240 
  102.7500     2.1670    79.5990    23.8090     7.3530     6.0690     9.3940   -16.8090 
  102.8750     2.1590    78.9650    23.7930     7.5830     6.3770     9.7070   -17.4250 
  103.0000     2.1570    77.1050    23.8000     8.5070     6.7090    10.0710   -17.9030 
  103.1250     2.1670    75.3500    23.8310    11.1070     7.1330    10.6430   -18.2650 
  103.2500     2.1900    72.4820    23.8980    15.3160     7.6700    11.4580   -18.5040 
  103.3750     2.2300    69.8950    23.9730    19.2790     8.2870    12.4560   -18.6480 
  103.5000     2.2950    70.1290    23.9560    20.2580     8.8850    13.4600   -18.6780 
  103.6250     2.3820    73.5950    23.7490    17.2410     9.2720    14.1210   -18.6580 
  103.7500     2.4510    77.3920    23.5750    13.2030     9.3490    14.2310   -18.6660 
  103.8750     2.4590    79.6010    23.5160    10.3290     9.1060    13.7570   -18.7330 
  104.0000     2.3950    78.6500    23.5180     8.9940     8.6350    12.8870   -18.8610 
  104.1250     2.2940    73.6640    23.5220     8.6450     8.0880    11.9380   -19.0580 
  104.2500     2.2110    70.3820    23.5200     8.5460     7.6070    11.1760   -19.1940 
  104.3750     2.1660    71.0860    23.5160     8.4640     7.2550    10.7000   -19.3290 
  104.5000     2.1530    72.8170    23.5120     8.3780     7.0470    10.5020   -19.5080 
  104.6250     2.1530    72.9950    23.5240     8.4260     6.9750    10.5160   -19.6920 
  104.7500     2.1520    73.2490    23.5190     8.5810     6.9650    10.5790   -19.8400 
  104.8750     2.1440    72.2590    23.5020     8.7290     6.9740    10.5990   -19.9240 
  105.0000     2.1350    68.8460    23.4900     8.7240     6.9760    10.5480   -19.9780 
  105.1250     2.1320    67.2680    23.4630     8.4980     6.9680    10.4520   -19.9410 
  105.2500     2.1410    70.3580    23.3860     8.2360     6.9670    10.3710   -19.9620 
  105.3750     2.1550    74.3090    23.3180     8.1090     6.9870    10.3250   -19.9380 
  105.5000     2.1670    75.8860    23.2900     8.2090     7.0260    10.2920   -19.9350 
  105.6250     2.1670    75.2130    23.2880     8.4290     7.0530    10.2110   -19.8560 
  105.7500     2.1600    74.1860    23.2880     8.5210     7.0380    10.0580   -19.7760 
  105.8750     2.1540    73.4840    23.2880     8.4280     6.9850     9.8660   -19.6880 
  106.0000     2.1500    72.4310    23.2880     8.2380     6.9290     9.7090   -19.5690 
  106.1250     2.1490    70.5490    23.2880     8.0990     6.9340     9.6930   -19.3830 
