~V
VERS. 2.00: Ver 2.00
~W
STRT.M 55.0000:
STOP.M 273.0000:
STEP.M 0.1250:
NULL. -999.2500:
UWI. DF5004:
~C
DEPT.M :
GR.API :
CALI.CM :
RXO.OHMM :
RI. :
RML.OHMM :
DEN.GM/CC :
SP.MV :
~A
   55.0000    50.1690    25.2330     2.3090     0.7660    10.3290     2.1000     7.7590 
   55.1250    47.7430    25.2170     1.6490     0.7590     9.8550     2.0630     5.7280 
   55.2500    45.5100    25.2190     1.2330     0.7390     9.5680     2.0400     3.2450 
   55.3750    44.2020    25.2170     1.1640     0.7120     9.4510     2.0300     0.4830 
   55.5000    43.1080    25.2140     1.4290     0.6870     9.4120     2.0250    -2.3180 
   55.6250    41.4070    25.2150     1.9100     0.6740     9.2920     2.0230    -4.8460 
   55.7500    40.8130    25.2020     2.2670     0.6770     8.9830     2.0270    -6.9750 
   55.8750    42.8860    25.1730     2.4400     0.6940     8.4400     2.0390    -8.5100 
   56.0000    45.8240    25.1520     2.6420     0.7180     7.6470     2.0530    -9.1260 
   56.1250    46.5190    25.1390     2.5390     0.7370     6.7080     2.0590    -8.6620 
   56.2500    45.6660    25.0910     2.2810     0.7440     5.9310     2.0580    -7.3780 
   56.3750    45.3830    25.0050     2.0360     0.7430     5.5050     2.0610    -5.3620 
   56.5000    47.0500    24.9420     1.9480     0.7420     5.4700     2.0750    -2.9160 
   56.6250    50.2230    24.9210     1.8900     0.7510     5.7610     2.0920    -0.3930 
   56.7500    52.4150    24.9220     1.8380     0.7620     6.1000     2.1010     2.0370 
   56.8750    52.2670    24.9270     1.8480     0.7640     6.2690     2.0990     4.2170 
   57.0000    49.5390    24.9570     1.8960     0.7540     6.1880     2.0880     5.9170 
   57.1250    45.6030    25.0300     1.8850     0.7390     5.9690     2.0720     7.0900 
   57.2500    42.1110    25.1100     1.8350     0.7320     5.7740     2.0580     8.0520 
   57.3750    40.0220    25.1240     1.7740     0.7380     5.6230     2.0550     9.0870 
   57.5000    40.3080    25.1740     1.7190     0.7480     5.5000     2.0640    10.4430 
   57.6250    43.0340    25.3290     1.6580     0.7460     5.3830     2.0710    12.2290 
   57.7500    44.7670    25.5320     1.5730     0.7300     5.2600     2.0660    14.2620 
   57.8750    43.9480    25.5920     1.4920     0.7110     5.1280     2.0560    16.3720 
   58.0000    42.2170    25.3040     1.4340     0.7050     4.9900     2.0510    18.4460 
   58.1250    42.5970    25.0870     1.3360     0.7260     4.8640     2.0530    20.3620 
   58.2500    44.2400    24.9880     1.1290     0.7620     4.7750     2.0530    21.9870 
   58.3750    44.8550    24.8760     0.8710     0.7920     4.7250     2.0490    23.0730 
   58.5000    43.7840    24.7380     0.7180     0.7970     4.6800     2.0410    23.4480 
   58.6250    43.2650    24.8640     0.7620     0.7700     4.6010     2.0360    23.0790 
   58.7500    44.1400    25.2000     1.0330     0.7370     4.4640     2.0420    22.3080 
   58.8750    45.0060    25.5840     1.8010     0.7150     4.2370     2.0560    21.4080 
   59.0000    44.4620    25.9860     3.6340     0.7160     3.9640     2.0690    20.5750 
   59.1250    43.3090    26.2220     8.0230     0.7410     3.7940     2.0740    19.6760 
   59.2500    42.3900    26.3030    11.5320     0.7710     3.8270     2.0790    18.5500 
   59.3750    42.2150    26.1910    10.2580     0.7860     4.1040     2.0880    17.2230 
   59.5000    42.9830    25.9310     5.6280     0.7730     4.6090     2.0970    15.7870 
   59.6250    44.4380    25.7950     4.3360     0.7340     5.1800     2.1090    14.4010 
   59.7500    45.2210    25.7860     4.8390     0.6850     5.3070     2.1270    13.1390 
   59.8750    44.4850    25.8970     5.4230     0.6400     4.4800     2.1540    11.9380 
   60.0000    42.0750    26.1040     4.8110     0.6060     2.9340     2.1870    10.6930 
   60.1250    39.8610    26.3070     3.9540     0.5840     1.5920     2.2000     9.5430 
   60.2500    38.9940    26.3420     2.7780     0.5660     0.7870     2.1710     8.4730 
   60.3750    38.7520    26.1390     1.7870     0.5500     0.4200     2.1300     7.2010 
   60.5000    40.0710    25.9150     1.3820     0.5410     0.3760     2.1340     5.3920 
   60.6250    45.5530    25.4870     2.1260     0.5830     0.6850     2.1930     2.4860 
   60.7500    52.1310    24.8480     4.5530     0.7450     1.4170     2.2290    -1.4270 
   60.8750    55.5710    24.0330     8.4320     1.1370     2.8110     2.2080    -6.0770 
   61.0000    56.2790    23.4200    11.8690     1.8760     5.0480     2.1640   -11.0530 
   61.1250    58.0260    23.2820    13.0620     2.9460     7.3010     2.1460   -16.1700 
   61.2500    61.8560    23.2720    12.5050     3.9560     8.0440     2.1530   -21.1970 
   61.3750    66.5260    23.3590    11.2270     4.6780     7.6020     2.1620   -25.8320 
   61.5000    70.8800    23.5360    10.2860     5.1560     7.0960     2.1620   -29.8050 
   61.6250    73.3460    23.6650    10.6730     5.5450     7.0960     2.1520   -32.6350 
   61.7500    72.6590    23.7700    11.7280     5.9460     7.4810     2.1440   -34.4890 
   61.8750    69.7720    23.6770    12.4570     6.3570     8.0740     2.1400   -35.5940 
   62.0000    67.5910    23.3970    12.6750     6.7280     8.6550     2.1320   -36.3740 
   62.1250    68.1240    23.2560    12.5690     6.9860     9.0180     2.1110   -37.0360 
   62.2500    69.1270    23.2230    12.4450     7.1240     9.1780     2.0900   -37.6520 
   62.3750    68.4300    23.2950    12.4110     7.1620     9.2180     2.0860   -38.2130 
   62.5000    66.5750    23.4480    12.4120     7.1330     9.2150     2.0930   -38.6680 
   62.6250    64.8870    23.6090    12.2720     7.0580     9.2040     2.0940   -38.9090 
   62.7500    65.4010    23.6260    12.0480     6.9600     9.1720     2.0960   -38.9300 
   62.8750    67.5950    23.5620    11.9350     6.8530     9.1140     2.1120   -38.8370 
   63.0000    69.4400    23.4090    11.9640     6.7610     9.0610     2.1360   -38.5830 
   63.1250    69.2260    23.2940    11.9240     6.7070     9.0810     2.1460   -38.2130 
   63.2500    69.4340    23.3500    11.7400     6.6860     9.1980     2.1440   -37.8050 
   63.3750    71.0520    23.5650    11.6000     6.6820     9.3810     2.1450   -37.4690 
   63.5000    73.2610    23.8190    11.6910     6.6800     9.5410     2.1560   -37.2160 
   63.6250    74.6300    23.8210    11.8110     6.6680     9.5560     2.1700   -37.1180 
   63.7500    74.4050    23.7110    11.7010     6.6520     9.4410     2.1720   -37.1860 
   63.8750    71.9730    23.7420    11.5100     6.6480     9.2870     2.1600   -37.4220 
   64.0000    69.1210    23.8330    11.5820     6.6700     9.1930     2.1400   -37.8570 
   64.1250    68.2180    23.8830    12.0490     6.7320     9.2220     2.1230   -38.4180 
   64.2500    67.5050    23.8030    12.3000     6.8170     9.3200     2.1140   -39.0060 
   64.3750    65.1960    23.5460    12.3150     6.8980     9.4170     2.1160   -39.5860 
   64.5000    61.3510    23.3100    12.2500     6.9490     9.4600     2.1270   -40.1320 
   64.6250    59.9490    23.2210    12.2150     6.9550     9.4440     2.1380   -40.5860 
   64.7500    62.7220    23.2480    12.1570     6.9430     9.4250     2.1390   -40.9830 
   64.8750    67.0270    23.2680    12.0710     6.9430     9.4520     2.1270   -41.2600 
   65.0000    69.4980    23.1900    12.0230     6.9780     9.5310     2.1080   -41.4250 
   65.1250    69.1970    22.8940    12.0300     7.0490     9.5440     2.0940   -41.5040 
   65.2500    69.7630    22.8500    12.1540     7.1250     9.3370     2.0940   -41.5870 
   65.3750    70.3560    22.8030    12.2940     7.1720     8.9380     2.1060   -41.6230 
   65.5000    68.4520    22.7820    12.3170     7.1710     8.5280     2.1180   -41.6630 
   65.6250    64.5310    22.7440    12.1900     7.1240     8.3630     2.1240   -41.7030 
   65.7500    62.0430    22.8010    12.0710     7.0680     8.4650     2.1300   -41.6750 
   65.8750    63.0250    23.0470    11.9890     7.0300     8.7310     2.1350   -41.5790 
   66.0000    65.4040    23.4440    11.9070     7.0310     9.0060     2.1390   -41.3890 
   66.1250    67.3420    23.4510    11.8550     7.0960     9.1760     2.1440   -41.0420 
