~V
VERS. 2.00: Ver 2.00
~W
STRT.M 61.0000:
STOP.M 253.0000:
STEP.M 0.1250:
NULL. -999.2500:
UWI. DF5045:
~C
DEPT.M :
GR.API :
CALI.CM :
RXO.OHMM :
RI. :
RML.OHMM :
DEN.GM/CC :
SP.MV :
~A
# ...
  184.7500    79.1000    24.6520    91.2330    74.8050    79.8920     2.2090   -23.1960 
  184.8750    77.7470    24.6450    89.0190    72.7440    77.7000     2.2180   -23.3300 
  185.0000    77.9310    24.6640    82.7370    71.3530    76.2200     2.2240   -23.5400 
  185.1250    79.0420    24.6950    75.9690    71.0910    75.9410     2.2290   -23.7990 
  185.2500    80.1630    24.7140    70.8870    72.3190    77.2470     2.2350   -24.1110 
  185.3750    80.5700    24.7160    70.7830    75.1300    80.2380     2.2400   -24.4650 
  185.5000    79.3240    24.7080    78.1280    79.4290    84.8130     2.2450   -24.8070 
  185.6250    76.9360    24.7040    89.0360    84.2910    89.9860     2.2500   -25.1670 
  185.7500    75.0710    24.7070    97.7620    88.9280    94.9190     2.2510   -25.5610 
  185.8750    75.2360    24.7110   102.2290    92.5890    98.8150     2.2430   -25.9800 
  186.0000    77.2420    24.7080   105.3570    94.2800   100.6130     2.2250   -26.3500 
  186.1250    78.9360    24.7050   107.8010    93.7400   100.0390     2.2070   -26.6940 
  186.2500    79.2750    24.7060   108.5300    90.9940    97.1180     2.1960   -27.0270 
  186.3750    78.3160    24.7090   106.4060    86.7570    92.6090     2.1950   -27.3340 
  186.5000    76.4160    24.7130   101.6890    82.2430    87.8070     2.2040   -27.6210 
  186.6250    74.2370    24.7180    96.4550    78.7360    84.0750     2.2190   -27.8830 
  186.7500    72.0430    24.7190    90.5830    77.2880    82.5340     2.2370   -28.1450 
  186.8750    70.1390    24.7150    82.5870    78.7570    84.0980     2.2510   -28.4100 
  187.0000    69.2300    24.7050    78.5050    83.7660    89.4270     2.2490   -28.6660 
  187.1250    69.9350    24.7010    92.4040    91.0700    97.1980     2.2320   -28.9230 
  187.2500    72.1660    24.7000   127.7870    99.3640   106.0230     2.2130   -29.1570 
  187.3750    74.5540    24.6980   164.2190   106.8740   114.0140     2.2060   -29.3690 
  187.5000    75.5330    24.6960   173.8560   111.2770   118.6990     2.2140   -29.5500 
  187.6250    75.5630    24.6990   162.3470   112.1700   119.6490     2.2210   -29.7280 
  187.7500    75.7410    24.7030   142.6120   109.8620   117.1930     2.2240   -29.8780 
  187.8750    76.6320    24.7030   124.1000   105.4070   112.4530     2.2250   -29.9840 
  188.0000    77.4560    24.7010   110.7200   100.6090   107.3480     2.2320   -30.1100 
  188.1250    76.5880    24.7020   103.1130    96.9970   103.5050     2.2420   -30.2110 
  188.2500    73.7750    24.7040   101.0220    94.8550   101.2250     2.2470   -30.2790 
  188.3750    71.4810    24.7030   104.6270    93.9150   100.2250     2.2430   -30.3280 
  188.5000    73.1850    24.7000   108.6310    93.7810   100.0820     2.2300   -30.3210 
  188.6250    76.9150    24.6980   107.5200    93.7900   100.0920     2.2180   -30.2800 
  188.7500    79.3430    24.6970   103.5430    93.5700    99.8590     2.2150   -30.2510 
  188.8750    79.7290    24.6970   102.0990    92.8940    99.1400     2.2240   -30.2040 
  189.0000    79.6440    24.6980   106.0000    91.4690    97.6240     2.2370   -30.0550 
  189.1250    79.9430    24.7010   108.2380    89.2380    95.2490     2.2420   -29.9400 
  189.2500    80.5360    24.7030   104.0530    86.1220    91.9340     2.2370   -29.9400 
  189.3750    81.4090    24.6980    94.0910    82.1660    87.7250     2.2310   -29.9840 
  189.5000    81.5890    24.6840    84.7180    77.4590    82.7160     2.2350   -30.0060 
  189.6250    80.4330    24.6610    78.8510    72.3960    77.3290     2.2470   -30.0790 
  189.7500    79.0690    24.6050    73.7310    67.2170    71.8190     2.2560   -30.2350 
  189.8750    78.5670    24.4990    67.3130    62.1780    66.4570     2.2560   -30.4010 
  190.0000    78.5820    24.4570    60.6480    57.7060    61.6990     2.2550   -30.5550 
  190.1250    78.7230    24.4790    55.7590    54.1180    57.8820     2.2650   -30.6870 
  190.2500    79.5340    24.5230    52.5930    51.8090    55.4250     2.2830   -30.7640 
  190.3750    81.2980    24.5440    50.6980    51.2670    54.8480     2.3000   -30.7960 
  190.5000    83.2740    24.5230    48.2680    53.7920    57.5350     2.3050   -30.8420 
  190.6250    83.8030    24.4750    46.6930    60.3120    64.4720     2.3010   -30.8480 
  190.7500    82.1630    24.4280    49.4750    72.3920    77.3250     2.2920   -30.7490 
  190.8750    79.2340    24.4120    61.3320    91.8480    98.0270     2.2760   -30.6570 
  191.0000    77.0270    24.4320    92.3450   122.4540   130.5910     2.2500   -30.5810 
  191.1250    75.3900    24.4620   145.9000   164.5780   175.4110     2.2160   -30.4160 
  191.2500    73.0070    24.4780   219.6530   218.8560   233.1630     2.1800   -30.1360 
  191.3750    69.3270    24.4720   306.7120   283.4970   301.9410     2.1500   -29.7860 
  191.5000    64.8120    24.4480   398.4830   352.1000   374.9340     2.1410   -29.4170 
  191.6250    61.3500    24.4220   482.0910   413.1570   439.8990     2.1460   -28.9630 
  191.7500    60.3250    24.4170   539.7130   457.8500   487.4520     2.1530   -28.4320 
  191.8750    61.4230    24.4310   569.6670   482.2540   513.4190     2.1540   -27.8680 
  192.0000    62.5490    24.4550   579.0470   486.6060   518.0490     2.1520   -27.3360 
  192.1250    62.8730    24.4550   565.1550   481.2040   512.3010     2.1520   -26.8400 
  192.2500    63.5430    24.4310   519.3100   472.8740   503.4380     2.1520   -26.3880 
  192.3750    65.1230    24.4100   443.7330   467.1380   497.3350     2.1480   -25.9800 
  192.5000    65.7120    24.4060   369.8830   467.1840   497.3840     2.1440   -25.5570 
  192.6250    63.2340    24.4080   337.0310   466.8210   496.9970     2.1410   -25.2080 
  192.7500    58.3620    24.4050   366.5200   453.4830   482.8060     2.1420   -24.9790 
  192.8750    53.8940    24.4010   434.5410   414.8000   441.6470     2.1460   -24.7720 
  193.0000    52.0340    24.4020   490.9630   346.2180   368.6760     2.1460   -24.5230 
  193.1250    52.2440    24.4070   510.0270   266.6850   284.0530     2.1430   -24.2780 
  193.2500    54.6540    24.4090   478.5850   192.1240   204.7200     2.1510   -24.0550 
  193.3750    59.3290    24.3830   391.2810   132.4230   141.1980     2.1880   -23.7990 
  193.5000    64.8380    24.2980   264.0760    93.0170    99.2700     2.2590   -23.5190 
  193.6250    69.8670    24.1770   144.1290    68.6410    73.3340     2.3360   -23.2020 
  193.7500    74.7640    24.0990    66.0410    55.9950    59.8790     2.3880   -22.8410 
  193.8750    78.6040    24.0880    32.8800    51.6990    55.3070     2.3910   -22.4440 
  194.0000    78.3680    24.1480    31.3660    53.0220    56.7160     2.3430   -22.0230 
  194.1250    75.2540    24.2830    42.5300    56.3790    60.2870     2.2810   -21.5950 
  194.2500    72.7090    24.4630    60.6760    59.9650    64.1030     2.2360   -21.1450 
  194.3750    73.0170    24.6090    78.2920    62.4470    66.7440     2.2220   -20.7240 
  194.5000    75.3500    24.6720    84.4190    62.9040    67.2300     2.2300   -20.3510 
  194.6250    76.5280    24.6970    79.1830    62.0000    66.2680     2.2340   -19.9740 
  194.7500    75.3290    24.7060    66.7860    60.3850    64.5500     2.2290   -19.5420 
  194.8750    73.2870    24.7080    53.1460    58.4010    62.4380     2.2260   -19.0770 
  195.0000    72.6320    24.6910    42.7220    55.7760    59.6460     2.2580   -18.6160 
  195.1250    72.6390    24.6380    39.3070    51.9900    55.6180     2.3300   -18.1510 
  195.2500    71.5630    24.5380    48.4810    46.6300    49.9150     2.4290   -17.7250 
  195.3750    69.5390    24.4320    66.0560    39.8890    42.7420     2.5320   -17.2980 
  195.5000    68.6890    24.3350    69.7800    32.5810    34.9670     2.6120   -16.8480 
  195.6250    69.8480    24.2330    54.1710    25.8220    27.7750     2.6590   -16.4490 
  195.7500    72.2420    24.1740    33.4530    20.2840    21.8830     2.6730   -16.1380 
  195.8750    74.5110    24.2030    19.3970    16.2730    17.6140     2.6650   -15.9150 
