~V
VERS. 2.00: Ver 2.00
~W
STRT.M 62.0000:
STOP.M 250.0000:
STEP.M 0.1250:
NULL. -999.2500:
UWI. DF5059:
~C
DEPT.M :
SP.MV :
GR.API :
RML.OHMM :
RI. :
RXO.OHMM :
CALI.CM :
DEN.GM/CC :
~A
# ...
  118.2500   -16.0610    93.4280     5.7350     4.6490     5.8650    22.9810     2.3010 
  118.3750   -16.6210    86.2280     7.3640     6.0760     8.1880    22.6750     2.2870 
  118.5000   -17.1620    77.8510     9.2740     7.8930    11.8160    22.7150     2.2840 
  118.6250   -17.6590    68.8720    10.8990     9.6290    16.0160    23.1500     2.3020 
  118.7500   -18.0830    61.8900    11.7000    10.7220    19.4700    23.4710     2.3280 
  118.8750   -18.4290    60.5430    11.4240    10.8330    20.0970    23.3780     2.3460 
  119.0000   -18.7350    66.0320    10.2660    10.0270    15.8660    22.9060     2.3410 
  119.1250   -19.0080    77.3200     8.8290     8.7700    10.3790    22.5360     2.3080 
  119.2500   -19.2860    84.6100     7.7070     7.6690     7.8670    22.3650     2.2650 
  119.3750   -19.5470    82.3100     7.0470     6.9270     7.3800    22.2790     2.2290 
  119.5000   -19.7520    73.5440     6.7640     6.5340     7.5400    22.1410     2.2050 
  119.6250   -19.8950    70.8210     6.7080     6.3980     7.6140    22.0730     2.1960 
  119.7500   -19.9950    72.9250     6.7100     6.3570     7.4550    22.1670     2.1940 
  119.8750   -20.0500    76.0390     6.7350     6.3560     7.1830    22.2850     2.1960 
  120.0000   -20.0800    80.3950     6.8120     6.4000     7.0030    22.3180     2.2000 
  120.1250   -20.0960    83.3160     6.9930     6.5300     7.1530    22.2940     2.2050 
  120.2500   -20.0510    80.6340     7.2480     6.7340     7.5700    22.2940     2.2080 
  120.3750   -19.9790    75.7120     7.5100     6.9600     8.0220    22.2570     2.2090 
  120.5000   -19.9130    74.9960     7.6960     7.1360     8.3280    22.1300     2.2060 
  120.6250   -19.8120    77.8360     7.7160     7.1650     8.3640    22.0690     2.1990 
  120.7500   -19.6370    78.4040     7.5830     7.0430     8.2210    22.1000     2.1900 
  120.8750   -19.4130    76.9120     7.3350     6.7980     7.9550    22.1990     2.1810 
  121.0000   -19.1360    71.7590     7.0270     6.4830     7.6550    22.2040     2.1740 
  121.1250   -18.7920    68.6530     6.7410     6.1730     7.5640    22.1160     2.1710 
  121.2500   -18.4240    72.3830     6.5860     5.9590     7.6250    22.1620     2.1710 
  121.3750   -17.9870    75.8330     6.7210     5.9640     7.9600    22.2860     2.1720 
  121.5000   -17.4070    70.8030     7.3320     6.3390     8.8050    22.3540     2.1750 
  121.6250   -16.6950    62.1070     8.6180     7.2930    11.2140    22.3900     2.1920 
  121.7500   -15.9770    60.0730    10.3090     8.6800    15.6400    22.5940     2.2340 
  121.8750   -15.3280    63.0990    11.9440    10.1920    21.5660    23.0670     2.3040 
  122.0000   -14.7800    63.7350    12.9010    11.3350    27.3930    23.5250     2.3910 
  122.1250   -14.3680    61.9120    12.4470    11.4090    28.9410    23.6650     2.4640 
  122.2500   -14.0590    67.9720    10.8430    10.4220    24.2200    23.5730     2.4930 
  122.3750   -13.8560    85.5830     8.7270     8.7670    15.2200    23.3190     2.4700 
  122.5000   -13.7830   103.6860     6.8420     7.0540     8.4130    22.9510     2.4140 
  122.6250   -13.8270   106.5060     5.6930     5.8070     6.3340    22.5480     2.3520 
  122.7500   -13.9070    98.0960     5.1140     5.0510     6.1970    22.1680     2.3070 
  122.8750   -14.0020    89.6160     4.8990     4.6860     6.4520    21.9630     2.2830 
  123.0000   -14.1110    88.4880     4.8570     4.5630     6.3200    22.0840     2.2760 
  123.1250   -14.1750    94.7920     4.8550     4.5540     5.6690    22.5520     2.2800 
  123.2500   -14.1920   100.7410     4.8330     4.5560     5.0760    22.9900     2.2830 
  123.3750   -14.2150   100.7630     4.8010     4.5520     4.7840    23.2440     2.2840 
  123.5000   -14.2860    97.2600     4.7830     4.5560     4.7390    23.3360     2.2810 
  123.6250   -14.4640    97.2980     4.8030     4.5910     4.6620    23.3600     2.2800 
  123.7500   -14.7580    97.3440     4.8590     4.6630     4.6240    23.2700     2.2810 
  123.8750   -15.0980    94.3080     4.9540     4.7720     4.7110    23.0300     2.2860 
  124.0000   -15.4380    91.0940     5.0890     4.9200     4.9020    22.7110     2.2930 
  124.1250   -15.8440    90.5700     5.2750     5.1140     5.0290    22.7160     2.3010 
  124.2500   -16.3280    90.7360     5.4980     5.3430     5.0810    22.8780     2.3050 
  124.3750   -16.8430    90.3180     5.7430     5.5910     5.1500    22.8110     2.3000 
  124.5000   -17.3400    88.4800     5.9930     5.8420     5.2930    22.4440     2.2840 
  124.6250   -17.7680    83.7590     6.2260     6.0700     5.5260    21.7970     2.2590 
  124.7500   -18.0930    76.7430     6.4360     6.2650     5.7670    21.2820     2.2340 
  124.8750   -18.3760    69.8290     6.6290     6.4300     5.9500    20.9600     2.2150 
  125.0000   -18.6500    67.5060     6.8190     6.5780     6.1490    20.8830     2.2030 
  125.1250   -18.8510    72.0140     7.0190     6.7250     6.3910    20.9510     2.1990 
  125.2500   -18.9940    76.8250     7.2200     6.8710     6.6560    21.0120     2.1980 
  125.3750   -19.0730    76.9550     7.3980     7.0000     6.9070    20.9920     2.2010 
  125.5000   -19.0750    77.6720     7.5320     7.0910     7.1460    20.9390     2.2070 
  125.6250   -18.9880    84.8410     7.6270     7.1400     7.3390    20.9290     2.2180 
  125.7500   -18.8610    88.7830     7.7520     7.1980     7.4590    21.0650     2.2290 
  125.8750   -18.6880    85.2030     7.9950     7.3350     7.5540    21.3010     2.2370 
  126.0000   -18.4510    80.4020     8.4370     7.6250     7.7780    21.6100     2.2390 
  126.1250   -18.1770    76.7720     9.1450     8.1390     8.3580    21.8270     2.2380 
  126.2500   -17.8760    69.8200    10.0050     8.8040     9.2670    22.1150     2.2410 
  126.3750   -17.5340    61.1010    10.8710     9.5140    10.3300    22.3090     2.2520 
  126.5000   -17.1980    57.6900    11.5750    10.1270    11.2380    22.2310     2.2700 
  126.6250   -16.8970    61.7290    11.9430    10.4820    11.7320    21.9480     2.2920 
  126.7500   -16.5860    66.4870    12.0490    10.5940    11.7250    21.8070     2.3050 
  126.8750   -16.2120    66.3550    12.0590    10.5650    11.6790    21.7580     2.3050 
  127.0000   -15.7430    59.7080    12.2280    10.5840    11.8520    21.8250     2.2940 
  127.1250   -15.2480    52.2410    12.9380    10.9660    12.6170    22.0860     2.2820 
  127.2500   -14.7440    51.9310    14.3310    11.8880    14.4580    22.4290     2.2860 
  127.3750   -14.2770    56.4260    16.4500    13.4640    18.0610    22.6920     2.3130 
  127.5000   -13.8370    58.5870    19.1770    15.6780    23.4410    22.8970     2.3630 
  127.6250   -13.4080    55.3810    22.2130    18.3860    29.9720    23.1240     2.4290 
  127.7500   -13.0390    54.6150    25.0400    21.1260    35.2330    23.2290     2.4940 
  127.8750   -12.7900    59.2650    27.2210    23.4700    35.9160    23.1520     2.5480 
  128.0000   -12.7060    65.7260    28.3690    25.0060    32.5630    22.9150     2.5910 
  128.1250   -12.6620    65.6990    27.8680    25.1350    29.9390    22.7680     2.6240 
  128.2500   -12.6650    61.6500    25.6860    23.7760    27.9840    22.6980     2.6470 
  128.3750   -12.7000    62.3330    21.8960    20.9290    25.8350    22.6980     2.6560 
  128.5000   -12.7710    70.3020    17.0730    17.0000    21.8850    22.6930     2.6420 
  128.6250   -12.9050    83.1110    12.3800    12.8730    16.6480    22.5970     2.5950 
  128.7500   -13.0930    93.4210     8.7900     9.4480    11.0070    22.4980     2.5260 
  128.8750   -13.3140    96.8050     6.5720     7.0830     6.8470    22.4560     2.4480 
  129.0000   -13.5010    94.0430     5.5310     5.7680     5.0090    22.2580     2.3770 
  129.1250   -13.6380    91.2070     5.3670     5.3970     5.1400    21.8620     2.3300 
  129.2500   -13.6530    90.6700     5.5520     5.5180     5.8050    21.5670     2.3080 
  129.3750   -13.5620    86.3360     5.8330     5.8390     6.4390    21.4220     2.3030 
