~V
VERS. 2.00: Ver 2.00
~W
STRT.M 60.0000:
STOP.M 271.0000:
STEP.M 0.1250:
NULL. -999.2500:
UWI. DF5026:
~C
DEPT.M :
SP.MV :
GR.API :
CALI.CM :
RXO.OHMM :
RI. :
RML.OHMM :
DEN.GM/CC :
~A
# ...
   71.2500   -43.5080    69.0220    24.4620     9.3130     7.5940     9.1850     2.3360 
   71.3750   -43.5950    70.4350    24.4620    13.1450     9.5120    11.6720     2.4220 
   71.5000   -43.6330    70.9390    24.4620    20.0370    11.9300    14.5900     2.4970 
   71.6250   -43.7340    69.6660    24.4620    26.7150    13.9230    16.6010     2.5140 
   71.7500   -43.8470    69.0560    24.4620    28.9530    14.4110    16.4420     2.4690 
   71.8750   -44.0560    69.6230    24.4610    26.3390    13.2380    14.2850     2.3880 
   72.0000   -44.3470    70.9100    24.4670    21.8230    11.2280    11.5160     2.3020 
   72.1250   -44.6990    73.4690    24.4850    15.8060     9.3770     9.4240     2.2310 
   72.2500   -45.1220    76.4140    24.5050    11.7290     8.0640     8.1770     2.1800 
   72.3750   -45.5990    78.3980    24.5160    10.3570     7.2940     7.6200     2.1500 
   72.5000   -46.0730    78.3610    24.5170    10.7550     6.9630     7.5220     2.1360 
   72.6250   -46.4260    77.6230    24.5160    11.1870     6.9510     7.6560     2.1380 
   72.7500   -46.7840    76.3160    24.5160    11.3500     7.0380     7.7810     2.1470 
   72.8750   -47.0140    73.4330    24.5160    11.3160     7.1130     7.8080     2.1560 
   73.0000   -47.1960    71.0490    24.5160    11.2160     7.1200     7.7330     2.1590 
   73.1250   -47.2660    72.3580    24.5160    10.8140     7.0540     7.5980     2.1530 
   73.2500   -47.3120    74.0150    24.5160    10.6040     6.9590     7.4600     2.1420 
   73.3750   -47.2980    73.8690    24.5160    10.4390     6.8600     7.3400     2.1330 
   73.5000   -47.3120    72.5370    24.5160    10.3470     6.7720     7.2450     2.1300 
   73.6250   -47.3450    73.4280    24.5160    10.5670     6.7030     7.1810     2.1330 
   73.7500   -47.3360    74.0280    24.5160    11.0070     6.6420     7.1330     2.1360 
   73.8750   -47.3910    72.0900    24.5160    10.5880     6.5790     7.0870     2.1330 
   74.0000   -47.4520    70.0550    24.5160     9.5850     6.5030     7.0260     2.1270 
   74.1250   -47.5530    69.7240    24.5180     9.3330     6.4110     6.9430     2.1230 
   74.2500   -47.6230    70.0370    24.5050     8.9970     6.3220     6.8630     2.1230 
   74.3750   -47.6520    70.4660    24.4600     8.4440     6.2660     6.8250     2.1290 
   74.5000   -47.6780    72.0380    24.3990     8.1590     6.2750     6.8700     2.1370 
   74.6250   -47.6500    73.7460    24.3610     8.9230     6.3830     7.0330     2.1400 
   74.7500   -47.6560    73.9110    24.3520    10.0870     6.5660     7.2710     2.1380 
   74.8750   -47.6260    72.5670    24.3540    10.6530     6.7720     7.5160     2.1330 
   75.0000   -47.5310    70.5370    24.3560    10.9010     6.9260     7.6740     2.1300 
   75.1250   -47.3340    69.2790    24.3600    10.7800     6.9320     7.6340     2.1320 
   75.2500   -47.0740    70.2920    24.3360    10.2010     6.7990     7.4380     2.1400 
   75.3750   -46.8270    74.4940    24.2690     9.3830     6.5810     7.1760     2.1530 
   75.5000   -46.4940    79.4560    24.1830     8.3550     6.3570     6.9600     2.1670 
   75.6250   -46.2170    81.9060    24.1290     7.7850     6.2160     6.8930     2.1740 
   75.7500   -45.9730    81.9350    24.1110     7.8550     6.1710     6.9520     2.1710 
   75.8750   -45.7650    79.9650    24.1080     8.3760     6.2020     7.0820     2.1640 
   76.0000   -45.6220    78.5200    24.1080     8.8500     6.2700     7.2150     2.1590 
   76.1250   -45.5960    78.0850    24.1080     8.8810     6.3360     7.3040     2.1630 
   76.2500   -45.6370    78.2490    24.1080     8.5260     6.3820     7.3560     2.1690 
   76.3750   -45.7240    78.9740    24.1080     7.9120     6.4050     7.3790     2.1690 
   76.5000   -45.8600    79.9160    24.1080     7.9010     6.4110     7.3820     2.1590 
   76.6250   -45.9970    78.6060    24.1080     8.5400     6.4060     7.3680     2.1430 
   76.7500   -46.1040    75.1190    24.1080     9.0170     6.3970     7.3440     2.1330 
   76.8750   -46.1370    72.9840    24.1070     8.4670     6.3960     7.3340     2.1340 
   77.0000   -46.0610    74.4200    24.1030     8.6010     6.4240     7.3710     2.1430 
   77.1250   -45.9240    74.2460    24.0970     9.1190     6.5060     7.4840     2.1510 
   77.2500   -45.7680    70.2790    24.0930     9.6420     6.6270     7.6380     2.1530 
   77.3750   -45.5940    67.0100    24.0940     9.6750     6.7590     7.7850     2.1500 
   77.5000   -45.4080    68.7350    24.0950     9.7770     6.8580     7.8680     2.1450 
   77.6250   -45.0360    72.5050    24.0970     9.6810     6.8760     7.8370     2.1440 
   77.7500   -44.6060    73.9420    24.1000     9.3650     6.8270     7.7300     2.1470 
   77.8750   -44.1400    74.0520    24.1000     8.7400     6.7330     7.5860     2.1520 
   78.0000   -43.6820    74.6670    24.0880     7.9310     6.6130     7.4180     2.1550 
   78.1250   -43.1850    74.2250    24.0580     8.0050     6.4510     7.1880     2.1550 
   78.2500   -42.6120    72.9160    24.0200     8.1450     6.2290     6.8740     2.1560 
   78.3750   -41.9380    75.5310    23.9880     7.4890     5.9470     6.4960     2.1640 
   78.5000   -41.2300    82.6480    23.9830     6.3380     5.6380     6.1170     2.1800 
   78.6250   -40.6050    88.3090    24.0150     5.4270     5.3550     5.8210     2.2030 
   78.7500   -40.0310    89.5430    24.0520     5.0900     5.1230     5.6150     2.2260 
   78.8750   -39.5310    89.9270    24.0650     5.2230     4.9410     5.4720     2.2450 
   79.0000   -39.1130    91.9760    24.0610     5.5900     4.7910     5.3420     2.2620 
   79.1250   -38.7590    95.0910    24.1020     5.4220     4.6450     5.1790     2.2790 
   79.2500   -38.4640    99.8450    24.1930     5.0020     4.4970     4.9950     2.2940 
   79.3750   -38.2730   106.6840    24.2810     4.7790     4.3660     4.8310     2.3040 
   79.5000   -38.1860   111.8250    24.3190     4.7390     4.2810     4.7370     2.3050 
   79.6250   -38.2360   110.0610    24.3160     4.8070     4.2960     4.7870     2.2920 
   79.7500   -38.3810   104.5010    24.3080     4.8230     4.4370     4.9990     2.2690 
   79.8750   -38.6080   100.9480    24.3100     4.8000     4.7280     5.3840     2.2420 
   80.0000   -38.9180    99.9920    24.3400     4.9780     5.1740     5.9300     2.2210 
   80.1250   -39.2920    96.3330    24.3950     5.8660     5.7610     6.5880     2.2080 
   80.2500   -39.7140    87.9290    24.4290     7.3950     6.3680     7.1960     2.1960 
   80.3750   -40.0820    77.5690    24.4590     8.6810     6.8350     7.5600     2.1810 
   80.5000   -40.3030    69.9790    24.5500     9.0630     6.9930     7.5220     2.1630 
   80.6250   -40.3670    67.0570    24.7080     8.8380     6.7080     7.0100     2.1530 
   80.7500   -40.2110    68.6360    24.8300     8.5450     6.1440     6.2710     2.1570 
   80.8750   -39.9000    75.6250    24.8740     7.2760     5.4690     5.5040     2.1750 
   81.0000   -39.4430    87.2800    24.8720     5.3840     4.8280     4.8560     2.2030 
   81.1250   -38.9450    99.0770    24.8700     4.1170     4.3340     4.4270     2.2330 
   81.2500   -38.5210   105.5490    24.8710     4.0720     3.9890     4.1800     2.2610 
   81.3750   -38.2260   107.4580    24.8690     4.2020     3.7820     4.0740     2.2880 
   81.5000   -38.0640   107.7260    24.8580     4.3440     3.6760     4.0450     2.3090 
   81.6250   -38.0730   105.9400    24.8430     4.3800     3.6200     4.0070     2.3240 
   81.7500   -38.2530   104.3420    24.8330     4.4000     3.5580     3.9260     2.3310 
   81.8750   -38.5700   105.0200    24.8320     4.4110     3.4950     3.8460     2.3340 
   82.0000   -38.9850   108.7380    24.8340     4.3440     3.4820     3.8610     2.3330 
   82.1250   -39.5050   112.0200    24.8220     4.3640     3.6140     4.0930     2.3310 
   82.2500   -40.0130   111.2670    24.7930     4.5920     3.9170     4.5430     2.3290 
   82.3750   -40.5760   108.2660    24.7490     5.6100     4.3870     5.1700     2.3240 
