~V
VERS. 2.00: Ver 2.00
~W
STRT.M 50.0000:
STOP.M 245.0000:
STEP.M 0.1250:
NULL. -999.2500:
UWI. DF5062:
~C
DEPT.M :
DEN.GM/CC :
GR.API :
RML.OHMM :
RI. :
RXO.OHMM :
CALI.CM :
SP.MV :
~A
# ...
  128.7500     2.2010    62.9700    11.7290     9.4430    12.2700    23.3600   -32.5800 
  128.8750     2.2170    63.7010    12.9490    10.4560    15.4950    23.3800   -32.3010 
  129.0000     2.2630    64.3810    14.0350    11.4620    19.1580    23.3930   -32.0430 
  129.1250     2.3320    63.1600    14.4770    12.0310    21.9570    23.4530   -31.8310 
  129.2500     2.4020    61.4650    14.1500    11.9720    21.1060    23.5520   -31.6340 
  129.3750     2.4530    59.8730    13.1870    11.3220    17.5150    23.6380   -31.4070 
  129.5000     2.4750    59.4090    11.9570    10.3410    13.7160    23.7030   -31.3600 
  129.6250     2.4690    62.3650    10.9180     9.4040    10.6260    23.6640   -31.3770 
  129.7500     2.4490    67.0490    10.2590     8.7400     9.1950    23.5120   -31.4700 
  129.8750     2.4190    69.7290     9.9510     8.3810     9.4610    23.3080   -31.7240 
  130.0000     2.3790    68.8910     9.8540     8.2560    10.4610    23.1590   -32.0280 
  130.1250     2.3330    66.9610     9.7990     8.2370    10.7550    23.0880   -32.3040 
  130.2500     2.2890    67.5540     9.6720     8.1930    10.6480    23.0670   -32.5440 
  130.3750     2.2560    70.3420     9.4890     8.1060    10.5340    23.0620   -32.7960 
  130.5000     2.2330    71.9890     9.3720     8.0550    10.4000    23.0690   -32.8670 
  130.6250     2.2200    70.8110     9.5670     8.2360    10.4220    23.0930   -32.8380 
  130.7500     2.2160    68.8330    10.1470     8.7340    10.6670    23.1300   -32.6110 
  130.8750     2.2330    66.0600    11.0160     9.4990    11.3190    23.1580   -32.2340 
  131.0000     2.2820    64.0800    11.8690    10.3030    12.3020    23.2140   -31.7900 
  131.1250     2.3710    65.4900    12.1580    10.6930    13.8210    23.3440   -31.1680 
  131.2500     2.4710    67.5080    11.6430    10.4050    15.6760    23.5750   -30.6150 
  131.3750     2.5470    68.7380    10.4090     9.4330    15.7180    23.8970   -30.0320 
  131.5000     2.5680    71.6200     8.8770     8.0780    11.4030    24.3640   -29.4710 
  131.6250     2.5250    78.4050     7.6630     6.8410     7.1510    24.8520   -29.0280 
  131.7500     2.4580    83.0440     7.0110     6.0100     5.8350    25.1470   -28.6560 
  131.8750     2.3940    81.8530     6.8710     5.6170     5.9070    25.2330   -28.5020 
  132.0000     2.3460    77.3610     7.0360     5.5610     6.3390    25.2760   -28.4820 
  132.1250     2.3140    76.8970     7.2480     5.6950     6.8970    25.3440   -28.5860 
  132.2500     2.2880    80.2590     7.3440     5.8510     7.5170    25.3340   -28.7660 
  132.3750     2.2660    83.4350     7.4010     6.0230     7.8710    25.1820   -29.0510 
  132.5000     2.2490    84.6250     7.6940     6.3520     7.6990    24.9270   -29.3270 
  132.6250     2.2520    82.0720     8.7280     7.2100     7.7860    24.6270   -29.5990 
  132.7500     2.2870    75.5940    10.5980     8.7640     8.8580    24.4080   -29.8400 
  132.8750     2.3610    68.1290    13.1190    10.9830    11.2600    24.3900   -29.8610 
  133.0000     2.4650    64.5370    15.7220    13.4950    14.7340    24.5460   -29.7880 
  133.1250     2.5730    65.5030    17.3180    15.4060    19.3130    24.7880   -29.6650 
  133.2500     2.6420    66.3490    17.2840    15.9660    22.3860    24.9880   -29.5040 
  133.3750     2.6510    67.1580    15.6150    14.9390    21.4620    25.0860   -29.1990 
  133.5000     2.6030    69.3580    13.0150    12.7960    17.7520    25.1070   -28.9460 
  133.6250     2.5210    73.3970    10.5150    10.4470    12.7280    25.1000   -28.6510 
  133.7500     2.4420    79.4650     8.6530     8.5360     9.1510    25.0580   -28.3570 
  133.8750     2.3840    87.3880     7.4640     7.1780     6.9410    24.8620   -28.1910 
  134.0000     2.3530    95.2660     6.8070     6.2870     6.0970    24.6250   -27.9510 
  134.1250     2.3450    97.6570     6.5300     5.7700     5.9010    24.7010   -27.7940 
  134.2500     2.3460    95.7680     6.3810     5.4420     5.7140    24.9950   -27.5820 
  134.3750     2.3470    95.5300     6.2290     5.2200     5.5860    25.2490   -27.3990 
  134.5000     2.3440    98.6800     6.0300     5.0610     5.7170    25.3290   -27.2700 
  134.6250     2.3390    99.6990     5.9300     5.0420     5.9620    25.2760   -27.0960 
  134.7500     2.3400    97.0720     6.2480     5.3510     6.0360    25.2040   -27.0200 
  134.8750     2.3590    93.4430     7.3440     6.2660     6.4170    25.0900   -26.8860 
  135.0000     2.4050    88.9240     9.4250     8.0010     7.7060    24.8540   -26.8520 
  135.1250     2.4840    80.4120    12.3560    10.5560    11.6510    24.6430   -26.8920 
  135.2500     2.5750    70.1120    15.1590    13.1700    18.0330    24.6150   -26.9100 
  135.3750     2.6510    62.9490    16.7810    14.9230    26.7960    24.6820   -26.8900 
  135.5000     2.6830    64.1830    16.3950    14.9850    38.8350    24.6700   -26.8620 
  135.6250     2.6510    75.7840    13.8420    13.0080    38.5320    24.5240   -26.8050 
  135.7500     2.5790    86.6510    10.7390    10.3270    21.5640    24.3960   -26.6970 
  135.8750     2.4980    91.0530     8.2410     7.9870     9.9040    24.3670   -26.6830 
  136.0000     2.4280    92.3300     6.7730     6.4370     6.3330    24.3810   -26.5530 
  136.1250     2.3860    94.8690     6.2950     5.7400     5.7570    24.3860   -26.3640 
  136.2500     2.3640    97.3560     6.3100     5.5340     5.7220    24.3870   -26.2450 
  136.3750     2.3590    98.1660     6.5330     5.6060     5.7520    24.3950   -26.1470 
  136.5000     2.3640    98.7450     6.7470     5.7710     5.7880    24.4200   -25.9980 
  136.6250     2.3770    98.5370     6.7980     5.8800     5.8190    24.4680   -25.8620 
  136.7500     2.3930    97.2880     6.6990     5.8830     5.7600    24.4990   -25.7810 
  136.8750     2.4060    96.3330     6.5080     5.7980     5.6390    24.5000   -25.5860 
  137.0000     2.4100    97.1220     6.3000     5.6710     5.4860    24.4890   -25.4820 
  137.1250     2.4040    98.8230     6.1630     5.5650     5.4260    24.4770   -25.3830 
  137.2500     2.3930    98.7420     6.1410     5.5300     5.3680    24.4740   -25.2560 
  137.3750     2.3830    96.7460     6.2540     5.5940     5.3810    24.4620   -25.2460 
  137.5000     2.3780    95.6310     6.4900     5.7540     5.6020    24.4350   -25.1800 
  137.6250     2.3770    97.1400     6.7870     5.9690     5.8590    24.4030   -25.2060 
  137.7500     2.3800    99.1160     7.0260     6.1440     6.1890    24.4780   -25.2260 
  137.8750     2.3820    99.5850     7.1040     6.2010     6.5730    24.6760   -25.2530 
  138.0000     2.3790    98.8390     6.9720     6.0950     6.9970    24.8280   -25.3390 
  138.1250     2.3690    98.9990     6.6610     5.8440     7.1150    24.8800   -25.3650 
  138.2500     2.3540    99.7790     6.3870     5.6040     6.5450    24.8810   -25.4270 
  138.3750     2.3420    99.4050     6.3690     5.5320     6.1100    24.8750   -25.4780 
  138.5000     2.3450    97.8790     6.7820     5.7640     6.2370    24.8630   -25.5220 
  138.6250     2.3770    93.9940     7.7690     6.4340     7.1670    24.8400   -25.5660 
  138.7500     2.4300    86.6110     9.1470     7.4490     8.7510    24.8300   -25.5980 
  138.8750     2.4880    77.4780    10.7180     8.6940    11.2070    24.8300   -25.6190 
  139.0000     2.5290    70.9260    12.2410     9.9980    14.6130    24.8390   -25.6560 
  139.1250     2.5390    69.1560    13.4700    11.1450    15.4080    24.8580   -25.7290 
  139.2500     2.5330    67.3740    14.3830    12.0520    14.3540    24.8740   -25.7260 
  139.3750     2.5290    65.4960    15.0350    12.7220    14.7920    24.8930   -25.7260 
  139.5000     2.5370    63.9910    15.5080    13.2100    15.9360    24.9000   -25.7380 
  139.6250     2.5530    61.1940    15.8930    13.5960    16.3540    24.8650   -25.7050 
  139.7500     2.5660    56.9020    16.3100    13.9950    15.8540    24.8410   -25.6160 
  139.8750     2.5710    54.0750    16.8410    14.4810    14.6630    24.8310   -25.5690 
