~V
VERS. 2.00: Ver 2.00
~W
STRT.M 55.0000:
STOP.M 277.0000:
STEP.M 0.1250:
NULL. -999.2500:
UWI. DF5040:
~C
DEPT.M :
GR.API :
CALI.CM :
RXO.OHMM :
RI. :
RML.OHMM :
DEN.GM/CC :
SP.MV :
~A
# ...
  268.7500    60.2400    24.2750     7.9480     7.4700     8.3930     2.4370   -14.1740 
  268.8750    60.2400    24.1930     8.1900     7.4990     8.4240     2.4300   -13.8700 
  269.0000    60.2400    24.1840     8.4790     7.4850     8.4100     2.4330   -13.5640 
  269.1250    60.2400    24.1910     8.8330     7.4090     8.3280     2.4440   -13.2540 
  269.2500    60.2400    24.1990     9.0540     7.2750     8.1860     2.4550   -12.9390 
  269.3750    60.2400    24.1970     8.9070     7.0990     7.9990     2.4600   -12.6250 
  269.5000    60.2400    24.1950     8.3270     6.9070     7.7960     2.4610   -12.3240 
  269.6250    60.2400    24.1890     7.7250     6.7300     7.6080     2.4660   -12.0480 
  269.7500    60.2400    24.1920     7.3350     6.5830     7.4510     2.4790   -11.7920 
  269.8750    60.2400    24.1960     7.1300     6.4670     7.3280     2.4870   -11.5470 
  270.0000    60.2400    24.1970     7.0490     6.3780     7.2330     2.4820   -11.3130 
  270.1250    60.2400    24.1980     7.1450     6.3120     7.1630     2.4660   -11.0980 
  270.2500    60.2400    24.1920     7.3040     6.2610     7.1090     2.4530   -10.9110 
  270.3750    60.2400    24.1760     7.3830     6.2170     7.0630     2.4460   -10.7560 
  270.5000    60.2400    24.1640     7.2920     6.1750     7.0180     2.4440   -10.6330 
  270.6250    60.2400    24.1690     7.0860     6.1350     6.9750     2.4420   -10.5390 
  270.7500    60.2400    24.1770     6.9000     6.1020     6.9400     2.4380   -10.4640 
  270.8750    60.2400    24.1810     6.7380     6.0780     6.9150     2.4300   -10.4010 
  271.0000    60.2400    24.2090     6.5500     6.0650     6.9010     2.4240   -10.3440 
  271.1250    60.2400    24.3440     6.3010     6.0640     6.9000     2.4290   -10.2880 
  271.2500    60.2400    24.5610     6.0840     6.0680     6.9040     2.4420   -10.2310 
  271.3750    60.2400    24.6450     5.9870     6.0670     6.9030     2.4570   -10.1710 
  271.5000    60.2400    24.4970     6.0500     6.0630     6.8990     2.4690   -10.1050 
  271.6250    60.2400    24.2580     6.2450     6.0650     6.9020     2.4700   -10.0250 
  271.7500    60.2400    24.1380     6.4490     6.0760     6.9130     2.4690    -9.9290 
  271.8750    60.2400    24.1290     6.5770     6.0940     6.9310     2.4720    -9.8090 
  272.0000    60.2400    24.1440     6.6190     6.1140     6.9540     2.4780    -9.6560 
  272.1250    60.2400    24.1290     6.5740     6.1350     6.9750     2.4750    -9.4560 
  272.2500    60.2400    24.1180     6.4870     6.1470     6.9880     2.4640    -9.3190 
  272.3750    60.2400    24.1200     6.5020     6.1540     6.9960     2.4520    -8.8950 
  272.5000    60.2400    24.1530     6.7840     6.1540     6.9960     2.4430    -8.6200 
  272.6250    60.2400    24.1790     7.0920     6.1460     6.9870     2.4290    -8.3590 
  272.7500    60.2400    24.1660     6.9200     6.1330     6.9740     2.4030  -999.2500 
  272.8750    60.2400    24.1520     6.3440     6.1240     6.9640     2.3760  -999.2500 
  273.0000    60.2400    24.2430     5.8700     6.1210     6.9600     2.3690  -999.2500 
  273.1250    60.2400    24.5580     5.9320     6.1210     6.9600     2.3850  -999.2500 
  273.2500    60.2400    25.0460     6.2730     6.1210     6.9600     2.4040  -999.2500 
  273.3750    60.2400    25.4180     6.5790     6.1210     6.9600     2.4150  -999.2500 
  273.5000    60.2400    25.3860     6.6630     6.1210     6.9600     2.4230  -999.2500 
  273.6250    60.2400    24.9080     6.4950     6.1210     6.9600     2.4330  -999.2500 
  273.7500    60.2400    24.3670     6.2140     6.1210     6.9600     2.4360  -999.2500 
  273.8750    60.2400    24.0130     5.9550     6.1210     6.9600     2.4310  -999.2500 
  274.0000    60.2400    23.8770     5.7950     6.1210     6.9600     2.4250  -999.2500 
  274.1250    60.2400    23.8510     5.7470     6.1210     6.9600     2.4230  -999.2500 
  274.2500    60.2400    23.8320     5.7600     6.1210     6.9600     2.4290  -999.2500 
  274.3750    60.2400    23.8080     5.8350     6.1210     6.9600     2.4380  -999.2500 
  274.5000    60.2400    23.7900     5.9810     6.1210     6.9600     2.4480  -999.2500 
  274.6250    60.2400    23.7930     6.1660     6.1210     6.9600     2.4510  -999.2500 
  274.7500    60.2400    23.8110     6.2830     6.1210     6.9600     2.4450  -999.2500 
  274.8750    60.2400    23.8150     6.2340     6.1210     6.9600     2.4340  -999.2500 
  275.0000    60.2400    23.7900     6.0560     6.1210     6.9600     2.4360  -999.2500 
  275.1250    60.2400    23.7410     5.8960     6.1210     6.9600     2.4270  -999.2500 
  275.2500    60.2400    23.6890     5.8200     6.1210     6.9600     2.3070  -999.2500 
  275.3750    60.2400    23.5380     5.7350     6.1210     6.9600     2.0430  -999.2500 
  275.5000    60.2400    23.0940     5.5300     6.1210     6.9600     1.7410  -999.2500 
  275.6250    60.2400    21.5020     5.0790     6.1210     6.9600     1.5960  -999.2500 
  275.7500    60.2400    18.9140     4.5170     6.1210     6.9600     1.5850  -999.2500 
  275.8750    60.2400    16.6110     4.0590     6.1210     6.9600     1.5930  -999.2500 
  276.0000    60.2400    15.5130     3.8300     6.1210     6.9600     1.6540  -999.2500 
  276.1250    60.2400    15.3810     3.7750     6.1210     6.9600     1.7330  -999.2500 
  276.2500    60.2400    15.3790     3.7660     6.1210     6.9600     1.5310  -999.2500 
  276.3750    60.2400    15.3840     3.7640     6.1210     6.9600     1.1260  -999.2500 
  276.5000    60.2400    15.3850     3.7640     6.1210     6.9600     1.1810  -999.2500 
  276.6250    60.2400    15.3900     3.7660     6.1210     6.9600     1.9230  -999.2500 
  276.7500    60.2400    15.3760     3.7670     6.1210     6.9600     2.9170  -999.2500 
  276.8750    60.2400    15.3620     3.7650     6.1210     6.9600     3.1510  -999.2500 
  277.0000    60.2400    15.3370     3.7630     6.1210     6.9600     2.5570  -999.2500 
