~V
VERS. 2.00: Ver 2.00
~W
STRT.M 55.0000:
STOP.M 271.0000:
STEP.M 0.1250:
NULL. -999.2500:
UWI. DF5028:
~C
DEPT.M :
SP.MV :
GR.API :
RML.OHMM :
RI. :
RXO.OHMM :
CALI.CM :
DEN.GM/CC :
~A
# ...
   66.2500   -47.2120    64.2720     9.2140     7.5160     9.7910    23.3450     2.2040 
   66.3750   -47.7590    65.2410     9.0470     7.2350     9.6570    23.3640     2.1730 
   66.5000   -48.1400    64.1910     9.0800     7.2550     9.6750    23.3730     2.1550 
   66.6250   -48.3830    61.4690     9.3430     7.5820     9.6620    23.3650     2.1430 
   66.7500   -48.4790    60.9710     9.8000     8.1360     9.7000    23.3520     2.1300 
   66.8750   -48.3690    62.5420    10.4300     8.8740     9.8200    23.3310     2.1250 
   67.0000   -48.2680    62.9100    11.1630     9.7220    10.0750    23.3200     2.1410 
   67.1250   -48.0160    62.6030    11.8030    10.5270    10.5450    23.3910     2.1940 
   67.2500   -47.8100    62.6660    12.1380    11.0970    11.1520    23.5630     2.2770 
   67.3750   -47.6780    62.9200    12.0270    11.2770    11.9120    23.7480     2.3660 
   67.5000   -47.7010    63.9510    11.4770    11.0020    12.8600    23.8000     2.4250 
   67.6250   -47.8580    66.1560    10.6510    10.2950    13.3450    23.6620     2.4190 
   67.7500   -48.1190    67.5880     9.8460     9.4190    12.6430    23.4880     2.3660 
   67.8750   -48.4940    66.8480     9.2070     8.5610    11.3830    23.3650     2.2970 
   68.0000   -48.8720    65.1990     8.7960     7.8570    10.5680    23.3020     2.2380 
   68.1250   -49.4100    62.5260     8.6390     7.4070    10.3090    23.2820     2.2030 
   68.2500   -49.8580    60.1300     8.6420     7.1640    10.1310    23.2910     2.1830 
   68.3750   -50.3160    60.8500     8.7410     7.0810    10.0710    23.3040     2.1700 
   68.5000   -50.6120    66.1290     8.8680     7.0960    10.2470    23.3030     2.1580 
   68.6250   -50.8270    72.4340     8.9710     7.1490    10.4610    23.2950     2.1520 
   68.7500   -50.9690    73.7590     9.0340     7.2000    10.4340    23.3000     2.1560 
   68.8750   -50.9960    70.1160     9.0680     7.2440    10.1720    23.3260     2.1650 
   69.0000   -51.0570    64.8960     9.0880     7.2840     9.9100    23.3730     2.1730 
   69.1250   -50.9140    62.1590     9.0990     7.3260     9.8710    23.4380     2.1710 
   69.2500   -50.7100    61.7740     9.1100     7.3700     9.9650    23.4820     2.1560 
   69.3750   -50.3770    62.9600     9.1150     7.4120    10.0420    23.4480     2.1330 
   69.5000   -49.9280    65.7100     9.1060     7.4430    10.0310    23.3110     2.1090 
   69.6250   -49.3900    67.6250     9.0730     7.4470    10.0090    23.1320     2.0930 
   69.7500   -48.6740    67.0160     9.0200     7.4220    10.0390    23.0080     2.0900 
   69.8750   -47.9170    65.3270     8.9550     7.3690    10.1050    22.9530     2.1000 
   70.0000   -46.9250    65.8280     8.8930     7.2980    10.1850    22.9300     2.1230 
   70.1250   -45.8680    71.8620     8.8530     7.2200    10.2080    22.9090     2.1570 
   70.2500   -44.7530    78.7780     8.8440     7.1490    10.0310    22.9070     2.1950 
   70.3750   -43.6010    82.5500     8.8510     7.0820     9.4710    22.9960     2.2280 
   70.5000   -42.5740    82.4350     8.8470     7.0100     8.6280    23.2550     2.2500 
   70.6250   -41.5820    81.7250     8.7770     6.9080     8.0850    23.6370     2.2540 
   70.7500   -40.7550    82.9890     8.6210     6.7690     8.0240    23.9400     2.2440 
   70.8750   -39.9740    83.5900     8.3950     6.6020     8.2220    24.0780     2.2270 
   71.0000   -39.4360    83.0510     8.1760     6.4580     8.3970    24.1050     2.2070 
   71.1250   -39.0410    84.4300     8.1510     6.4790     8.3280    24.0870     2.1920 
   71.2500   -38.8110    86.3630     8.4960     6.8130     8.0840    24.0140     2.1840 
   71.3750   -38.6950    85.1710     9.3990     7.6340     7.8990    23.8430     2.1900 
   71.5000   -38.5760    79.8020    10.9900     9.0750     8.1260    23.6310     2.2160 
   71.6250   -38.6030    75.9630    13.2980    11.1960     9.0910    23.6310     2.2710 
   71.7500   -38.6310    75.5560    15.8590    13.5830    10.8140    23.8610     2.3460 
   71.8750   -38.8320    76.0620    18.0830    15.7400    13.5480    24.1090     2.4310 
   72.0000   -39.0950    75.8640    19.2640    17.0900    17.3050    24.1540     2.5050 
   72.1250   -39.3970    73.5930    18.6930    16.9830    21.8040    23.9860     2.5350 
   72.2500   -39.7870    70.7060    16.7560    15.7010    25.6100    23.7870     2.5140 
   72.3750   -40.1870    69.3990    14.1520    13.7350    24.8610    23.6230     2.4480 
   72.5000   -40.5660    71.5280    11.6010    11.6590    18.2140    23.5410     2.3590 
   72.6250   -40.9000    73.3560     9.6650     9.9780    12.6270    23.5690     2.2760 
   72.7500   -41.1910    72.0450     8.7460     8.8060    10.0400    23.6540     2.2160 
   72.8750   -41.4280    71.6210     8.3230     8.1120     9.0640    23.7410     2.1820 
   73.0000   -41.5480    74.5670     8.2600     7.8000     8.7020    23.7960     2.1710 
   73.1250   -41.7220    76.9350     8.4360     7.7960     8.5290    23.8140     2.1750 
   73.2500   -41.8050    75.2440     8.6920     7.9470     8.5270    23.8140     2.1850 
   73.3750   -41.9010    71.9730     8.9550     8.1710     8.6790    23.8020     2.1930 
   73.5000   -42.1220    70.0360     9.1890     8.4040     8.9280    23.7760     2.1960 
   73.6250   -42.2670    69.4600     9.3690     8.6000     9.3020    23.6950     2.1910 
   73.7500   -42.5030    70.5870     9.4860     8.7340     9.7420    23.4940     2.1830 
   73.8750   -42.6670    71.9140     9.5290     8.7900    10.1670    23.1720     2.1770 
   74.0000   -42.8850    71.1420     9.5060     8.7650    10.5840    22.8490     2.1740 
   74.1250   -43.0920    69.6760     9.4340     8.6610    10.8620    22.7350     2.1710 
   74.2500   -43.2510    69.5750     9.3360     8.5060    10.6360    22.8220     2.1630 
   74.3750   -43.4370    69.2340     9.2230     8.3230     9.8990    22.9730     2.1480 
   74.5000   -43.5140    66.9970     9.1130     8.1350     9.1300    23.0520     2.1290 
   74.6250   -43.6870    65.3000     9.0350     7.9700     8.7240    23.0060     2.1140 
   74.7500   -43.8310    66.9460     9.0100     7.8490     8.5660    22.9280     2.1060 
   74.8750   -44.0250    71.3790     9.0470     7.7860     8.5280    22.8650     2.1030 
   75.0000   -44.2640    74.4580     9.1390     7.7830     8.6010    22.8340     2.1020 
   75.1250   -44.4020    72.7910     9.2690     7.8320     8.8470    22.9070     2.0980 
   75.2500   -44.6120    69.6990     9.4000     7.9040     9.2050    23.1340     2.0920 
   75.3750   -44.7720    69.8980     9.5080     7.9750     9.6160    23.4510     2.0890 
   75.5000   -44.8560    73.1830     9.5720     8.0230    10.0860    23.6840     2.0920 
   75.6250   -44.9080    72.6820     9.5770     8.0280    10.5820    23.6540     2.1030 
   75.7500   -44.8990    67.6500     9.5410     7.9970    10.8290    23.4370     2.1150 
   75.8750   -44.8030    61.3600     9.4760     7.9430    10.6570    23.1360     2.1220 
   76.0000   -44.5940    57.6200     9.3950     7.8800    10.2740    22.9020     2.1220 
   76.1250   -44.3100    57.0940     9.3010     7.8190    10.0010    22.9580     2.1160 
   76.2500   -43.9710    58.1610     9.2030     7.7630     9.8910    23.2280     2.1090 
   76.3750   -43.5270    59.6660     9.1140     7.7140     9.9640    23.4810     2.1040 
   76.5000   -43.1230    60.4710     9.0460     7.6710    10.1120    23.5620     2.1020 
   76.6250   -42.5750    61.6780     9.0150     7.6400    10.0420    23.5450     2.1040 
   76.7500   -42.0180    64.8730     9.0270     7.6250     9.7490    23.5690     2.1070 
   76.8750   -41.4610    67.9270     9.0840     7.6310     9.4490    23.6180     2.1100 
   77.0000   -40.8460    68.3470     9.1670     7.6500     9.2760    23.6560     2.1130 
   77.1250   -40.2940    66.1290     9.2360     7.6660     9.2530    23.6650     2.1160 
   77.2500   -39.5890    64.0110     9.2350     7.6490     9.4040    23.6590     2.1220 
   77.3750   -38.8980    64.8600     9.1250     7.5730     9.7820    23.6430     2.1360 
