~V
VERS. 2.00: Ver 2.00
~W
STRT.M 60.0000:
STOP.M 271.0000:
STEP.M 0.1250:
NULL. -999.2500:
UWI. DF5026:
~C
DEPT.M :
SP.MV :
GR.API :
CALI.CM :
RXO.OHMM :
RI. :
RML.OHMM :
DEN.GM/CC :
~A
# ...
  195.0000   -27.1570    49.7400    24.3560     2.9060     3.9700     5.0760     2.3450 
  195.1250   -27.6800    52.9050    24.3570     3.2860     4.3550     5.6030     2.3670 
  195.2500   -28.3220    57.2960    24.3610     3.6640     4.7160     6.0640     2.3860 
  195.3750   -29.0650    59.4540    24.3630     3.9080     4.9960     6.4030     2.3990 
  195.5000   -29.8780    59.4150    24.3620     4.0280     5.1680     6.5970     2.4040 
  195.6250   -30.7440    63.9920    24.3620     4.0300     5.2270     6.6690     2.4030 
  195.7500   -31.6620    76.1730    24.3620     4.0450     5.2470     6.7360     2.4030 
  195.8750   -32.6760    89.4590    24.3610     4.1020     5.2920     6.8960     2.4040 
  196.0000   -33.7510    96.9030    24.3580     4.3030     5.4130     7.2130     2.4050 
  196.1250   -34.8570    98.3040    24.3950     4.7170     5.6510     7.7220     2.3990 
  196.2500   -35.9410   100.4430    24.4980     5.2830     5.9790     8.3390     2.3890 
  196.3750   -36.9800   103.1590    24.6330     5.7260     6.3540     8.9790     2.3760 
  196.5000   -38.0210   101.1190    24.7310     6.2500     6.7260     9.5560     2.3620 
  196.6250   -39.0200    93.7230    24.7580     6.5240     7.0430     9.9910     2.3470 
  196.7500   -39.8940    88.3540    24.7610     6.8820     7.2890    10.2950     2.3330 
  196.8750   -40.5570    88.6760    24.7640     7.0800     7.4630    10.4950     2.3220 
  197.0000   -40.9980    92.3430    24.7600     7.3240     7.5790    10.6310     2.3210 
  197.1250   -41.2380    93.2950    24.7310     7.5530     7.6490    10.7400     2.3330 
  197.2500   -41.3430    92.8350    24.6840     7.6200     7.7070    10.8630     2.3520 
  197.3750   -41.3560    92.8100    24.6380     7.7000     7.7900    11.0510     2.3710 
  197.5000   -41.1990    93.6400    24.6120     8.0510     7.9450    11.3630     2.3830 
  197.6250   -40.8520    92.6170    24.6000     8.3300     8.2240    11.8700     2.3900 
  197.7500   -40.5440    89.0270    24.5920     8.5380     8.6110    12.5310     2.3940 
  197.8750   -40.3680    84.3830    24.5860     8.9510     9.0700    13.2600     2.3960 
  198.0000   -40.1870    81.1960    24.5850     9.8000     9.5150    13.8890     2.3930 
  198.1250   -39.8360    82.5510    24.5860    10.7380     9.7870    14.1400     2.3870 
  198.2500   -39.2990    85.3610    24.5860    10.9550     9.8160    13.9620     2.3790 
  198.3750   -38.6020    88.0020    24.5860    10.6040     9.6180    13.4560     2.3720 
  198.5000   -37.7900    91.7050    24.5870     9.9570     9.2930    12.8540     2.3720 
  198.6250   -36.9190    96.0480    24.5900     8.4360     8.9840    12.4240     2.3820 
  198.7500   -36.0020    98.0960    24.6000     8.0610     8.7730    12.2180     2.3980 
  198.8750   -35.0030    97.0140    24.5940     8.0530     8.6350    12.1170     2.4160 
  199.0000   -34.0140    97.8020    24.5280     9.0570     8.4660    11.8930     2.4260 
  199.1250   -33.0220   101.5000    24.3700     9.0180     8.1090    11.2790     2.4210 
  199.2500   -32.0400   104.2850    24.1870     8.2620     7.5710    10.3630     2.4080 
  199.3750   -31.0720   103.1350    24.0990     7.2130     6.9660     9.4010     2.3990 
  199.5000   -30.1580    97.7360    24.1720     6.4060     6.4640     8.7020     2.4010 
  199.6250   -29.3930    92.2530    24.2960     5.8260     6.2610     8.5580     2.4160 
  199.7500   -28.7580    90.8100    24.3160     5.9210     6.3570     8.8730     2.4330 
  199.8750   -28.2480    92.8540    24.2530     6.6580     6.6720     9.4310     2.4390 
  200.0000   -27.8100    93.0650    24.2090     7.8670     7.0220     9.8730     2.4250 
  200.1250   -27.5220    89.8970    24.2140     8.7530     7.1110     9.7340     2.3940 
  200.2500   -27.3650    86.3850    24.2160     8.5280     6.8470     9.0330     2.3580 
  200.3750   -27.2990    80.2530    24.2160     6.9610     6.3250     8.0470     2.3240 
  200.5000   -27.3220    70.4490    24.2160     5.1020     5.7430     7.1270     2.2970 
  200.6250   -27.3890    60.4580    24.2160     4.1770     5.3040     6.5480     2.2800 
  200.7500   -27.3250    53.7510    24.2150     4.2360     5.0550     6.2830     2.2740 
  200.8750   -27.1240    49.4180    24.2130     4.7100     4.9850     6.2540     2.2800 
  201.0000   -26.9190    46.6330    24.2320     5.2530     5.0440     6.3580     2.2960 
  201.1250   -26.8350    48.6600    24.3080     5.5790     5.1660     6.4860     2.3160 
  201.2500   -26.8860    54.4620    24.4120     5.6650     5.2810     6.5670     2.3370 
  201.3750   -27.0460    61.1910    24.4920     5.8610     5.3700     6.5940     2.3600 
  201.5000   -27.2490    67.3850    24.5230     6.1500     5.4350     6.5860     2.3800 
  201.6250   -27.4060    72.7090    24.5250     6.2800     5.4790     6.5670     2.3920 
  201.7500   -27.5750    76.8170    24.5240     6.2060     5.5080     6.5400     2.3950 
  201.8750   -27.8130    79.3510    24.5240     6.2080     5.5160     6.4940     2.3910 
  202.0000   -28.0780    79.4670    24.5240     6.0230     5.4910     6.4200     2.3830 
  202.1250   -28.3420    78.4470    24.5240     5.4370     5.4210     6.3140     2.3720 
  202.2500   -28.5750    79.0670    24.5240     4.9600     5.3130     6.1910     2.3610 
  202.3750   -28.7720    81.2280    24.5240     4.6770     5.1790     6.0630     2.3520 
  202.5000   -28.9750    82.3660    24.5240     4.3870     5.0410     5.9480     2.3440 
  202.6250   -29.2510    82.8020    24.5230     4.1550     4.9290     5.8820     2.3380 
  202.7500   -29.5480    84.8710    24.5250     4.0250     4.8660     5.8840     2.3360 
  202.8750   -29.8050    87.8720    24.5340     3.9410     4.8690     5.9730     2.3360 
  203.0000   -30.0550    90.3830    24.5500     4.0810     4.9510     6.1590     2.3350 
  203.1250   -30.3170    92.2570    24.5600     4.5020     5.1370     6.4640     2.3320 
  203.2500   -30.6010    92.3610    24.5620     5.0280     5.4280     6.9060     2.3300 
  203.3750   -30.8980    89.4790    24.5600     5.7790     5.8610     7.5510     2.3330 
  203.5000   -31.1590    86.4830    24.5590     7.0670     6.4860     8.4630     2.3400 
  203.6250   -31.3400    86.4720    24.5600     8.2260     7.3720     9.6960     2.3520 
  203.7500   -31.5490    87.6030    24.5610     9.0180     8.4620    11.1250     2.3640 
  203.8750   -31.8400    86.6980    24.5620    11.0770     9.6820    12.6030     2.3700 
  204.0000   -32.1470    83.4450    24.5600    12.9540    10.8990    13.9310     2.3720 
  204.1250   -32.4060    80.5280    24.5570    12.7540    11.8950    14.8580     2.3720 
  204.2500   -32.5650    79.5460    24.5550    10.8320    12.5940    15.4030     2.3720 
  204.3750   -32.6410    80.2310    24.5570    10.6350    13.0070    15.6560     2.3730 
  204.5000   -32.7020    81.3280    24.5600    11.7660    13.1840    15.7090     2.3720 
  204.6250   -32.8150    82.4100    24.5620    11.9710    13.1430    15.5720     2.3660 
  204.7500   -33.0710    84.3220    24.5620    11.4150    12.9590    15.3070     2.3570 
  204.8750   -33.3690    85.2690    24.5600    10.9100    12.7180    15.0510     2.3470 
  205.0000   -33.6780    82.7210    24.5580    10.7170    12.6130    15.1090     2.3420 
  205.1250   -33.9560    79.6820    24.5590    10.1550    13.0390    16.0460     2.3460 
  205.2500   -34.2060    81.7810    24.5610    10.4040    14.2240    18.0860     2.3570 
  205.3750   -34.4280    84.9580    24.5600    12.9830    16.3920    21.4020     2.3700 
  205.5000   -34.6780    81.5540    24.5580    23.0190    19.7320    26.0690     2.3740 
  205.6250   -35.0440    72.3530    24.5550    35.1480    24.5820    32.2840     2.3570 
  205.7500   -35.4530    66.4300    24.5550    38.5130    30.7690    39.7810     2.3220 
  205.8750   -35.8760    65.5540    24.5550    36.1730    38.4890    48.7250     2.2810 
  206.0000   -36.2710    65.8780    24.5580    42.1270    48.0400    59.4890     2.2450 
  206.1250   -36.6720    66.5360    24.5590    64.5770    59.3520    72.3000     2.2210 
