~V
VERS. 2.00: Ver 2.00
~W
STRT.M 59.0000:
STOP.M 260.0000:
STEP.M 0.1250:
NULL. -999.2500:
UWI. DF5044:
~C
DEPT.M :
GR.API :
CALI.CM :
RXO.OHMM :
RI. :
RML.OHMM :
DEN.GM/CC :
SP.MV :
~A
# ...
   92.7500    82.2720    23.6820     8.0560     7.3120     8.4390     2.3030   -20.2140 
   92.8750    84.1700    23.6380     9.9150     8.8120    10.0740     2.3320   -20.6950 
   93.0000    88.5010    23.7370    13.3730    10.7280    12.1250     2.3920   -21.0570 
   93.1250    90.7810    23.9320    20.0070    12.9000    14.4140     2.4660   -21.4580 
   93.2500    87.1710    24.0690    27.8830    14.8960    16.4680     2.5320   -21.9640 
   93.3750    78.8180    24.0820    32.9390    16.2810    17.8020     2.5830   -22.4130 
   93.5000    71.5920    23.9610    31.7340    16.7430    18.0690     2.6150   -22.8010 
   93.6250    72.5750    23.6310    24.5690    16.1440    17.1630     2.6270   -23.2850 
   93.7500    78.6630    23.2090    17.0160    14.9830    15.7180     2.6150   -23.7860 
   93.8750    83.1540    22.9220    11.9030    13.6400    14.1960     2.5670   -24.2610 
   94.0000    82.3080    22.9380     9.5770    12.4190    12.9170     2.4830   -24.7020 
   94.1250    78.9430    23.1620     9.0860    11.5720    12.1170     2.3840   -25.1340 
   94.2500    77.7820    23.3840     9.0170    11.1210    11.7620     2.3080   -25.4780 
   94.3750    78.7270    23.4950     9.0530    11.0550    11.8070     2.2710   -25.7150 
   94.5000    78.8950    23.5750     9.2060    11.3180    12.1720     2.2660   -25.9540 
   94.6250    76.1550    23.7040     9.6400    11.8320    12.7630     2.2840   -26.1910 
   94.7500    71.8610    23.8740    10.5290    12.4010    13.3840     2.3240   -26.2900 
   94.8750    69.3810    23.9430    12.2010    12.8570    13.8610     2.3860   -26.3190 
   95.0000    71.1290    23.8280    14.5650    13.0470    14.0340     2.4490   -26.4350 
   95.1250    75.3030    23.5970    15.7910    12.8170    13.7420     2.4730   -26.5850 
   95.2500    78.2490    23.4110    14.6130    12.2480    13.0780     2.4580   -26.6580 
   95.3750    80.4010    23.2810    12.1080    11.4550    12.1730     2.4250   -26.7350 
   95.5000    82.9170    23.1960    10.2200    10.5870    11.2050     2.3970   -26.8290 
   95.6250    83.4600    23.1460     9.5670     9.8030    10.3600     2.3790   -26.8690 
   95.7500    80.4830    23.1770     9.5490     9.1720     9.7120     2.3550   -26.8900 
   95.8750    76.8570    23.2120     9.7560     8.7160     9.2780     2.3150   -26.8970 
   96.0000    77.0880    23.1870     9.9330     8.4190     9.0270     2.2650   -26.8920 
   96.1250    81.8350    23.0920     9.9130     8.2560     8.9170     2.2280   -26.8660 
   96.2500    83.9980    23.0110     9.8340     8.1600     8.8740     2.2180   -26.8260 
   96.3750    80.1420    22.9600     9.8370     8.0960     8.8620     2.2290   -26.8030 
   96.5000    74.3430    22.9240     9.9500     8.0410     8.8530     2.2410   -26.8050 
   96.6250    73.2460    22.8980    10.0460     7.9720     8.8170     2.2390   -26.8110 
   96.7500    74.6500    22.9080    10.0440     7.8860     8.7550     2.2210   -26.8370 
   96.8750    74.1700    22.9240    10.0150     7.7890     8.6720     2.1930   -26.9460 
   97.0000    71.6610    22.9280    10.0600     7.6890     8.5720     2.1650   -27.0660 
   97.1250    69.9980    22.9310    10.1770     7.5940     8.4600     2.1530   -27.0740 
   97.2500    69.2690    22.9340    10.2810     7.5100     8.3520     2.1580   -27.1130 
   97.3750    68.1890    22.9320    10.3490     7.4420     8.2650     2.1680   -27.2260 
   97.5000    66.4970    22.9370    10.3860     7.3930     8.2140     2.1710   -27.2810 
   97.6250    66.6290    22.9860    10.4140     7.3710     8.2160     2.1670   -27.2340 
   97.7500    70.0840    23.0530    10.4520     7.3720     8.2610     2.1700   -27.2520 
   97.8750    74.2630    23.0980    10.4980     7.3900     8.3380     2.1800   -27.2470 
   98.0000    74.5930    23.1390    10.5290     7.4160     8.4310     2.1910   -27.1300 
   98.1250    70.0130    23.1820    10.5080     7.4390     8.5210     2.1980   -27.0520 
   98.2500    67.0270    23.1800    10.4320     7.4530     8.5880     2.2050   -27.0340 
   98.3750    68.7980    23.1630    10.3410     7.4540     8.6250     2.2120   -26.9430 
   98.5000    73.0590    23.1730    10.2820     7.4390     8.6270     2.2150   -26.7770 
   98.6250    76.2120    23.2010    10.2550     7.4000     8.5850     2.2090   -26.7190 
   98.7500    78.0070    23.1840    10.2640     7.3440     8.5110     2.2010   -26.6080 
   98.8750    79.5190    23.1570    10.3000     7.2740     8.4100     2.1960   -26.4030 
   99.0000    80.0480    23.1600    10.3330     7.1960     8.2860     2.1940   -26.2840 
   99.1250    76.8590    23.1910    10.3340     7.1180     8.1440     2.1910   -26.1910 
   99.2500    70.8340    23.1950    10.3110     7.0500     8.0050     2.1860   -25.9420 
   99.3750    65.3390    23.2080    10.2990     7.0040     7.8970     2.1810   -25.6580 
   99.5000    63.2500    23.2370    10.3190     6.9960     7.8420     2.1740   -25.4550 
   99.6250    63.7920    23.3130    10.3570     7.0370     7.8580     2.1620   -25.1380 
   99.7500    64.1610    23.4210    10.3210     7.0970     7.9070     2.1480   -24.6990 
   99.8750    64.3970    23.4950    10.1800     7.1270     7.9300     2.1390   -24.2430 
  100.0000    65.4810    23.5100    10.0080     7.0640     7.8530     2.1420   -23.7230 
  100.1250    68.1210    23.5330     9.9150     6.8300     7.5770     2.1490   -23.0500 
  100.2500    71.7330    23.5990     9.8080     6.4300     7.1070     2.1520   -22.3350 
  100.3750    76.2300    23.6740     9.5390     5.9000     6.4860     2.1530   -21.6230 
  100.5000    81.5380    23.6830     8.8660     5.3140     5.8110     2.1660   -20.8310 
  100.6250    87.5960    23.7580     7.4970     4.7840     5.2220     2.1950   -20.0010 
  100.7500    93.0900    23.9160     5.7860     4.3930     4.8150     2.2290   -19.3390 
  100.8750    96.6610    24.0950     4.4740     4.1900     4.6340     2.2550   -18.8370 
  101.0000    98.0090    24.1960     4.0490     4.1840     4.6790     2.2670   -18.3850 
  101.1250    97.7710    24.1680     4.3700     4.3750     4.9300     2.2660   -18.0930 
  101.2500    95.7290    24.0740     4.9730     4.6740     5.2780     2.2640   -18.0550 
  101.3750    91.6360    23.8860     5.6380     4.9970     5.6290     2.2600   -18.1480 
  101.5000    87.2100    23.7000     6.3850     5.2570     5.8830     2.2520   -18.2810 
  101.6250    86.0130    23.6030     7.0050     5.3690     5.9520     2.2420   -18.4550 
  101.7500    87.7540    23.6590     7.2380     5.3530     5.8780     2.2430   -18.6200 
  101.8750    90.8420    23.8250     6.9510     5.2580     5.7380     2.2630   -18.7850 
  102.0000    94.7730    24.0330     6.3580     5.1540     5.6260     2.2940   -18.9760 
  102.1250    98.1790    24.1650     5.7860     5.1230     5.6410     2.3210   -19.1590 
  102.2500    98.3350    24.2260     5.6350     5.1990     5.8000     2.3390   -19.3590 
  102.3750    94.1720    24.2080     6.0410     5.3920     6.0970     2.3500   -19.5550 
  102.5000    87.5190    24.0740     6.9270     5.6860     6.4970     2.3480   -19.7760 
  102.6250    82.0520    23.8310     7.7270     6.0390     6.9350     2.3230   -20.1770 
  102.7500    79.3290    23.6250     8.2230     6.3770     7.3170     2.2860   -20.6220 
  102.8750    79.2220    23.5300     8.5170     6.6580     7.5960     2.2510   -20.9450 
  103.0000    81.4780    23.5180     8.7520     6.8580     7.7580     2.2270   -21.2080 
  103.1250    85.9800    23.5020     8.8840     6.9530     7.8030     2.2130   -21.5250 
  103.2500    89.7870    23.4640     8.8710     6.9710     7.7820     2.2090   -21.7060 
  103.3750    90.1940    23.4600     8.7650     6.9310     7.7280     2.2170   -21.7610 
  103.5000    88.4320    23.4800     8.5920     6.8560     7.6650     2.2270   -21.8620 
  103.6250    88.2710    23.4390     8.3660     6.7710     7.6090     2.2280   -21.8910 
  103.7500    88.8690    23.3910     8.1170     6.7010     7.5730     2.2230   -21.8040 
  103.8750    87.5130    23.4290     7.8810     6.6650     7.5690     2.2240   -21.7960 
