~V
VERS. 2.00: Ver 2.00
~W
STRT.M 60.0000:
STOP.M 268.0000:
STEP.M 0.1250:
NULL. -999.2500:
UWI. DF5039:
~C
DEPT.M :
DEN.GM/CC :
GR.API :
CALI.CM :
RXO.OHMM :
RI. :
RML.OHMM :
SP.MV :
~A
# ...
  127.5000     2.3040    67.8630    24.3440    13.6060     9.9120    12.7030   -36.6590 
  127.6250     2.3760    67.6360    24.4740    20.6820    11.7200    14.6240   -36.7100 
  127.7500     2.4200    66.2620    24.6450    24.4920    12.8090    15.3410   -36.7560 
  127.8750     2.4070    64.8880    24.6330    20.8260    12.5750    14.4280   -36.8620 
  128.0000     2.3430    65.2860    24.3530    13.4700    11.1970    12.3530   -37.0100 
  128.1250     2.2670    65.6470    24.0310     8.1650     9.4750    10.1890   -37.2220 
  128.2500     2.2040    65.2630    23.8860     7.0840     8.0870     8.6540   -37.4880 
  128.3750     2.1590    64.2910    23.8770     6.8930     7.1970     7.8380   -37.7620 
  128.5000     2.1320    62.2910    23.8950     6.9020     6.7680     7.5900   -38.0640 
  128.6250     2.1200    59.4220    23.9200     6.9800     6.7160     7.7150   -38.3380 
  128.7500     2.1180    60.0230    23.9600     7.0720     6.8320     7.9440   -38.6150 
  128.8750     2.1220    63.5240    24.0030     7.2940     7.0000     8.1500   -38.8300 
  129.0000     2.1330    64.4470    24.0480     7.6230     7.1440     8.2670   -38.9940 
  129.1250     2.1400    59.3820    24.0870     7.7800     7.2140     8.2650   -39.0830 
  129.2500     2.1460    56.7410    24.1110     7.7660     7.2210     8.1830   -39.1330 
  129.3750     2.1440    59.3360    24.1200     7.7190     7.1840     8.0630   -39.1250 
  129.5000     2.1350    62.8230    24.1200     7.6420     7.1240     7.9440   -39.1040 
  129.6250     2.1150    61.5000    24.1090     7.5030     7.0620     7.8610   -39.0520 
  129.7500     2.1110    58.9200    24.1100     7.3160     7.0080     7.8140   -38.9810 
  129.8750     2.1120    58.7880    24.1550     7.2670     6.9650     7.7930   -38.9120 
  130.0000     2.1120    60.7640    24.2360     7.2580     6.9270     7.7820   -38.8250 
  130.1250     2.1090    62.9180    24.2910     7.2150     6.8960     7.7750   -38.7350 
  130.2500     2.1060    64.5850    24.2990     7.1570     6.8730     7.7730   -38.6190 
  130.3750     2.1040    64.5220    24.3010     7.1450     6.8590     7.7780   -38.4970 
  130.5000     2.1060    62.7840    24.3250     7.1460     6.8550     7.7910   -38.3290 
  130.6250     2.1220    62.5660    24.3490     7.1650     6.8680     7.8320   -38.1560 
  130.7500     2.1550    64.2090    24.3420     7.2210     6.9270     7.9410   -37.9820 
  130.8750     2.2010    64.9630    24.2910     7.2510     7.0610     8.1360   -37.7860 
  131.0000     2.2490    62.6810    24.2160     7.2690     7.2620     8.3810   -37.6050 
  131.1250     2.2740    60.5090    24.1450     7.5760     7.4470     8.5500   -37.4600 
  131.2500     2.2680    61.5680    24.0810     7.9540     7.5030     8.5260   -37.2560 
  131.3750     2.2380    64.1550    23.9800     7.8980     7.3630     8.2650   -37.0940 
  131.5000     2.2050    66.7630    23.8520     7.2930     7.0440     7.8330   -36.9600 
  131.6250     2.1810    68.8920    23.7870     6.4080     6.6620     7.4090   -36.8620 
  131.7500     2.1680    71.3910    23.7970     6.1390     6.3640     7.1480   -36.7940 
  131.8750     2.1630    72.5790    23.8030     6.4230     6.2160     7.0950   -36.7860 
  132.0000     2.1660    71.3000    23.7550     6.7600     6.2240     7.2140   -36.7830 
  132.1250     2.1740    69.4300    23.7140     6.9970     6.3510     7.4060   -36.7650 
  132.2500     2.1810    67.9090    23.7330     7.2130     6.4880     7.5410   -36.8070 
  132.3750     2.1830    67.9890    23.7730     7.3460     6.5680     7.5670   -36.8470 
  132.5000     2.1790    70.4030    23.8120     7.2760     6.5770     7.5020   -36.8870 
  132.6250     2.1710    73.2680    23.9020     6.8020     6.5420     7.4080   -36.9360 
  132.7500     2.1610    74.2200    24.0240     6.3500     6.5120     7.3430   -36.9750 
  132.8750     2.1540    73.3320    24.0760     6.2850     6.5090     7.3250   -37.0000 
  133.0000     2.1520    70.3910    23.9770     6.4910     6.5380     7.3520   -37.0330 
  133.1250     2.1540    64.5630    23.7860     6.5380     6.5920     7.4120   -37.0640 
  133.2500     2.1560    60.7990    23.6450     6.6350     6.6520     7.4830   -37.1030 
  133.3750     2.1560    62.0580    23.5840     6.8000     6.7050     7.5520   -37.1520 
  133.5000     2.1530    63.8800    23.5830     6.9350     6.7470     7.6110   -37.2100 
  133.6250     2.1490    64.1190    23.6260     7.0100     6.7760     7.6540   -37.2590 
  133.7500     2.1470    65.7280    23.7130     7.1490     6.7990     7.6850   -37.3120 
  133.8750     2.1510    68.4850    23.8080     7.2800     6.8160     7.7110   -37.3620 
  134.0000     2.1560    69.8140    23.8670     7.3020     6.8290     7.7410   -37.3990 
  134.1250     2.1580    68.3260    23.8750     7.3450     6.8480     7.7830   -37.4240 
  134.2500     2.1560    66.7900    23.8590     7.4000     6.8720     7.8320   -37.4340 
  134.3750     2.1500    65.4860    23.8240     7.3980     6.8960     7.8730   -37.4390 
  134.5000     2.1410    64.0390    23.7820     7.4160     6.9120     7.8950   -37.4620 
  134.6250     2.1330    62.2030    23.7590     7.4160     6.9090     7.8880   -37.4660 
  134.7500     2.1290    60.8680    23.7560     7.3140     6.8910     7.8570   -37.4340 
  134.8750     2.1290    60.6440    23.7540     7.1220     6.8630     7.8150   -37.3960 
  135.0000     2.1340    60.3100    23.7390     7.0060     6.8390     7.7790   -37.3530 
  135.1250     2.1430    59.2180    23.7200     7.1170     6.8330     7.7680   -37.2950 
  135.2500     2.1510    61.1220    23.7350     7.2320     6.8490     7.7870   -37.2470 
  135.3750     2.1550    66.5980    23.7890     7.3320     6.8840     7.8280   -37.1610 
  135.5000     2.1570    71.6110    23.8390     7.4160     6.9310     7.8770   -37.0350 
  135.6250     2.1560    71.7410    23.8420     7.4580     6.9810     7.9270   -36.9050 
  135.7500     2.1560    69.5210    23.8230     7.3870     7.0350     7.9860   -36.7400 
  135.8750     2.1580    65.7970    23.8010     7.1890     7.1030     8.0700   -36.5420 
  136.0000     2.1650    62.0010    23.7570     6.9970     7.1840     8.1690   -36.3440 
  136.1250     2.1780    61.1600    23.6700     6.9680     7.2360     8.2040   -36.1610 
  136.2500     2.1980    63.0400    23.5730     6.9900     7.1790     8.0770   -35.9750 
  136.3750     2.2230    65.4460    23.4810     7.0380     6.9510     7.7300   -35.7980 
  136.5000     2.2470    66.9420    23.3510     6.9550     6.5530     7.2000   -35.6480 
  136.6250     2.2560    69.6180    23.2250     6.3310     6.0790     6.6420   -35.4960 
  136.7500     2.2460    72.0360    23.2560     5.5710     5.6870     6.2490   -35.4010 
  136.8750     2.2220    71.8900    23.4140     5.2570     5.4800     6.1320   -35.3500 
  137.0000     2.1950    70.0640    23.5310     5.5420     5.5090     6.3210   -35.3160 
  137.1250     2.1770    68.7100    23.6170     6.1420     5.8000     6.7940   -35.3190 
  137.2500     2.1670    67.0110    23.8300     6.8860     6.2390     7.3670   -35.3570 
  137.3750     2.1650    63.5430    24.1160     7.4090     6.7120     7.8880   -35.3920 
  137.5000     2.1690    60.5690    24.2890     7.4620     7.1030     8.2370   -35.4230 
  137.6250     2.1760    61.6550    24.3120     7.4810     7.3160     8.3660   -35.4720 
  137.7500     2.1830    65.6450    24.3110     7.5210     7.4040     8.3960   -35.5200 
  137.8750     2.1900    69.9100    24.3120     7.5260     7.4450     8.4360   -35.5260 
  138.0000     2.1960    70.6570    24.3080     7.5820     7.5100     8.5480   -35.5000 
  138.1250     2.2030    65.9300    24.3150     7.7760     7.6360     8.7400   -35.4290 
  138.2500     2.2120    61.1570    24.3450     8.0850     7.7970     8.9510   -35.2890 
  138.3750     2.2270    60.4020    24.3930     8.7030     7.9640     9.1430   -35.1420 
  138.5000     2.2470    62.6790    24.4330     9.0350     8.1190     9.3030   -34.9450 
  138.6250     2.2720    65.4790    24.4300     8.7590     8.2720     9.4560   -34.6970 
