~V
VERS. 2.00: Ver 2.00
~W
STRT.M 60.0000:
STOP.M 277.0000:
STEP.M 0.1250:
NULL. -999.2500:
UWI. DF5010:
~C
DEPT.M :
GR.API :
CALI.CM :
RXO.OHMM :
RI. :
RML.OHMM :
SP.MV :
DEN.GM/CC :
~A
# ...
  251.2500    81.3320    24.6680    12.8050     9.8460     9.0620   -39.3570     2.3210 
  251.3750    80.2990    24.6820    11.7570     9.8000     8.9680   -39.3510     2.3000 
  251.5000    81.1720    24.6800    10.3100     9.9840     9.0680   -39.3390     2.2830 
  251.6250    82.2550    24.6800    10.2200    10.4390     9.4260   -39.4820     2.2820 
  251.7500    84.7710    24.6800    11.0750    11.1160     9.9950   -39.5830     2.2930 
  251.8750    88.1930    24.6800    11.7730    11.9010    10.6580   -39.6930     2.3000 
  252.0000    90.2830    24.6800    11.6560    12.5650    11.2040   -39.6440     2.2940 
  252.1250    89.5560    24.6800    11.4360    12.7050    11.2980   -39.5280     2.2870 
  252.2500    87.5630    24.6800    11.7640    12.2130    10.8640   -39.5130     2.2930 
  252.3750    86.1950    24.6800    12.4050    11.2010     9.9960   -39.4330     2.3090 
  252.5000    86.8590    24.6800    11.7300     9.9570     8.9390   -39.3450     2.3230 
  252.6250    88.3600    24.6800     9.2280     8.8330     8.0100   -39.1210     2.3340 
  252.7500    87.4450    24.6800     7.4970     8.0020     7.3670   -38.9760     2.3470 
  252.8750    83.8850    24.6800     7.0440     7.5130     7.0490   -38.8770     2.3560 
  253.0000    79.7980    24.6800     7.1260     7.3490     7.0290   -38.7900     2.3580 
  253.1250    78.0280    24.6800     7.2900     7.4840     7.2650   -38.9520     2.3520 
  253.2500    79.0450    24.6770     7.5080     7.7760     7.6140   -39.1070     2.3440 
  253.3750    81.5510    24.6750     7.9410     8.1300     7.9900   -39.2080     2.3340 
  253.5000    83.8490    24.6760     8.4070     8.4700     8.3350   -39.3080     2.3250 
  253.6250    85.7240    24.6790     9.0730     8.7360     8.6120   -39.4380     2.3230 
  253.7500    90.6090    24.6800     9.4720     8.9310     8.8370   -39.6070     2.3250 
  253.8750    98.2250    24.6800     9.6020     9.0810     9.0380   -39.6260     2.3240 
  254.0000   104.2480    24.6800     9.6910     9.2290     9.2570   -39.6260     2.3190 
  254.1250   106.2460    24.6800    10.0380     9.4460     9.5690   -39.5220     2.3140 
  254.2500   105.4550    24.6810    10.4680     9.7840    10.0240   -39.3300     2.3160 
  254.3750   102.3640    24.6810    10.5900    10.2830    10.6600   -39.1380     2.3290 
  254.5000    98.5460    24.6710    10.7740    10.9450    11.4710   -39.0400     2.3490 
  254.6250    97.1200    24.6420    11.6790    11.7290    12.3870   -38.8600     2.3660 
  254.7500    97.6630    24.5990    13.7630    12.4920    13.2430   -38.5430     2.3770 
  254.8750    98.4530    24.5590    15.5570    13.0990    13.8880   -38.3670     2.3850 
  255.0000    97.7250    24.5310    15.3560    13.4420    14.2140   -38.1560     2.3960 
  255.1250    96.1290    24.5040    13.4320    13.4180    14.1200   -37.7770     2.4090 
  255.2500    96.5130    24.4760    13.7790    13.0890    13.6940   -37.4510     2.4130 
  255.3750    98.7780    24.4390    14.2710    12.4990    12.9930   -37.0830     2.4040 
  255.5000    99.2410    24.3780    13.5360    11.7240    12.1080   -36.6430     2.3820 
  255.6250    97.1330    24.3070    12.8500    10.8830    11.1770   -36.2510     2.3530 
  255.7500    96.7700    24.2290    12.0480    10.1290    10.3690   -35.9660     2.3330 
  255.8750    97.2860    24.1090    10.2950     9.5650     9.7930   -35.5710     2.3290 
  256.0000    95.7340    23.9510     8.7370     9.2360     9.4860   -35.1240     2.3320 
  256.1250    92.3010    23.8410     8.4510     9.1240     9.4020   -34.8870     2.3230 
  256.2500    89.6460    23.8090     8.7190     9.0630     9.3460   -34.5750     2.3020 
  256.3750    88.8710    23.8360     9.1540     8.9150     9.1720   -34.3080     2.2820 
  256.5000    89.6510    23.9410     9.3800     8.5960     8.8070   -34.0200     2.2770 
  256.6250    90.9950    24.1220     8.7450     8.1190     8.2890   -33.8470     2.2810 
  256.7500    90.6860    24.2730     7.4930     7.6300     7.7850   -33.6230     2.2760 
  256.8750    86.4140    24.3560     6.4850     7.2340     7.4070   -33.4170     2.2570 
  257.0000    79.7170    24.4040     6.1110     6.9810     7.1940   -33.4040     2.2410 
  257.1250    77.5510    24.4390     6.2000     6.8920     7.1490   -33.3140     2.2480 
  257.2500    81.1350    24.4490     6.4520     6.9180     7.2060   -33.3610     2.2680 
  257.3750    84.4670    24.4450     6.6530     7.0470     7.3550   -33.4680     2.2800 
  257.5000    84.9720    24.4460     6.7460     7.2880     7.6200   -33.7210     2.2820 
  257.6250    86.9180    24.4510     6.7370     7.6890     8.0640   -33.9240     2.2920 
  257.7500    90.2820    24.4530     7.0260     8.2230     8.6570   -34.2150     2.3120 
  257.8750    92.1920    24.4530     7.9490     8.8300     9.3210   -34.5150     2.3300 
  258.0000    92.5570    24.4530     9.4530     9.3860     9.9130   -34.7520     2.3390 
  258.1250    94.2790    24.4530    10.6530     9.6760    10.2070   -35.0690     2.3400 
  258.2500    97.2320    24.4530    10.5090     9.6290    10.1410   -35.2700     2.3390 
  258.3750    97.1160    24.4530     9.8690     9.2740     9.7570   -35.5080     2.3340 
  258.5000    91.5110    24.4530     9.3080     8.7440     9.2080   -35.6060     2.3210 
  258.6250    85.1080    24.4530     8.6600     8.2540     8.7430   -35.7810     2.3030 
  258.7500    82.7480    24.4530     7.9130     7.9770     8.5430   -35.8950     2.2870 
  258.8750    82.7080    24.4530     7.7080     7.9930     8.6910   -36.0010     2.2760 
  259.0000    83.0100    24.4520     8.2190     8.3190     9.1800   -36.2160     2.2660 
  259.1250    85.9370    24.4490    10.6760     8.9050     9.9060   -36.3710     2.2600 
  259.2500    91.1800    24.4460    13.1190     9.5210    10.5770   -36.6060     2.2700 
  259.3750    93.2600    24.4440    13.7880     9.9500    10.9540   -36.8090     2.2940 
  259.5000    90.7790    24.4440    11.9190    10.0480    10.9150   -36.9840     2.3200 
  259.6250    88.6660    24.4440     9.3540     9.8090    10.5230   -37.0790     2.3310 
  259.7500    90.7340    24.4440     7.9350     9.4810    10.0930   -37.2470     2.3260 
  259.8750    93.8840    24.4440     7.8710     9.2460     9.8350   -37.4460     2.3150 
  260.0000    94.9630    24.4440     8.1420     9.2110     9.8430   -37.4600     2.3060 
  260.1250    96.3930    24.4440     9.0860     9.4120    10.1080   -37.4970     2.3070 
  260.2500    99.4730    24.4440    11.1080     9.7290    10.4580   -37.5460     2.3150 
  260.3750   101.7920    24.4440    13.0170    10.0510    10.7600   -37.6170     2.3260 
  260.5000   102.5090    24.4440    12.9410    10.2890    10.9270   -37.7770     2.3350 
  260.6250   102.5470    24.4440    11.9310    10.3890    10.9350   -37.9240     2.3360 
  260.7500   101.3670    24.4440    11.6900    10.4120    10.8820   -37.9240     2.3300 
  260.8750    97.7120    24.4440    11.7320    10.4230    10.8500   -37.9740     2.3200 
  261.0000    93.7910    24.4440    11.4960    10.4560    10.8670   -38.1980     2.3110 
  261.1250    92.9060    24.4440    10.7910    10.4630    10.8640   -38.4070     2.3070 
  261.2500    93.7940    24.4440    10.5810    10.3420    10.7130   -38.4850     2.3090 
  261.3750    94.1200    24.4450    10.9970    10.0110    10.3340   -38.4350     2.3170 
  261.5000    92.5550    24.4470    11.6350     9.4700     9.7370   -38.4120     2.3230 
  261.6250    89.7320    24.4500    10.8740     8.8170     9.0480   -38.5380     2.3230 
  261.7500    85.4630    24.4520     9.0070     8.2280     8.4610   -38.6530     2.3180 
  261.8750    80.6390    24.4530     7.6900     7.8170     8.0950   -38.6620     2.3110 
  262.0000    77.2640    24.4530     7.6900     7.6390     7.9910   -38.6620     2.3020 
  262.1250    75.9570    24.4530     8.2230     7.7210     8.1520   -38.7370     2.2930 
  262.2500    76.9740    24.4490     8.7180     7.9670     8.4530   -38.8910     2.2870 
  262.3750    79.4430    24.4430     9.6020     8.3030     8.8060   -39.0310     2.2840 
