~V
VERS. 2.00: Ver 2.00
~W
STRT.M 59.0000:
STOP.M 260.0000:
STEP.M 0.1250:
NULL. -999.2500:
UWI. DF5044:
~C
DEPT.M :
GR.API :
CALI.CM :
RXO.OHMM :
RI. :
RML.OHMM :
DEN.GM/CC :
SP.MV :
~A
# ...
  227.7500    86.0400    23.5540    41.9880    25.5610    29.1620     2.3800   -29.3670 
  227.8750    84.4900    23.4680    49.6160    30.5140    33.9310     2.3780   -29.6650 
  228.0000    86.6570    23.4310    46.4550    34.6130    37.5640     2.3520   -29.9520 
  228.1250    90.6570    23.5010    39.5820    36.7960    39.1020     2.3080   -30.1870 
  228.2500    92.0830    23.6690    39.1070    37.2910    38.9570     2.2730   -30.4010 
  228.3750    89.1040    23.8670    42.7400    36.5880    37.7780     2.2610   -30.6030 
  228.5000    84.4940    24.0030    44.1520    35.3130    36.2900     2.2670   -30.7920 
  228.6250    83.3000    24.0390    42.0490    34.0100    35.0660     2.2770   -30.9810 
  228.7500    84.6250    24.0390    39.6470    33.0040    34.2910     2.2850   -31.1720 
  228.8750    85.8880    24.0410    38.3170    32.4950    34.0920     2.2890   -31.3760 
  229.0000    86.5960    24.0460    37.5140    32.7280    34.6660     2.2900   -31.5920 
  229.1250    87.4380    24.0450    37.5440    34.2300    36.5190     2.2890   -31.7980 
  229.2500    86.9760    24.0510    40.4290    37.0680    39.7140     2.2910   -31.9860 
  229.3750    84.1420    24.0480    47.8370    41.2970    44.3250     2.3010   -32.1660 
  229.5000    80.0720    24.0400    58.1590    46.8250    50.3010     2.3170   -32.3280 
  229.6250    76.7460    24.0280    67.0340    53.4880    57.5330     2.3220   -32.4670 
  229.7500    74.6680    24.0190    74.7430    60.5550    65.2650     2.3070   -32.5740 
  229.8750    73.7290    24.0190    83.6190    67.4700    72.8520     2.2840   -32.6430 
  230.0000    73.4800    24.0110    92.2180    73.8450    79.7640     2.2750   -32.6760 
  230.1250    72.6000    23.9650    95.5340    79.5010    85.6470     2.2890   -32.6700 
  230.2500    71.0040    23.8850    95.0170    84.7070    90.8680     2.3070   -32.6320 
  230.3750    69.7210    23.8200    98.4540    89.5220    95.6660     2.3110   -32.5600 
  230.5000    69.1550    23.8470   108.9130    93.5170    99.6830     2.2990   -32.4320 
  230.6250    69.5440    23.9400   121.4450    95.2540   101.2190     2.2830   -32.2460 
  230.7500    70.8540    23.9860   129.0940    94.1740    99.4150     2.2740   -32.0300 
  230.8750    72.4330    23.9880   130.2620    90.2530    94.2600     2.2760   -31.8050 
  231.0000    73.6350    23.9260   124.4350    84.1440    86.7400     2.2870   -31.5520 
  231.1250    75.4880    23.7670   110.7680    77.1020    78.6200     2.2970   -31.2940 
  231.2500    78.5880    23.6270    94.2180    70.9040    71.8550     2.2920   -31.0420 
  231.3750    80.6840    23.6050    78.3560    66.6590    67.4620     2.2770   -30.7980 
  231.5000    79.5500    23.6720    66.6050    64.8650    65.7200     2.2670   -30.5950 
  231.6250    75.5640    23.7580    65.7720    65.8210    66.7730     2.2690   -30.4260 
  231.7500    72.2540    23.8470    73.5510    68.5940    69.6540     2.2740   -30.2770 
  231.8750    71.7570    23.9380    85.1680    72.4470    73.6480     2.2770   -30.1270 
  232.0000    73.9620    23.9640    95.5510    76.6400    77.9890     2.2810   -29.9810 
  232.1250    75.5100    23.9030   101.2580    80.3600    81.7980     2.2880   -29.8330 
  232.2500    73.8660    23.8530   103.0010    83.1300    84.5500     2.2900   -29.6680 
  232.3750    70.4090    23.8680   102.7190    84.8300    86.1470     2.2790   -29.4770 
  232.5000    68.2030    23.9350   101.8620    85.6680    86.9020     2.2610   -29.2570 
  232.6250    69.0640    24.0220   102.5460    85.8440    87.1140     2.2540   -29.0160 
  232.7500    71.9000    24.0820   105.5330    85.5090    86.9100     2.2700   -28.7670 
  232.8750    75.4960    24.1150   108.5000    84.4770    86.0620     2.3000   -28.5050 
  233.0000    78.3480    24.1070   109.1530    82.5240    84.2530     2.3200   -28.2250 
  233.1250    78.6970    24.0990   108.3710    79.3610    81.0880     2.3120   -27.9380 
  233.2500    77.4700    24.0700   108.2480    75.2180    76.8250     2.2930   -27.6720 
  233.3750    76.7230    24.0410   108.3080    70.2790    71.6990     2.2830   -27.4050 
  233.5000    77.9530    24.0510   106.2480    64.8690    66.1070     2.2840   -27.1010 
  233.6250    79.4400    24.0500    97.4120    59.4670    60.5850     2.2840   -26.8070 
  233.7500    78.4200    24.0350    84.4080    54.4470    55.5120     2.2790   -26.5160 
  233.8750    75.3250    23.9910    71.8930    49.9670    51.0020     2.2850   -26.2120 
  234.0000    72.8860    23.9550    62.7220    46.0290    47.0240     2.3100   -25.9190 
  234.1250    73.8350    23.9410    56.2160    42.5780    43.5250     2.3470   -25.6640 
  234.2500    77.2180    23.9320    51.4740    39.4020    40.2820     2.3790   -25.4200 
  234.3750    80.9520    23.9370    49.1470    36.4540    37.2310     2.4070   -25.1770 
  234.5000    82.2570    23.9500    47.5390    33.7250    34.3650     2.4310   -25.0090 
  234.6250    78.7060    23.9500    43.5220    31.2680    31.7690     2.4330   -24.8800 
  234.7500    73.4480    23.9430    38.3300    29.0850    29.4700     2.4020   -24.7710 
  234.8750    70.2370    23.9430    33.8380    27.2190    27.5210     2.3560   -24.6980 
  235.0000    70.0650    23.9410    30.8430    25.6720    25.9220     2.3260   -24.6500 
  235.1250    70.9300    23.9410    29.4430    24.4200    24.6430     2.3270   -24.6190 
  235.2500    71.3070    23.9360    28.9260    23.3130    23.5230     2.3370   -24.6030 
  235.3750    72.2540    23.9170    28.0220    22.2500    22.4620     2.3380   -24.6350 
  235.5000    75.2250    23.8650    25.7960    21.1390    21.3610     2.3270   -24.6670 
  235.6250    80.6710    23.7290    22.8130    19.9140    20.1390     2.3060   -24.6900 
  235.7500    86.4490    23.4780    20.6300    18.5950    18.8090     2.2840   -24.7190 
  235.8750    89.7420    23.1590    19.1320    17.2380    17.4350     2.2680   -24.7530 
  236.0000    88.5710    22.8850    17.6730    15.9230    16.1090     2.2670   -24.8000 
  236.1250    83.5830    22.8060    15.8440    14.7730    14.9630     2.2750   -24.8540 
  236.2500    78.9410    22.8770    14.1210    13.8350    14.0430     2.2770   -24.9190 
  236.3750    76.9850    23.0510    12.9420    13.1400    13.3770     2.2730   -24.9890 
  236.5000    78.1630    23.2910    12.4850    12.6930    12.9630     2.2760   -25.0730 
  236.6250    80.9650    23.4990    12.7350    12.5250    12.8150     2.2930   -25.1760 
  236.7500    83.8890    23.6020    13.2250    12.5730    12.8750     2.3060   -25.2870 
  236.8750    86.0160    23.6400    13.6650    12.7990    13.1090     2.3070   -25.4070 
  237.0000    86.5460    23.6410    14.0390    13.1370    13.4530     2.2970   -25.5190 
  237.1250    85.0190    23.6490    14.3820    13.4660    13.8020     2.2870   -25.5990 
  237.2500    82.3850    23.6680    14.6050    13.6540    14.0330     2.2820   -25.6380 
  237.3750    80.1510    23.7070    14.9200    13.6210    14.0690     2.2800   -25.6460 
  237.5000    80.1490    23.8040    15.6710    13.3440    13.8840     2.2710   -25.6410 
  237.6250    83.2780    23.9460    16.7890    12.8480    13.4840     2.2490   -25.6200 
  237.7500    87.3130    24.0320    17.6480    12.2890    12.9970     2.2280   -25.5770 
  237.8750    91.2260    24.0770    17.8070    11.8030    12.5610     2.2230   -25.5510 
  238.0000    96.1040    24.1030    17.4400    11.5010    12.3150     2.2360   -25.5600 
  238.1250    99.8570    24.0750    17.3840    11.5020    12.4050     2.2550   -25.6000 
  238.2500    97.8460    24.0460    17.5430    11.7740    12.7920     2.2630   -25.6730 
  238.3750    90.6600    24.0360    17.5690    12.2810    13.4240     2.2590   -25.7800 
  238.5000    83.8100    24.0410    17.2260    12.9470    14.2100     2.2490   -25.8960 
  238.6250    80.9570    24.0450    16.7460    13.6530    15.0060     2.2450   -26.0070 
  238.7500    78.1300    24.0360    16.5570    14.2540    15.6610     2.2520   -26.1300 
  238.8750    72.9860    24.0150    17.1080    14.6590    16.0890     2.2620   -26.2400 
