~V
VERS. 2.00: Ver 2.00
~W
STRT.M 64.0000:
STOP.M 271.0000:
STEP.M 0.1250:
NULL. -999.2500:
UWI. DF5037:
~C
DEPT.M :
SP.MV :
GR.API :
RML.OHMM :
RI. :
RXO.OHMM :
CALI.CM :
DEN.GM/CC :
~A
# ...
  176.5000   -16.5210    76.7770    82.9820    71.0170    64.2580    23.8700     2.3110 
  176.6250   -16.6350    80.8940    89.7560    77.2110    71.6870    23.8650     2.2760 
  176.7500   -16.7750    81.6000    91.2720    79.4570    67.3490    23.8630     2.2490 
  176.8750   -16.9030    82.2590    88.2490    77.7640    62.3190    23.8620     2.2330 
  177.0000   -17.0210    83.0330    82.5650    73.3540    57.6920    23.8610     2.2260 
  177.1250   -17.1270    79.0580    76.5290    68.1040    53.9640    23.8600     2.2240 
  177.2500   -17.1930    73.6450    72.0620    63.7580    51.0270    23.8580     2.2270 
  177.3750   -17.2120    75.1410    69.5850    60.9310    48.9570    23.8420     2.2310 
  177.5000   -17.2080    82.1430    69.2380    59.8360    48.1360    23.7990     2.2290 
  177.6250   -17.2170    85.0750    70.9680    60.5160    48.6990    23.7080     2.2180 
  177.7500   -17.2520    81.3310    74.6370    63.0190    51.0290    23.5660     2.1990 
  177.8750   -17.3260    80.4280    79.0980    66.5170    55.9630    23.4240     2.1800 
  178.0000   -17.4140    81.2030    83.3010    70.2370    61.9730    23.4250     2.1680 
  178.1250   -17.4900    77.9050    86.2260    73.3370    64.7150    23.5710     2.1660 
  178.2500   -17.5600    72.5390    86.8520    74.8900    65.0950    23.7640     2.1730 
  178.3750   -17.6020    72.0910    85.5330    74.9130    64.7210    23.8470     2.1820 
  178.5000   -17.6030    75.9990    82.8000    73.6710    61.7740    23.8670     2.1890 
  178.6250   -17.5730    80.5630    79.2890    71.6100    58.9450    23.8740     2.1900 
  178.7500   -17.5300    82.1160    75.3760    69.0460    58.1460    23.8810     2.1840 
  178.8750   -17.4810    78.5820    71.0510    66.0610    56.1440    23.8730     2.1750 
  179.0000   -17.4320    72.3780    65.8960    62.3140    50.7570    23.8470     2.1680 
  179.1250   -17.3940    71.3090    59.4870    57.3720    41.8710    23.8470     2.1690 
  179.2500   -17.3700    78.1810    51.6920    50.9480    35.3960    23.8550     2.1840 
  179.3750   -17.3660    83.2590    43.6260    43.9180    31.9880    23.8590     2.2050 
  179.5000   -17.3950    84.6800    36.4140    37.3180    28.6130    23.8570     2.2270 
  179.6250   -17.4290    86.4460    31.0970    32.0970    23.1840    23.8450     2.2410 
  179.7500   -17.4290    89.0800    28.3000    29.0890    19.2960    23.8190     2.2460 
  179.8750   -17.4100    90.4790    27.5200    27.8940    19.5480    23.7950     2.2470 
  180.0000   -17.3820    91.4220    28.0800    28.0980    21.5720    23.7720     2.2480 
  180.1250   -17.3600    91.6340    29.0370    29.1420    23.9990    23.7120     2.2530 
  180.2500   -17.3830    90.2650    30.2620    30.3820    24.8950    23.5740     2.2590 
  180.3750   -17.4600    89.4810    31.1630    31.3190    24.6330    23.3790     2.2660 
  180.5000   -17.5740    90.4570    31.8550    31.9310    23.9370    23.2440     2.2710 
  180.6250   -17.7240    93.1530    32.8780    32.6110    23.1810    23.2350     2.2740 
  180.7500   -17.8750    97.1120    35.2790    34.2450    23.5540    23.3480     2.2700 
  180.8750   -17.9890    99.6520    39.5900    37.4110    26.0060    23.4840     2.2600 
  181.0000   -18.0890    98.2030    46.0850    42.4480    31.0190    23.5350     2.2450 
  181.1250   -18.1800    93.7860    54.5780    49.2890    38.3130    23.5540     2.2260 
  181.2500   -18.2320    85.1180    64.4390    57.4620    47.0830    23.6020     2.2100 
  181.3750   -18.2470    73.0300    74.2500    65.6890    55.5750    23.6420     2.1990 
  181.5000   -18.2200    65.2990    82.9790    72.9940    62.2930    23.6570     2.1950 
  181.6250   -18.1360    65.9760    90.0670    78.7940    67.0910    23.6580     2.1950 
  181.7500   -18.0590    72.4000    95.5610    83.0050    69.9670    23.6580     2.1970 
  181.8750   -18.0340    76.6630   100.7700    86.7220    72.8800    23.6580     2.2000 
  182.0000   -18.0230    77.3410   106.9360    91.0010    76.5780    23.6570     2.2010 
  182.1250   -18.0000    75.3330   115.0760    96.7790    81.3630    23.6550     2.2000 
  182.2500   -17.9640    72.0070   125.8140   104.8020    86.3780    23.6570     2.1980 
  182.3750   -17.9160    71.8520   137.7100   114.1630    90.8420    23.6570     2.1950 
  182.5000   -17.8460    74.2890   148.7360   123.4410    95.5120    23.6570     2.1920 
  182.6250   -17.7660    73.6230   156.5090   130.7900    96.2490    23.6540     2.1900 
  182.7500   -17.6550    68.1040   158.4460   134.0130    91.4950    23.6530     2.1880 
  182.8750   -17.5150    64.5670   155.8850   133.6670    87.5180    23.6440     2.1880 
  183.0000   -17.3780    66.9840   151.2850   131.3560    85.8630    23.6210     2.1900 
  183.1250   -17.2570    71.9070   147.6510   129.4040    84.1820    23.5830     2.1940 
  183.2500   -17.1580    70.9470   147.4570   130.0890    81.6000    23.5120     2.1980 
  183.3750   -17.0820    68.3570   149.6120   132.9700    80.8910    23.4120     2.1990 
  183.5000   -17.0390    66.9190   151.6040   136.1590    85.5090    23.3420     2.1980 
  183.6250   -17.0110    63.8810   150.2590   136.8840    94.2340    23.3110     2.1950 
  183.7500   -16.9830    57.4500   142.1370   131.7180    99.4130    23.2890     2.1940 
  183.8750   -16.9430    57.3620   128.5610   121.1460    94.2480    23.2610     2.1980 
  184.0000   -16.8890    66.3350   112.4630   107.2940    81.5800    23.2370     2.2050 
  184.1250   -16.8440    76.7290    97.7500    93.5670    67.5310    23.1620     2.2140 
  184.2500   -16.8560    82.3250    88.8810    84.2350    55.0260    22.9570     2.2210 
  184.3750   -16.9080    82.7680    87.2650    81.2120    48.0030    22.7280     2.2270 
  184.5000   -17.0140    76.8200    94.2990    86.1110    51.0080    22.6400     2.2320 
  184.6250   -17.1970    68.4670   111.3230   100.3900    65.4850    22.7300     2.2360 
  184.7500   -17.4460    67.6030   140.7900   126.5970    88.6810    22.9310     2.2370 
  184.8750   -17.7330    73.3760   178.9400   161.4190   113.2890    23.0890     2.2340 
  185.0000   -18.0010    75.1560   220.3160   200.0150   130.6090    23.1340     2.2240 
  185.1250   -18.2320    69.0480   256.3760   234.6700   126.5640    23.0900     2.2100 
  185.2500   -18.3680    59.8020   274.2960   253.6930   118.2760    23.0600     2.1950 
  185.3750   -18.4270    54.0490   271.4300   253.8910   124.2090    23.1770     2.1850 
  185.5000   -18.4080    53.2340   250.8110   237.0160   139.6550    23.4430     2.1800 
  185.6250   -18.3160    54.3850   220.7950   209.8860   151.0270    23.6910     2.1800 
  185.7500   -18.1830    56.6620   191.8510   181.8300   139.3760    23.8630     2.1800 
  185.8750   -18.0770    58.7560   170.6080   159.9640   110.6920    23.8570     2.1740 
  186.0000   -18.0580    58.7380   159.1240   146.9440    86.5550    23.6830     2.1630 
  186.1250   -18.0940    57.0420   156.7340   142.6980    77.3270    23.4210     2.1500 
  186.2500   -18.1970    54.3780   161.5760   145.8600    82.5540    23.2800     2.1410 
  186.3750   -18.3340    51.4860   168.8610   151.9140    90.3890    23.2070     2.1400 
  186.5000   -18.4570    49.5300   175.5370   157.9430    99.6120    23.1450     2.1470 
  186.6250   -18.5320    50.2660   179.5930   161.9170   104.4070    23.0730     2.1610 
  186.7500   -18.5430    54.0700   180.2630   162.9450    99.7270    23.0070     2.1750 
  186.8750   -18.4550    59.6570   179.3650   162.5730    91.2790    22.9280     2.1880 
  187.0000   -18.2600    63.4510   178.2450   162.1010    85.1280    22.8470     2.1980 
  187.1250   -18.0110    60.1810   177.3850   162.1440    80.8500    22.7570     2.2060 
  187.2500   -17.7210    53.4280   175.9070   162.2820    75.5470    22.6870     2.2090 
  187.3750   -17.4090    51.6870   172.7360   161.2790    71.0220    22.6120     2.2100 
  187.5000   -17.1060    55.5550   166.5970   157.7990    67.6640    22.5510     2.2090 
  187.6250   -16.8490    57.5900   157.2740   150.7530    65.4100    22.5240     2.2080 
