~V
VERS. 2.00: Ver 2.00
~W
STRT.M 60.0000:
STOP.M 273.0000:
STEP.M 0.1250:
NULL. -999.2500:
UWI. DF5003:
~C
DEPT.M :
GR.API :
CALI.CM :
RXO.OHMM :
RI. :
RML.OHMM :
DEN.GM/CC :
SP.MV :
~A
# ...
  105.0000    60.4940    24.5440     8.6180     7.5310     8.6600     2.1490   -41.2360 
  105.1250    61.3810    24.5440     8.7990     7.5480     8.6380     2.1530   -41.1570 
  105.2500    64.9360    24.5440     8.9100     7.5200     8.5560     2.1560   -40.9800 
  105.3750    68.8240    24.5440     8.9090     7.4480     8.4330     2.1580   -40.8850 
  105.5000    69.7940    24.5440     8.4200     7.3540     8.3040     2.1580   -40.8210 
  105.6250    67.9850    24.5440     8.2680     7.2770     8.2220     2.1590   -40.7430 
  105.7500    66.8100    24.5450     8.4900     7.2450     8.2070     2.1590   -40.6810 
  105.8750    66.0560    24.5460     8.8020     7.2700     8.2590     2.1580   -40.5360 
  106.0000    65.1430    24.5420     8.8590     7.3430     8.3540     2.1540   -40.2970 
  106.1250    65.5690    24.5280     8.7870     7.4370     8.4460     2.1480   -40.1000 
  106.2500    66.9310    24.5120     8.7750     7.5110     8.4980     2.1420   -39.9790 
  106.3750    67.1330    24.5050     8.7790     7.5410     8.4970     2.1380   -39.8090 
  106.5000    64.5780    24.5070     8.6960     7.5170     8.4490     2.1380   -39.6740 
  106.6250    62.1690    24.5120     8.5310     7.4400     8.3590     2.1430   -39.5620 
  106.7500    60.4870    24.5140     8.4180     7.3320     8.2480     2.1520   -39.5340 
  106.8750    59.2740    24.5140     8.3340     7.2150     8.1250     2.1600   -39.5070 
  107.0000    60.2450    24.5100     8.2840     7.1080     8.0110     2.1660   -39.4300 
  107.1250    64.4470    24.5070     8.3610     7.0410     7.9390     2.1730   -39.2580 
  107.2500    68.5560    24.5100     8.5370     7.0180     7.9230     2.1810   -39.1350 
  107.3750    70.7150    24.5130     8.7160     7.0420     7.9620     2.1910   -38.9790 
  107.5000    71.3870    24.5070     8.6840     7.0990     8.0370     2.1980   -38.7650 
  107.6250    71.0360    24.4940     8.5760     7.1670     8.1100     2.1970   -38.4620 
  107.7500    69.0680    24.4870     8.4510     7.2200     8.1480     2.1910   -38.1620 
  107.8750    67.2400    24.4860     8.3260     7.2420     8.1400     2.1830   -37.8980 
  108.0000    67.7280    24.4860     8.2360     7.2370     8.0950     2.1780   -37.8380 
  108.1250    69.1710    24.4850     8.2140     7.2160     8.0320     2.1750   -37.7540 
  108.2500    69.7150    24.4840     8.1980     7.2020     7.9760     2.1680   -37.6770 
  108.3750    69.1840    24.4840     8.2050     7.2060     7.9420     2.1550   -37.6680 
  108.5000    68.7530    24.4840     8.1680     7.2400     7.9470     2.1430   -37.6250 
  108.6250    67.9820    24.4840     8.1550     7.3060     8.0030     2.1400   -37.7710 
  108.7500    66.4770    24.4830     8.2760     7.3810     8.0860     2.1510   -37.9050 
  108.8750    64.7830    24.4800     8.7380     7.4420     8.1660     2.1720   -38.0620 
  109.0000    64.1410    24.4740    10.7350     7.4650     8.2090     2.1950   -38.1190 
  109.1250    65.7330    24.4610    10.7090     7.4220     8.1840     2.2060   -38.1840 
  109.2500    67.8420    24.4490     9.3480     7.3200     8.1030     2.2010   -38.0880 
  109.3750    68.5230    24.4420     7.9930     7.1660     7.9750     2.1880   -37.9280 
  109.5000    68.0980    24.4410     7.7970     6.9520     7.7770     2.1770   -37.8140 
  109.6250    69.9340    24.4420     7.7790     6.6320     7.4310     2.1770   -37.4800 
  109.7500    73.9560    24.4410     7.7050     6.2350     6.9710     2.1930   -37.0850 
  109.8750    77.2070    24.4410     7.5110     5.8680     6.5450     2.2200   -36.6310 
  110.0000    78.6520    24.4410     6.8990     5.6970     6.4010     2.2560   -36.2160 
  110.1250    80.9130    24.4410     6.7580     5.9720     6.8930     2.3030   -35.8390 
  110.2500    83.3900    24.4410     9.4090     6.7550     8.0770     2.3620   -35.5750 
  110.3750    82.7520    24.4420    15.0450     8.0410     9.8500     2.4180   -35.2430 
  110.5000    77.2120    24.4450    28.4170     9.5970    11.7680     2.4430   -35.0320 
  110.6250    68.6980    24.4450    34.3390    10.6990    12.8100     2.4050   -35.0170 
  110.7500    61.6540    24.4540    30.2310    10.7920    12.4930     2.3350   -35.0510 
  110.8750    59.8710    24.5020    17.5750     9.9840    11.1480     2.2610   -35.1340 
  111.0000    63.2270    24.5950    10.0720     8.8440     9.5860     2.2020   -35.2460 
  111.1250    66.3430    24.6820     8.7080     7.9280     8.5280     2.1660   -35.4620 
  111.2500    66.0330    24.7210     8.4990     7.3790     8.0360     2.1480   -35.7890 
  111.3750    65.7460    24.7250     8.5260     7.1530     7.9530     2.1400   -36.1880 
  111.5000    67.6830    24.7230     8.4970     7.1370     8.0650     2.1370   -36.4780 
  111.6250    69.0430    24.7230     8.3490     7.2110     8.1880     2.1380   -36.8010 
  111.7500    68.8110    24.7230     8.2520     7.2760     8.2450     2.1410   -37.0210 
  111.8750    69.0060    24.7230     8.2780     7.3160     8.2480     2.1460   -37.1950 
  112.0000    70.1540    24.7230     8.3470     7.3410     8.2320     2.1510   -37.2410 
  112.1250    70.4450    24.7230     8.3590     7.3670     8.2250     2.1560   -37.2440 
  112.2500    69.1320    24.7230     8.4110     7.3970     8.2300     2.1570   -37.2130 
  112.3750    66.8910    24.7230     8.4080     7.4220     8.2410     2.1540   -37.3240 
  112.5000    65.6870    24.7230     8.3800     7.4310     8.2470     2.1500   -37.3990 
  112.6250    65.8610    24.7230     8.3700     7.4170     8.2460     2.1470   -37.3780 
  112.7500    64.7550    24.7230     8.3770     7.3970     8.2520     2.1470   -37.4850 
  112.8750    62.8000    24.7230     8.3890     7.3910     8.2870     2.1490   -37.6230 
  113.0000    63.6290    24.7240     8.4880     7.4190     8.3620     2.1530   -37.7960 
  113.1250    66.5220    24.7250     8.6870     7.4880     8.4750     2.1570   -37.9190 
  113.2500    67.2960    24.6950     8.7150     7.5750     8.5870     2.1610   -37.9270 
  113.3750    67.7100    24.6150     8.6100     7.6570     8.6690     2.1640   -37.8470 
  113.5000    70.4350    24.5140     8.5190     7.7170     8.7130     2.1660   -37.8080 
  113.6250    72.1440    24.4560     8.4930     7.7370     8.7210     2.1630   -37.7300 
  113.7500    70.9540    24.4420     8.4440     7.7150     8.7050     2.1560   -37.5610 
  113.8750    69.5850    24.4430     8.5180     7.6350     8.6400     2.1470   -37.3500 
  114.0000    71.1280    24.4410     8.5720     7.4790     8.4880     2.1420   -37.1430 
  114.1250    75.1430    24.4410     8.1900     7.2290     8.2170     2.1460   -36.9980 
  114.2500    79.4860    24.4420     7.2980     6.9340     7.8870     2.1570   -36.8900 
  114.3750    82.8220    24.4440     6.6670     6.6530     7.5810     2.1690   -36.7040 
  114.5000    83.4720    24.4470     6.4520     6.4500     7.3810     2.1750   -36.5630 
  114.6250    81.3020    24.4500     7.0890     6.3980     7.3690     2.1690   -36.3820 
  114.7500    78.5630    24.4500     7.2120     6.4890     7.5190     2.1580   -36.2220 
  114.8750    76.7650    24.4500     7.6210     6.6950     7.7850     2.1480   -36.0250 
  115.0000    75.5440    24.4490     8.2920     6.9580     8.0910     2.1460   -35.8860 
  115.1250    71.8590    24.4490     8.3520     7.1900     8.3290     2.1510   -35.7610 
  115.2500    68.9820    24.4660     8.2470     7.3320     8.4450     2.1570   -35.6480 
  115.3750    68.4160    24.5060     8.1660     7.3720     8.4380     2.1600   -35.5400 
  115.5000    68.7940    24.5530     8.1030     7.3400     8.3560     2.1590   -35.3250 
  115.6250    68.9880    24.5760     8.1020     7.2920     8.2690     2.1560   -35.2350 
  115.7500    70.2470    24.5800     8.0740     7.2780     8.2360     2.1570   -35.0350 
  115.8750    72.7560    24.5780     8.1370     7.3210     8.2740     2.1590   -34.7900 
  116.0000    73.5350    24.5780     8.2580     7.4030     8.3480     2.1620   -34.3860 
  116.1250    71.7390    24.5780     8.4710     7.4480     8.3490     2.1650   -33.9270 
