~V
VERS. 2.00: Ver 2.00
~W
STRT.M 72.0000:
STOP.M 259.0000:
STEP.M 0.1250:
NULL. -999.2500:
UWI. DF5020:
~C
DEPT.M :
DEN.GM/CC :
GR.API :
RML.OHMM :
RI. :
RXO.OHMM :
CALI.CM :
SP.MV :
~A
# ...
  139.5000     2.3180    77.6340     6.9880     6.5350     6.7180    23.7650   -29.5040 
  139.6250     2.2840    82.0740     7.3600     6.7500     7.1420    23.8740   -29.6070 
  139.7500     2.2630    83.2970     7.7750     7.1350     7.6690    23.9270   -29.7240 
  139.8750     2.2510    78.3900     8.0810     7.5280     8.1210    23.9310   -29.8370 
  140.0000     2.2370    72.9470     8.2490     7.8330     8.4160    23.9330   -29.9130 
  140.1250     2.2180    74.0880     8.3950     8.0660     8.1160    23.9260   -29.9510 
  140.2500     2.2000    77.1940     8.6480     8.3180     7.7880    23.8460   -29.9190 
  140.3750     2.1970    76.0600     8.9820     8.5940     8.2050    23.6970   -29.8780 
  140.5000     2.2200    69.8880     9.2400     8.7950     9.1950    23.6120   -29.7550 
  140.6250     2.2710    65.6750     9.1600     8.7120    10.6220    23.6900   -29.6600 
  140.7500     2.3240    68.2090     8.6970     8.2880    11.6020    23.6500   -29.5530 
  140.8750     2.3570    74.8180     7.9690     7.5930    10.5650    23.6600   -29.5290 
  141.0000     2.3590    80.2340     7.2250     6.8200     8.2160    23.9040   -29.5040 
  141.1250     2.3340    82.5270     6.7780     6.2480     6.8360    24.2670   -29.5390 
  141.2500     2.3040    85.1330     6.7230     6.0140     6.2220    24.4180   -29.6230 
  141.3750     2.2770    84.9150     7.0640     6.1620     6.3270    24.3040   -29.7390 
  141.5000     2.2550    80.0570     7.7220     6.6560     7.1730    24.0670   -29.9560 
  141.6250     2.2340    75.0760     8.5470     7.4050     8.4270    23.9570   -30.1270 
  141.7500     2.2160    72.1680     9.3020     8.1820     9.4710    23.9200   -30.3040 
  141.8750     2.2020    70.1360     9.8140     8.8130     9.6960    23.9070   -30.3890 
  142.0000     2.1930    67.1960     9.9960     9.1740     9.5180    23.9150   -30.4380 
  142.1250     2.1890    66.0230     9.8410     9.1920     9.1190    23.9110   -30.3710 
  142.2500     2.1900    65.7480     9.5340     8.9950     9.0530    23.8880   -30.2310 
  142.3750     2.1940    65.2590     9.1980     8.6900     9.1630    23.8500   -30.0310 
  142.5000     2.1980    65.1580     8.9190     8.3690     9.1130    23.8280   -29.7550 
  142.6250     2.2020    68.1500     8.7430     8.1010     8.8490    23.8250   -29.4140 
  142.7500     2.2080    72.5780     8.6240     7.8810     8.2980    23.8230   -29.0440 
  142.8750     2.2170    74.7740     8.4960     7.6750     7.9750    23.8210   -28.6270 
  143.0000     2.2330    73.4790     8.2870     7.4300     7.8680    23.8260   -28.1680 
  143.1250     2.2560    74.4740     7.9300     7.0920     7.9930    23.8880   -27.6980 
  143.2500     2.2790    80.1520     7.4740     6.6790     7.9850    24.0670   -27.2400 
  143.3750     2.2970    85.2160     7.0070     6.2460     7.3650    24.3460   -26.8050 
  143.5000     2.3040    86.5390     6.6420     5.8790     6.5410    24.5700   -26.4890 
  143.6250     2.2950    87.0040     6.5150     5.7020     6.1200    24.5950   -26.2310 
  143.7500     2.2780    90.6890     6.6230     5.7350     6.1810    24.5110   -26.0280 
  143.8750     2.2610    93.5610     6.9180     5.9610     6.5360    24.4130   -25.8440 
  144.0000     2.2560    92.5140     7.2930     6.2980     7.1810    24.2840   -25.7450 
  144.1250     2.2740    90.3960     7.5720     6.5940     8.1590    24.1650   -25.6130 
  144.2500     2.3100    90.1000     7.6370     6.7200     8.7830    24.2760   -25.5030 
  144.3750     2.3470    89.8370     7.4570     6.6200     8.9720    24.4780   -25.4210 
  144.5000     2.3670    88.4720     7.1030     6.3280     9.4070    24.6360   -25.2560 
  144.6250     2.3570    88.7710     6.7130     5.9440     7.4280    24.6610   -25.1300 
  144.7500     2.3300    90.7350     6.4050     5.5900     6.4310    24.6370   -24.9790 
  144.8750     2.3030    90.4940     6.2060     5.3140     6.0910    24.6140   -24.8550 
  145.0000     2.2890    89.4720     6.0880     5.1150     5.9760    24.6390   -24.7190 
  145.1250     2.2930    91.5580     6.0070     4.9750     5.8150    24.7060   -24.6540 
  145.2500     2.3070    94.1130     5.9290     4.8600     5.5050    24.7410   -24.5820 
  145.3750     2.3260    93.7530     5.8580     4.7660     5.2270    24.7240   -24.4780 
  145.5000     2.3450    92.3990     5.8170     4.7080     5.1800    24.6970   -24.4080 
  145.6250     2.3570    93.4680     5.8340     4.7100     5.3470    24.7100   -24.3180 
  145.7500     2.3600    94.0910     5.9030     4.7680     5.1640    24.7470   -24.2310 
  145.8750     2.3540    94.2470     6.0060     4.8720     5.2370    24.7150   -24.1390 
  146.0000     2.3400    97.0750     6.1290     5.0060     5.5740    24.5650   -24.0540 
  146.1250     2.3210   100.2290     6.2630     5.1590     5.7960    24.4340   -23.9590 
  146.2500     2.3040    98.8320     6.4140     5.3230     6.0310    24.5120   -23.8920 
  146.3750     2.2910    94.9380     6.5960     5.5020     6.3940    24.6280   -23.8390 
  146.5000     2.2830    92.8590     6.8100     5.6950     6.6090    24.6840   -23.7790 
  146.6250     2.2770    92.4890     7.0250     5.8840     6.3890    24.6710   -23.7180 
  146.7500     2.2720    89.9850     7.1790     6.0250     6.3360    24.5790   -23.6720 
  146.8750     2.2680    86.5650     7.2150     6.0730     6.3280    24.3650   -23.6360 
  147.0000     2.2700    85.8820     7.0930     5.9900     6.2720    24.0960   -23.5600 
  147.1250     2.2770    88.7060     6.8010     5.7520     6.3830    24.1250   -23.4710 
  147.2500     2.2870    92.5970     6.4230     5.4230     5.8220    24.3650   -23.3060 
  147.3750     2.2950    97.0790     6.0330     5.0630     5.1710    24.6250   -23.2010 
  147.5000     2.2990   100.3890     5.7010     4.7380     4.7960    24.7920   -23.0650 
  147.6250     2.3000    97.9780     5.5020     4.5190     4.5740    24.8270   -22.9740 
  147.7500     2.3020    93.2070     5.4430     4.4300     4.6910    24.8130   -22.8670 
  147.8750     2.3080    92.4980     5.5260     4.4840     5.3190    24.7940   -22.8100 
  148.0000     2.3190    96.7430     5.7360     4.6780     5.4440    24.8310   -22.7600 
  148.1250     2.3330   100.7170     6.0580     5.0100     5.7170    24.8380   -22.8130 
  148.2500     2.3430   100.7610     6.4360     5.4240     5.6510    24.8050   -22.9400 
  148.3750     2.3420    97.7090     6.8260     5.8740     6.0320    24.7280   -23.0390 
  148.5000     2.3280    93.2270     7.1770     6.3010     6.4420    24.6440   -23.1260 
  148.6250     2.3030    89.8850     7.4170     6.6270     6.4540    24.5000   -23.1830 
  148.7500     2.2800    88.2880     7.5270     6.8180     6.3920    24.3400   -23.2120 
  148.8750     2.2670    88.5780     7.5020     6.8590     6.3490    24.2430   -23.1860 
  149.0000     2.2650    89.9510     7.3580     6.7620     6.2640    24.2870   -23.1510 
  149.1250     2.2700    90.0870     7.1210     6.5440     6.1290    24.3410   -23.0680 
  149.2500     2.2730    88.7910     6.8170     6.2700     6.0100    24.3590   -22.9460 
  149.3750     2.2700    89.6190     6.4910     5.9980     6.0700    24.3810   -22.8150 
  149.5000     2.2620    92.9800     6.3080     5.8270     6.3360    24.4540   -22.6930 
  149.6250     2.2520    95.0460     6.5730     5.9670     6.5490    24.4850   -22.6090 
  149.7500     2.2520    94.2040     7.5650     6.5250     7.0190    24.4450   -22.5460 
  149.8750     2.2750    92.3040     9.2740     7.5140     8.0430    24.3610   -22.5200 
  150.0000     2.3310    90.1680    11.3600     8.7590    10.2750    24.3190   -22.4610 
  150.1250     2.4220    85.4510    13.0520     9.8090    14.4420    24.3450   -22.4060 
  150.2500     2.5180    79.8980    13.1410    10.2260    19.0740    24.4230   -22.3600 
  150.3750     2.5780    77.7540    12.1040     9.8420    25.7480    24.5310   -22.3560 
  150.5000     2.5790    81.4470    10.5080     8.9070    26.5560    24.6380   -22.3750 
  150.6250     2.5320    87.1470     9.4080     8.0960    13.0960    24.6810   -22.3330 
