~V
VERS. 2.00: Ver 2.00
~W
STRT.M 55.0000:
STOP.M 274.0000:
STEP.M 0.1250:
NULL. -999.2500:
UWI. DF5018:
~C
DEPT.M :
SP.MV :
GR.API :
CALI.CM :
RXO.OHMM :
RI. :
RML.OHMM :
DEN.GM/CC :
~A
# ...
  257.5000    -9.6660    70.6150    24.5360     5.6980     5.6490     7.3100     2.3590 
  257.6250    -9.8520    71.5310    24.4530     6.4270     5.8110     7.5430     2.3760 
  257.7500   -10.0840    72.4060    24.3680     7.6830     5.9490     7.7910     2.4100 
  257.8750   -10.2750    71.6970    24.3090     8.9740     6.0730     8.0370     2.4460 
  258.0000   -10.4290    68.6370    24.2870     9.6570     6.2010     8.2630     2.4710 
  258.1250   -10.6040    66.0760    24.3020    10.0130     6.3560     8.4570     2.4680 
  258.2500   -10.7830    65.6200    24.3440    10.2640     6.5260     8.6230     2.4400 
  258.3750   -10.9570    66.5740    24.4000    10.4060     6.6820     8.7640     2.3940 
  258.5000   -11.1490    67.3330    24.4320    10.5470     6.8000     8.8830     2.3500 
  258.6250   -11.2910    66.9600    24.4380    10.6530     6.8780     8.9710     2.3350 
  258.7500   -11.3900    66.8700    24.4410    10.5780     6.9410     9.0290     2.3470 
  258.8750   -11.4840    68.0900    24.4630    10.5080     6.9980     9.0570     2.3710 
  259.0000   -11.5940    70.0970    24.5210    10.9320     7.0370     9.0550     2.3940 
  259.1250   -11.7010    71.4960    24.6000    11.4380     7.0200     9.0040     2.4110 
  259.2500   -11.8440    71.0500    24.6330    11.4580     6.9620     8.9140     2.4210 
  259.3750   -12.0150    69.1320    24.6410    10.3430     6.9220     8.8250     2.4250 
  259.5000   -12.1980    68.6960    24.6410     8.7720     6.9750     8.8130     2.4350 
  259.6250   -12.3120    71.9650    24.6410     8.6680     7.1900     8.9900     2.4630 
  259.7500   -12.4390    73.5550    24.6410     9.6320     7.5170     9.3520     2.4980 
  259.8750   -12.5330    69.1240    24.6410    10.9280     7.8720     9.8200     2.5190 
  260.0000   -12.6310    62.4340    24.6410    11.3940     8.1380    10.2210     2.5110 
  260.1250   -12.6830    60.8600    24.6410    10.9860     8.1650    10.2880     2.4710 
  260.2500   -12.7040    61.7670    24.6410    10.5810     7.9580     9.9870     2.4210 
  260.3750   -12.6390    60.9340    24.6410    10.7290     7.5850     9.4270     2.3830 
  260.5000   -12.5210    59.2030    24.6410    11.0470     7.1570     8.8010     2.3700 
  260.6250   -12.4220    59.3440    24.6410    11.2990     6.7840     8.3140     2.3760 
  260.7500   -12.3350    60.6060    24.6410    11.1680     6.5140     8.0260     2.3840 
  260.8750   -12.2670    60.8390    24.6410    10.3270     6.3680     7.9250     2.3960 
  261.0000   -12.1740    59.9040    24.6410     9.0230     6.3380     7.9540     2.4140 
  261.1250   -12.0440    59.5920    24.6410     7.9430     6.4010     8.0480     2.4340 
  261.2500   -11.9260    60.9320    24.6410     7.4410     6.4980     8.1410     2.4510 
  261.3750   -11.8590    63.1640    24.6410     7.1630     6.5910     8.1940     2.4630 
  261.5000   -11.8140    63.9140    24.6410     6.9400     6.6460     8.1720     2.4660 
  261.6250   -11.7620    63.3400    24.6410     6.8700     6.6370     8.0540     2.4540 
  261.7500   -11.7010    62.3420    24.6410     6.9660     6.5700     7.8820     2.4340 
  261.8750   -11.6170    61.1350    24.6410     7.1360     6.4500     7.7060     2.4170 
  262.0000   -11.5090    59.7430    24.6410     7.1680     6.3060     7.5700     2.4080 
  262.1250   -11.4370    59.0910    24.6410     6.9860     6.1930     7.5050     2.4060 
  262.2500   -11.3710    59.7900    24.6410     6.8770     6.1350     7.4790     2.4080 
  262.3750   -11.3100    62.0190    24.6410     7.0830     6.1140     7.4580     2.4090 
  262.5000   -11.2460    64.8550    24.6410     7.2710     6.0910     7.4140     2.4090 
  262.6250   -11.1640    65.1360    24.6400     7.0710     6.0370     7.3550     2.4070 
  262.7500   -11.0510    62.4250    24.6330     6.9760     5.9820     7.3370     2.4010 
  262.8750   -10.9430    60.3560    24.6140     7.7020     5.9850     7.4260     2.3860 
  263.0000   -10.8620    60.6930    24.5900     9.3610     6.1100     7.6770     2.3660 
  263.1250   -10.8480    60.6930    24.5820    10.8150     6.4170     8.1220     2.3540 
  263.2500   -10.7950    60.6930    24.5800    10.7450     6.8460     8.6630     2.3570 
  263.3750   -10.7000    60.6930    24.5770     9.7940     7.3070     9.1780     2.3670 
  263.5000   -10.5690    60.6930    24.5750     9.5060     7.6770     9.5410     2.3810 
  263.6250   -10.4820    60.6930    24.5580     9.9680     7.8230     9.6380     2.4000 
  263.7500   -10.4650    60.6930    24.5000    10.5680     7.7930     9.5570     2.4200 
  263.8750   -10.4900    60.6930    24.4340    10.7420     7.6930     9.4200     2.4360 
  264.0000   -10.5080    60.6930    24.4570    10.5430     7.6510     9.3590     2.4470 
  264.1250   -10.4810    60.6930    24.5710    10.1920     7.7720     9.4910     2.4560 
  264.2500   -10.4500    60.6930    24.6280     9.6820     8.0190     9.7850     2.4650 
  264.3750   -10.4650    60.6930    24.6410     9.0720     8.3020    10.1610     2.4730 
  264.5000   -10.5020    60.6930    24.6410     8.8670     8.5020    10.4830     2.4720 
  264.6250   -10.5280    60.6930    24.6410    10.0680     8.4950    10.5570     2.4510 
  264.7500   -10.4900    60.6930    24.6410    12.4880     8.3030    10.3470     2.4230 
  264.8750   -10.4110    60.6930    24.6410    14.0570     7.9790     9.9010     2.4080 
  265.0000   -10.3130    60.6930    24.6410    13.5690     7.5950     9.3410     2.4130 
  265.1250   -10.2230    60.6930    24.6410    11.2730     7.2220     8.8180     2.4250 
  265.2500   -10.1570    60.6930    24.6410     9.8870     6.8940     8.4130     2.4310 
  265.3750   -10.0870    60.6930    24.6310     8.5170     6.6220     8.1370     2.4330 
  265.5000   -10.0200    60.6930    24.5600     7.3070     6.4110     7.9730     2.4290 
  265.6250    -9.9290    60.6930    24.3990     6.7450     6.2750     7.8990     2.4220 
  265.7500    -9.8430    60.6930    24.2710     6.4780     6.2000     7.8760     2.4200 
  265.8750    -9.7260    60.6930    24.2930     6.3070     6.1770     7.8870     2.4280 
  266.0000    -9.6120    60.6930    24.3820     6.1650     6.1930     7.9130     2.4460 
  266.1250    -9.4790    60.6930    24.4960     6.1180     6.2230     7.9480     2.4670 
  266.2500    -9.3490    60.6930    24.5960     6.1570     6.2410     7.9850     2.4820 
  266.3750    -9.1880    60.6930    24.6350     6.2200     6.2340     8.0160     2.4850 
  266.5000    -9.0320    60.6930    24.6400     6.2390     6.2050     8.0400     2.4770 
  266.6250    -8.8660    60.6930    24.6380     6.2620     6.1650     8.0480     2.4640 
  266.7500    -8.7240    60.6930    24.6360     6.2730     6.1310     8.0440     2.4460 
  266.8750    -8.6230    60.6930    24.6350     6.2110     6.1220     8.0350     2.4210 
  267.0000    -8.5010    60.6930    24.6330     6.0980     6.1480     8.0290     2.3870 
  267.1250    -8.4040    60.6930    24.6320     6.0560     6.2130     8.0260     2.3550 
  267.2500    -8.3270    60.6930    24.6320     6.1120     6.2870     8.0250     2.3340 
  267.3750    -8.2510    60.6930    24.6320     6.2060     6.3330     8.0250     2.3350 
  267.5000    -8.1410    60.6930    24.6320     6.2460     6.3290     8.0280     2.3540 
  267.6250    -8.0620    60.6930    24.6320     6.1570     6.2870     8.0320     2.3760 
  267.7500    -7.9950    60.6930    24.6320     6.0170     6.2520     8.0350     2.3870 
  267.8750    -7.9320    60.6930    24.6320     5.9470     6.2380     8.0370     2.3860 
  268.0000    -7.9520    60.6930    24.6320     5.9860     6.2350     8.0370     2.3820 
  268.1250    -7.9540    60.6930    24.6320     5.9700     6.2260     8.0370     2.3800 
  268.2500    -7.8910    60.6930    24.6320     5.8990     6.2070     8.0380     2.3780 
  268.3750    -7.8240    60.6930    24.6320     5.8590     6.1870     8.0370     2.3790 
  268.5000    -7.7510    60.6930    24.6320     5.9200     6.1760     8.0350     2.3900 
  268.6250    -7.7280    60.6930    24.6320     6.0850     6.1690     8.0360     2.4100 
