~V
VERS. 2.00: Ver 2.00
~W
STRT.M 59.0000:
STOP.M 243.0000:
STEP.M 0.1250:
NULL. -999.2500:
UWI. DF5058:
~C
DEPT.M :
GR.API :
CALI.CM :
RXO.OHMM :
RI. :
RML.OHMM :
DEN.GM/CC :
SP.MV :
~A
# ...
  205.2500    57.1100    24.8870   122.7780   121.6020   131.9270     2.2210   -30.6050 
  205.3750    57.4830    24.8980   111.2140   107.8750   117.7290     2.2200   -30.2260 
  205.5000    57.9830    24.9420    92.9050    97.8260   107.7680     2.2170   -29.6980 
  205.6250    58.2190    24.9890    76.6710    92.1820   102.6150     2.2160   -29.2740 
  205.7500    59.4740    24.9890    72.7370    89.8380   100.8550     2.2200   -28.7170 
  205.8750    62.1760    24.9080    75.3110    89.9360   101.3970     2.2310   -28.2920 
  206.0000    63.9050    24.7540    80.6670    91.3710   102.9460     2.2460   -27.8180 
  206.1250    62.6460    24.5550    83.5470    92.7780   103.9610     2.2560   -27.3710 
  206.2500    61.4870    24.3560    80.9370    92.9830   103.4480     2.2560   -26.9470 
  206.3750    63.2470    24.1930    76.0870    91.4980   101.1540     2.2430   -26.5230 
  206.5000    66.6670    24.0880    72.9670    88.3960    97.3600     2.2210   -26.1480 
  206.6250    67.4530    24.0340    70.7260    83.8280    92.3010     2.2010   -25.8090 
  206.7500    64.9280    24.0410    66.7370    78.3380    86.4310     2.1880   -25.6030 
  206.8750    63.9110    24.1650    63.9120    72.3300    80.1360     2.1860   -25.3760 
  207.0000    67.7830    24.4300    65.2100    66.4860    74.1590     2.1870   -25.1470 
  207.1250    71.3270    24.7750    62.7600    61.9680    69.8240     2.1790   -24.8940 
  207.2500    70.6140    25.0090    53.7930    59.4620    67.8460     2.1630   -24.7320 
  207.3750    68.0820    24.9740    47.4090    59.5340    68.7690     2.1510   -24.5400 
  207.5000    67.6110    24.6670    52.1850    62.6010    72.8770     2.1550   -24.4430 
  207.6250    67.0850    24.2820    62.7550    69.4560    80.6600     2.1870   -24.2480 
  207.7500    64.2320    24.0250    75.0100    79.3300    91.0120     2.2430   -24.1580 
  207.8750    62.1350    23.9170    85.4910    91.1920   102.5490     2.3190   -24.0650 
  208.0000    63.1240    23.8990   105.3820   102.7280   112.4690     2.4070   -24.0080 
  208.1250    64.6030    23.8820   120.0100   108.0360   114.0400     2.4920   -23.9330 
  208.2500    64.2140    23.8420   111.1440   101.9220   103.0960     2.5530   -23.8310 
  208.3750    64.1850    23.8040    82.1500    83.2500    80.7560     2.5810   -23.7720 
  208.5000    64.7880    23.7720    56.1370    58.3300    54.6150     2.5780   -23.6880 
  208.6250    64.0030    23.6740    34.4540    37.2340    33.8920     2.5540   -23.6280 
  208.7500    62.5780    23.4930    16.2410    23.1420    20.4010     2.5140   -23.4640 
  208.8750    61.5520    23.3200     7.3210    14.8970    12.7440     2.4620   -23.3940 
  209.0000    60.5890    23.2780     5.4630    10.4460     8.8240     2.4080   -23.2810 
  209.1250    57.7420    23.4060     5.7690     8.3630     7.1470     2.3660   -23.3230 
  209.2500    54.9150    23.5090     5.7590     7.3290     6.3560     2.3380   -23.3520 
  209.3750    54.6180    23.4540     5.2420     6.9220     6.0260     2.3220   -23.4610 
  209.5000    58.2360    23.2900     4.6780     6.8930     5.9580     2.3140   -23.5840 
  209.6250    64.8000    23.1790     4.5310     7.1420     6.1090     2.3110   -23.8270 
  209.7500    70.8450    23.1520     4.9490     7.5800     6.4410     2.3110   -24.1010 
  209.8750    74.9870    23.1550     5.8450     8.1790     6.9260     2.3140   -24.3820 
  210.0000    77.8000    23.1950     6.6630     8.8600     7.4780     2.3220   -24.7430 
  210.1250    79.5030    23.3620     6.7290     9.4370     7.9300     2.3310   -25.1440 
  210.2500    81.4820    23.5960     6.6510     9.7480     8.1720     2.3400   -25.6460 
  210.3750    83.6250    23.7670     6.6550     9.7320     8.1910     2.3470   -26.1750 
  210.5000    84.9320    23.8220     6.6780     9.4380     8.0510     2.3520   -26.6630 
  210.6250    83.8670    23.8840     6.5430     8.9640     7.8460     2.3530   -27.1540 
  210.7500    83.9770    24.0620     6.5130     8.4760     7.6970     2.3510   -27.6450 
  210.8750    88.9630    24.3060     6.6620     8.1190     7.7340     2.3490   -28.1510 
  211.0000    98.9140    24.5320     6.9370     8.0430     8.1220     2.3470   -28.5690 
  211.1250   106.5650    24.6910     7.4520     8.4810     9.1810     2.3440   -28.8900 
  211.2500   105.8830    24.7980     9.0040     9.5050    11.0090     2.3430   -29.1230 
  211.3750    98.0970    24.8510    13.1890    11.2020    13.6410     2.3430   -29.3170 
  211.5000    89.7300    24.8560    18.8020    13.5430    16.8810     2.3400   -29.5320 
  211.6250    84.4600    24.8160    22.3810    16.2880    20.2080     2.3350   -29.6370 
  211.7500    80.5960    24.7510    23.7660    18.8700    23.0260     2.3310   -29.8150 
  211.8750    76.8490    24.6920    24.3430    20.9270    25.1100     2.3280   -29.8900 
  212.0000    73.9810    24.6770    24.2010    22.4100    26.6230     2.3270   -30.0520 
  212.1250    72.6280    24.7230    25.3380    23.5610    27.9820     2.3230   -30.1190 
  212.2500    71.3740    24.7800    27.5580    24.7250    29.5010     2.3150   -30.1860 
  212.3750    71.0020    24.8170    29.8270    25.9650    31.1480     2.3040   -30.1460 
  212.5000    71.4460    24.8240    31.4780    27.1780    32.7100     2.2920   -30.1200 
  212.6250    71.9080    24.8210    31.7470    28.1550    33.9030     2.2860   -30.0790 
  212.7500    71.3900    24.8220    32.1840    28.8370    34.7210     2.2850   -29.9100 
  212.8750    69.7520    24.8230    32.7010    29.2720    35.2790     2.2910   -29.7800 
  213.0000    68.3220    24.8250    32.5880    29.5990    35.7600     2.2990   -29.5790 
  213.1250    67.3670    24.8210    31.7300    29.9570    36.2990     2.3050   -29.4660 
  213.2500    67.3310    24.8060    32.2030    30.3760    36.8900     2.3050   -29.2850 
  213.3750    69.0100    24.7740    33.4400    30.8380    37.5080     2.3030   -29.1340 
  213.5000    70.6030    24.7260    33.7880    31.3590    38.2000     2.3010   -28.9020 
  213.6250    69.8130    24.6930    33.1730    32.1100    39.2580     2.3030   -28.7400 
  213.7500    69.4980    24.6840    31.2460    33.3160    41.0050     2.3060   -28.5240 
  213.8750    71.4060    24.6840    31.7150    35.2600    43.7780     2.3060   -28.3040 
  214.0000    72.2500    24.6810    36.9590    38.1840    47.7590     2.3020   -28.0890 
  214.1250    69.5280    24.6980    44.4830    42.2310    52.8540     2.2920   -27.8830 
  214.2500    66.3830    24.7480    52.1050    46.6790    57.9670     2.2820   -27.7230 
  214.3750    63.3990    24.7990    58.7740    50.4870    61.7630     2.2740   -27.5960 
  214.5000    61.0260    24.8240    62.9490    52.5420    63.0610     2.2740   -27.4410 
  214.6250    62.0330    24.8230    64.1970    52.0820    61.3670     2.2810   -27.2460 
  214.7500    63.6540    24.8100    60.9500    50.1930    58.3360     2.2920   -27.0730 
  214.8750    63.1100    24.7720    53.6010    47.8910    55.2470     2.3020   -26.8280 
  215.0000    63.1630    24.7310    44.9050    45.8950    52.8330     2.3080   -26.5120 
  215.1250    67.6570    24.7520    46.6300    44.5490    51.3120     2.3070   -26.0650 
  215.2500    70.8340    24.8160    50.7340    43.6590    50.2910     2.3040   -25.5910 
  215.3750    69.5480    24.8650    50.1610    43.0650    49.5440     2.3020   -25.0160 
  215.5000    67.7470    24.8710    43.8650    42.6600    48.9430     2.3040   -24.4930 
  215.6250    69.3680    24.8720    39.6030    42.2400    48.1980     2.3140   -23.8140 
  215.7500    71.5170    24.8790    39.8510    41.3100    46.7290     2.3290   -23.1820 
  215.8750    73.2640    24.8690    44.8390    39.3020    43.9380     2.3490   -22.4720 
  216.0000    76.1640    24.8260    45.8260    35.9840    39.6700     2.3690   -21.7880 
  216.1250    80.1940    24.7080    37.2760    31.7630    34.5450     2.3860   -21.1030 
  216.2500    81.5230    24.5540    27.7620    27.7490    29.9080     2.3980   -20.3770 
  216.3750    79.8340    24.4490    21.1630    24.6570    26.6090     2.4040   -19.6600 
