~V
VERS. 2.00: Ver 2.00
~W
STRT.M 64.0000:
STOP.M 243.0000:
STEP.M 0.1250:
NULL. -999.2500:
UWI. DF5061:
~C
DEPT.M :
GR.API :
RML.OHMM :
RI. :
RXO.OHMM :
CALI.CM :
DEN.GM/CC :
SP.MV :
~A
# ...
  187.7500    45.3270     7.7740     6.6890     7.4700    24.0860     2.4440    -5.4230 
  187.8750    54.4130     8.0460     6.8750     7.5370    24.1010     2.4530    -5.6700 
  188.0000    65.8530     8.3400     7.1450     7.7020    24.1070     2.4570    -5.9870 
  188.1250    77.1730     8.7090     7.4830     7.9810    24.1070     2.4560    -6.3870 
  188.2500    86.3270     9.1090     7.8510     8.3860    24.1040     2.4520    -6.8710 
  188.3750    92.4820     9.4670     8.1710     8.8360    24.0950     2.4470    -7.4070 
  188.5000    95.7170     9.7090     8.3880     9.2750    24.0850     2.4430    -7.9570 
  188.6250    93.9540     9.8010     8.4700     9.5480    24.0840     2.4380    -8.5010 
  188.7500    88.7350     9.7070     8.4170     9.5240    24.0980     2.4330    -9.0080 
  188.8750    87.8480     9.4640     8.2510     9.2580    24.0950     2.4260    -9.4670 
  189.0000    92.1540     9.1390     8.0540     9.0670    24.0570     2.4200    -9.9140 
  189.1250    95.5660     8.8430     7.8840     9.0570    23.9770     2.4150   -10.3710 
  189.2500    95.1670     8.7560     7.7890     9.1650    23.8750     2.4130   -10.8460 
  189.3750    94.5080     8.8520     7.8010     9.3910    23.8060     2.4140   -11.3430 
  189.5000    95.6690     9.0480     7.8910     9.6690    23.7730     2.4160   -11.8710 
  189.6250    95.3670     9.2850     8.0210     9.9900    23.7840     2.4200   -12.4300 
  189.7500    92.9630     9.4640     8.1650    10.4540    23.8070     2.4250   -13.0280 
  189.8750    91.5190     9.6300     8.3140    10.8360    23.8160     2.4310   -13.6600 
  190.0000    90.7760     9.8020     8.4850    11.0110    23.7810     2.4370   -14.2820 
  190.1250    89.4590     9.9850     8.6950    11.1320    23.6870     2.4400   -14.8570 
  190.2500    87.3750    10.1830     8.9680    11.5760    23.5100     2.4380   -15.3530 
  190.3750    85.9200    10.3920     9.2660    12.1280    23.2780     2.4320   -15.7520 
  190.5000    85.5890    10.5920     9.5130    12.5040    23.0900     2.4240   -16.0450 
  190.6250    85.8310    10.7600     9.6260    12.4540    23.0080     2.4170   -16.2170 
  190.7500    87.6110    10.8680     9.6480    12.1420    23.0220     2.4110   -16.2680 
  190.8750    90.3380    10.8640     9.5420    11.8260    23.0640     2.4050   -16.1650 
  191.0000    92.5550    10.7320     9.3520    11.6420    23.0760     2.3950   -15.9160 
  191.1250    93.8820    10.4580     9.0840    11.3410    23.0600     2.3810   -15.5300 
  191.2500    95.2810    10.0550     8.7150    10.8800    23.0190     2.3650   -15.0190 
  191.3750    96.8220     9.5870     8.2870    10.5020    22.9610     2.3560   -14.3740 
  191.5000    95.8500     9.1780     7.9130    10.1680    22.9220     2.3600   -13.6540 
  191.6250    92.4930     8.9320     7.6840     9.8800    22.9350     2.3790   -12.8830 
  191.7500    88.6370     8.9240     7.6750     9.7060    23.0320     2.4090   -12.0760 
  191.8750    86.4280     9.2100     7.9410     9.8210    23.2550     2.4380   -11.2780 
  192.0000    86.5590     9.6770     8.3790    10.2730    23.5800     2.4570   -10.5230 
  192.1250    88.3790    10.1780     8.8420    10.7290    23.9070     2.4610    -9.8110 
  192.2500    89.4790    10.5100     9.1780    10.8980    24.0900     2.4530    -9.1370 
  192.3750    89.2610    10.4370     9.1230    10.7860    24.1270     2.4380    -8.4990 
  192.5000    87.1590     9.9510     8.7050    10.4530    24.1310     2.4240    -7.8720 
  192.6250    80.7210     9.1770     8.0530     9.7910    24.1430     2.4140    -7.2400 
  192.7500    69.1640     8.3250     7.3970     8.8040    24.1430     2.4110    -6.6030 
  192.8750    56.3530     7.6360     6.8930     7.9340    24.1250     2.4140    -5.9660 
  193.0000    46.6140     7.3260     6.6010     7.5550    24.1040     2.4220    -5.3550 
  193.1250    41.5240     7.2370     6.5150     7.5500    24.0900     2.4310    -4.7980 
  193.2500    42.3780     7.3190     6.5880     7.6650    24.0790     2.4370    -4.3090 
  193.3750    48.6660     7.5150     6.7750     7.7490    24.0680     2.4410    -3.9200 
  193.5000    53.6460     7.7430     6.9980     7.8260    24.0820     2.4410    -3.6230 
  193.6250    57.1660     7.9560     7.2210     7.9060    24.1120     2.4380    -3.4470 
  193.7500    64.0640     8.1230     7.4040     7.9800    24.1280     2.4330    -3.3930 
  193.8750    73.1380     8.2010     7.5060     8.0290    24.1170     2.4290    -3.4440 
  194.0000    77.9130     8.1810     7.4800     8.0610    24.1100     2.4290    -3.5360 
  194.1250    78.2870     8.0680     7.3140     8.0270    24.1120     2.4350    -3.6380 
  194.2500    80.5960     7.8850     7.1270     7.8360    24.1220     2.4450    -3.7430 
  194.3750    85.5940     7.6740     6.9290     7.5920    24.1400     2.4550    -3.8500 
  194.5000    86.8100     7.4850     6.7500     7.5200    24.1630     2.4570    -3.9770 
  194.6250    86.1830     7.3440     6.6170     7.5560    24.1810     2.4510    -4.1200 
  194.7500    87.8100     7.2690     6.5460     7.6070    24.2020     2.4380    -4.2750 
  194.8750    91.6460     7.2860     6.5620     7.6380    24.2150     2.4220    -4.4480 
  195.0000    92.4370     7.3860     6.6560     7.7460    24.2240     2.4090    -4.6450 
  195.1250    90.0300     7.5540     6.8150     7.9930    24.2350     2.4000    -4.8690 
  195.2500    86.1320     7.7690     7.0180     8.3450    24.2540     2.3950    -5.1070 
  195.3750    79.7240     8.0110     7.2460     8.6890    24.2770     2.3920    -5.3580 
  195.5000    74.3160     8.2640     7.4850     8.9640    24.2740     2.3910    -5.6150 
  195.6250    72.8550     8.5240     7.7300     9.0790    24.2420     2.3890    -5.8520 
  195.7500    75.5060     8.7870     7.9780     9.1780    24.2090     2.3840    -6.0590 
  195.8750    78.3670     9.0300     8.2050     9.6870    24.1870     2.3770    -6.2550 
  196.0000    79.9590     9.2130     8.3800    10.4010    24.1690     2.3690    -6.4450 
  196.1250    81.0810     9.3110     8.4860    10.8820    24.1610     2.3650    -6.6290 
  196.2500    82.2670     9.3590     8.5420    10.5750    24.1590     2.3650    -6.8390 
  196.3750    84.1420     9.4810     8.6450    10.1540    24.1590     2.3690    -7.0800 
  196.5000    86.0170     9.8800     8.9370    10.3190    24.1590     2.3730    -7.3400 
  196.6250    85.3630    10.6970     9.5490    10.9630    24.1590     2.3720    -7.6160 
  196.7500    81.9320    11.9450    10.5350    11.9640    24.1590     2.3670    -7.9050 
  196.8750    78.4330    13.4210    11.8150    13.5500    24.1590     2.3610    -8.1610 
  197.0000    77.2390    14.4980    13.0330    15.4300    24.1590     2.3590    -8.3660 
  197.1250    78.2110    14.9490    13.8310    16.9760    24.1590     2.3620    -8.5490 
  197.2500    80.5850    14.6530    13.9400    17.8690    24.1590     2.3690    -8.7100 
  197.3750    84.8460    13.7170    13.2620    16.6410    24.1590     2.3790    -8.8460 
  197.5000    90.2770    12.6670    12.2910    14.3770    24.1590     2.3880    -8.9810 
  197.6250    94.1080    12.0470    11.5150    12.9450    24.1590     2.3960    -9.1430 
  197.7500    92.3150    12.3040    11.4200    12.5780    24.1590     2.3990    -9.3500 
  197.8750    84.2970    14.6300    12.8380    14.6910    24.1590     2.3910    -9.6370 
  198.0000    77.2460    19.4100    16.3320    19.2720    24.1590     2.3780   -10.0100 
  198.1250    72.6010    27.4000    22.6040    26.7770    24.1590     2.3630   -10.4350 
  198.2500    67.6080    38.7620    32.0160    37.2810    24.1590     2.3490   -10.8900 
  198.3750    61.9660    51.9020    44.4140    47.6060    24.1600     2.3370   -11.3850 
  198.5000    59.8060    65.4160    57.6320    57.3640    24.1640     2.3230   -11.9020 
  198.6250    60.9270    77.4040    69.6820    65.3760    24.1770     2.3030   -12.4100 
  198.7500    61.3640    86.8040    79.2290    71.3670    24.2090     2.2780   -12.8630 
  198.8750    59.7330    93.8830    86.0420    76.7260    24.2740     2.2530   -13.2330 
