~V
VERS. 2.00: Ver 2.00
~W
STRT.M 55.0000:
STOP.M 271.0000:
STEP.M 0.1250:
NULL. -999.2500:
UWI. DF5016:
~C
DEPT.M :
SP.MV :
GR.API :
CALI.CM :
RXO.OHMM :
RI. :
RML.OHMM :
DEN.GM/CC :
~A
# ...
  257.5000   -14.2940    67.2990    23.0460     6.2910     4.8510     5.6810     2.2900 
  257.6250   -14.2330    67.9390    23.1120     6.0940     4.9110     5.7440     2.3140 
  257.7500   -14.1480    66.0690    23.2130     5.6180     4.9600     5.7970     2.3230 
  257.8750   -14.0620    63.4140    23.2620     5.2230     4.9990     5.8390     2.3120 
  258.0000   -13.9940    61.8170    23.3040     5.1290     5.0390     5.8820     2.3030 
  258.1250   -13.9600    61.8990    23.4250     5.2550     5.0960     5.9430     2.3220 
  258.2500   -13.9530    62.6510    23.6360     5.4050     5.1790     6.0320     2.3470 
  258.3750   -13.9610    63.0410    23.8110     5.6150     5.2850     6.1460     2.3480 
  258.5000   -13.9680    62.7570    23.7750     6.0790     5.4080     6.2770     2.3270 
  258.6250   -13.9530    62.4310    23.6000     7.8960     5.5270     6.4050     2.3100 
  258.7500   -13.9150    63.1090    23.5340    11.8500     5.6340     6.5190     2.3120 
  258.8750   -13.8580    64.7930    23.6760    16.6470     5.7190     6.6100     2.3310 
  259.0000   -13.7950    66.9320    23.8390    18.3920     5.7820     6.6780     2.3550 
  259.1250   -13.7520    68.3950    23.7910    14.5400     5.8240     6.7230     2.3730 
  259.2500   -13.7460    68.3380    23.6680     9.7840     5.8640     6.7660     2.3810 
  259.3750   -13.7920    67.4710    23.6130     7.1600     5.9130     6.8190     2.3850 
  259.5000   -13.8940    67.4280    23.6200     6.6290     5.9790     6.8900     2.3870 
  259.6250   -14.0560    67.8830    23.6040     7.2740     6.0710     6.9880     2.3760 
  259.7500   -14.2470    66.8070    23.4660     8.3650     6.1820     7.1070     2.3560 
  259.8750   -14.4450    65.0420    23.3400     9.5910     6.3100     7.2440     2.3450 
  260.0000   -14.6220    65.4850    23.2850    10.4780     6.4570     7.4020     2.3560 
  260.1250   -14.7480    68.6230    23.2820    10.7340     6.6480     7.6060     2.3790 
  260.2500   -14.8170    70.5420    23.2910    10.5330     6.8920     7.8680     2.4020 
  260.3750   -14.8310    69.7640    23.2560    10.0450     7.1910     8.1890     2.4160 
  260.5000   -14.8030    68.2240    23.1270     9.6850     7.5260     8.5480     2.4170 
  260.6250   -14.7500    68.9580    22.9360    10.2040     7.8500     8.8950     2.4020 
  260.7500   -14.6970    71.0650    22.8550    11.5490     8.1030     9.1670     2.3920 
  260.8750   -14.6570    71.8130    22.9610    13.0940     8.2420     9.3160     2.3960 
  261.0000   -14.6410    69.6300    23.1530    14.2950     8.2470     9.3210     2.4120 
  261.1250   -14.6550    66.4850    23.3800    14.4480     8.1170     9.1820     2.4290 
  261.2500   -14.6910    66.0000    23.6040    13.1360     7.9160     8.9660     2.4380 
  261.3750   -14.7350    68.3020    23.7720    11.1300     7.6830     8.7160     2.4360 
  261.5000   -14.7680    70.3840    23.8910    10.4550     7.4470     8.4630     2.4340 
  261.6250   -14.7600    69.7580    23.9420    12.9320     7.2240     8.2240     2.4370 
  261.7500   -14.7020    68.3860    23.9230    16.0780     7.0260     8.0120     2.4380 
  261.8750   -14.5900    67.7650    23.9070    17.3870     6.8680     7.8430     2.4310 
  262.0000   -14.4300    67.6870    23.8620    15.8430     6.7670     7.7340     2.4160 
  262.1250   -14.2240    67.6870    23.8370    13.4250     6.7470     7.7130     2.3910 
  262.2500   -13.9900    67.6870    23.8550    12.4940     6.8120     7.7820     2.3560 
  262.3750   -13.7420    67.6870    23.9040    12.1160     6.9470     7.9280     2.3250 
  262.5000   -13.4940    67.6870    23.9850    10.6040     7.1180     8.1100     2.3120 
  262.6250   -13.2660    67.6870    24.0660     7.9170     7.2570     8.2590     2.3090 
  262.7500   -13.0710    67.6870    24.0810     6.7220     7.3150     8.3220     2.2900 
  262.8750   -12.9160    67.6870    24.0420     6.6280     7.2620     8.2650     2.2490 
  263.0000   -12.7950    67.6870    24.0340     7.2070     7.0970     8.0880     2.1950 
  263.1250   -12.7000    67.6870    24.1050     8.0120     6.8380     7.8110     2.1530 
  263.2500   -12.6160    67.6870    24.3290     8.3260     6.5530     7.5050     2.1400 
  263.3750   -12.5350    67.6870    24.7380     7.7490     6.2920     7.2250     2.1610 
  263.5000   -12.4570    67.6870    25.2180     6.7180     6.0890     7.0070     2.2040 
  263.6250   -12.3850    67.6870    25.6850     6.1770     5.9720     6.8820     2.2490 
  263.7500   -12.3210    67.6870    25.4810     6.0060     5.9160     6.8220     2.2810 
  263.8750   -12.2650    67.6870    24.8180     5.9990     5.9050     6.8100     2.2910 
  264.0000   -12.2150    67.6870    24.3470     6.1160     5.9240     6.8300     2.2770 
  264.1250   -12.1710    67.6870    24.2830     6.3890     5.9660     6.8760     2.2490 
  264.2500   -12.1340    67.6870    24.3000     6.4550     6.0150     6.9280     2.2300 
  264.3750   -12.1080    67.6870    24.2480     6.1940     6.0630     6.9790     2.2300 
  264.5000   -12.0930    67.6870    24.1390     5.8060     6.1020     7.0220     2.2410 
  264.6250   -12.0870    67.6870    24.0180     5.5030     6.1310     7.0520     2.2460 
  264.7500   -12.0780    67.6870    23.9710     5.3140     6.1500     7.0730     2.2390 
  264.8750   -12.0600    67.6870    24.0170     5.2450     6.1640     7.0870     2.2250 
  265.0000   -12.0330    67.6870    24.0360     5.3070     6.1720     7.0970     2.2160 
  265.1250   -12.0050    67.6870    23.9310     5.4810     6.1760     7.1010     2.2170 
  265.2500   -11.9810    67.6870    23.7800     5.6440     6.1790     7.1030     2.2330 
  265.3750   -11.9670    67.6870    23.6500     5.7600     6.1860     7.1120     2.2620 
  265.5000   -11.9610    67.6870    23.6110     5.9090     6.2080     7.1340     2.2930 
  265.6250   -11.9650    67.6870    23.6960     6.3610     6.2400     7.1690     2.3140 
  265.7500   -11.9760    67.6870    23.8140     7.1980     6.2650     7.1970     2.3320 
  265.8750   -11.9970    67.6870    23.8600     8.2850     6.2830     7.2150     2.3470 
  266.0000   -12.0280    67.6870    23.8620     9.3000     6.2940     7.2280     2.3480 
  266.1250   -12.0720    67.6870    23.8750    10.0530     6.3070     7.2410     2.3380 
  266.2500   -12.1250    67.6870    23.8910    10.7250     6.3230     7.2580     2.3410 
  266.3750   -12.1860    67.6870    23.8550    11.6310     6.3440     7.2810     2.3700 
  266.5000   -12.2520    67.6870    23.7620    12.9180     6.3660     7.3050     2.4140 
  266.6250   -12.3230    67.6870    23.6440    14.4160     6.3800     7.3190     2.4460 
  266.7500   -12.3950    67.6870    23.5840    15.9390     6.3830     7.3230     2.4510 
  266.8750   -12.4690    67.6870    23.5520    16.9470     6.3710     7.3100     2.4220 
  267.0000   -12.5420    67.6870    23.5040    16.7810     6.3430     7.2800     2.3650 
  267.1250   -12.6130    67.6870    23.3510    15.5170     6.3080     7.2430     2.3090 
  267.2500   -12.6830    67.6870    23.0230    13.8870     6.2740     7.2060     2.2780 
  267.3750   -12.7540    67.6870    22.5240    12.3380     6.2510     7.1810     2.2660 
  267.5000  -999.2500    67.6870    21.8760    10.9290     6.2410     7.1710     2.2500 
  267.6250  -999.2500    67.6870    20.9660     9.8750     6.2420     7.1720     2.2230 
  267.7500  -999.2500    67.6870    19.8460     9.2920     6.2440     7.1730     2.1960 
  267.8750  -999.2500    67.6870    18.8120     9.0930     6.2440     7.1730     2.1750 
  268.0000  -999.2500    67.6870    17.9790     9.0780     6.2440     7.1730     2.1550 
  268.1250  -999.2500    67.6870    17.4960     9.1440     6.2440     7.1730     2.1360 
  268.2500  -999.2500    67.6870    17.2330     9.2090     6.2440     7.1730     2.1230 
  268.3750  -999.2500    67.6870    17.0880     9.2400     6.2440     7.1730     2.1140 
  268.5000  -999.2500    67.6870    16.9650     9.2040     6.2440     7.1730     2.0960 
  268.6250  -999.2500    67.6870    16.7800     9.0180     6.2440     7.1730     2.0600 
