~V
VERS. 2.00: Ver 2.00
~W
STRT.M 60.0000:
STOP.M 261.0000:
STEP.M 0.1250:
NULL. -999.2500:
UWI. DF5055:
~C
DEPT.M :
SP.MV :
GR.API :
RML.OHMM :
RI. :
RXO.OHMM :
CALI.CM :
DEN.GM/CC :
~A
# ...
   93.7500   -14.5350    73.8280     9.6640     7.8790     9.2020    22.4290     2.1860 
   93.8750   -14.0440    72.6330     9.7180     7.8830     9.7260    22.3400     2.1830 
   94.0000   -13.6400    72.5810     9.9260     8.0160    10.2590    22.3520     2.1810 
   94.1250   -13.3820    72.4070    10.1930     8.2290    10.4170    22.4280     2.1810 
   94.2500   -13.1940    70.8000    10.4010     8.4300    10.4500    22.5050     2.1810 
   94.3750   -13.0280    68.7000    10.5040     8.5690    10.3840    22.5640     2.1830 
   94.5000   -12.9030    66.8300    10.5220     8.6370    10.3560    22.6360     2.1850 
   94.6250   -12.8910    67.3900    10.5260     8.6620    10.4530    22.7430     2.1860 
   94.7500   -12.8790    69.8360    10.5740     8.6920    10.5440    22.8700     2.1850 
   94.8750   -12.7930    69.9070    10.6810     8.7470    10.5650    22.9680     2.1810 
   95.0000   -12.6430    66.9540    10.8230     8.8250    10.5200    23.0340     2.1780 
   95.1250   -12.5080    66.9180    10.9360     8.8980    10.5870    23.0660     2.1760 
   95.2500   -12.4540    71.0520    10.9600     8.9280    10.8680    23.0460     2.1760 
   95.3750   -12.4310    74.4980    10.8610     8.8930    11.1560    22.9860     2.1770 
   95.5000   -12.3630    74.3290    10.6540     8.7950    11.0040    22.9570     2.1760 
   95.6250   -12.2270    72.6260    10.4040     8.6700    10.7020    22.9520     2.1750 
   95.7500   -12.0990    72.8400    10.2080     8.5770    10.4940    22.9520     2.1750 
   95.8750   -12.0340    73.9720    10.1190     8.5560    10.5010    22.9030     2.1750 
   96.0000   -11.9980    74.0130    10.1540     8.6240    10.6450    22.8520     2.1740 
   96.1250   -11.9270    71.3710    10.2930     8.7730    10.7560    22.8510     2.1710 
   96.2500   -11.8010    68.1510    10.4450     8.9360    10.8220    22.8150     2.1700 
   96.3750   -11.6120    66.8380    10.5400     9.0500    10.8700    22.6870     2.1760 
   96.5000   -11.3590    68.2340    10.5270     9.0660    10.7980    22.5320     2.1890 
   96.6250   -11.0290    71.5130    10.3480     8.9270    10.1710    22.4460     2.2080 
   96.7500   -10.5830    73.3940    10.0260     8.6460     9.0380    22.5300     2.2270 
   96.8750    -9.9640    73.8740     9.5680     8.2310     8.3770    22.7970     2.2400 
   97.0000    -9.2390    74.9440     8.9900     7.7010     8.0850    23.2540     2.2460 
   97.1250    -8.4060    75.9250     8.3090     7.0830     7.6060    23.8510     2.2370 
   97.2500    -7.4350    76.9590     7.5980     6.4510     6.9340    24.3680     2.2150 
   97.3750    -6.4490    79.8090     6.9300     5.8650     6.2020    24.5450     2.1860 
   97.5000    -5.5820    84.7450     6.3810     5.3860     5.3600    24.3820     2.1610 
   97.6250    -4.9580    88.6310     6.0290     5.0790     5.0100    24.1960     2.1510 
   97.7500    -4.6590    89.9830     5.8730     4.9400     4.9780    24.1670     2.1570 
   97.8750    -4.6930    89.5170     6.0240     5.0230     5.2600    24.1710     2.1720 
   98.0000    -4.9360    86.1650     6.7100     5.4400     5.8230    24.0480     2.1960 
   98.1250    -5.3590    79.2050     8.3200     6.4310     7.0500    23.9520     2.2380 
   98.2500    -6.0100    72.5050    10.7910     8.0360     8.6840    24.1470     2.2980 
   98.3750    -6.8670    68.3550    13.8200    10.1990    12.2480    24.5600     2.3620 
   98.5000    -7.8630    65.5360    16.6000    12.4880    23.6080    24.8830     2.4050 
   98.6250    -8.9360    64.0560    17.6140    13.7470    30.8170    24.7770     2.3990 
   98.7500    -9.9520    64.6400    16.6030    13.4810    22.8720    24.3420     2.3490 
   98.8750   -10.8990    66.9770    14.3440    12.1450    13.7640    23.8270     2.2790 
   99.0000   -11.8080    68.9510    12.0020    10.5690    10.7150    23.3670     2.2150 
   99.1250   -12.7330    69.1630    10.5140     9.3980    10.1270    23.1360     2.1750 
   99.2500   -13.6470    68.2760     9.9130     8.7430    10.1410    23.0400     2.1560 
   99.3750   -14.4460    66.4830     9.9560     8.5330    10.5110    22.9930     2.1490 
   99.5000   -15.0370    64.1540    10.2840     8.6030    11.0080    22.8990     2.1480 
   99.6250   -15.4000    61.4280    10.5710     8.7640    11.3910    22.7380     2.1510 
   99.7500   -15.6190    59.7650    10.6990     8.8770    11.5330    22.5960     2.1560 
   99.8750   -15.6760    60.5990    10.6970     8.9220    11.6000    22.5170     2.1610 
  100.0000   -15.5840    64.3180    10.6370     8.9230    11.5280    22.5160     2.1640 
  100.1250   -15.4040    68.4370    10.5820     8.9200    11.3370    22.6120     2.1620 
  100.2500   -15.1950    70.1830    10.5520     8.9340    11.1040    22.8530     2.1550 
  100.3750   -14.9600    69.8320    10.5320     8.9600    10.6900    23.1710     2.1470 
  100.5000   -14.6860    68.2210    10.4940     8.9780    10.6420    23.5160     2.1440 
  100.6250   -14.3490    66.2940    10.4170     8.9660    10.3980    23.8140     2.1480 
  100.7500   -14.0120    65.2950    10.3340     8.9290    10.2530    24.1120     2.1580 
  100.8750   -13.7120    66.9070    10.3020     8.8880    10.1140    24.2390     2.1680 
  101.0000   -13.4370    70.4260    10.3810     8.8730     9.9250    23.9980     2.1740 
  101.1250   -13.1630    73.7040    10.6020     8.9060     9.6640    23.5420     2.1730 
  101.2500   -12.8890    74.3950    10.8400     8.9410     9.4270    23.1580     2.1660 
  101.3750   -12.6630    71.7380    10.8990     8.8770     9.3690    22.9760     2.1580 
  101.5000   -12.5030    68.0590    10.5790     8.5910     9.4380    23.0080     2.1550 
  101.6250   -12.3170    68.3080     9.7740     8.0110     9.4320    23.3710     2.1630 
  101.7500   -12.0080    72.5080     8.8270     7.3410     8.8230    23.9340     2.1840 
  101.8750   -11.6260    77.3370     8.1150     6.8090     7.5740    24.4540     2.2130 
  102.0000   -11.3170    80.0520     7.9460     6.5940     6.6060    24.8220     2.2390 
  102.1250   -11.1890    79.6950     8.5580     6.8560     7.2070    25.0250     2.2490 
  102.2500   -11.2360    77.0700     9.7030     7.5010    10.8050    25.0210     2.2410 
  102.3750   -11.4570    74.7680    11.0310     8.3760    20.2920    24.6140     2.2190 
  102.5000   -11.8710    74.0700    12.0640     9.2030    23.3870    23.9730     2.1930 
  102.6250   -12.4840    71.7810    12.3110     9.6040    16.7040    23.5120     2.1700 
  102.7500   -13.3170    68.0400    11.9520     9.5710    13.7260    23.2890     2.1560 
  102.8750   -14.3510    66.0810    11.3520     9.2840    12.1210    23.2240     2.1510 
  103.0000   -15.3880    67.3980    10.8720     8.9700    10.8520    23.2150     2.1530 
  103.1250   -16.2350    69.1500    10.7320     8.8000    10.1040    23.2160     2.1580 
  103.2500   -16.9140    68.5220    10.8050     8.7580    10.0160    23.2130     2.1610 
  103.3750   -17.4150    66.2990    10.9430     8.7780    10.0120    23.2150     2.1590 
  103.5000   -17.7040    63.7430    11.0450     8.7980    10.1160    23.2290     2.1520 
  103.6250   -17.8320    62.0070    11.0710     8.7870    10.2210    23.2790     2.1440 
  103.7500   -17.8370    60.6980    11.0370     8.7440    10.1340    23.3740     2.1400 
  103.8750   -17.7580    59.8010    10.9530     8.6780    10.0680    23.4730     2.1420 
  104.0000   -17.6480    59.9010    10.8440     8.6060    10.0700    23.5420     2.1460 
  104.1250   -17.5220    62.3170    10.7620     8.5670    10.1790    23.5560     2.1480 
  104.2500   -17.3780    65.9150    10.7670     8.5960    10.1560    23.5530     2.1470 
  104.3750   -17.2340    68.9020    10.8960     8.7170    10.1090    23.5830     2.1450 
  104.5000   -17.1140    70.5340    11.1360     8.9270    10.3920    23.6010     2.1440 
  104.6250   -17.1140    70.5740    11.3960     9.1830    11.0280    23.5570     2.1470 
  104.7500   -17.1850    69.0590    11.5440     9.3970    11.6570    23.5120     2.1500 
  104.8750   -17.2230    66.8420    11.4980     9.5010    11.7180    23.5040     2.1500 
