~V
VERS. 2.00: Ver 2.00
~W
STRT.M 55.0000:
STOP.M 271.0000:
STEP.M 0.1250:
NULL. -999.2500:
UWI. DF5032:
~C
DEPT.M :
SP.MV :
GR.API :
CALI.CM :
RXO.OHMM :
RI. :
RML.OHMM :
DEN.GM/CC :
~A
# ...
  167.5000   -35.6340    73.2900    24.9650    83.8010    64.4230    68.9540     2.2660 
  167.6250   -35.9690    71.4860    25.0150   124.7670    85.2410    91.1870     2.2370 
  167.7500   -36.3020    70.1060    25.0130   151.0610   106.8910   114.3090     2.2170 
  167.8750   -36.6230    69.0270    24.9820   159.2950   125.4750   134.1570     2.2090 
  168.0000   -36.9260    68.8130    24.9220   155.6700   137.7360   147.2520     2.2130 
  168.1250   -37.1920    69.3190    24.8720   149.4590   141.8870   151.6850     2.2250 
  168.2500   -37.4180    69.5490    24.7930   142.2400   141.9080   151.7070     2.2320 
  168.3750   -37.6040    69.1610    24.7670   134.9910   141.3670   151.1300     2.2340 
  168.5000   -37.7540    68.4600    24.8070   129.5220   142.7020   152.5560     2.2360 
  168.6250   -37.8730    68.0280    24.8970   130.4850   147.3010   157.4670     2.2470 
  168.7500   -37.9710    67.7590    24.9520   137.4970   154.4420   165.0940     2.2590 
  168.8750   -38.0510    67.2290    24.9550   147.5450   163.1450   174.3890     2.2630 
  169.0000   -38.1160    66.5360    24.9640   156.6630   172.0830   183.9350     2.2590 
  169.1250   -38.1670    67.4730    24.9610   162.0010   179.4900   191.8460     2.2510 
  169.2500   -38.2060    70.5610    24.9500   164.6420   184.3140   196.9980     2.2380 
  169.3750   -38.2290    73.9920    24.9260   164.4900   185.9500   198.7450     2.2240 
  169.5000   -38.2330    75.9260    24.8560   162.1850   184.4660   197.1600     2.2130 
  169.6250   -38.2190    76.2310    24.7790   159.0200   180.2910   192.7010     2.2120 
  169.7500   -38.1920    75.2630    24.7330   155.1540   174.8480   186.8880     2.2190 
  169.8750   -38.1570    72.3150    24.7210   151.4790   168.8910   180.5250     2.2300 
  170.0000   -38.1180    68.1420    24.7410   148.2070   163.0380   174.2740     2.2390 
  170.1250   -38.0820    65.3030    24.7990   143.4180   158.0540   168.9510     2.2390 
  170.2500   -38.0530    64.3040    24.8440   137.5660   154.5190   165.1760     2.2350 
  170.3750   -38.0300    64.0650    24.8200   132.1470   153.0600   163.6180     2.2350 
  170.5000   -38.0130    63.9800    24.7790   128.3520   154.0770   164.7040     2.2430 
  170.6250   -38.0040    64.2670    24.7420   126.7480   157.7230   168.5980     2.2520 
  170.7500   -38.0030    64.4920    24.7340   128.9040   162.3900   173.5820     2.2510 
  170.8750   -38.0050    63.8550    24.7230   136.6030   166.0850   177.5290     2.2400 
  171.0000   -38.0080    62.0800    24.7210   148.0300   166.4610   177.9300     2.2230 
  171.1250   -38.0120    60.1450    24.7210   155.5530   160.7150   171.7940     2.2110 
  171.2500   -38.0230    59.7650    24.7010   151.7820   149.5760   159.8980     2.2040 
  171.3750   -38.0440    62.1600    24.6720   137.5760   134.6400   143.9450     2.2080 
  171.5000   -38.0760    67.4780    24.6560   117.5940   118.3950   126.5960     2.2300 
  171.6250   -38.1230    73.4190    24.6580    97.0120   104.0080   111.2310     2.2720 
  171.7500   -38.1900    76.4660    24.6370    79.6330    93.2910    99.7850     2.3100 
  171.8750   -38.2830    75.8940    24.5740    66.7470    87.0710    93.1420     2.3270 
  172.0000   -38.4020    74.4100    24.4210    59.7280    85.4920    91.4550     2.3230 
  172.1250   -38.5440    75.3780    24.1970    60.2890    88.9720    95.1730     2.3140 
  172.2500   -38.7000    76.9760    24.0080    65.3350    96.3430   103.0440     2.3100 
  172.3750   -38.8680    75.8770    23.8820    75.0410   107.0770   114.5080     2.3010 
  172.5000   -39.0440    71.7700    23.8010    90.6640   120.4040   128.7420     2.2790 
  172.6250   -39.2180    67.9630    23.7590   107.3610   135.2910   144.6410     2.2490 
  172.7500   -39.3810    66.2470    23.7580   117.2940   149.9320   160.2770     2.2310 
  172.8750   -39.5240    66.0970    23.8340   121.2580   162.8730   174.0980     2.2320 
  173.0000   -39.6440    66.7350    23.9570   127.4050   172.8260   184.7280     2.2410 
  173.1250   -39.7400    67.1520    24.0340   139.2190   178.4400   190.7240     2.2400 
  173.2500   -39.8190    66.4900    24.0650   150.1180   180.8160   193.2610     2.2310 
  173.3750   -39.8850    65.1830    24.0650   154.6840   181.2910   193.7690     2.2320 
  173.5000   -39.9440    64.5780    24.0500   152.3550   181.5850   194.0830     2.2510 
  173.6250   -39.9990    65.6150    24.0180   145.5850   184.0510   196.7170     2.2760 
  173.7500   -40.0590    67.2900    24.0360   139.0510   190.3640   203.4590     2.2860 
  173.8750   -40.1320    68.1710    24.1140   136.4020   201.6660   215.5290     2.2780 
  174.0000   -40.2200    67.7180    24.2370   142.7270   218.1720   233.1580     2.2580 
  174.1250   -40.3210    66.9100    24.3480   160.2470   239.1540   255.5660     2.2300 
  174.2500   -40.4230    66.9110    24.4070   180.7350   260.7690   278.6510     2.2050 
  174.3750   -40.5220    67.1620    24.4160   198.5700   279.0700   298.1960     2.1840 
  174.5000   -40.6120    66.9980    24.4030   213.5810   290.1360   310.0150     2.1680 
  174.6250   -40.6800    66.9280    24.3800   225.1850   289.7750   309.6300     2.1610 
  174.7500   -40.7180    67.5130    24.3500   228.1790   280.4990   299.7230     2.1700 
  174.8750   -40.7230    68.5030    24.2760   218.6000   266.0580   284.3000     2.1930 
  175.0000   -40.6980    69.6860    24.1720   200.6590   251.3770   268.6210     2.2180 
  175.1250   -40.6430    70.9540    24.0960   185.0840   241.7550   258.3450     2.2300 
  175.2500   -40.5630    71.7300    24.0610   174.0570   239.1120   255.5220     2.2290 
  175.3750   -40.4580    71.2100    24.0850   167.4590   243.8740   260.6070     2.2210 
  175.5000   -40.3360    69.1940    24.1530   166.9940   254.4230   271.8730     2.2170 
  175.6250   -40.2020    66.0360    24.2930   176.1210   265.8590   284.0880     2.2190 
  175.7500   -40.0630    62.6830    24.4420   194.7260   271.3220   289.9220     2.2160 
  175.8750   -39.9160    59.8370    24.5960   217.6530   266.2620   284.5170     2.1980 
  176.0000   -39.7580    58.2360    24.7340   233.4740   249.6830   266.8110     2.1700 
  176.1250   -39.5870    59.1710    24.8570   230.4550   223.6890   239.0500     2.1510 
  176.2500   -39.4030    62.6110    24.9610   212.0430   195.3030   208.7340     2.1550 
  176.3750   -39.2060    67.4940    25.0920   181.2950   168.9770   180.6170     2.1840 
  176.5000   -38.9980    72.0350    25.2570   145.4240   147.5510   157.7340     2.2210 
  176.6250   -38.7860    74.8310    25.3300   117.5860   132.6810   141.8540     2.2400 
  176.7500   -38.5750    76.3410    25.2470   104.4130   122.1580   130.6150     2.2410 
  176.8750   -38.3670    77.0260    25.1080   103.1900   113.9900   121.8910     2.2380 
  177.0000   -38.1650    77.1570    24.9840   105.4460   106.5130   113.9060     2.2470 
  177.1250   -37.9840    77.4350    24.8730    99.6480    98.9160   105.7930     2.2660 
  177.2500   -37.8310    78.3440    24.7790    88.8420    91.4380    97.8060     2.2870 
  177.3750   -37.7100    78.5840    24.7140    77.2260    84.6840    90.5930     2.3080 
  177.5000   -37.6150    75.9460    24.6980    67.3490    79.2070    84.7430     2.3290 
  177.6250   -37.5420    70.6100    24.6900    58.8490    75.6390    80.9320     2.3370 
  177.7500   -37.4860    66.3980    24.6830    51.3260    73.6390    78.7970     2.3250 
  177.8750   -37.4450    65.0660    24.6580    47.4720    72.8480    77.9520     2.3020 
  178.0000   -37.4110    65.9340    24.5870    50.1670    72.7900    77.8890     2.2850 
  178.1250   -37.3760    68.1280    24.4830    57.6330    73.1300    78.2530     2.2830 
  178.2500   -37.3360    71.3740    24.3730    62.7520    73.8200    78.9900     2.2860 
  178.3750   -37.2940    75.6910    24.2850    59.9610    75.2690    80.5370     2.2890 
  178.5000   -37.2520    79.6550    24.2800    51.6960    78.0370    83.4940     2.2910 
  178.6250   -37.2080    79.8150    24.4480    49.1200    82.8770    88.6630     2.2870 
