~V
VERS. 2.00: Ver 2.00
~W
STRT.M 55.0000:
STOP.M 271.0000:
STEP.M 0.1250:
NULL. -999.2500:
UWI. DF5016:
~C
DEPT.M :
SP.MV :
GR.API :
CALI.CM :
RXO.OHMM :
RI. :
RML.OHMM :
DEN.GM/CC :
~A
# ...
  212.5000   -24.4070    73.8540    24.5050    82.8080    73.0160    78.0420     2.2150 
  212.6250   -24.4120    71.3380    24.4890    71.3300    70.7960    75.6770     2.2310 
  212.7500   -24.4010    66.9320    24.4750    67.8500    70.2040    75.0480     2.2390 
  212.8750   -24.3740    63.8540    24.4940    71.6720    71.1050    76.0070     2.2410 
  213.0000   -24.3500    63.1440    24.5040    76.9220    73.0650    78.0950     2.2390 
  213.1250   -24.3570    64.1260    24.4780    79.1270    75.5370    80.7270     2.2320 
  213.2500   -24.3960    65.8630    24.4710    79.1810    77.8420    83.1820     2.2210 
  213.3750   -24.4510    67.8330    24.5450    76.6740    79.6440    85.1010     2.2040 
  213.5000   -24.5150    68.9610    24.6520    73.5890    80.8480    86.3830     2.1850 
  213.6250   -24.6030    68.5490    24.6460    76.0940    81.6860    87.2750     2.1710 
  213.7500   -24.7300    68.0420    24.6050    82.8860    82.6640    88.3170     2.1640 
  213.8750   -24.8980    68.2410    24.5790    88.2930    84.1440    89.8930     2.1630 
  214.0000   -25.0870    68.6880    24.5880    87.7070    86.4200    92.3170     2.1670 
  214.1250   -25.2690    68.1760    24.6040    85.0540    89.8370    95.9560     2.1730 
  214.2500   -25.4430    66.6570    24.6350    91.6530    94.1910   100.5930     2.1770 
  214.3750   -25.6220    64.8500    24.6940   111.3580    99.3230   106.0590     2.1770 
  214.5000   -25.8160    63.5770    24.7360   135.7540   105.0210   112.1270     2.1730 
  214.6250   -26.0130    63.9370    24.7860   152.4380   110.8280   118.3120     2.1610 
  214.7500   -26.1880    66.2200    24.8310   160.2080   115.7430   123.5460     2.1450 
  214.8750   -26.3330    69.2900    24.8640   164.5170   118.5020   126.4840     2.1320 
  215.0000   -26.4610    70.7220    24.8750   171.7400   117.8750   125.8170     2.1290 
  215.1250   -26.6030    68.9910    24.8710   185.9410   112.6590   120.2620     2.1300 
  215.2500   -26.7640    66.7200    24.8640   201.0760   104.2180   111.2730     2.1280 
  215.3750   -26.9310    65.7520    24.8650   195.0490    93.9740   100.3620     2.1280 
  215.5000   -27.0880    65.9450    24.8560   159.1680    83.5950    89.3080     2.1390 
  215.6250   -27.2400    67.3390    24.8000   109.3710    75.1020    80.2630     2.1620 
  215.7500   -27.4100    69.7090    24.7030    73.7810    69.3970    74.1870     2.1770 
  215.8750   -27.6090    71.3780    24.5970    59.3930    66.7670    71.3860     2.1760 
  216.0000   -27.8260    70.9460    24.5310    63.2640    66.9230    71.5530     2.1700 
  216.1250   -28.0340    70.1800    24.5010    77.6450    69.4500    74.2440     2.1730 
  216.2500   -28.2230    71.6960    24.4800    90.2070    73.0090    78.0350     2.1820 
  216.3750   -28.4040    75.0240    24.4830    96.5620    76.6880    81.9530     2.1870 
  216.5000   -28.5920    78.1320    24.4980    97.7240    79.7540    85.2180     2.1910 
  216.6250   -28.7840    79.1310    24.4850    95.6810    81.7340    87.3270     2.2020 
  216.7500   -28.9560    77.5380    24.4620    92.9520    83.0550    88.7340     2.2170 
  216.8750   -29.0900    73.9480    24.4500    90.9960    84.2870    90.0460     2.2320 
  217.0000   -29.1880    70.7070    24.3710    91.0230    85.9430    91.8090     2.2470 
  217.1250   -29.2690    70.4400    24.2230    94.8080    88.2130    94.2270     2.2580 
  217.2500   -29.3440    72.0410    24.1960   100.8630    90.4740    96.6350     2.2550 
  217.3750   -29.4020    73.2980    24.3290   108.3030    91.9020    98.1550     2.2360 
  217.5000   -29.4210    72.6960    24.4590   115.6920    91.7360    97.9780     2.2110 
  217.6250   -29.3910    70.3960    24.5040   118.7400    89.2440    95.3250     2.1930 
  217.7500   -29.3410    69.0510    24.5160   113.4140    85.0440    90.8510     2.1830 
  217.8750   -29.2870    70.0990    24.5030   101.6270    79.9320    85.4080     2.1760 
  218.0000   -29.2310    72.4700    24.4760    85.1160    74.8950    80.0440     2.1720 
  218.1250   -29.1510    73.1030    24.4690    69.1550    70.9350    75.8260     2.1700 
  218.2500   -29.0420    71.6390    24.4840    60.3820    68.2360    72.9510     2.1730 
  218.3750   -28.9180    69.6690    24.4740    59.1430    66.6360    71.2470     2.1810 
  218.5000   -28.8030    68.8270    24.4330    60.6410    65.6850    70.2350     2.1870 
  218.6250   -28.7070    69.8100    24.3970    59.3330    64.7860    69.2770     2.1860 
  218.7500   -28.6140    71.1850    24.3750    55.1950    63.4840    67.8910     2.1810 
  218.8750   -28.5110    71.8700    24.3770    51.4540    61.6580    65.9460     2.1760 
  219.0000   -28.3980    72.3730    24.4170    50.9930    59.4090    63.5510     2.1750 
  219.1250   -28.2980    73.9860    24.4600    54.1310    57.0490    61.0370     2.1780 
  219.2500   -28.2180    76.5440    24.4670    56.5480    55.0270    58.8840     2.1820 
  219.3750   -28.1490    79.3000    24.4590    55.2120    53.7680    57.5430     2.1870 
  219.5000   -28.0710    82.1970    24.4480    50.6890    53.6910    57.4610     2.1940 
  219.6250   -27.9750    84.6630    24.3910    46.6770    55.3200    59.1950     2.1990 
  219.7500   -27.8770    84.6940    24.3130    45.6580    58.4820    62.5630     2.2000 
  219.8750   -27.7870    81.3960    24.2840    47.4400    63.0700    67.4500     2.1990 
  220.0000   -27.7010    76.4940    24.3110    52.4100    68.7630    73.5130     2.1990 
  220.1250   -27.5960    73.7800    24.4160    65.5020    74.8840    80.0320     2.1950 
  220.2500   -27.4660    73.9000    24.5130    88.9480    80.4730    85.9830     2.1860 
  220.3750   -27.3290    74.5790    24.5620   113.9970    84.8790    90.6760     2.1780 
  220.5000   -27.2110    73.3810    24.4620   125.1300    87.7310    93.7140     2.1760 
  220.6250   -27.1380    70.3290    24.2850   118.3800    88.7180    94.7650     2.1850 
  220.7500   -27.0990    68.1490    24.2040   111.3840    88.3060    94.3260     2.1960 
  220.8750   -27.0860    67.3500    24.2680   109.4260    86.6100    92.5190     2.2010 
  221.0000   -27.1000    66.7700    24.4210   106.4900    83.7160    89.4380     2.1970 
  221.1250   -27.1740    66.1440    24.5180    98.7600    79.7750    85.2400     2.1900 
  221.2500   -27.3290    67.6880    24.5320    87.6800    75.3190    80.4950     2.1870 
  221.3750   -27.5740    72.0980    24.4920    75.0990    70.6120    75.4820     2.1890 
  221.5000   -27.9020    76.6800    24.4450    63.1300    65.9930    70.5630     2.1960 
  221.6250   -28.2960    77.6040    24.4420    54.4940    62.1740    66.4950     2.2080 
  221.7500   -28.7190    76.5890    24.4500    48.5520    59.5580    63.7090     2.2190 
  221.8750   -29.1500    76.4980    24.4340    43.5170    58.3490    62.4210     2.2240 
  222.0000   -29.5730    77.5270    24.4200    38.9780    58.6490    62.7410     2.2190 
  222.1250   -29.9650    77.3350    24.3560    37.1530    60.7820    65.0130     2.2110 
  222.2500   -30.3030    76.0510    24.2890    41.2200    64.3950    68.8610     2.2140 
  222.3750   -30.5620    74.5850    24.3010    55.7000    69.3230    74.1090     2.2220 
  222.5000   -30.7220    72.6760    24.3700    81.0580    75.3280    80.5040     2.2230 
  222.6250   -30.7580    69.5720    24.4020   106.4210    81.9770    87.5850     2.2040 
  222.7500   -30.6990    67.0810    24.4500   119.6480    88.4850    94.5160     2.1800 
  222.8750   -30.5650    66.8300    24.4820   127.3610    94.2790   100.6870     2.1700 
  223.0000   -30.3830    67.9650    24.4560   139.7440    98.8770   105.5840     2.1820 
  223.1250   -30.1710    68.2550    24.3650   156.9930   101.7010   108.5920     2.2130 
  223.2500   -29.9550    67.9160    24.3000   162.1900   103.0430   110.0210     2.2450 
  223.3750   -29.7420    68.1040    24.2720   155.9950   103.2600   110.2520     2.2590 
  223.5000   -29.5370    68.5460    24.2980   147.3230   102.6860   109.6400     2.2470 
  223.6250   -29.3400    67.4500    24.3460   136.4600   101.5730   108.4550     2.2150 
