~V
VERS. 2.00: Ver 2.00
~W
STRT.M 61.0000:
STOP.M 267.0000:
STEP.M 0.1250:
NULL. -999.2500:
UWI. DF5036:
~C
DEPT.M :
SP.MV :
GR.API :
RML.OHMM :
RI. :
RXO.OHMM :
CALI.CM :
DEN.GM/CC :
~A
# ...
   83.5000   -28.5650    56.9510    10.2410     8.7000    10.4480    23.1440     2.2040 
   83.6250   -28.1710    58.1220     9.9980     8.5260    10.3150    23.1440     2.1960 
   83.7500   -27.7710    60.4420     9.6630     8.2760     9.8270    23.1440     2.1920 
   83.8750   -27.3610    60.9360     9.3230     8.0030     8.9700    23.1440     2.1920 
   84.0000   -26.9700    59.2180     9.0610     7.7630     7.9880    23.1370     2.1950 
   84.1250   -26.6310    60.6270     8.9450     7.6160     7.4320    23.1000     2.1990 
   84.2500   -26.2890    66.7780     8.9510     7.5700     7.6980    23.0190     2.2030 
   84.3750   -25.9470    73.0910     9.0600     7.6260     8.4810    22.9070     2.2050 
   84.5000   -25.6200    74.3780     9.2610     7.7780     9.1350    22.7780     2.2050 
   84.6250   -25.3160    70.8260     9.5570     8.0270     9.3860    22.6270     2.2030 
   84.7500   -24.9910    67.8270     9.8890     8.3180     9.4010    22.5000     2.2000 
   84.8750   -24.6470    64.6990    10.1560     8.5780     9.2640    22.4280     2.1990 
   85.0000   -24.2640    60.3210    10.2250     8.7090     9.0410    22.4080     2.2020 
   85.1250   -23.8130    57.7930     9.9550     8.5890     8.8270    22.4550     2.2130 
   85.2500   -23.3480    60.8440     9.4420     8.2540     8.5280    22.6010     2.2310 
   85.3750   -22.8910    70.5560     8.8360     7.7890     8.0430    22.8560     2.2510 
   85.5000   -22.4320    83.0730     8.2950     7.3050     7.2020    23.1440     2.2680 
   85.6250   -21.9630    93.5760     7.9240     6.8990     6.2600    23.3480     2.2740 
   85.7500   -21.5000    98.3390     7.6670     6.5810     5.7430    23.5070     2.2720 
   85.8750   -21.0560    97.9860     7.4580     6.3300     5.7090    23.7060     2.2690 
   86.0000   -20.6600    95.2200     7.2420     6.1190     5.6740    23.9420     2.2710 
   86.1250   -20.3440    93.3750     6.9780     5.9240     5.4420    24.0860     2.2810 
   86.2500   -20.0740    93.8450     6.6660     5.7220     5.2080    24.1600     2.2950 
   86.3750   -19.8490    94.6740     6.3220     5.5090     5.0110    24.2200     2.3100 
   86.5000   -19.6700    95.0500     5.9940     5.2990     4.8780    24.2680     2.3260 
   86.6250   -19.5570    96.2460     5.7720     5.1440     4.8440    24.2940     2.3420 
   86.7500   -19.5200    97.7940     5.6910     5.0790     4.8370    24.2690     2.3530 
   86.8750   -19.5750    99.0230     5.7400     5.1130     4.8740    24.2040     2.3550 
   87.0000   -19.6930    98.1540     5.8640     5.2240     5.0830    24.0970     2.3470 
   87.1250   -19.8530    96.3510     5.9990     5.3670     5.4000    23.9320     2.3310 
   87.2500   -20.0620    95.6110     6.1260     5.5060     5.7680    23.7560     2.3150 
   87.3750   -20.2930    97.4640     6.2780     5.6420     6.0270    23.6970     2.3040 
   87.5000   -20.5530   100.0160     6.4860     5.7870     6.0060    23.7000     2.2960 
   87.6250   -20.8220    98.2180     6.7230     5.9300     5.9470    23.6380     2.2860 
   87.7500   -21.0550    93.0990     6.8860     6.0240     6.0660    23.5010     2.2760 
   87.8750   -21.1790    88.6450     6.8870     6.0190     6.3650    23.4300     2.2680 
   88.0000   -21.2290    86.4770     6.7130     5.9020     6.5760    23.5390     2.2680 
   88.1250   -21.2700    88.0830     6.4840     5.7310     6.3920    23.8400     2.2770 
   88.2500   -21.3140    93.4590     6.4010     5.6270     6.0500    24.1000     2.2870 
   88.3750   -21.3710    98.9420     6.5640     5.6630     5.8890    24.1840     2.2890 
   88.5000   -21.4230   100.4360     6.9320     5.8400     5.9860    24.0810     2.2800 
   88.6250   -21.4410    95.0380     7.3060     6.0690     6.3790    23.8050     2.2640 
   88.7500   -21.4100    86.3810     7.4580     6.2120     6.8880    23.5440     2.2540 
   88.8750   -21.3420    81.5600     7.3150     6.1980     7.1460    23.4770     2.2580 
   89.0000   -21.2140    85.7610     6.9740     6.0490     6.7950    23.6130     2.2750 
   89.1250   -21.0150    95.9730     6.6880     5.8740     6.0800    23.8860     2.3000 
   89.2500   -20.7800   101.9980     6.6270     5.7910     5.6060    24.1420     2.3200 
   89.3750   -20.5030   101.3490     6.8080     5.8370     5.6250    24.2010     2.3310 
   89.5000   -20.2180    96.6890     7.1400     5.9910     6.0160    23.9990     2.3300 
   89.6250   -19.9550    89.9480     7.4720     6.1860     6.2830    23.6100     2.3210 
   89.7500   -19.7440    85.4880     7.6650     6.3300     6.1770    23.3360     2.3110 
   89.8750   -19.6110    86.0950     7.6490     6.3580     5.7510    23.2620     2.3040 
   90.0000   -19.5630    89.6510     7.4170     6.2430     5.4360    23.3530     2.3050 
   90.1250   -19.5650    90.9310     7.0160     5.9900     5.3050    23.5950     2.3150 
   90.2500   -19.6020    89.9420     6.5930     5.6920     5.0990    23.8930     2.3260 
   90.3750   -19.6770    89.0150     6.2540     5.4220     4.8980    24.0980     2.3340 
   90.5000   -19.7760    88.9150     6.0680     5.2350     4.8840    24.0880     2.3330 
   90.6250   -19.9340    88.2760     6.0850     5.1810     5.1510    23.9200     2.3220 
   90.7500   -20.1600    86.8330     6.2470     5.2380     5.5460    23.7530     2.3060 
   90.8750   -20.4770    84.2930     6.4940     5.3840     5.9550    23.6870     2.2890 
   91.0000   -20.8550    79.9660     6.7600     5.5830     6.2510    23.6050     2.2760 
   91.1250   -21.2160    75.6860     6.9800     5.8000     6.5780    23.4030     2.2750 
   91.2500   -21.4740    75.2510     7.1370     5.9960     7.0140    23.2540     2.2820 
   91.3750   -21.6440    78.0480     7.2520     6.1560     7.2400    23.2830     2.2940 
   91.5000   -21.7450    81.6020     7.3720     6.2890     7.1660    23.4190     2.3010 
   91.6250   -21.7760    83.4410     7.5570     6.4150     6.9060    23.4710     2.2950 
   91.7500   -21.7380    82.6300     7.7900     6.5480     6.7410    23.3980     2.2800 
   91.8750   -21.6030    79.8120     8.0080     6.6720     6.7170    23.1890     2.2630 
   92.0000   -21.3650    77.4200     8.1110     6.7450     6.9320    22.9190     2.2530 
   92.1250   -21.0550    76.3460     7.9930     6.7080     7.1840    22.7290     2.2560 
   92.2500   -20.7450    76.5960     7.7410     6.5860     7.0240    22.5580     2.2640 
   92.3750   -20.4350    78.4040     7.5230     6.4620     6.5550    22.4310     2.2740 
   92.5000   -20.1060    81.6550     7.5090     6.4340     6.1650    22.5470     2.2860 
   92.6250   -19.7610    83.0120     7.7650     6.5640     6.3260    23.0530     2.3030 
   92.7500   -19.4280    81.9310     8.1010     6.7640     7.1220    23.6230     2.3240 
   92.8750   -19.1360    81.4330     8.3170     6.9260     8.1510    23.9830     2.3420 
   93.0000   -18.9330    81.8650     8.2710     6.9500     8.8620    24.1080     2.3510 
   93.1250   -18.8690    81.5270     7.9280     6.7770     8.5480    24.0970     2.3430 
   93.2500   -18.9260    81.9440     7.4860     6.4970     6.8800    24.0220     2.3290 
   93.3750   -19.0750    83.9970     7.1000     6.2030     5.8250    23.9290     2.3140 
   93.5000   -19.3160    85.8750     6.8560     5.9740     5.6020    23.9320     2.3060 
   93.6250   -19.6300    84.4560     6.7950     5.8670     5.6270    24.0230     2.3050 
   93.7500   -20.0080    81.8320     6.8390     5.8540     5.6440    24.0640     2.3090 
   93.8750   -20.4050    79.6330     6.8980     5.8800     5.7150    24.0040     2.3160 
   94.0000   -20.7800    79.9770     6.8660     5.8730     5.8620    23.9070     2.3240 
   94.1250   -21.1260    83.9780     6.6170     5.7430     6.0050    23.8970     2.3240 
   94.2500   -21.4660    87.8300     6.1910     5.4980     6.0500    23.9380     2.3170 
   94.3750   -21.8060    88.2060     5.7390     5.2150     6.0010    23.9320     2.3070 
   94.5000   -22.1210    84.8000     5.5090     5.0440     5.9710    23.8610     2.3070 
   94.6250   -22.4090    80.0900     5.8360     5.2230     6.2300    23.8350     2.3300 
