~V
VERS. 2.00: Ver 2.00
~W
STRT.M 60.0000:
STOP.M 273.0000:
STEP.M 0.1250:
NULL. -999.2500:
UWI. DF5008:
~C
DEPT.M :
GR.API :
CALI.CM :
RXO.OHMM :
RI. :
RML.OHMM :
DEN.GM/CC :
SP.MV :
~A
# ...
  217.5000    60.2340    24.4410    99.8720    90.9800   102.7970     2.1820   -46.2990 
  217.6250    62.2870    24.4120    92.1120    89.5460   101.2080     2.1770   -46.2520 
  217.7500    64.0190    24.4040    91.7650    88.1400    99.7270     2.1770   -46.1830 
  217.8750    65.7050    24.4300    95.5420    86.8400    98.3950     2.1800   -46.1370 
  218.0000    64.8580    24.4650    95.7530    85.7560    97.2770     2.1820   -46.0790 
  218.1250    61.9950    24.4770    89.6590    85.2180    96.6700     2.1820   -46.0870 
  218.2500    61.4950    24.4820    83.6230    85.5670    96.9260     2.1780   -46.1220 
  218.3750    64.5410    24.4970    85.6960    87.2920    98.4840     2.1710   -46.1210 
  218.5000    66.8550    24.5170    97.6980    90.7630   101.5100     2.1670   -46.2140 
  218.6250    66.0920    24.5240   106.3420    95.8680   105.4270     2.1660   -46.2960 
  218.7500    65.9870    24.4990   109.1570   100.9710   108.4760     2.1670   -46.3690 
  218.8750    67.5470    24.4140   117.6160   104.3800   109.1060     2.1710   -46.4290 
  219.0000    67.9700    24.2900   132.1670   104.8950   106.5960     2.1780   -46.5250 
  219.1250    65.1390    24.2320   131.6260   102.0350   101.1200     2.1920   -46.5510 
  219.2500    62.4620    24.2620   107.1780    97.1800    94.1930     2.2140   -46.5950 
  219.3750    62.5840    24.2960    88.8160    90.8420    86.1760     2.2360   -46.5890 
  219.5000    64.1810    24.2470    85.5680    82.8480    76.7990     2.2540   -46.5740 
  219.6250    65.0090    24.1470    81.5070    72.5070    65.6680     2.2650   -46.5190 
  219.7500    64.4990    24.1050    70.6900    60.6600    53.8050     2.2780   -46.4520 
  219.8750    65.2520    24.1140    53.9690    48.7520    42.5570     2.2940   -46.3750 
  220.0000    69.2150    24.1000    38.3760    38.5450    33.3280     2.3070   -46.2620 
  220.1250    73.5710    24.0360    28.3660    31.8190    27.6750     2.3040   -46.1710 
  220.2500    76.1190    23.9840    23.8770    28.4320    25.5270     2.2830   -46.0580 
  220.3750    76.9290    23.9630    22.6210    28.4940    27.0830     2.2530   -45.9360 
  220.5000    77.1570    23.9430    29.4390    32.3910    32.4750     2.2240   -45.8170 
  220.6250    75.9280    23.9350    58.4690    41.2720    41.9080     2.2070   -45.6510 
  220.7500    72.0160    23.9840    89.3660    53.5000    53.0540     2.2000   -45.5670 
  220.8750    66.8450    24.0660   107.8010    65.6690    62.6120     2.2000   -45.4880 
  221.0000    63.2240    24.1160   112.8580    72.8290    66.8780     2.2020   -45.4270 
  221.1250    64.4320    24.1070    94.3240    71.3630    64.0830     2.2030   -45.3570 
  221.2500    68.2210    24.1080    66.1850    65.7940    58.8430     2.2060   -45.2890 
  221.3750    71.0510    24.1710    50.2820    60.3470    54.7280     2.2100   -45.2640 
  221.5000    72.2350    24.2810    51.4400    57.3180    53.3700     2.2140   -45.1950 
  221.6250    71.9030    24.3910    57.4400    57.5240    55.2160     2.2110   -45.2270 
  221.7500    69.3160    24.4580    61.7220    60.0010    59.2070     2.2020   -45.1610 
  221.8750    65.2230    24.4700    64.7310    64.2520    64.8550     2.1890   -45.1100 
  222.0000    63.9740    24.4610    69.0160    69.8850    71.8340     2.1760   -45.0610 
  222.1250    67.3530    24.4470    78.3270    76.9900    80.3230     2.1700   -45.0500 
  222.2500    70.5310    24.4140    93.3970    85.5290    90.2760     2.1680   -45.0520 
  222.3750    71.2580    24.3720   114.6040    95.5240   101.6280     2.1700   -45.0260 
  222.5000    69.2960    24.3510   136.4970   106.4460   113.7320     2.1730   -45.0420 
  222.6250    66.0910    24.3720   151.1530   116.6300   124.7250     2.1780   -44.9780 
  222.7500    64.5180    24.3990   160.7960   124.0290   132.4610     2.1840   -45.0270 
  222.8750    66.2630    24.4360   166.8840   127.1160   135.3350     2.1890   -45.0440 
  223.0000    67.9800    24.5000   159.3130   125.4790   133.0200     2.1900   -45.0730 
  223.1250    64.4880    24.5850   143.3670   119.5650   126.2400     2.1870   -45.0850 
  223.2500    60.2630    24.6550   126.6970   111.8930   117.8850     2.1850   -45.0910 
  223.3750    60.8350    24.6970   115.6020   104.2330   109.9170     2.1880   -45.1160 
  223.5000    65.1830    24.7160   108.9170    98.0120   103.7800     2.2000   -45.0790 
  223.6250    68.3020    24.7300   106.2940    94.5150   100.5980     2.2200   -45.1420 
  223.7500    68.1830    24.7410   103.4390    93.3730    99.6570     2.2380   -45.0850 
  223.8750    66.5860    24.7270   109.9080    93.8220    99.9430     2.2470   -45.0880 
  224.0000    65.7620    24.6850   121.7450    94.5640   100.0270     2.2400   -45.0550 
  224.1250    65.4430    24.6410   119.9160    93.8940    98.2120     2.2220   -45.0710 
  224.2500    63.2260    24.6150   106.4320    91.3250    94.3830     2.2040   -45.0820 
  224.3750    59.4270    24.6080    91.9150    87.2850    89.2870     2.1940   -45.1250 
  224.5000    56.0870    24.6110    82.1660    82.8140    84.1710     2.1970   -45.2010 
  224.6250    56.0310    24.6110    77.6810    79.2320    80.3910     2.2120   -45.3110 
  224.7500    57.7120    24.5960    75.9740    76.9990    78.1320     2.2280   -45.4330 
  224.8750    60.7200    24.5570    75.1390    75.9360    77.0030     2.2380   -45.5360 
  225.0000    63.5680    24.4960    75.1310    75.3950    76.2270     2.2360   -45.6650 
  225.1250    63.7930    24.4540    74.3950    74.4710    74.8970     2.2210   -45.7450 
  225.2500    62.4290    24.4700    73.1510    72.7330    72.7490     2.2020   -45.8660 
  225.3750    60.8980    24.5260    71.0240    70.2690    70.0120     2.1840   -45.9680 
  225.5000    62.0560    24.5670    66.9780    67.4830    67.1390     2.1730   -46.0850 
  225.6250    66.7180    24.5580    63.8790    64.7820    64.4990     2.1730   -46.0930 
  225.7500    68.4680    24.5330    62.8160    62.2530    62.0790     2.1800   -46.2080 
  225.8750    65.2490    24.5150    63.4000    59.8840    59.8360     2.1930   -46.2490 
  226.0000    61.5380    24.5060    62.8700    57.7650    57.8710     2.2070   -46.2870 
  226.1250    61.8950    24.5090    54.9800    56.1500    56.4660     2.2200   -46.2500 
  226.2500    63.5060    24.5140    46.6130    55.0300    55.5800     2.2300   -46.1470 
  226.3750    63.6670    24.5070    48.0960    54.2550    54.9930     2.2360   -46.0840 
  226.5000    63.3820    24.4870    57.2460    53.4970    54.3060     2.2380   -45.9700 
  226.6250    64.6880    24.4760    59.4500    52.2640    52.9920     2.2390   -45.8370 
  226.7500    68.0180    24.4840    54.2050    50.4440    51.0520     2.2410   -45.5910 
  226.8750    70.5410    24.4960    47.6440    48.2680    48.8560     2.2450   -45.3780 
  227.0000    69.5200    24.5020    43.3910    46.2770    47.0720     2.2490   -45.1710 
  227.1250    68.4500    24.5050    42.8020    45.3770    46.7140     2.2510   -45.0300 
  227.2500    69.2430    24.5080    43.1670    45.9790    48.0540     2.2500   -44.9200 
  227.3750    70.1980    24.5160    45.4330    48.1530    50.9560     2.2520   -44.7470 
  227.5000    70.2780    24.5400    49.4250    51.3520    54.6400     2.2620   -44.6150 
  227.6250    69.8600    24.5590    57.8130    54.1330    57.4390     2.2850   -44.4720 
  227.7500    68.3880    24.5540    62.6390    55.1150    58.0850     2.3170   -44.4350 
  227.8750    65.6310    24.5500    63.0920    53.9360    56.4390     2.3430   -44.4130 
  228.0000    64.1500    24.5600    58.9990    51.3470    53.5710     2.3460   -44.3900 
  228.1250    67.0650    24.5570    45.6170    48.9360    51.3990     2.3170   -44.3900 
  228.2500    71.9970    24.5240    38.0320    48.0250    51.1610     2.2760   -44.4020 
  228.3750    74.9470    24.4890    48.3200    49.1550    53.2120     2.2390   -44.4640 
  228.5000    74.3450    24.4870    67.5720    52.2410    57.2470     2.2120   -44.5000 
  228.6250    71.2620    24.5310    74.9930    56.7890    62.5660     2.2010   -44.6020 
