~V
VERS. 2.00: Ver 2.00
~W
STRT.M 60.0000:
STOP.M 273.0000:
STEP.M 0.1250:
NULL. -999.2500:
UWI. DF5003:
~C
DEPT.M :
GR.API :
CALI.CM :
RXO.OHMM :
RI. :
RML.OHMM :
DEN.GM/CC :
SP.MV :
~A
# ...
  195.0000    58.1160    24.4730   493.5410   259.2570   290.5180     2.1920   -34.4040 
  195.1250    57.3210    24.4700   634.6780   290.1010   326.7240     2.1880   -34.3950 
  195.2500    56.7800    24.4480   691.1500   313.6650   353.5530     2.1880   -34.5020 
  195.3750    55.8230    24.4070   727.3640   321.4190   358.9050     2.1910   -34.4670 
  195.5000    54.5560    24.3680   814.4880   311.2180   340.8730     2.1990   -34.5870 
  195.6250    54.8930    24.3560   821.2500   288.4300   309.3520     2.2090   -34.6920 
  195.7500    56.4090    24.3570   652.9560   264.6600   279.0730     2.2190   -34.8610 
  195.8750    55.8440    24.3430   447.9890   245.1470   255.1200     2.2270   -34.9710 
  196.0000    52.5940    24.3090   371.2740   231.3970   238.0870     2.2340   -35.1120 
  196.1250    52.0970    24.2670   360.9160   222.2320   226.1560     2.2430   -35.2400 
  196.2500    55.6720    24.2220   351.7270   212.9710   214.2430     2.2540   -35.4070 
  196.3750    60.0360    24.1710   337.9120   200.1560   198.8870     2.2660   -35.6350 
  196.5000    62.2560    24.1300   294.1870   182.5710   179.2040     2.2750   -35.6910 
  196.6250    60.8310    24.1110   227.1030   162.3150   157.9680     2.2790   -35.9690 
  196.7500    57.9260    24.0530   157.6690   144.3350   140.1330     2.2750   -36.0720 
  196.8750    57.5750    23.8730   115.2460   132.1320   128.8810     2.2640   -36.2450 
  197.0000    61.2960    23.5850   130.9990   127.6820   125.6920     2.2480   -36.3380 
  197.1250    64.1730    23.3330   221.1470   132.9330   132.1610     2.2330   -36.5390 
  197.2500    62.3320    23.2150   305.7440   146.1130   146.5260     2.2250   -36.6640 
  197.3750    58.4880    23.2270   377.8350   166.2010   167.9610     2.2280   -36.7520 
  197.5000    54.8600    23.3320   502.1190   191.0770   194.5840     2.2410   -36.9900 
  197.6250    52.3850    23.4780   602.0910   216.5850   222.2190     2.2590   -36.9950 
  197.7500    53.3810    23.5740   630.2640   237.4810   244.9170     2.2680   -37.1700 
  197.8750    57.1540    23.6300   714.8160   250.5970   258.8370     2.2610   -37.2450 
  198.0000    59.3680    23.7480   760.5440   255.0110   262.7880     2.2410   -37.3260 
  198.1250    58.4010    23.9610   473.5590   248.8240   254.3730     2.2180   -37.1920 
  198.2500    58.0900    24.1190   305.0830   232.1880   233.9360     2.2050   -37.1280 
  198.3750    57.8180    24.1260   404.4060   205.5020   203.2100     2.2060   -36.9490 
  198.5000    55.5080    24.0150   499.0070   173.4620   169.0640     2.2170   -36.6310 
  198.6250    53.4940    23.9000   443.1810   144.7340   141.4720     2.2290   -36.3970 
  198.7500    55.3610    23.8570   213.9460   125.1050   124.6060     2.2330   -36.0510 
  198.8750    59.5780    23.9390   107.7550   117.3310   119.8220     2.2270   -35.6910 
  199.0000    63.9400    24.1350   135.4780   122.7390   127.6240     2.2140   -35.2520 
  199.1250    65.3150    24.3460   232.9090   144.5060   151.4370     2.2000   -34.7880 
  199.2500    62.2700    24.4940   276.6900   180.5330   190.8920     2.1890   -34.2180 
  199.3750    57.1980    24.5930   277.8330   228.7580   246.2430     2.1830   -33.6840 
  199.5000    53.5000    24.6680   335.6970   282.8400   312.4520     2.1810   -33.1230 
  199.6250    53.0970    24.6960   406.5410   330.5450   374.7650     2.1790   -32.4050 
  199.7500    54.0170    24.6930   433.3910   364.3230   420.2560     2.1750   -31.6590 
  199.8750    55.4090    24.6920   424.6170   382.8850   445.9810     2.1680   -30.8770 
  200.0000    55.8560    24.6950   406.1520   388.3470   454.5700     2.1580   -30.1580 
  200.1250    52.1200    24.6810   431.8490   384.1420   450.7610     2.1500   -29.4950 
  200.2500    47.1070    24.6450   472.2640   377.0790   443.9880     2.1460   -28.9050 
  200.3750    43.1590    24.6070   453.1460   368.2070   435.3700     2.1460   -28.4110 
  200.5000    41.7500    24.5890   392.0870   353.8010   417.8680     2.1480   -27.8950 
  200.6250    44.1270    24.5950   383.4490   326.9040   379.1110     2.1530   -27.6040 
  200.7500    47.5800    24.5980   398.9220   290.6980   326.9010     2.1620   -27.2790 
  200.8750    49.4540    24.5810   339.5520   252.9790   276.1410     2.1740   -27.0180 
  201.0000    49.1780    24.5420   240.5990   221.3860   237.1900     2.1870   -26.7060 
  201.1250    50.5630    24.5030   163.4470   198.8710   210.8760     2.1930   -26.5110 
  201.2500    53.4780    24.4820   153.4460   179.0290   186.9100     2.1950   -26.1870 
  201.3750    54.7050    24.4750   182.1870   156.5190   159.1800     2.1980   -25.9140 
  201.5000    52.7710    24.4680   214.8100   130.6720   128.8470     2.2160   -25.6510 
  201.6250    49.0060    24.4690   153.9760   107.1530   104.0290     2.2550   -25.2950 
  201.7500    47.7490    24.4750    85.0760    90.6010    88.2360     2.3090   -25.0190 
  201.8750    51.3530    24.4360    36.8180    80.8650    79.8250     2.3730   -24.7840 
  202.0000    57.5720    24.3420    33.8320    73.8910    73.9630     2.4460   -24.5830 
  202.1250    61.8920    24.2160    92.5190    62.8840    63.7650     2.5240   -24.3090 
  202.2500    61.8820    24.0830   134.9630    46.9920    45.7820     2.5820   -24.0920 
  202.3750    59.2510    23.9590   101.9270    30.9070    28.0030     2.6050   -23.7240 
  202.5000    58.1500    23.8750    31.8620    18.8970    16.7950     2.5980   -23.5030 
  202.6250    62.7990    23.8630     8.7930    12.2110    10.5440     2.5790   -23.2170 
  202.7500    71.8560    23.8690     5.9190     8.5510     7.2730     2.5570   -23.0060 
  202.8750    81.4980    23.8690     5.4430     6.7020     5.7900     2.5320   -22.8280 
  203.0000    88.7590    23.8650     5.1190     5.9620     5.3390     2.5010   -22.7290 
  203.1250    92.7710    23.8820     5.1500     6.0480     5.5720     2.4670   -22.6340 
  203.2500    94.3660    23.9650     5.7410     6.5970     6.1410     2.4400   -22.6370 
  203.3750    95.0700    24.1150     6.5930     7.4350     6.8840     2.4230   -22.7770 
  203.5000    95.0170    24.2660     7.8160     8.3860     7.6550     2.4130   -22.8320 
  203.6250    93.7380    24.3330     8.6990     9.2270     8.2930     2.4050   -23.0820 
  203.7500    93.2340    24.3400     9.1760     9.7960     8.7200     2.3950   -23.2960 
  203.8750    94.0640    24.3460     9.2680    10.0250     8.9190     2.3860   -23.5780 
  204.0000    95.1740    24.3820     9.2860     9.9490     8.9360     2.3800   -23.8330 
  204.1250    94.0980    24.4290     9.3240     9.6650     8.8600     2.3770   -24.2150 
  204.2500    92.7770    24.4480     9.4460     9.3360     8.8070     2.3740   -24.4910 
  204.3750    92.0420    24.4320     8.9640     9.0450     8.8410     2.3700   -24.7540 
  204.5000    90.4400    24.4080     8.5910     8.8400     8.9870     2.3660   -25.1380 
  204.6250    88.1770    24.3960     9.0420     8.7510     9.2480     2.3590   -25.3940 
  204.7500    88.6900    24.3740     9.6850     8.7450     9.5580     2.3490   -25.7390 
  204.8750    90.6100    24.3330     9.6650     8.8000     9.8720     2.3400   -26.0100 
  205.0000    89.3430    24.2890     9.7060     8.9170    10.1940     2.3360   -26.2970 
  205.1250    84.6420    24.2710    10.1070     9.1690    10.6420     2.3460   -26.4560 
  205.2500    82.8760    24.2700    10.8970     9.6460    11.4150     2.3680   -26.6630 
  205.3750    83.8440    24.2700    11.6700    10.4950    12.7930     2.4010   -26.7290 
  205.5000    83.2620    24.2700    13.4190    11.8970    15.0830     2.4390   -26.6570 
  205.6250    79.1910    24.2760    16.8390    14.0840    18.5360     2.4740   -26.4790 
  205.7500    74.6590    24.2510    20.9270    16.6850    22.3840     2.5000   -26.1570 
  205.8750    70.2470    24.1280    23.8400    18.8830    25.2840     2.5140   -25.7160 
  206.0000    66.5920    23.8580    25.2130    19.5600    25.6930     2.5180   -25.1690 
  206.1250    65.8110    23.5060    24.0880    17.9810    22.8510     2.5130   -24.5570 
