~V
VERS. 2.00: Ver 2.00
~W
STRT.M 59.0000:
STOP.M 260.0000:
STEP.M 0.1250:
NULL. -999.2500:
UWI. DF5044:
~C
DEPT.M :
GR.API :
CALI.CM :
RXO.OHMM :
RI. :
RML.OHMM :
DEN.GM/CC :
SP.MV :
~A
# ...
  115.2500   105.8420    23.0770     6.8210     5.0100     6.0430     2.2050   -13.0020 
  115.3750   112.5780    23.0500     6.8250     4.8740     5.8350     2.1950   -12.7480 
  115.5000   113.4260    23.1220     6.4520     4.6900     5.5870     2.2000   -12.4690 
  115.6250   109.7420    23.3540     5.7070     4.5000     5.3610     2.2240   -12.1850 
  115.7500   108.3510    23.6440     5.1120     4.3420     5.1880     2.2560   -11.8430 
  115.8750   110.0080    23.8580     4.9840     4.2300     5.0800     2.2800   -11.4750 
  116.0000   111.5170    23.9770     5.1050     4.1680     5.0340     2.2790   -11.1880 
  116.1250   110.5060    24.0380     5.1140     4.1490     5.0370     2.2620   -11.0270 
  116.2500   108.1250    24.0300     5.0020     4.1560     5.0580     2.2500   -10.8840 
  116.3750   105.5610    24.0320     4.9720     4.1790     5.0790     2.2490   -10.7140 
  116.5000   103.1510    24.1040     4.9530     4.2050     5.0910     2.2510   -10.5620 
  116.6250   100.1210    24.1750     4.8870     4.2230     5.0880     2.2500   -10.5010 
  116.7500    97.4380    24.1660     4.8520     4.2290     5.0660     2.2510   -10.4430 
  116.8750    97.6420    24.0550     4.8800     4.2140     5.0130     2.2540   -10.3070 
  117.0000   101.5540    23.8870     4.9040     4.1740     4.9220     2.2590   -10.1160 
  117.1250   106.9650    23.8260     4.8280     4.1110     4.8060     2.2670    -9.9830 
  117.2500   111.3660    23.8820     4.6910     4.0420     4.6960     2.2770    -9.8670 
  117.3750   114.0700    23.9600     4.5220     3.9840     4.6180     2.2860    -9.7680 
  117.5000   114.3320    24.0310     4.3190     3.9540     4.5850     2.2900    -9.6990 
  117.6250   110.9830    24.0960     4.1790     3.9690     4.6130     2.2840    -9.6040 
  117.7500   106.0320    24.1020     4.1730     4.0250     4.6870     2.2790    -9.5330 
  117.8750   101.9890    24.0940     4.3120     4.1110     4.7890     2.2800    -9.5580 
  118.0000   100.6040    24.0950     4.4860     4.2060     4.8870     2.2840    -9.6460 
  118.1250   101.4130    24.0300     4.5810     4.2740     4.9370     2.2810    -9.6670 
  118.2500   101.9750    23.9340     4.6030     4.2950     4.9200     2.2660    -9.7070 
  118.3750   100.9420    23.9180     4.5800     4.2630     4.8380     2.2480    -9.8220 
  118.5000    98.9390    23.9810     4.5440     4.1840     4.7060     2.2370    -9.9190 
  118.6250    98.4010    24.0170     4.5050     4.0680     4.5530     2.2460    -9.9740 
  118.7500   101.3590    24.0860     4.3560     3.9420     4.4040     2.2680   -10.1480 
  118.8750   108.5850    24.1550     4.0930     3.8240     4.2740     2.2930   -10.3740 
  119.0000   118.4150    24.1850     3.8420     3.7230     4.1750     2.3210   -10.5100 
  119.1250   124.5680    24.1500     3.7660     3.6520     4.1190     2.3470   -10.6870 
  119.2500   123.7680    24.1310     3.8330     3.6090     4.0930     2.3680   -11.0110 
  119.3750   118.1400    24.1480     3.9150     3.5920     4.0960     2.3790   -11.3100 
  119.5000   112.2910    24.2410     3.9050     3.6020     4.1270     2.3800   -11.6110 
  119.6250   108.7440    24.3760     3.8310     3.6400     4.1760     2.3700   -12.0510 
  119.7500   106.6510    24.4330     3.9050     3.7040     4.2370     2.3590   -12.4170 
  119.8750   104.8440    24.3840     4.2450     3.8170     4.3350     2.3520   -12.7420 
  120.0000   101.3260    24.2260     4.7860     4.0250     4.5260     2.3450   -13.1870 
  120.1250    95.4640    23.9250     5.2410     4.4420     4.9390     2.3320   -13.6700 
  120.2500    90.3220    23.6910     5.5750     5.1270     5.6490     2.3090   -14.0300 
  120.3750    87.7330    23.5760     6.0510     6.1490     6.7260     2.2900   -14.4260 
  120.5000    87.3350    23.5730     7.1670     7.5230     8.1910     2.2940   -14.8740 
  120.6250    87.5640    23.6440    10.0570     9.1880     9.9980     2.3460   -15.2370 
  120.7500    86.6850    23.7430    14.7730    10.8380    11.8110     2.4310   -15.7140 
  120.8750    83.3290    23.8300    20.2690    12.1120    13.1910     2.5160   -16.2380 
  121.0000    78.1570    23.8930    24.7920    12.6620    13.7000     2.5670   -16.6700 
  121.1250    74.5030    23.8960    25.4850    12.2540    13.0620     2.5640   -17.1260 
  121.2500    73.4760    23.7630    22.2360    11.2900    11.8130     2.5150   -17.6700 
  121.3750    73.5820    23.5450    16.6020    10.1590    10.4620     2.4250   -18.1560 
  121.5000    74.5380    23.3620    11.6210     9.1790     9.3990     2.3200   -18.5940 
  121.6250    78.0500    23.2710     9.3780     8.5810     8.8540     2.2410   -19.0000 
  121.7500    81.7140    23.2140     8.8500     8.3170     8.7050     2.2010   -19.2890 
  121.8750    81.3020    23.1980     8.9520     8.3200     8.8350     2.1830   -19.5360 
  122.0000    76.6710    23.2470     9.0600     8.4920     9.1090     2.1770   -19.7300 
  122.1250    74.4090    23.3710     9.0670     8.7140     9.3710     2.1940   -19.7810 
  122.2500    78.5100    23.4960     9.1650     8.8720     9.5110     2.2280   -19.8140 
  122.3750    85.8020    23.5220     9.4600     8.9150     9.4970     2.2550   -19.8250 
  122.5000    90.4450    23.4600     9.8450     8.8320     9.3470     2.2540   -19.7760 
  122.6250    88.0020    23.3390    10.1210     8.6260     9.0910     2.2310   -19.7690 
  122.7500    82.1380    23.2730    10.2980     8.3500     8.7980     2.2180   -19.6980 
  122.8750    76.3880    23.2460    10.3900     8.0500     8.5060     2.2170   -19.5920 
  123.0000    72.1730    23.2320    10.3400     7.7930     8.2790     2.2140   -19.5390 
  123.1250    69.1510    23.2210    10.0890     7.7000     8.2390     2.1920   -19.4490 
  123.2500    67.3330    23.2230     9.8240     7.8430     8.4500     2.1520   -19.3330 
  123.3750    67.5960    23.2710     9.7930     8.2670     8.9520     2.1090   -19.2520 
  123.5000    69.8950    23.3730    10.3810     8.9630     9.7340     2.0910   -19.1390 
  123.6250    72.0990    23.5460    12.9480     9.8560    10.7200     2.1430   -19.0560 
  123.7500    71.7050    23.7240    18.4400    10.7200    11.6720     2.2610   -19.0170 
  123.8750    68.3840    23.8980    26.2170    11.3210    12.3150     2.4130   -18.9690 
  124.0000    64.2000    24.0340    33.1310    11.4620    12.4120     2.5460   -18.9940 
  124.1250    62.6870    24.0450    34.0480    11.0080    11.8240     2.5900   -19.1170 
  124.2500    64.0900    23.9140    29.0430    10.2080    10.8810     2.5470   -19.2050 
  124.3750    66.6930    23.6960    20.7860     9.2860     9.8670     2.4540   -19.3590 
  124.5000    69.1870    23.4910    13.4310     8.4420     9.0050     2.3600   -19.5790 
  124.6250    71.1600    23.3170    10.1850     7.8260     8.4440     2.3040   -19.7020 
  124.7500    72.2760    23.2280     9.3170     7.4220     8.1240     2.2780   -19.9180 
  124.8750    72.5030    23.2050     9.2250     7.1980     7.9820     2.2680   -20.1170 
  125.0000    72.8010    23.2070     9.0580     7.1020     7.9390     2.2610   -20.1990 
  125.1250    73.7960    23.2000     8.7000     7.0830     7.9160     2.2420   -20.3210 
  125.2500    74.6920    23.2030     8.3200     7.0880     7.8790     2.2140   -20.4250 
  125.3750    75.1610    23.2160     8.0770     7.1120     7.8490     2.1840   -20.4120 
  125.5000    75.3780    23.2330     8.0170     7.1620     7.8570     2.1650   -20.4250 
  125.6250    75.1720    23.2400     8.0930     7.2420     7.9300     2.1650   -20.4730 
  125.7500    74.4470    23.2380     8.2160     7.3360     8.0480     2.1790   -20.4170 
  125.8750    73.2010    23.2300     8.3450     7.4320     8.1880     2.1970   -20.4250 
  126.0000    72.1190    23.2220     8.5190     7.5130     8.3180     2.2080   -20.4540 
  126.1250    72.3800    23.2360     8.7780     7.5540     8.4020     2.2080   -20.3510 
  126.2500    73.7370    23.2400     9.0680     7.5500     8.4230     2.2100   -20.3210 
  126.3750    75.3980    23.2380     9.3330     7.5030     8.3900     2.2180   -20.3560 
