~V
VERS. 2.00: Ver 2.00
~W
STRT.M 60.0000:
STOP.M 271.0000:
STEP.M 0.1250:
NULL. -999.2500:
UWI. DF5026:
~C
DEPT.M :
SP.MV :
GR.API :
CALI.CM :
RXO.OHMM :
RI. :
RML.OHMM :
DEN.GM/CC :
~A
# ...
  217.5000   -41.8280    66.4150    23.9640    85.1210   100.4280    93.8000     2.1600 
  217.6250   -41.7990    65.5710    23.9490    85.1420    97.9590    91.5900     2.1550 
  217.7500   -42.0020    63.3980    23.8860    82.1880    95.6600    90.0310     2.1530 
  217.8750   -42.4100    62.0930    23.7680    80.4300    93.6970    89.1770     2.1540 
  218.0000   -42.8460    62.7820    23.6260   166.1540    92.0000    88.8160     2.1560 
  218.1250   -43.1670    64.5770    23.5260   328.7490    90.2500    88.5210     2.1530 
  218.2500   -43.3130    64.2220    23.5110   304.5980    88.3150    88.1110     2.1430 
  218.3750   -43.3820    62.6110    23.6020   127.3070    86.6380    88.0420     2.1290 
  218.5000   -43.4200    63.5040    23.8000    32.8540    86.1510    89.2560     2.1150 
  218.6250   -43.3880    66.9490    24.0660    37.6430    88.5590    93.4820     2.1020 
  218.7500   -43.2800    68.0480    24.2440    43.4060    94.7910   101.6100     2.0890 
  218.8750   -43.0930    65.8730    24.1900    50.0350   105.8540   114.6880     2.0670 
  219.0000   -42.8890    62.7880    23.9080    75.3360   122.1070   133.3550     2.0330 
  219.1250   -42.6280    61.0050    23.6080    97.8130   143.1540   157.8830     1.9940 
  219.2500   -42.3250    59.9850    23.4980   115.6660   165.2880   184.4440     1.9650 
  219.3750   -41.9800    59.3150    23.5840   112.4010   184.1970   207.4680     1.9500 
  219.5000   -41.5650    59.6810    23.7470   101.0330   195.1610   220.0340     1.9500 
  219.6250   -41.1170    60.4400    23.8310    97.5450   193.0360   215.1800     1.9640 
  219.7500   -40.5920    61.6870    23.7760    92.3750   180.4820   197.7670     1.9830 
  219.8750   -39.9990    63.0020    23.6430    80.9360   161.2110   173.8930     2.0090 
  220.0000   -39.3510    63.0710    23.5380    64.4660   140.0400   149.9120     2.0440 
  220.1250   -38.7050    62.3990    23.5380    54.0950   122.1090   131.2630     2.0860 
  220.2500   -38.1100    61.8250    23.6220    59.3090   109.2860   118.6290     2.1250 
  220.3750   -37.6160    62.0770    23.7710    72.0330   101.3910   111.1170     2.1470 
  220.5000   -37.2950    63.4370    23.9700    81.1010    96.7060   106.4810     2.1530 
  220.6250   -37.0350    64.9370    24.1900    85.7310    92.5210   101.5060     2.1520 
  220.7500   -36.7160    65.4810    24.3880    85.5670    86.9090    94.5470     2.1540 
  220.8750   -36.2600    65.3720    24.5270    78.9280    80.1890    86.6950     2.1610 
  221.0000   -35.7400    65.7380    24.5880    80.9860    74.1330    80.3900     2.1660 
  221.1250   -35.2340    65.1730    24.5890    69.7440    71.4490    78.4910     2.1660 
  221.2500   -34.7730    63.7540    24.5860    63.6260    72.8070    81.1600     2.1640 
  221.3750   -34.3950    63.9540    24.5900    73.5630    77.8110    87.7970     2.1660 
  221.5000   -34.0440    65.6810    24.5960   129.2990    84.7630    96.4380     2.1810 
  221.6250   -33.6920    65.0450    24.6000   160.0600    90.2730   102.6090     2.2190 
  221.7500   -33.4160    62.4630    24.6020   158.5720    91.4910   102.5560     2.2720 
  221.8750   -33.1350    61.2620    24.6010   127.6750    87.5820    95.7420     2.3340 
  222.0000   -32.8060    61.3780    24.5810    95.1700    79.8970    84.9150     2.3910 
  222.1250   -32.4640    61.2100    24.5380    89.4410    71.1150    74.1530     2.4350 
  222.2500   -32.1100    60.3950    24.4980    84.6840    63.7480    66.0360     2.4730 
  222.3750   -31.6650    59.7390    24.4800    65.7500    58.9260    61.3940     2.5160 
  222.5000   -31.2080    60.2890    24.4800    47.1780    56.8510    59.9460     2.5700 
  222.6250   -30.8870    62.5600    24.4810    44.1460    56.0980    59.4910     2.6240 
  222.7500   -30.6310    64.9180    24.4830    47.1210    52.8290    55.3860     2.6610 
  222.8750   -30.4440    65.4000    24.4760    65.6350    44.2930    44.9480     2.6640 
  223.0000   -30.2190    62.4810    24.4130    70.1150    31.7740    30.7740     2.6270 
  223.1250   -30.0000    59.2110    24.2530    49.7950    20.3350    18.8980     2.5600 
  223.2500   -29.7990    59.3500    24.0710    21.5830    12.4830    11.1860     2.4880 
  223.3750   -29.6800    61.5920    23.9460     7.5230     7.8520     6.8760     2.4180 
  223.5000   -29.6640    61.5020    23.9000     4.3920     5.3830     4.7890     2.3550 
  223.6250   -29.7040    58.0530    23.8970     4.0240     4.3470     4.1680     2.3080 
  223.7500   -29.7650    57.5190    23.8990     3.9360     4.0480     4.2620     2.2850 
  223.8750   -29.8170    64.4980    23.9430     4.3230     4.2750     4.8090     2.2850 
  224.0000   -29.9690    78.3290    24.0680     5.0720     4.8670     5.6060     2.3000 
  224.1250   -30.1600    89.4940    24.2400     5.7460     5.6640     6.4380     2.3210 
  224.2500   -30.3290    93.8000    24.3710     6.4860     6.4310     7.1090     2.3380 
  224.3750   -30.4300    93.4480    24.4360     6.7340     7.0090     7.5120     2.3490 
  224.5000   -30.4510    93.8110    24.4600     6.2340     7.3090     7.6140     2.3570 
  224.6250   -30.2800   101.3320    24.4640     5.9150     7.3090     7.4520     2.3670 
  224.7500   -29.9600   114.4290    24.4620     6.0640     7.1550     7.2070     2.3790 
  224.8750   -29.6630   126.5100    24.4590     6.5600     6.9410     6.9880     2.3910 
  225.0000   -29.4330   130.2270    24.4660     6.6340     6.7240     6.8390     2.4020 
  225.1250   -29.3320   124.1670    24.4930     6.4010     6.5320     6.7720     2.4110 
  225.2500   -29.3070   117.1440    24.5230     6.1740     6.3710     6.7530     2.4160 
  225.3750   -29.3060   112.3930    24.5390     5.9990     6.2480     6.7710     2.4160 
  225.5000   -29.2500   112.3930    24.5400     5.7660     6.1700     6.8250     2.4100 
  225.6250   -29.1900   117.8940    24.5390     5.6250     6.1480     6.9190     2.4000 
  225.7500   -29.2040   123.6820    24.5410     5.6370     6.1660     7.0290     2.3890 
  225.8750   -29.3040   125.8260    24.5440     5.7370     6.2050     7.1220     2.3810 
  226.0000   -29.4450   125.0040    24.5460     5.9090     6.2400     7.1600     2.3750 
  226.1250   -29.5260   122.8590    24.5480     6.0430     6.2470     7.1220     2.3710 
  226.2500   -29.5820   119.1560    24.5460     6.1030     6.2370     7.0590     2.3670 
  226.3750   -29.6340   114.5570    24.5340     6.1540     6.2450     7.0460     2.3640 
  226.5000   -29.7560   112.8970    24.5180     6.2550     6.3200     7.1570     2.3660 
  226.6250   -29.9600   114.9280    24.5040     6.4380     6.5210     7.4500     2.3720 
  226.7500   -30.2130   114.5640    24.4920     6.9290     6.8260     7.8520     2.3780 
  226.8750   -30.3930   109.7020    24.4750     7.9210     7.1870     8.2620     2.3780 
  227.0000   -30.4390   104.1820    24.4300     8.6980     7.5200     8.5660     2.3720 
  227.1250   -30.4070   103.8840    24.3450     8.9240     7.7220     8.6650     2.3620 
  227.2500   -30.3660   106.9130    24.2590     9.9990     7.7830     8.6090     2.3590 
  227.3750   -30.4250   108.8220    24.2140    11.4400     7.7330     8.4780     2.3650 
  227.5000   -30.5610   108.6490    24.2370    10.8920     7.6320     8.3550     2.3800 
  227.6250   -30.7130   108.3690    24.3280     7.8370     7.5380     8.3030     2.4000 
  227.7500   -30.8140   108.5420    24.4350     6.9320     7.4590     8.2830     2.4170 
  227.8750   -30.9150   109.0630    24.5080     7.0560     7.3540     8.2160     2.4270 
  228.0000   -31.1100   109.2730    24.5280     7.3270     7.1690     8.0380     2.4300 
  228.1250   -31.3770   105.7100    24.5270     7.5870     6.8900     7.7620     2.4250 
  228.2500   -31.7020    99.6060    24.5260     7.6270     6.6350     7.5790     2.4150 
  228.3750   -32.0170    95.6890    24.5200     7.1460     6.5790     7.7790     2.3990 
  228.5000   -32.3300    96.2390    24.5080     6.6390     6.9590     8.7560     2.3760 
  228.6250   -32.7110    97.6480    24.4980     8.2350     8.3520    11.3240     2.3500 
