~V
VERS. 2.00: Ver 2.00
~W
STRT.M 59.0000:
STOP.M 264.0000:
STEP.M 0.1250:
NULL. -999.2500:
UWI. DF5022:
~C
DEPT.M :
GR.API :
CALI.CM :
RXO.OHMM :
RI. :
RML.OHMM :
SP.MV :
DEN.GM/CC :
~A
# ...
  182.7500    54.9810    24.8890    70.3600   120.6650   142.6130   -32.2200     2.1650 
  182.8750    54.1380    24.8250    77.2660   104.1130   119.4230   -31.9960     2.1730 
  183.0000    53.1790    24.7450    75.4260    88.1770    98.3600   -31.7140     2.1950 
  183.1250    53.4390    24.6620    73.7630    75.9080    82.9460   -31.3880     2.2260 
  183.2500    54.4350    24.5910    64.0880    67.4030    72.5320   -31.2780     2.2490 
  183.3750    56.0840    24.5560    47.1780    61.9960    65.9380   -31.0490     2.2580 
  183.5000    58.2030    24.5650    39.1550    58.5080    61.5250   -30.7930     2.2550 
  183.6250    59.1830    24.5980    44.8420    55.4600    57.4810   -30.7850     2.2460 
  183.7500    58.8170    24.6180    51.5810    51.6620    52.6080   -30.7930     2.2410 
  183.8750    57.7520    24.6220    55.0380    46.9820    46.9470   -30.6810     2.2450 
  184.0000    58.0470    24.6200    53.6300    42.0020    41.2650   -30.6590     2.2560 
  184.1250    60.9490    24.6210    45.8550    37.7680    36.7560   -30.6970     2.2670 
  184.2500    65.0850    24.6210    33.9790    34.9080    33.9560   -30.6250     2.2760 
  184.3750    68.9600    24.6200    28.6480    33.7780    33.1350   -30.7320     2.2810 
  184.5000    69.1410    24.6190    31.3420    34.5050    34.3050   -30.9030     2.2820 
  184.6250    64.7910    24.6350    32.3440    37.3210    37.5580   -30.9560     2.2780 
  184.7500    61.0360    24.6770    34.7310    41.5990    42.1050   -30.9970     2.2770 
  184.8750    61.5480    24.7260    42.5930    46.5170    46.9960   -31.2300     2.2820 
  185.0000    65.4360    24.7520    51.6470    50.7120    50.8490   -31.4640     2.2920 
  185.1250    67.1670    24.7480    54.5920    52.4370    52.0550   -31.6010     2.2970 
  185.2500    65.6490    24.7410    51.3550    51.9840    51.1940   -31.9490     2.2920 
  185.3750    63.2490    24.7400    46.4680    50.6120    49.7830   -32.2000     2.2790 
  185.5000    62.5480    24.7400    38.7990    49.9810    49.6650   -32.3300     2.2700 
  185.6250    64.5830    24.7400    40.2140    51.5030    52.1770   -32.6350     2.2760 
  185.7500    66.1440    24.7400    48.0410    54.3260    55.9210   -33.0380     2.2850 
  185.8750    65.1360    24.7440    69.8050    56.6430    58.6580   -33.3620     2.2870 
  186.0000    61.7760    24.7460   103.2380    56.4850    58.2930   -33.6540     2.2780 
  186.1250    58.5090    24.7230   109.9540    52.8830    54.1550   -34.1480     2.2710 
  186.2500    57.0150    24.6460    74.9100    48.1750    49.1620   -34.5170     2.2760 
  186.3750    57.0870    24.4870    41.8920    44.7070    46.0110   -34.9450     2.2950 
  186.5000    58.1320    24.2790    36.4800    44.1690    46.5170   -35.6000     2.3160 
  186.6250    60.0890    24.1240    47.1100    48.1580    52.2750   -36.1240     2.3190 
  186.7500    61.0900    24.0640    55.3350    56.4790    62.7900   -36.6520     2.3050 
  186.8750    59.8250    24.0620    87.7890    69.0530    77.8160   -37.2800     2.2840 
  187.0000    56.4880    24.0610   154.9740    84.8510    96.2550   -37.8630     2.2680 
  187.1250    53.7170    24.0820   194.5660   101.5500   115.8190   -38.3900     2.2570 
  187.2500    52.0060    24.1790   181.4490   116.5020   133.7040   -38.9670     2.2460 
  187.3750    50.6830    24.3370   155.2640   128.5710   148.5990   -39.4380     2.2350 
  187.5000    50.1420    24.4880   171.1750   137.7890   160.4810   -39.8700     2.2250 
  187.6250    49.9140    24.5610   194.2300   145.3240   170.7850   -40.3070     2.2190 
  187.7500    48.9790    24.5840   211.7220   153.5740   182.4140   -40.5890     2.2160 
  187.8750    48.6660    24.5930   215.8250   164.1020   197.4020   -40.7250     2.2170 
  188.0000    51.0390    24.5970   244.5250   177.5560   216.6050   -40.9310     2.2190 
  188.1250    53.6680    24.5940   411.3630   193.6810   239.4970   -40.9050     2.2180 
  188.2500    53.1430    24.6010   525.5960   210.2220   262.4680   -40.8030     2.2090 
  188.3750    51.0940    24.6400   531.6260   224.8100   281.8490   -40.8290     2.2000 
  188.5000    51.1970    24.7010   483.6020   235.1140   294.5700   -40.6690     2.1980 
  188.6250    52.6230    24.7420   386.2040   239.3310   299.2100   -40.3880     2.2100 
  188.7500    51.9610    24.7510   289.0310   240.4040   300.4670   -40.2110     2.2270 
  188.8750    50.5440    24.7490   278.7480   241.7660   302.6300   -40.0890     2.2340 
  189.0000    49.9350    24.7490   351.7620   246.2350   308.6310   -39.8090     2.2290 
  189.1250    49.0990    24.7490   394.8500   255.5190   319.9570   -39.7130     2.2170 
  189.2500    47.8570    24.7490   405.2540   267.9920   334.7020   -39.5590     2.2100 
  189.3750    48.2360    24.7490   394.4700   282.1160   351.2980   -39.3130     2.2110 
  189.5000    51.0170    24.7490   379.2870   296.5510   368.3630   -39.3270     2.2160 
  189.6250    52.5190    24.7490   416.1620   309.8780   384.0980   -39.3600     2.2180 
  189.7500    51.9260    24.7490   458.3310   320.2180   395.4710   -39.2570     2.2130 
  189.8750    50.7980    24.7490   517.7770   324.7360   398.1520   -39.2170     2.2030 
  190.0000    49.7330    24.7490   562.1390   321.2830   389.3120   -39.3080     2.1900 
  190.1250    48.0010    24.7490   537.0660   309.5770   369.5610   -39.1530     2.1850 
  190.2500    46.2940    24.7490   439.3730   294.5770   346.2500   -39.1380     2.1880 
  190.3750    45.9730    24.7490   346.1170   279.6230   323.5750   -39.2640     2.1940 
  190.5000    47.3370    24.7490   311.1480   266.3050   302.9130   -39.1190     2.2000 
  190.6250    49.3820    24.7490   313.8150   254.0420   283.1220   -38.9260     2.2050 
  190.7500    50.6480    24.7490   303.0280   240.1980   261.4440   -38.9970     2.2090 
  190.8750    51.1840    24.7490   259.9990   222.4890   235.8430   -39.0230     2.2130 
  191.0000    50.8710    24.7490   224.8500   200.0690   206.1340   -38.8390     2.2200 
  191.1250    50.5390    24.7490   207.2090   174.1460   174.6970   -38.9910     2.2320 
  191.2500    50.9840    24.7490   174.8350   148.6090   145.6490   -39.1070     2.2420 
  191.3750    54.0410    24.7490   126.0860   126.2710   121.5920   -39.0260     2.2470 
  191.5000    58.7490    24.7490    93.0080   108.6960   103.5020   -39.1440     2.2490 
  191.6250    61.0510    24.7490    80.7240    96.9130    91.8600   -39.5140     2.2580 
  191.7500    59.7630    24.7490    75.6360    89.5170    84.7680   -39.7350     2.2690 
  191.8750    57.6010    24.7490    72.3260    85.9510    81.5070   -39.9060     2.2720 
  192.0000    56.5430    24.7490    69.8800    85.8050    81.6150   -40.4310     2.2660 
  192.1250    57.1080    24.7490    71.0950    89.1990    85.2080   -40.7600     2.2580 
  192.2500    57.9610    24.7490    78.5500    95.1660    91.3560   -41.0380     2.2530 
  192.3750    57.5840    24.7480    89.9920   103.0850    99.4850   -41.5990     2.2470 
  192.5000    55.5320    24.7460    99.3050   112.0750   108.7980   -42.0590     2.2370 
  192.6250    55.9010    24.7430   111.8430   121.3060   118.6730   -42.2620     2.2310 
  192.7500    58.3220    24.7400   120.4510   130.7200   129.1680   -42.5720     2.2350 
  192.8750    58.9680    24.7400   126.8630   141.3620   141.4370   -42.9500     2.2410 
  193.0000    56.0240    24.7400   138.7030   155.1140   157.4270   -43.0170     2.2390 
  193.1250    52.4150    24.7390   163.1230   175.4310   180.6500   -43.2120     2.2240 
  193.2500    50.4190    24.7360   213.1400   202.5770   211.2520   -43.4320     2.2090 
  193.3750    48.8630    24.7330   281.2770   234.4500   247.0110   -43.2630     2.1980 
  193.5000    47.4100    24.7310   344.8050   265.0450   281.0620   -43.1390     2.1910 
  193.6250    47.7010    24.7310   358.6770   282.9840   299.5770   -43.1360     2.1860 
  193.7500    48.5620    24.7330   320.4310   284.0500   297.9150   -42.8400     2.1870 
  193.8750    48.4550    24.7460   250.9560   270.4550   280.0770   -42.4480     2.1960 
