~V
VERS. 2.00: Ver 2.00
~W
STRT.M 60.0000:
STOP.M 273.0000:
STEP.M 0.1250:
NULL. -999.2500:
UWI. DF5003:
~C
DEPT.M :
GR.API :
CALI.CM :
RXO.OHMM :
RI. :
RML.OHMM :
DEN.GM/CC :
SP.MV :
~A
# ...
  138.7500    60.9770    24.2230    30.6050    20.9370    23.4510     2.3580   -29.8140 
  138.8750    59.8260    24.2250    21.7100    18.2660    19.7470     2.2860   -30.1220 
  139.0000    62.3150    24.2260    14.0850    15.0800    15.7930     2.2220   -30.3960 
  139.1250    67.1450    24.2770    11.0360    12.5570    12.9580     2.1700   -30.7960 
  139.2500    71.0240    24.3920    10.4950    10.8390    11.2270     2.1350   -31.2410 
  139.3750    71.8130    24.5200    10.5380     9.8270    10.3600     2.1230   -31.5580 
  139.5000    69.7700    24.5960    10.8020     9.3670    10.0790     2.1310   -31.7140 
  139.6250    68.2280    24.6100    11.0770     9.3280    10.1600     2.1460   -31.8330 
  139.7500    69.3310    24.6130    11.3740     9.4620    10.3270     2.1550   -32.0070 
  139.8750    69.7000    24.6160    11.3740     9.6260    10.4390     2.1530   -32.1390 
  140.0000    68.2830    24.6200    11.1140     9.7270    10.4260     2.1470   -32.1530 
  140.1250    67.2920    24.6240    10.9310     9.7140    10.2750     2.1420   -32.0660 
  140.2500    68.4100    24.6260    10.7250     9.6310    10.0760     2.1400   -31.9580 
  140.3750    70.5470    24.6200    10.4900     9.5230     9.8950     2.1400   -31.9730 
  140.5000    70.9500    24.6070    10.3750     9.4270     9.7770     2.1420   -32.0860 
  140.6250    70.4560    24.5970    10.4070     9.3640     9.7400     2.1450   -32.1490 
  140.7500    71.2550    24.5940    10.4110     9.3230     9.7490     2.1510   -32.1320 
  140.8750    72.5770    24.5950    10.2990     9.2960     9.7820     2.1570   -32.1380 
  141.0000    70.6460    24.5940    10.2850     9.2780     9.8250     2.1610   -32.2080 
  141.1250    65.0580    24.5930    10.3670     9.2660     9.8670     2.1610   -32.2600 
  141.2500    62.3510    24.5930    10.4710     9.2510     9.8970     2.1600   -32.2480 
  141.3750    64.3030    24.5920    10.6140     9.2170     9.8960     2.1600   -32.1710 
  141.5000    68.2290    24.5880    10.7950     9.1430     9.8410     2.1600   -32.1960 
  141.6250    70.6890    24.5840    10.7170     9.0250     9.7320     2.1550   -32.1500 
  141.7500    71.3270    24.5840    10.5190     8.9270     9.6610     2.1480   -32.1930 
  141.8750    70.0010    24.5850    10.3240     8.9440     9.7480     2.1470   -32.1760 
  142.0000    67.6820    24.5880    10.3830     9.1610    10.0900     2.1600   -32.2380 
  142.1250    67.1120    24.5980    10.4800     9.6300    10.7220     2.1850   -32.2830 
  142.2500    66.7730    24.5980    10.6150    10.2150    11.4460     2.2080   -32.3270 
  142.3750    64.2590    24.5870    11.3720    10.7350    12.0170     2.2150   -32.2800 
  142.5000    61.7400    24.5940    14.0960    10.9870    12.2030     2.2000   -32.1710 
  142.6250    63.3120    24.6350    13.9220    10.8160    11.8710     2.1730   -32.2340 
  142.7500    65.8490    24.6630    11.9560    10.3880    11.2830     2.1540   -32.1840 
  142.8750    65.4780    24.6500    10.4960     9.8840    10.6790     2.1480   -32.1290 
  143.0000    63.2020    24.6180    10.3820     9.4560    10.2260     2.1530   -31.9760 
  143.1250    63.9300    24.6000    10.4400     9.2100    10.0120     2.1590   -31.9120 
  143.2500    65.9340    24.5950    10.4550     9.1090     9.9510     2.1600   -31.8270 
  143.3750    67.5600    24.5940    10.4450     9.1000     9.9670     2.1570   -31.7960 
  143.5000    68.7300    24.5930    10.4070     9.1380    10.0190     2.1550   -31.6160 
  143.6250    69.0970    24.5930    10.4020     9.2160    10.1100     2.1550   -31.4030 
  143.7500    67.4680    24.5940    10.4250     9.3260    10.2260     2.1570   -31.2660 
  143.8750    64.2730    24.5910    10.6180     9.4370    10.3170     2.1630   -31.1010 
  144.0000    62.1530    24.5820    10.9790     9.4870    10.3070     2.1730   -30.8540 
  144.1250    61.2680    24.5710    11.3190     9.3780    10.1000     2.1900   -30.5980 
  144.2500    61.4660    24.5370    11.1200     9.1230     9.7460     2.2080   -30.4600 
  144.3750    65.1010    24.4670    10.4510     8.7930     9.3500     2.2210   -30.2910 
  144.5000    72.6640    24.3890     9.6010     8.4990     9.0440     2.2180   -30.1650 
  144.6250    78.6900    24.3380     9.1060     8.3430     8.9330     2.1970   -29.8960 
  144.7500    79.8770    24.2850     9.1440     8.2880     8.9440     2.1750   -29.7160 
  144.8750    76.3930    24.1880     9.6350     8.2350     8.9350     2.1630   -29.5770 
  145.0000    70.1640    24.0400     9.9000     8.0490     8.7340     2.1680   -29.4930 
  145.1250    66.0680    23.8930     9.3730     7.6060     8.1990     2.1860   -29.2560 
  145.2500    68.6150    23.8030     8.0400     7.0170     7.4950     2.2010   -29.0510 
  145.3750    76.7450    23.7790     6.7290     6.4720     6.8830     2.2040   -28.8840 
  145.5000    85.9260    23.7990     6.0870     6.1770     6.6250     2.2020   -28.7550 
  145.6250    92.9880    23.8290     5.9770     6.3400     6.9470     2.2090   -28.6150 
  145.7500    95.1530    23.8610     6.7860     6.9020     7.6940     2.2310   -28.3770 
  145.8750    90.4600    23.8600     9.6030     7.7050     8.5990     2.2680   -28.1760 
  146.0000    82.3680    23.7820    14.2750     8.4150     9.2370     2.3110   -28.0480 
  146.1250    80.9260    23.7550    15.6160     8.5010     9.0860     2.3360   -27.9780 
  146.2500    87.2070    23.9400    11.6760     7.9600     8.2900     2.3350   -27.8160 
  146.3750    94.1400    24.2710     7.2100     7.0920     7.2520     2.3180   -27.6090 
  146.5000    96.3220    24.5230     5.8020     6.2520     6.3610     2.2940   -27.4440 
  146.6250    93.9140    24.5670     5.7190     5.6910     5.8640     2.2760   -27.4320 
  146.7500    92.8390    24.5540     5.7740     5.4070     5.6850     2.2670   -27.3920 
  146.8750    95.8000    24.5500     5.7740     5.3400     5.7130     2.2680   -27.3160 
  147.0000    99.4690    24.5460     5.7350     5.3860     5.8190     2.2760   -27.1510 
  147.1250    98.9240    24.5410     5.6110     5.4300     5.8770     2.2880   -27.0180 
  147.2500    95.9430    24.5370     5.6620     5.4070     5.8410     2.3000   -27.0140 
  147.3750    95.8320    24.5350     5.5570     5.3090     5.7170     2.3130   -27.0640 
  147.5000   102.2490    24.5350     5.2920     5.1570     5.5400     2.3240   -27.0050 
  147.6250   110.3100    24.5350     4.9980     5.0040     5.3770     2.3300   -26.9180 
  147.7500   112.9700    24.5350     4.8020     4.9050     5.2940     2.3290   -26.8610 
  147.8750   110.2480    24.5350     4.8130     4.8950     5.3240     2.3190   -26.8460 
  148.0000   107.5030    24.5350     5.0690     4.9800     5.4680     2.3030   -26.8400 
  148.1250   106.1790    24.5350     5.5280     5.1470     5.7000     2.2840   -26.9030 
  148.2500   102.5600    24.5350     6.0390     5.3510     5.9600     2.2670   -26.9310 
  148.3750    97.0930    24.5350     6.3530     5.5740     6.2290     2.2520   -27.0470 
  148.5000    91.9190    24.5350     6.4610     5.8220     6.5210     2.2340   -27.1820 
  148.6250    88.2030    24.5350     6.6320     6.1310     6.8880     2.2150   -27.2060 
  148.7500    87.1450    24.5350     7.3530     6.5170     7.3560     2.1980   -27.3310 
  148.8750    87.6540    24.5350     8.9270     6.9730     7.9080     2.1830   -27.4100 
  149.0000    86.6170    24.5350     9.8190     7.4550     8.4770     2.1730   -27.5410 
  149.1250    84.3000    24.5350     9.7180     7.8680     8.9330     2.1680   -27.5480 
  149.2500    86.0060    24.5350     9.3030     8.1380     9.1940     2.1660   -27.5630 
  149.3750    90.9840    24.5350     9.3950     8.2350     9.2420     2.1670   -27.5230 
  149.5000    93.6090    24.5350     9.2560     8.1880     9.1320     2.1690   -27.5840 
  149.6250    90.0160    24.5350     8.8680     8.0630     8.9650     2.1710   -27.6280 
  149.7500    84.5960    24.5350     8.6100     7.9320     8.8210     2.1730   -27.5720 
  149.8750    81.3440    24.5350     8.4730     7.8120     8.7070     2.1750   -27.5200 
