~V
VERS. 2.00: Ver 2.00
~W
STRT.M 55.0000:
STOP.M 278.0000:
STEP.M 0.1250:
NULL. -999.2500:
UWI. DF5019:
~C
DEPT.M :
DEN.GM/CC :
GR.API :
CALI.CM :
RXO.OHMM :
RI. :
RML.OHMM :
SP.MV :
~A
# ...
  156.2500     2.5620    63.7740    24.5460    21.7470    20.8290    23.5700   -19.5440 
  156.3750     2.5610    65.6160    24.5430    22.5440    20.8570    23.4800   -19.5550 
  156.5000     2.5720    66.9590    24.5390    23.8000    20.7260    23.2530   -19.5380 
  156.6250     2.5870    66.0650    24.5190    24.7770    20.4990    22.9840   -19.4240 
  156.7500     2.5920    64.8070    24.4560    23.6870    20.2980    22.7770   -19.3310 
  156.8750     2.5850    62.5120    24.3880    21.6040    20.2100    22.7140   -19.2290 
  157.0000     2.5730    59.8120    24.3580    20.7220    20.2710    22.8340   -19.1170 
  157.1250     2.5710    60.0290    24.3600    21.5350    20.4720    23.1380   -19.0900 
  157.2500     2.5810    63.2770    24.3740    22.8400    20.7020    23.4870   -19.0440 
  157.3750     2.5950    66.3290    24.4140    24.3580    20.8570    23.7160   -18.9850 
  157.5000     2.5970    65.8880    24.4750    24.6080    20.8390    23.6670   -18.8980 
  157.6250     2.5780    62.8180    24.5510    23.2060    20.5770    23.2380   -18.8600 
  157.7500     2.5520    61.2290    24.5940    21.0130    20.1480    22.5740   -18.8250 
  157.8750     2.5310    63.1560    24.5500    20.0550    19.6570    21.8490   -18.8350 
  158.0000     2.5220    66.5830    24.4870    19.7270    19.2470    21.2660   -18.8920 
  158.1250     2.5270    66.4450    24.5060    19.4800    19.1230    21.0920   -18.9190 
  158.2500     2.5410    63.1010    24.5360    19.3320    19.3500    21.4170   -18.9130 
  158.3750     2.5580    58.7570    24.5450    19.7390    19.9310    22.2640   -18.8980 
  158.5000     2.5730    55.5270    24.5340    21.0430    20.7360    23.4380   -18.9160 
  158.6250     2.5800    55.4170    24.3980    22.3280    21.3540    24.3210   -18.9050 
  158.7500     2.5780    58.0920    24.3350    22.7570    21.2660    24.2360   -18.9370 
  158.8750     2.5630    61.3690    24.2740    21.8300    20.1690    22.8650   -18.9330 
  159.0000     2.5390    63.2820    24.2360    19.9060    18.1980    20.4650   -18.9340 
  159.1250     2.5160    64.7850    24.1400    17.1200    15.9090    17.7810   -18.9190 
  159.2500     2.5050    67.0810    24.0970    14.2790    13.9590    15.5570   -18.9250 
  159.3750     2.5100    69.7740    24.1180    12.0680    12.6290    14.0640   -18.9080 
  159.5000     2.5290    71.0470    24.2900    11.1100    11.9850    13.3580   -18.8060 
  159.6250     2.5530    69.2870    24.3480    11.5520    12.0440    13.5210   -18.7250 
  159.7500     2.5660    66.5780    24.4120    12.9340    12.5500    14.2490   -18.6350 
  159.8750     2.5640    63.7410    24.4800    14.5030    13.3180    15.2420   -18.5820 
  160.0000     2.5490    60.4220    24.4410    15.4710    14.1290    16.1400   -18.4710 
  160.1250     2.5310    58.6240    24.4050    15.6320    14.7260    16.5890   -18.3780 
  160.2500     2.5170    60.4910    24.4040    15.6010    15.0350    16.6420   -18.3150 
  160.3750     2.5090    62.9560    24.4360    15.6960    15.0880    16.4850   -18.2440 
  160.5000     2.5020    62.5230    24.4490    15.6950    14.9680    16.3100   -18.2210 
  160.6250     2.4900    60.7020    24.4360    15.5430    14.7430    16.1840   -18.1870 
  160.7500     2.4730    60.8160    24.5530    15.6180    14.4640    16.0380   -18.1480 
  160.8750     2.4570    62.7140    24.8710    15.6700    14.1420    15.8270   -18.0580 
  161.0000     2.4480    64.2480    25.0880    15.2150    13.7990    15.5600   -18.0320 
  161.1250     2.4470    63.3340    25.0050    14.0900    13.5180    15.3240   -18.0060 
  161.2500     2.4480    60.5790    24.7390    13.3590    13.3940    15.2460   -17.9980 
  161.3750     2.4490    59.1660    24.6220    13.4410    13.5070    15.4300   -18.0640 
  161.5000     2.4470    62.3930    24.6280    14.0390    13.8870    15.9250   -18.1720 
  161.6250     2.4390    69.4490    24.6060    14.8950    14.5310    16.7250   -18.2410 
  161.7500     2.4330    75.2030    24.5730    15.7030    15.2700    17.6240   -18.2660 
  161.8750     2.4330    77.8790    24.5430    16.2190    15.9440    18.4240   -18.3110 
  162.0000     2.4380    79.4330    24.4690    16.4870    16.4120    18.9670   -18.3180 
  162.1250     2.4420    82.4150    24.3140    16.9120    16.5670    19.1330   -18.3490 
  162.2500     2.4430    82.2480    24.2450    17.1420    16.4780    19.0130   -18.3060 
  162.3750     2.4460    76.5110    24.3220    16.8940    16.2040    18.6930   -18.2630 
  162.5000     2.4520    70.1990    24.3610    16.2050    15.8190    18.2770   -18.2080 
  162.6250     2.4660    71.7410    24.3240    15.3050    15.3950    17.8590   -18.1860 
  162.7500     2.4860    78.2830    24.2100    14.6010    14.9860    17.4870   -18.1200 
  162.8750     2.5040    81.5310    24.1800    14.0350    14.6210    17.1720   -18.0040 
  163.0000     2.5080    77.1220    24.2180    13.6660    14.3160    16.9010   -17.9100 
  163.1250     2.4990    68.7680    24.1460    13.2420    14.0770    16.6520   -17.7630 
  163.2500     2.4920    64.5150    24.2420    12.8210    13.8950    16.4170   -17.6720 
  163.3750     2.4960    66.6020    24.4370    12.8610    13.7930    16.2430   -17.5390 
  163.5000     2.5030    71.4500    24.4920    13.7200    13.8060    16.1960   -17.4030 
  163.6250     2.4980    74.8280    24.5410    14.8200    13.9730    16.3480   -17.2230 
  163.7500     2.4840    75.6420    24.5730    15.4930    14.2510    16.6560   -17.1010 
  163.8750     2.4740    73.9520    24.5950    15.9190    14.5930    17.0550   -17.0110 
  164.0000     2.4800    70.9780    24.5680    16.3710    14.9070    17.4270   -16.8670 
  164.1250     2.4980    69.7420    24.6190    16.3330    15.0500    17.5880   -16.7160 
  164.2500     2.5130    70.8900    24.7160    16.1060    14.9810    17.4860   -16.5190 
  164.3750     2.5230    73.0630    24.7930    15.8690    14.7090    17.1370   -16.3500 
  164.5000     2.5320    74.1360    24.7290    15.3560    14.2910    16.6100   -16.1770 
  164.6250     2.5420    72.3170    24.5350    14.0980    13.8090    16.0150   -16.1130 
  164.7500     2.5530    68.5760    24.3570    12.9110    13.3730    15.4920   -16.0580 
  164.8750     2.5660    65.1680    24.2120    12.3980    13.0420    15.1150   -16.0310 
  165.0000     2.5810    64.5070    24.1500    12.5330    12.8430    14.9140   -16.0130 
  165.1250     2.5900    63.8360    24.1610    12.7080    12.8100    14.9170   -15.9960 
  165.2500     2.5940    60.6020    24.1190    12.6410    12.8960    15.0640   -16.0280 
  165.3750     2.5960    57.5370    24.0540    12.4740    13.0410    15.2790   -16.0830 
  165.5000     2.6030    58.4340    23.9180    12.3210    13.1870    15.4820   -16.1830 
  165.6250     2.6110    60.5670    23.9720    12.5600    13.2980    15.6130   -16.2140 
  165.7500     2.6140    59.1170    24.0120    12.7810    13.3640    15.6520   -16.2720 
  165.8750     2.6110    56.0690    24.0410    12.7480    13.3570    15.5700   -16.3160 
  166.0000     2.6040    54.4170    24.0430    12.5180    13.2400    15.3360   -16.4330 
  166.1250     2.5870    53.8940    24.0560    12.3870    12.9750    14.9140   -16.5630 
  166.2500     2.5630    53.0430    24.0580    12.2430    12.6250    14.3860   -16.6500 
  166.3750     2.5420    53.2260    23.9830    11.8120    12.2870    13.8700   -16.6820 
  166.5000     2.5340    54.2050    23.7430    11.2940    12.0750    13.5110   -16.7320 
  166.6250     2.5430    54.0730    23.6070    11.0570    12.1080    13.4600   -16.8220 
  166.7500     2.5560    52.1110    23.5770    11.3930    12.3530    13.6720   -16.8700 
  166.8750     2.5660    51.5780    23.6440    12.1560    12.7340    14.0530   -16.8800 
  167.0000     2.5700    53.2900    23.8260    12.8280    13.1370    14.4650   -16.8600 
  167.1250     2.5710    55.2480    24.0250    12.8820    13.4370    14.7870   -16.9030 
  167.2500     2.5700    56.4060    24.1310    12.5740    13.6270    15.0330   -17.0100 
  167.3750     2.5640    56.0590    24.1020    12.2810    13.7400    15.2560   -17.1670 
