~V
VERS. 2.00: Ver 2.00
~W
STRT.M 60.0000:
STOP.M 249.0000:
STEP.M 0.1250:
NULL. -999.2500:
UWI. DF5060:
~C
DEPT.M :
GR.API :
CALI.CM :
RXO.OHMM :
RI. :
RML.OHMM :
DEN.GM/CC :
SP.MV :
~A
# ...
  116.2500    71.5900    23.1980     8.5250     7.4250     8.4470     2.2470   -28.2250 
  116.3750    70.1260    23.0810     8.4830     7.6550     8.5920     2.2400   -28.5100 
  116.5000    69.6710    23.1510     8.7150     7.8240     8.6810     2.2550   -28.7680 
  116.6250    68.2540    23.4180     8.9520     7.8920     8.6500     2.2750   -28.9580 
  116.7500    64.5050    23.6830     8.9590     7.8460     8.4860     2.2780   -29.1370 
  116.8750    61.3550    23.8360     8.9100     7.7050     8.2440     2.2590   -29.2830 
  117.0000    62.1630    23.8790     9.0990     7.5440     8.0330     2.2250   -29.3350 
  117.1250    65.1890    23.8680     9.3760     7.4510     7.9550     2.1920   -29.3070 
  117.2500    65.1830    23.8450     9.5130     7.4200     7.9530     2.1710   -29.1920 
  117.3750    61.6860    23.8150     9.3920     7.3690     7.8940     2.1630   -29.0530 
  117.5000    57.3840    23.7980     9.1330     7.1810     7.6220     2.1600   -28.9690 
  117.6250    57.5010    23.8240     8.8250     6.7330     7.0090     2.1610   -28.6850 
  117.7500    62.3220    23.8760     8.1790     6.0910     6.1860     2.1730   -28.3470 
  117.8750    68.7840    23.9690     6.9360     5.3810     5.3460     2.1990   -27.9810 
  118.0000    75.4250    24.1870     5.6110     4.7600     4.7010     2.2380   -27.6330 
  118.1250    81.9100    24.5380     4.6610     4.4070     4.4750     2.2780   -27.3860 
  118.2500    85.8440    24.8540     4.4120     4.3690     4.6750     2.3040   -27.2580 
  118.3750    85.1760    24.9830     4.7950     4.6760     5.2900     2.3170   -27.2620 
  118.5000    80.8580    24.8820     6.7850     5.3060     6.2270     2.3260   -27.3220 
  118.6250    74.4020    24.6330    10.0820     6.1380     7.2210     2.3360   -27.4880 
  118.7500    69.0800    24.3630    11.0610     6.8550     7.8890     2.3380   -27.7340 
  118.8750    67.1220    24.0920    10.1280     7.2200     8.0390     2.3220   -27.9750 
  119.0000    68.4330    23.7810     9.4120     7.1890     7.7550     2.2880   -28.1580 
  119.1250    69.8730    23.4820     9.2010     6.9150     7.3230     2.2520   -28.4030 
  119.2500    70.2900    23.2970     9.0630     6.6700     7.0400     2.2280   -28.5880 
  119.3750    71.7110    23.2090     8.8030     6.5750     7.0020     2.2190   -28.7260 
  119.5000    74.2260    23.1590     8.0770     6.6500     7.1760     2.2180   -28.7920 
  119.6250    74.2120    23.1220     7.6860     6.8550     7.4750     2.2190   -28.8390 
  119.7500    71.0810    23.1060     7.8610     7.0920     7.7790     2.2170   -28.8680 
  119.8750    67.7980    23.1060     8.3630     7.3000     8.0360     2.2130   -28.9480 
  120.0000    66.7030    23.1060     8.7180     7.4470     8.2410     2.2080   -29.0910 
  120.1250    68.5490    23.1070     8.4870     7.5460     8.4500     2.2030   -29.1920 
  120.2500    71.4210    23.1180     8.1020     7.6740     8.7560     2.1990   -29.3010 
  120.3750    73.5670    23.1400     8.1790     7.8960     9.2160     2.1980   -29.4110 
  120.5000    73.2110    23.1620     8.7640     8.2410     9.8170     2.2010   -29.5540 
  120.6250    71.9830    23.1750     9.4060     8.6630    10.4360     2.2070   -29.6480 
  120.7500    71.7420    23.1890     9.7520     9.0250    10.8880     2.2160   -29.7340 
  120.8750    71.6310    23.2110     9.7760     9.2320    11.0860     2.2240   -29.7940 
  121.0000    71.1780    23.2370     9.6460     9.3030    11.1290     2.2310   -29.8780 
  121.1250    70.5690    23.2560     9.6280     9.4510    11.4180     2.2380   -29.8780 
  121.2500    69.6150    23.3070     9.9520     9.9790    12.4340     2.2490   -29.8350 
  121.3750    68.3890    23.4500    11.0920    11.2180    14.6300     2.2710   -29.7560 
  121.5000    68.9990    23.7330    14.4220    13.5410    18.3290     2.3100   -29.7250 
  121.6250    69.8920    24.1720    20.0760    17.4340    23.6160     2.3690   -29.6860 
  121.7500    67.9350    24.5980    26.0550    22.2070    29.0360     2.4350   -29.7010 
  121.8750    63.6180    24.8630    30.5950    26.2190    32.3150     2.4950   -29.7250 
  122.0000    59.8230    24.9800    32.7650    27.2990    31.3770     2.5260   -29.7380 
  122.1250    58.7720    25.0200    29.4010    24.4580    26.3220     2.5040   -29.8110 
  122.2500    59.3680    24.9140    22.5980    20.2810    20.6680     2.4410   -29.9750 
  122.3750    62.1210    24.5970    18.4470    16.4880    16.1860     2.3570   -30.1770 
  122.5000    66.0570    24.2360    21.6380    13.7170    13.2430     2.2730   -30.3720 
  122.6250    68.7130    24.1020    23.5760    11.9920    11.6000     2.2080   -30.6050 
  122.7500    69.4170    24.1470    21.4460    10.8180    10.5420     2.1600   -30.8050 
  122.8750    69.1450    24.2460    18.6160     9.9360     9.7320     2.1280   -30.9860 
  123.0000    69.4500    24.2760    17.0530     9.1880     8.9950     2.1080   -31.0800 
  123.1250    69.3670    24.0820    13.6080     8.5410     8.3260     2.1000   -31.1790 
  123.2500    68.5430    23.7580    11.4400     8.0160     7.7910     2.1000   -31.1980 
  123.3750    67.7300    23.5050    10.6550     7.6390     7.4290     2.1080   -31.2780 
  123.5000    65.9080    23.4300    10.4430     7.3960     7.2200     2.1220   -31.2930 
  123.6250    62.6270    23.4590     9.8570     7.2580     7.1220     2.1370   -31.2980 
  123.7500    61.7500    23.4700     9.1650     7.1800     7.0800     2.1490   -31.2440 
  123.8750    64.9080    23.4690     8.8740     7.1550     7.0920     2.1570   -31.1860 
  124.0000    68.1030    23.4940     8.8370     7.1900     7.1710     2.1600   -31.1830 
  124.1250    68.9360    23.5690     8.7270     7.3080     7.3470     2.1600   -31.1270 
  124.2500    70.0790    23.6560     8.6470     7.4990     7.5930     2.1610   -31.1040 
  124.3750    70.6790    23.7130     8.7470     7.7430     7.8740     2.1640   -30.9940 
  124.5000    68.8430    23.7280     8.8810     8.0120     8.1480     2.1690   -30.8970 
  124.6250    66.8290    23.7330     9.1980     8.2730     8.3840     2.1740   -30.7710 
  124.7500    67.9180    23.7440     9.4700     8.5000     8.5850     2.1770   -30.6490 
  124.8750    69.0230    23.7570     9.7270     8.6820     8.7570     2.1750   -30.5050 
  125.0000    66.7670    23.7560     9.8830     8.8240     8.9150     2.1680   -30.2560 
  125.1250    62.1990    23.7210     9.9590     8.9470     9.0670     2.1580   -30.0230 
  125.2500    60.0600    23.6680    10.0680     9.0640     9.2060     2.1480   -29.7470 
  125.3750    61.2160    23.6200    10.1460     9.1590     9.3080     2.1420   -29.4980 
  125.5000    62.5740    23.5970    10.0840     9.1980     9.3450     2.1410   -29.1580 
  125.6250    62.5530    23.5880     9.8890     9.1250     9.2750     2.1450   -28.8230 
  125.7500    62.5870    23.5610     9.5420     8.9450     9.1200     2.1520   -28.4690 
  125.8750    64.1150    23.5110     9.1650     8.6890     8.9110     2.1590   -28.1240 
  126.0000    66.6800    23.4880     8.9910     8.4040     8.6910     2.1660   -27.8340 
  126.1250    69.9820    23.5780     8.9740     8.1510     8.5110     2.1730   -27.5490 
  126.2500    73.0700    23.7280     8.9950     7.9660     8.4010     2.1800   -27.2550 
  126.3750    74.0150    23.8550     9.0240     7.8630     8.3860     2.1840   -26.9240 
  126.5000    72.8100    23.9430     9.0580     7.8500     8.4960     2.1850   -26.6940 
  126.6250    70.7080    24.0440     9.4160     7.9710     8.8170     2.1820   -26.4450 
  126.7500    70.8140    24.1730    10.8970     8.2630     9.3930     2.1830   -26.2300 
  126.8750    71.9670    24.3070    14.0040     8.7880    10.2850     2.1900   -25.9970 
  127.0000    71.1000    24.4750    18.8330     9.5920    11.5170     2.2050   -25.7540 
  127.1250    68.4610    24.6970    23.8300    10.7030    13.0490     2.2290   -25.5270 
  127.2500    66.4260    24.8940    26.5690    11.9520    14.6190     2.2590   -25.3210 
  127.3750    63.6870    25.0140    24.2320    13.1370    15.9590     2.2970   -25.0920 
