~V
VERS. 2.00: Ver 2.00
~W
STRT.M 55.0000:
STOP.M 273.0000:
STEP.M 0.1250:
NULL. -999.2500:
UWI. DF5004:
~C
DEPT.M :
GR.API :
CALI.CM :
RXO.OHMM :
RI. :
RML.OHMM :
DEN.GM/CC :
SP.MV :
~A
# ...
  235.0000   113.6770    24.4550     9.5280     7.9790     9.8410     2.4190   -12.4740 
  235.1250   114.0430    24.1330    10.0230     8.2080    10.1010     2.4190   -12.5710 
  235.2500   112.9450    24.0380    10.5380     8.4920    10.4430     2.4180   -12.6540 
  235.3750   109.7680    24.0560    10.8940     8.9160    11.0310     2.4170   -12.6880 
  235.5000   106.5440    24.0580    11.5670     9.5790    12.0460     2.4140   -12.7490 
  235.6250   107.1650    24.0990    12.5330    10.5460    13.6100     2.4080   -12.7350 
  235.7500   110.4720    24.0640    13.5850    11.5800    15.3200     2.4010   -12.7640 
  235.8750   111.4020    23.8180    14.9110    12.2790    16.5020     2.3930   -12.8120 
  236.0000   108.0060    23.5400    16.0710    12.2050    16.4130     2.3840   -12.8530 
  236.1250   105.7150    23.3520    14.9290    11.2000    14.7980     2.3810   -12.9640 
  236.2500   108.4810    23.2520    12.1080     9.9530    12.8440     2.3870   -13.0050 
  236.3750   112.9970    23.2120     9.6150     9.0110    11.4830     2.3960   -13.0880 
  236.5000   113.3490    23.2060     8.8220     8.6840    11.2140     2.3980   -13.1520 
  236.6250   107.9490    23.2060    10.6360     9.2530    12.4130     2.3910   -13.3000 
  236.7500   102.3900    23.2060    14.8950    10.6830    14.8810     2.3850   -13.4570 
  236.8750    98.0110    23.2060    19.7890    13.0220    18.5410     2.3820   -13.6230 
  237.0000    92.5390    23.2060    23.1230    16.2690    23.2510     2.3750   -13.8710 
  237.1250    87.2180    23.2090    25.2000    20.6450    29.2050     2.3480   -14.0960 
  237.2500    86.1200    23.2320    32.2200    26.3940    36.7770     2.3050   -14.4360 
  237.3750    86.8840    23.2900    52.3390    34.2230    46.9400     2.2600   -14.7570 
  237.5000    83.5590    23.3970    97.4600    44.6840    60.6020     2.2260   -15.0970 
  237.6250    75.1940    23.5460   139.3840    57.3800    77.6610     2.2080   -15.3750 
  237.7500    69.5250    23.6380   139.3640    69.3430    94.0040     2.2040   -15.6400 
  237.8750    69.2970    23.6110   117.9710    77.9410   105.4240     2.2120   -15.9240 
  238.0000    71.2390    23.5740   106.3790    82.4650   110.8600     2.2270   -16.1220 
  238.1250    68.9930    23.5860   100.7660    84.1970   112.8800     2.2400   -16.3590 
  238.2500    64.2560    23.6520    91.5090    85.1870   114.5460     2.2460   -16.5000 
  238.3750    61.9350    23.7970    96.9300    85.5010   115.5030     2.2430   -16.6330 
  238.5000    63.0170    23.9510   111.2490    84.5560   114.3790     2.2320   -16.7750 
  238.6250    64.3900    24.1560   112.7620    82.2420   110.8210     2.2220   -16.8570 
  238.7500    64.3280    24.3630    94.0380    79.9470   107.1430     2.2170   -16.9920 
  238.8750    65.1570    24.4010    76.5440    79.0280   105.4050     2.2130   -17.0660 
  239.0000    68.6730    24.3240    72.2000    80.6040   107.1230     2.2100   -17.1040 
  239.1250    72.3090    24.2170    88.2140    85.7090   113.6940     2.2050   -17.1240 
  239.2500    72.7260    24.2860   115.1520    93.2390   123.6920     2.1990   -17.1110 
  239.3750    68.6860    24.3310   140.4230   101.5980   134.8470     2.1910   -17.1150 
  239.5000    63.7780    24.4000   148.6540   108.5140   143.5560     2.1830   -17.0800 
  239.6250    62.1940    24.6050   138.1590   111.0620   145.1290     2.1810   -17.1270 
  239.7500    62.3090    24.7180   133.3610   109.2620   140.2670     2.1840   -17.1380 
  239.8750    63.1030    24.5410   146.3460   104.2100   131.4420     2.1930   -17.1490 
  240.0000    64.6570    24.3490   151.9240    97.4060   121.0990     2.2020   -17.2510 
  240.1250    66.4430    24.3530   139.3180    89.9110   110.5530     2.2050   -17.2980 
  240.2500    66.2820    24.4050   118.1880    82.5370   100.5120     2.2060   -17.4460 
  240.3750    64.3270    24.3090   105.5370    75.7140    91.3960     2.2100   -17.5890 
  240.5000    64.7130    24.2390    94.4260    69.6750    83.4120     2.2170   -17.7270 
  240.6250    68.8550    24.2400    82.9560    64.5940    76.6840     2.2170   -17.8900 
  240.7500    72.0590    24.2870    72.0710    60.1350    70.7130     2.2090   -17.9580 
  240.8750    71.3120    24.2610    66.2230    56.0060    65.1470     2.2000   -18.0040 
  241.0000    68.9220    23.9950    60.7420    52.0750    59.8660     2.1950   -18.0190 
  241.1250    69.9200    23.8270    52.5080    48.6630    55.2950     2.1960   -17.9870 
  241.2500    72.5420    23.5920    44.2380    46.1400    51.8450     2.2010   -17.9310 
  241.3750    74.3050    23.5350    40.1130    44.7690    49.8160     2.2120   -17.8200 
  241.5000    74.1950    23.4780    38.7160    44.5440    49.2020     2.2270   -17.6720 
  241.6250    73.5670    23.5240    40.9420    45.1920    49.6820     2.2400   -17.5050 
  241.7500    72.5580    23.5980    46.2000    45.8780    50.2200     2.2470   -17.3550 
  241.8750    71.2270    23.7050    51.2880    45.9500    50.0130     2.2440   -17.2130 
  242.0000    70.5760    24.0080    51.0550    45.0510    48.6470     2.2360   -17.0500 
  242.1250    71.5740    24.3900    45.5970    43.2360    46.2860     2.2320   -16.8920 
  242.2500    72.9910    24.5750    41.3100    41.2170    43.8440     2.2350   -16.7570 
  242.3750    74.0670    24.5580    40.7330    39.4480    41.8530     2.2420   -16.6390 
  242.5000    75.8740    24.5060    41.6450    38.0790    40.4000     2.2540   -16.5250 
  242.6250    79.1120    24.4950    40.4900    36.8860    39.0570     2.2720   -16.4040 
  242.7500    80.4960    24.5020    38.8940    35.4770    37.2760     2.2900   -16.3110 
  242.8750    78.2290    24.5300    38.7040    33.8320    35.0630     2.2950   -16.2370 
  243.0000    76.3090    24.5780    38.5300    32.3680    33.0310     2.2880   -16.1530 
  243.1250    78.5920    24.5850    36.4200    31.9820    32.3350     2.2780   -16.2120 
  243.2500    81.5300    24.5440    34.4530    33.1650    33.4830     2.2820   -16.2630 
  243.3750    81.8480    24.5900    37.6150    36.2500    36.7280     2.3020   -16.3130 
  243.5000    79.3460    24.9010    52.3780    41.1350    41.8770     2.3280   -16.4880 
  243.6250    79.0040    25.0860    68.7490    46.6540    47.6610     2.3360   -16.6500 
  243.7500    82.9590    24.8650    69.6500    50.1540    51.1700     2.3240   -16.8790 
  243.8750    87.8880    24.4150    56.5750    49.6490    50.2070     2.3080   -17.1350 
  244.0000    88.9580    24.0470    45.4220    45.3670    45.2240     2.3080   -17.4030 
  244.1250    84.6870    24.0040    40.8940    39.6620    39.1130     2.3160   -17.6590 
  244.2500    81.8470    24.0620    35.9520    34.9280    34.3380     2.3140   -17.8360 
  244.3750    82.5690    24.1790    31.8350    31.7590    31.3560     2.3020   -18.0130 
  244.5000    84.4650    24.2650    30.8090    30.0510    29.9350     2.2920   -18.1600 
  244.6250    83.2760    24.4110    34.1900    29.8000    30.0170     2.2960   -18.2560 
  244.7500    79.3300    24.5640    37.4800    30.7900    31.3750     2.3040   -18.3340 
  244.8750    76.8580    24.6140    36.6790    33.2290    34.2470     2.3050   -18.3790 
  245.0000    77.6710    24.7140    35.0410    37.5760    39.1150     2.2910   -18.3370 
  245.1250    78.8160    24.7470    48.0880    44.8810    47.0850     2.2640   -18.2340 
  245.2500    76.7780    24.5910    83.6480    54.6270    57.8260     2.2410   -18.1870 
  245.3750    73.0350    24.3730   111.9690    65.3700    70.0580     2.2390   -18.0990 
  245.5000    70.9220    24.3560   107.4700    74.5970    80.8800     2.2670   -17.9580 
  245.6250    72.0140    24.1850    85.1400    79.4630    86.4360     2.3190   -17.8270 
  245.7500    74.1050    23.8230    71.9600    81.2060    88.1340     2.3740   -17.6410 
  245.8750    75.6930    23.5100    72.9800    82.5780    89.5380     2.4260   -17.4370 
  246.0000    76.3320    23.4930    94.3210    86.1620    93.7520     2.4790   -17.2810 
  246.1250    77.1790    23.7610   117.1500    93.0410   102.1690     2.5250   -17.1580 
