~V
VERS. 2.00: Ver 2.00
~W
STRT.M 55.0000:
STOP.M 247.0000:
STEP.M 0.1250:
NULL. -999.2500:
UWI. DF5063:
~C
DEPT.M :
SP.MV :
GR.API :
RML.OHMM :
RI. :
RXO.OHMM :
CALI.CM :
DEN.GM/CC :
~A
# ...
  235.0000    -0.9460    70.1560    10.1210     8.7720     6.9400    24.1720     2.5050 
  235.1250    -0.9870    70.1150    10.2830     8.8640     7.0770    24.2790     2.5070 
  235.2500    -0.9460    70.6030    10.5590     9.0390     7.1890    24.4000     2.5010 
  235.3750    -0.8900    71.8340    10.9470     9.3000     7.5240    24.4580     2.4870 
  235.5000    -0.7890    73.3150    11.4130     9.6350     8.9070    24.4810     2.4670 
  235.6250    -0.6880    74.3890    11.8840    10.0110    11.3980    24.4780     2.4410 
  235.7500    -0.5770    74.6080    12.2730    10.3650    13.4620    24.4780     2.4180 
  235.8750    -0.4250    73.1080    12.5210    10.6490    13.2660    24.5040     2.4060 
  236.0000    -0.2830    69.6600    12.6080    10.8290    11.0800    24.5230     2.4060 
  236.1250    -0.2150    67.7170    12.5420    10.8860     8.6510    24.4970     2.4090 
  236.2500    -0.2520    67.6710    12.4190    10.8650     7.3150    24.4460     2.4080 
  236.3750    -0.3520    67.9440    12.3060    10.8030     7.0950    24.4060     2.4060 
  236.5000    -0.4270    67.9440    12.2430    10.7370     7.5020    24.4080     2.4030 
  236.6250    -0.4370    67.9440    12.2350    10.6940     8.2660    24.3850     2.3890 
  236.7500    -0.4640    67.9440    12.2460    10.6760    10.2090    24.3640     2.3720 
  236.8750    -0.5580    67.9440    12.2470    10.6730    13.1200    24.3720     2.3640 
  237.0000    -0.7210    67.9440    12.2210    10.6690    15.4540    24.2980     2.3670 
  237.1250    -0.8160    67.9440    12.1710    10.6500    14.8140    24.0630     2.3770 
  237.2500    -0.8610    67.9440    12.1190    10.6260    14.3300    24.0310     2.3910 
  237.3750    -0.8540    67.9440    12.0780    10.6120    14.3020    24.1950     2.4060 
  237.5000    -0.8780    67.9440    12.0520    10.6220    14.4610    24.4950     2.4190 
  237.6250    -0.9670    67.9440    12.0400    10.6670    14.6500    24.5740     2.4260 
  237.7500    -1.0320    67.9440    12.0320    10.7260    14.4360    24.5150     2.4260 
  237.8750    -1.0610    67.9440    12.0170    10.7750    14.1320    24.4630     2.4190 
  238.0000    -1.0490    67.9440    11.9770    10.7870    13.4670    24.4850     2.4120 
  238.1250    -1.0680    67.9440    11.9000    10.7490    11.5640    24.5270     2.4160 
  238.2500    -1.0930    67.9440    11.8100    10.6910     9.2250    24.5400     2.4280 
  238.3750    -1.1090    67.9440    11.7470    10.6550     8.5230    24.5240     2.4410 
  238.5000    -1.1040    67.9440    11.7610    10.6790     9.5670    24.5020     2.4530 
  238.6250    -1.0420    67.9440    11.8990    10.7970    11.2690    24.4540     2.4630 
  238.7500    -0.9870    67.9440    12.1270    10.9870    12.9900    24.3970     2.4680 
  238.8750    -0.9530    67.9440    12.4000    11.2230    14.2330    24.4210     2.4670 
  239.0000    -0.8710    67.9440    12.6690    11.4760    14.8150    24.4970     2.4640 
  239.1250    -0.7920    67.9440    12.8960    11.7250    15.0190    24.5470     2.4690 
  239.2500    -0.7580    67.9440    13.0920    11.9650    14.5360    24.5270     2.4770 
  239.3750    -0.8010    67.9440    13.2760    12.2010    14.8530    24.5090     2.4820 
  239.5000    -0.8570    67.9440    13.4570    12.4320    16.0390    24.5350     2.4820 
  239.6250    -0.8610    67.9440    13.6020    12.6330    17.5210    24.5660     2.4820 
  239.7500    -0.8030    67.9440    13.6780    12.7790    17.9520    24.5900     2.4810 
  239.8750    -0.6680    67.9440    13.6640    12.8470    16.7510    24.5820     2.4800 
  240.0000    -0.5570    67.9440    13.5650    12.8380    14.8580    24.5720     2.4790 
  240.1250    -0.4680    67.9440    13.3990    12.7640    13.5070    24.6160     2.4800 
  240.2500    -0.3520    67.9440    13.1970    12.6620    12.8300    24.6320     2.4820 
  240.3750    -0.1990    67.9440    12.9460    12.5250    12.4500    24.5720     2.4830 
  240.5000    -0.0440    67.9440    12.6120    12.3140    11.9830    24.5290     2.4820 
  240.6250     0.0420    67.9440    12.1190    11.9390    10.4990    24.5470     2.4750 
  240.7500     0.0590    67.9440    11.4640    11.3780     8.6760    24.5660     2.4590 
  240.8750    -0.0110    67.9440    10.6710    10.6450     7.6340    24.5970     2.4420 
  241.0000    -0.1400    67.9440     9.8050     9.8020     7.6320    24.6470     2.4360 
  241.1250    -0.2710    67.9440     8.9660     8.9430     7.6080    24.6640     2.4440 
  241.2500    -0.3170    67.9440     8.2230     8.1570     7.1510    24.6490     2.4490 
  241.3750    -0.3020    67.9440     7.6050     7.4940     5.9990    24.6640     2.4380 
  241.5000    -0.2900    67.9440     7.1300     6.9840     5.2790    24.6930     2.4190 
  241.6250    -0.4100    67.9440     6.8300     6.6560     5.9170    24.7740     2.4160 
  241.7500    -0.6110    67.9440     6.6720     6.4610     7.4490    24.7580     2.4360 
  241.8750    -0.7460    67.9440     6.6240     6.3640     9.3820    24.6300     2.4660 
  242.0000    -0.8300    67.9440     6.6360     6.3240    10.8150    24.5100     2.4830 
  242.1250    -0.8730    67.9440     6.6530     6.3130    12.0630    24.4830     2.4840 
  242.2500    -1.0180    67.9440     6.6480     6.3100    13.2330    24.4720     2.4860 
  242.3750    -1.2150    67.9440     6.6270     6.3100    14.0790    24.4410     2.4920 
  242.5000    -1.4450    67.9440     6.6050     6.3110    14.5790    24.3990     2.5030 
  242.6250    -1.4450    67.9440     6.5930     6.3120    15.4400    24.3810     2.5100 
  242.7500    -1.4450    67.9440     6.5900     6.3120    16.4680    24.3480     2.5130 
  242.8750  -999.2500    67.9440     6.5900     6.3120    17.3290    24.3480     2.5120 
  243.0000  -999.2500    67.9440     6.5900     6.3120    17.2490    24.3660     2.5100 
  243.1250  -999.2500    67.9440     6.5900     6.3120    15.7070    24.4120     2.5120 
  243.2500  -999.2500    67.9440     6.5900     6.3120    14.8190    24.4320     2.5220 
  243.3750  -999.2500    67.9440     6.5900     6.3120    16.3060    24.4290     2.5380 
  243.5000  -999.2500    67.9440     6.5900     6.3120    18.4200    24.4280     2.5460 
  243.6250  -999.2500    67.9440     6.5900     6.3120    21.2250    24.4280     2.5400 
  243.7500  -999.2500    67.9440     6.5900     6.3120    19.6030    24.4140     2.5290 
  243.8750  -999.2500    67.9440     6.5900     6.3120    15.9720    24.4140     2.5190 
  244.0000  -999.2500    67.9440     6.5900     6.3120    13.4680    24.4560     2.5100 
  244.1250  -999.2500    67.9440     6.5900     6.3120    13.3420    24.4570     2.4980 
  244.2500  -999.2500    67.9440     6.5900     6.3120    12.2380    24.4230     2.4810 
  244.3750  -999.2500    67.9440     6.5900     6.3120    10.0670    24.4150     2.4590 
  244.5000  -999.2500    67.9440     6.5900     6.3120     8.8830    24.4520     2.4290 
  244.6250  -999.2500    67.9440     6.5900     6.3120     9.2670    24.4980     2.4010 
  244.7500  -999.2500    67.9440     6.5900     6.3120    10.5950    24.5140     2.3950 
  244.8750  -999.2500    67.9440     6.5900     6.3120    10.8890    24.5010     2.4190 
  245.0000  -999.2500    67.9440     6.5900     6.3120    11.8150    24.4760     2.4620 
  245.1250  -999.2500    67.9440     6.5900     6.3120    14.8570    24.4540     2.4930 
  245.2500  -999.2500    67.9440     6.5900     6.3120    16.2820    24.4180     2.5060 
  245.3750  -999.2500    67.9440     6.5900     6.3120    16.2760    24.3890     2.5090 
  245.5000  -999.2500    67.9440     6.5900     6.3120    15.6550    24.3590     2.5040 
  245.6250  -999.2500    67.9440     6.5900     6.3120    14.9350    24.3380     2.4770 
  245.7500  -999.2500    67.9440     6.5900     6.3120    14.4930    24.3110     2.4230 
  245.8750  -999.2500    67.9440     6.5900     6.3120    14.4160    24.2560     2.3360 
  246.0000  -999.2500    67.9440     6.5900     6.3120    14.2140    24.1650     2.2120 
  246.1250  -999.2500    67.9440     6.5900     6.3120    13.0750    22.8460     2.0490 
