~V
VERS. 2.00: Ver 2.00
~W
STRT.M 61.0000:
STOP.M 247.0000:
STEP.M 0.1250:
NULL. -999.2500:
UWI. DF5042:
~C
DEPT.M :
SP.MV :
GR.API :
CALI.CM :
RXO.OHMM :
RI. :
RML.OHMM :
DEN.GM/CC :
~A
# ...
  207.2500   -21.8670    66.9650    25.5990    46.4840    69.2430    68.4720     2.2890 
  207.3750   -21.9050    67.3750    25.5980    49.2850    75.9730    76.0320     2.2350 
  207.5000   -21.9100    66.7500    25.5980    47.7660    84.1230    84.7160     2.1920 
  207.6250   -21.9050    66.7400    25.5980    47.0250    92.0950    93.2280     2.1630 
  207.7500   -21.8270    66.2990    25.5980    48.1170    99.0740   101.0470     2.1480 
  207.8750   -21.7890    64.2170    25.5980    51.6260   105.3890   108.4740     2.1460 
  208.0000   -21.8870    61.8780    25.5980    56.7740   111.5460   115.7810     2.1500 
  208.1250   -22.0820    61.1150    25.6000    59.0440   117.1980   122.3380     2.1580 
  208.2500   -22.2590    60.8790    25.6050    56.7910   121.5670   127.2930     2.1710 
  208.3750   -22.3440    60.0780    25.6100    50.7180   124.2040   130.1520     2.1920 
  208.5000   -22.4420    59.8270    25.6210    53.7430   125.1270   130.8620     2.2160 
  208.6250   -22.5640    60.4290    25.6510    61.5840   124.2750   129.1780     2.2400 
  208.7500   -22.7820    60.4050    25.6840    66.3540   121.9050   125.4190     2.2520 
  208.8750   -22.9970    60.7280    25.7000    67.6100   117.8060   119.4880     2.2420 
  209.0000   -23.1250    62.0510    25.7070    73.8120   111.8100   111.4590     2.2170 
  209.1250   -23.1740    63.1370    25.7410    76.6520   103.8170   101.5410     2.1910 
  209.2500   -23.1910    63.6350    25.7700    68.6590    94.5280    90.6640     2.1730 
  209.3750   -23.1500    64.1840    25.7440    56.4830    84.4060    79.4680     2.1650 
  209.5000   -23.0460    64.0690    25.6630    48.2820    74.1230    68.7230     2.1650 
  209.6250   -22.8930    62.1710    25.6000    45.1770    64.7880    59.5300     2.1680 
  209.7500   -22.7550    61.7340    25.5860    41.4410    57.0110    52.1580     2.1710 
  209.8750   -22.6680    64.5020    25.5920    35.7240    50.9430    46.5620     2.1750 
  210.0000   -22.5880    69.3020    25.5950    30.4410    46.3750    42.4370     2.1800 
  210.1250   -22.4570    72.1110    25.5950    29.5730    43.1430    39.6010     2.1850 
  210.2500   -22.3120    73.2150    25.5940    29.3070    40.8830    37.7560     2.1910 
  210.3750   -22.2160    74.1510    25.5940    28.4460    39.7280    37.1060     2.1980 
  210.5000   -22.1900    74.1110    25.5950    26.4090    40.0380    38.0610     2.2020 
  210.6250   -22.2340    73.0220    25.6000    24.8710    42.6840    41.4470     2.2020 
  210.7500   -22.3750    71.7410    25.6150    27.4200    47.7120    47.0810     2.2000 
  210.8750   -22.5820    71.0530    25.6390    35.5040    54.9270    54.5220     2.1980 
  211.0000   -22.8000    68.9310    25.6530    47.2410    63.2410    62.5950     2.1990 
  211.1250   -23.0400    64.2630    25.7060    54.9610    70.0550    68.9510     2.2050 
  211.2500   -23.2930    61.1210    25.7960    54.6210    73.3790    72.0950     2.2170 
  211.3750   -23.5090    60.8460    25.8140    47.9020    73.0640    72.1010     2.2310 
  211.5000   -23.7310    62.9900    25.6920    42.5740    70.5950    70.4280     2.2390 
  211.6250   -23.9330    64.4580    25.5270    42.5800    67.8350    68.8110     2.2370 
  211.7500   -24.0580    65.0280    25.4580    44.1140    65.8050    68.0530     2.2230 
  211.8750   -24.1070    66.8940    25.4560    45.9600    64.7490    68.3210     2.2000 
  212.0000   -24.1530    68.6140    25.4610    48.8890    64.8590    69.8470     2.1800 
  212.1250   -24.2470    68.0730    25.4590    47.2040    67.0540    73.7710     2.1690 
  212.2500   -24.3920    66.8810    25.4440    43.9020    72.2920    81.0560     2.1660 
  212.3750   -24.6320    65.8240    25.4150    46.8330    81.8080    92.7510     2.1720 
  212.5000   -24.8960    63.8010    25.3860    63.3390    95.9460   108.9610     2.1830 
  212.6250   -25.1500    60.8890    25.3730    76.6820   112.5410   127.0650     2.1970 
  212.7500   -25.3910    59.8400    25.3640    82.7110   124.7570   139.3120     2.2150 
  212.8750   -25.5830    60.4420    25.3500    84.2040   126.1340   138.3150     2.2310 
  213.0000   -25.6990    60.8170    25.3380    80.7770   115.3500   123.8640     2.2360 
  213.1250   -25.7690    62.9050    25.3360    66.3890    98.2480   104.8250     2.2260 
  213.2500   -25.7800    67.7120    25.3330    48.5580    83.5790    90.3320     2.2020 
  213.3750   -25.7420    73.0670    25.3360    38.4690    74.6070    82.7220     2.1730 
  213.5000   -25.6220    75.5930    25.3900    36.1040    71.9530    81.8510     2.1490 
  213.6250   -25.4490    72.8780    25.5360    44.7930    75.8880    87.5980     2.1360 
  213.7500   -25.1990    69.0570    25.6970    52.6690    84.1830    97.5500     2.1290 
  213.8750   -24.8640    67.2140    25.7920    62.4870    95.1260   109.8420     2.1240 
  214.0000   -24.4560    66.7640    25.8110    73.2940   106.3780   121.9430     2.1180 
  214.1250   -23.9850    64.9450    25.8060    79.6770   114.7540   130.3850     2.1100 
  214.2500   -23.4640    62.9430    25.8060    80.7410   119.0210   134.1260     2.1050 
  214.3750   -22.9060    63.8340    25.8060    77.3530   119.1700   133.4130     2.1060 
  214.5000   -22.3600    65.5120    25.8060    71.4760   115.8570   129.0690     2.1150 
  214.6250   -21.8010    63.9710    25.8060    62.8380   109.6760   121.7350     2.1280 
  214.7500   -21.2570    60.6710    25.8060    59.6560   102.3870   113.3380     2.1410 
  214.8750   -20.7770    60.7400    25.8060    58.4470    95.4120   105.4400     2.1560 
  215.0000   -20.3740    64.7170    25.8050    53.6650    89.9000    99.1890     2.1760 
  215.1250   -19.9560    67.5640    25.8120    45.8570    86.6510    95.1860     2.2040 
  215.2500   -19.5290    67.4840    25.8200    43.5700    85.0260    92.6120     2.2400 
  215.3750   -19.0260    66.0070    25.8210    50.7770    84.4630    90.9950     2.2780 
  215.5000   -18.4720    66.0780    25.8590    61.9320    84.7630    90.4310     2.3050 
  215.6250   -17.9070    67.3750    25.9850    68.9090    86.6880    91.7240     2.3120 
  215.7500   -17.3870    66.9020    26.1220    63.4750    89.5940    93.5300     2.3030 
  215.8750   -16.8790    65.4470    26.2020    58.3110    89.8880    91.6230     2.2900 
  216.0000   -16.3180    64.4240    26.2350    68.2590    81.6240    80.4790     2.2880 
  216.1250   -15.8170    64.5190    26.2520   106.0890    61.7370    58.7850     2.3020 
  216.2500   -15.3770    65.6330    26.2200   118.0330    40.0940    36.7390     2.3330 
  216.3750   -15.0060    68.0190    26.0740    76.3220    23.6290    20.7210     2.3800 
  216.5000   -14.6810    70.0160    25.7990    21.2550    13.6820    11.5690     2.4250 
  216.6250   -14.3990    68.8550    25.4400     6.4630     8.9900     7.6350     2.4540 
  216.7500   -14.1220    65.4330    25.1150     4.9310     6.6710     5.8970     2.4530 
  216.8750   -13.8710    61.3980    24.8960     4.7440     5.6500     5.2820     2.4250 
  217.0000   -13.6500    59.6600    24.8020     4.7650     5.4230     5.2990     2.3880 
  217.1250   -13.4260    63.5190    24.9090     5.0210     5.7810     5.7470     2.3570 
  217.2500   -13.2070    70.9320    25.2420     5.3850     6.4380     6.3910     2.3340 
  217.3750   -13.0170    78.2450    25.7050     6.1460     7.2390     7.0930     2.3200 
  217.5000   -12.8740    83.4890    26.3050     7.1420     8.0370     7.7280     2.3120 
  217.6250   -12.7580    84.9730    27.2370     7.6910     8.6490     8.1590     2.3090 
  217.7500   -12.6790    84.5940    27.9920     7.5820     9.0040     8.3710     2.3120 
  217.8750   -12.6270    86.7820    27.8460     7.3100     9.1100     8.4120     2.3190 
  218.0000   -12.6410    92.8240    26.8000     7.1230     9.0360     8.3770     2.3260 
  218.1250   -12.6970   100.6900    25.8440     7.0930     8.8510     8.3540     2.3320 
  218.2500   -12.7990   109.7200    25.5180     7.2200     8.6200     8.3610     2.3360 
  218.3750   -12.9320   118.6820    25.5040     7.4410     8.3500     8.3730     2.3370 
