~V
VERS. 2.00: Ver 2.00
~W
STRT.M 61.0000:
STOP.M 267.0000:
STEP.M 0.1250:
NULL. -999.2500:
UWI. DF5036:
~C
DEPT.M :
SP.MV :
GR.API :
RML.OHMM :
RI. :
RXO.OHMM :
CALI.CM :
DEN.GM/CC :
~A
# ...
  252.2500    -5.8080    66.2600    15.9190    13.9580    22.8740    23.6140     2.4510 
  252.3750    -5.8700    62.9970    15.6770    13.7530    21.3680    23.7630     2.4620 
  252.5000    -5.9300    60.4100    15.4090    13.5240    19.3940    23.8270     2.4680 
  252.6250    -6.0300    60.5290    15.1390    13.2880    17.4670    23.8160     2.4660 
  252.7500    -6.1300    61.9630    14.8970    13.0730    15.5820    23.8110     2.4640 
  252.8750    -6.2450    62.4810    14.7100    12.9050    13.9900    23.8000     2.4650 
  253.0000    -6.3620    61.8900    14.5850    12.7930    13.2550    23.7740     2.4690 
  253.1250    -6.4580    63.1020    14.4900    12.7220    12.8470    23.7350     2.4670 
  253.2500    -6.5230    65.7600    14.3470    12.6240    12.4980    23.7480     2.4570 
  253.3750    -6.5740    68.3970    14.0880    12.4340    12.2160    23.7790     2.4390 
  253.5000    -6.6110    69.1130    13.6740    12.1060    11.5400    23.7990     2.4190 
  253.6250    -6.6440    66.5200    13.1040    11.6180    10.6260    23.8150     2.4040 
  253.7500    -6.7020    62.3340    12.4830    11.0570     9.8480    23.8400     2.4030 
  253.8750    -6.7730    59.2570    11.8990    10.5050     9.7460    23.8700     2.4150 
  254.0000    -6.8530    59.0420    11.4300    10.0380     9.8250    23.9260     2.4370 
  254.1250    -6.9190    61.3240    11.1480     9.7330     9.6540    24.0710     2.4560 
  254.2500    -6.9780    64.1880    11.0330     9.5820     9.0540    24.2000     2.4580 
  254.3750    -7.0510    66.0180    11.0580     9.5670     8.2250    24.1560     2.4370 
  254.5000    -7.1450    65.6690    11.1780     9.6520     7.6750    24.3180     2.3990 
  254.6250    -7.1680    63.8400    11.3270     9.7840     7.8080    24.2320     2.3610 
  254.7500    -7.1660    62.1710    11.4320     9.8950     8.5270    24.1230     2.3390 
  254.8750    -7.1370    60.8430    11.4570     9.9450     9.6890    23.9770     2.3410 
  255.0000    -7.0830    60.9770    11.3960     9.9190    11.1910    23.8380     2.3660 
  255.1250    -7.0440    63.3550    11.2800     9.8250    12.6590    23.8050     2.4050 
  255.2500    -7.0210    64.7360    11.1770     9.7150    13.6390    23.8190     2.4440 
  255.3750    -6.9930    64.2900    11.1320     9.6300    13.6330    23.8450     2.4750 
  255.5000    -6.9350    64.1020    11.1660     9.5960    12.4150    23.8300     2.4930 
  255.6250    -6.8950    64.4940    11.2740     9.6260    10.2770    23.7830     2.4920 
  255.7500    -6.8340    62.8090    11.4060     9.6920     9.1780    23.7890     2.4780 
  255.8750    -6.7910    61.1620    11.5230     9.7650     9.0390    23.8650     2.4590 
  256.0000    -6.7260    62.3820    11.6000     9.8200     9.3640    23.9040     2.4440 
  256.1250    -6.6420    64.4820    11.6240     9.8370     9.4550    23.9600     2.4390 
  256.2500    -6.5610    63.7480    11.6160     9.8270     9.3600    23.9690     2.4400 
  256.3750    -6.4660    61.7210    11.6000     9.8050     9.2240    23.9500     2.4430 
  256.5000    -6.3890    61.1320    11.6020     9.7890     8.9530    23.9310     2.4440 
  256.6250    -6.3260    61.7020    11.6480     9.7970     8.8580    23.9250     2.4450 
  256.7500    -6.2940    62.3790    11.7340     9.8310     8.9020    23.9250     2.4460 
  256.8750    -6.2570    63.0060    11.8470     9.8860     8.9200    23.9250     2.4470 
  257.0000    -6.2600    63.1230    11.9640     9.9560     8.8080    23.9250     2.4470 
  257.1250    -6.2720    63.1230    12.0620    10.0350     8.6230    23.9250     2.4470 
  257.2500    -6.2840    63.1230    12.1350    10.1190     8.4760    23.9220     2.4460 
  257.3750    -6.2770    63.1230    12.1940    10.2090     8.3450    23.9090     2.4470 
  257.5000    -6.2710    63.1230    12.2530    10.3060     8.2370    23.8790     2.4500 
  257.6250    -6.2610    63.1230    12.3330    10.4110     8.3420    23.8650     2.4540 
  257.7500    -6.2330    63.1230    12.4330    10.5170     8.5630    23.8580     2.4590 
  257.8750    -6.2010    63.1230    12.5380    10.6150     8.7610    23.8530     2.4650 
  258.0000    -6.1660    63.1230    12.6280    10.6930     8.8390    23.8410     2.4710 
  258.1250    -6.1610    63.1230    12.6760    10.7270     8.7830    23.8180     2.4760 
  258.2500    -6.1530    63.1230    12.6780    10.7150     8.6670    23.8080     2.4820 
  258.3750    -6.1810    63.1230    12.6400    10.6630     8.4410    23.8050     2.4870 
  258.5000    -6.2560    63.1230    12.5750    10.5820     8.1010    23.8050     2.4930 
  258.6250    -6.3500    63.1230    12.5040    10.4960     7.8750    23.8050     2.4970 
  258.7500    -6.4380    63.1230    12.4560    10.4340     7.7750    23.8080     2.4980 
  258.8750    -6.5260    63.1230    12.4500    10.4120     7.8120    23.8180     2.4960 
  259.0000    -6.5900    63.1230    12.4900    10.4330     7.8970    23.8410     2.4920 
  259.1250    -6.6240    63.1230    12.5650    10.4880     7.9030    23.8530     2.4860 
  259.2500    -6.6600    63.1230    12.6370    10.5430     7.7870    23.8560     2.4810 
  259.3750    -6.7100    63.1230    12.6830    10.5820     7.7070    23.8550     2.4780 
  259.5000    -6.7290    63.1230    12.6950    10.6010     7.7030    23.8470     2.4770 
  259.6250    -6.7180    63.1230    12.6800    10.6070     7.8280    23.8260     2.4780 
  259.7500    -6.7380    63.1230    12.6590    10.6180     8.0100    23.8050     2.4790 
  259.8750    -6.7570    63.1230    12.6430    10.6390     8.0870    23.8090     2.4780 
  260.0000    -6.8130    63.1230    12.6370    10.6680     8.0910    23.8710     2.4750 
  260.1250    -6.8640    63.1230    12.6380    10.6950     7.9300    23.9970     2.4740 
  260.2500    -6.9100    63.1230    12.6420    10.7140     8.0000    24.0540     2.4730 
  260.3750    -6.9210    63.1230    12.6440    10.7240     8.2410    23.9810     2.4710 
  260.5000    -6.9340    63.1230    12.6460    10.7270     8.5520    23.8820     2.4660 
  260.6250    -6.9930    63.1230    12.6510    10.7270     8.6300    23.8400     2.4590 
  260.7500    -7.0310    63.1230    12.6590    10.7270     8.3530    23.8220     2.4530 
  260.8750    -7.0600    63.1230    12.6670    10.7270     8.2810    23.8100     2.4510 
  261.0000    -7.0550    63.1230    12.6730    10.7280     8.4580    23.8050     2.4540 
  261.1250    -7.0670    63.1230    12.6760    10.7280     8.6630    23.8120     2.4600 
  261.2500    -7.0790    63.1230    12.6770    10.7290     8.8680    23.8320     2.4680 
  261.3750    -7.0820    63.1230    12.6760    10.7290     9.1430    23.8600     2.4750 
  261.5000    -7.0350    63.1230    12.6750    10.7280     9.5030    23.8850     2.4780 
  261.6250    -6.9690    63.1230    12.6730    10.7270     9.7850    23.9080     2.4730 
  261.7500    -6.9310    63.1230    12.6690    10.7270     9.9790    23.9170     2.4620 
  261.8750    -6.9060    63.1230    12.6640    10.7280    10.2540    23.9180     2.4510 
  262.0000    -6.8820    63.1230    12.6600    10.7290    10.7370    23.9130     2.4470 
  262.1250    -6.8710    63.1230    12.6580    10.7300    11.4070    23.8990     2.4540 
  262.2500    -6.8440    63.1230    12.6570    10.7300    12.1330    23.8710     2.4700 
  262.3750    -6.8040    63.1230    12.6580    10.7310    12.7920    23.8420     2.4880 
  262.5000    -6.8130    63.1230    12.6580    10.7310    13.1270    23.8170     2.5040 
  262.6250    -6.8130    63.1230    12.6590    10.7310    13.2810    23.8080     2.5130 
  262.7500    -6.7540    63.1230    12.6590    10.7310    13.4240    23.8050     2.5160 
  262.8750    -6.6820    63.1230    12.6590    10.7320    13.9050    23.8060     2.5160 
  263.0000    -6.6350    63.1230    12.6590    10.7320    14.4720    23.8070     2.5150 
  263.1250    -6.5990    63.1230    12.6590    10.7320    14.9690    23.8020     2.5140 
  263.2500    -6.5700    63.1230    12.6590    10.7320    15.1030    23.7900     2.5140 
  263.3750    -6.5680    63.1230    12.6590    10.7320    14.7410    23.7550     2.5140 
