~V
VERS. 2.00: Ver 2.00
~W
STRT.M 50.0000:
STOP.M 260.0000:
STEP.M 0.1250:
NULL. -999.2500:
UWI. DF5023:
~C
DEPT.M :
GR.API :
RML.OHMM :
RI. :
RXO.OHMM :
CALI.CM :
DEN.GM/CC :
SP.MV :
~A
# ...
  252.5000    69.0060    34.7050    34.6980    58.9780    24.0300     2.4960    -5.2280 
  252.6250    69.0060    24.4980    24.3380    25.9110    23.9860     2.4310    -5.0130 
  252.7500    69.0060    18.2190    17.6000    14.5550    23.9330     2.3820    -4.8530 
  252.8750    69.0060    15.0990    13.6360    11.9960    23.8740     2.3540    -4.6880 
  253.0000    69.0060    13.4510    11.5040    12.2860    23.8080     2.3390    -4.4960 
  253.1250    69.0060    12.8940    10.6640    12.1350    23.7510     2.3260    -4.3770 
  253.2500    69.0060    12.7090    10.2470    11.9060    23.6950     2.3060    -4.2760 
  253.3750    69.0060    12.7480    10.1070    11.4910    23.6300     2.2840    -4.1750 
  253.5000    69.0060    12.8500    10.1450    11.3040    23.5720     2.2700    -4.0930 
  253.6250    69.0060    12.8970    10.2240    11.1200    23.5280     2.2750    -4.0700 
  253.7500    69.0060    12.8800    10.2800    10.8730    23.5000     2.2960    -3.9770 
  253.8750    69.0060    12.8360    10.3000    10.9700    23.4980     2.3240    -3.9070 
  254.0000    69.0060    12.8060    10.3050    10.4970    23.5100     2.3490    -3.8980 
  254.1250    69.0060    12.7960    10.3040    10.0490    23.5330     2.3650    -3.8460 
  254.2500    69.0060    12.8000    10.3030     9.8580    23.5650     2.3730    -3.8030 
  254.3750    69.0060    12.8100    10.3020     9.5620    23.6010     2.3740    -3.8020 
  254.5000    69.0060    12.8210    10.3000     9.0950    23.6390     2.3710    -3.7820 
  254.6250    69.0060    12.8290    10.2980     8.9170    23.6760     2.3610    -3.7050 
  254.7500    69.0060    12.8330    10.2970     8.8130    23.7080     2.3480    -3.6500 
  254.8750    69.0060    12.8310    10.2970     7.7520    23.7360     2.3320    -3.6460 
  255.0000    69.0060    12.8260    10.2950     7.0640    23.7570     2.3120    -3.5990 
  255.1250    69.0060    12.8200    10.2920     6.7480    23.7720     2.2940    -3.5830 
  255.2500    69.0060    12.8140    10.2900     6.6840    23.7830     2.2810    -3.5070 
  255.3750    69.0060    12.8100    10.2870     6.6450    23.7860     2.2830    -3.4670 
  255.5000    69.0060    12.8070    10.2850     6.5180    23.7810     2.3000    -3.4090 
  255.6250    69.0060    12.8050    10.2840     6.4520    23.7760     2.3280    -3.3800 
  255.7500    69.0060    12.8040    10.2830     6.4900    23.7770     2.3510    -3.3760 
  255.8750    69.0060    12.8040    10.2830     6.5230    23.7770     2.3610    -3.3620 
  256.0000    69.0060    12.8040    10.2830     6.3960    23.7740     2.3590    -3.3610 
  256.1250    69.0060    12.8040    10.2830     6.3470    23.7710     2.3530    -3.3610 
  256.2500    69.0060    12.8040    10.2830     6.4030    23.7710     2.3510    -3.3580 
  256.3750    69.0060    12.8040    10.2830     6.4480    23.7730     2.3510    -3.3320 
  256.5000    69.0060    12.8040    10.2830     6.4650    23.7760     2.3510    -3.3060 
  256.6250    69.0060    12.8040    10.2830     6.5570    23.7800     2.3440    -3.3000 
  256.7500    69.0060    12.8040    10.2830     6.7020    23.7800     2.3370    -3.3000 
  256.8750    69.0060    12.8040    10.2830     6.7790    23.7800     2.3340    -3.3130 
  257.0000    69.0060    12.8040    10.2830     6.7410    23.7800     2.3390    -3.3360 
  257.1250    69.0060    12.8040    10.2830     6.6760    23.7820     2.3490    -3.3900 
  257.2500    69.0060    12.8040    10.2830     6.7930    23.7860     2.3570    -3.4700 
  257.3750    69.0060    12.8040    10.2830     7.1690    23.7870     2.3590    -3.5470 
  257.5000    69.0060    12.8040    10.2830     7.6780    23.7860     2.3590    -3.5920 
  257.6250    69.0060    12.8040    10.2830     8.2620    23.7840     2.3680    -3.6580 
  257.7500    69.0060    12.8040    10.2830     8.9220    23.7740     2.3940    -3.7450 
  257.8750    69.0060    12.8040    10.2830     9.5600    23.7510     2.4240    -3.8000 
  258.0000    69.0060    12.8040    10.2830    10.1830    23.7190     2.4380    -3.8490 
  258.1250    69.0060    12.8040    10.2830    10.6780    23.7020     2.4140    -3.9020 
  258.2500    69.0060    12.8040    10.2830    11.2670    23.6420     2.3410    -3.9620 
  258.3750    69.0060    12.8040    10.2830    11.8300    23.0080     2.2470    -4.0580 
  258.5000    69.0060    12.8040    10.2830    12.1680    21.7140     2.1590    -4.2210 
  258.6250    69.0060    12.8040    10.2830    12.1320    20.5530     2.0920    -4.2060 
  258.7500    69.0060    12.8040    10.2830    12.0150    20.0810     2.0550    -4.2390 
  258.8750    69.0060    12.8040    10.2830    11.9680    20.0790     2.0390    -4.2780 
  259.0000    69.0060    12.8040    10.2830    11.9670    20.0780     2.0360    -4.2940 
  259.1250    69.0060    12.8040    10.2830    11.9680    20.0790     2.0360    -4.2940 
  259.2500    69.0060    12.8040    10.2830    11.9700    20.0810     2.0350    -4.2300 
  259.3750    69.0060    12.8040    10.2830    11.9700    20.0860     2.0330    -4.1070 
  259.5000    69.0060    12.8040    10.2830    11.9680    20.0870     2.0310    -4.0750 
  259.6250    69.0060    12.8040    10.2830    11.9680    20.0880     2.0310    -4.1880 
  259.7500    69.0060    12.8040    10.2830    11.9690    20.0880     2.0310    -4.1750 
  259.8750    69.0060    12.8040    10.2830    11.9680    20.0850     2.0310    -4.2140 
  260.0000    69.0060    12.8040    10.2830    11.9670    20.0770     2.0300    -4.3370 
