~V
VERS. 2.00: Ver 2.00
~W
STRT.M 53.0000:
STOP.M 257.0000:
STEP.M 0.1250:
NULL. -999.2500:
UWI. DF5014:
~C
DEPT.M :
GR.API :
RML.OHMM :
RI. :
RXO.OHMM :
CALI.CM :
DEN.GM/CC :
SP.MV :
~A
# ...
  120.5000   108.9300     6.9230     6.1520     6.3720    23.9070     2.3300   -11.8370 
  120.6250   101.0380     7.2050     6.2740     7.0300    24.1010     2.3570   -11.4130 
  120.7500    90.3920     7.5770     6.5370     7.9110    24.2200     2.3900   -11.1390 
  120.8750    89.8630     7.7040     6.6900     8.3410    24.1570     2.4020   -11.0490 
  121.0000    98.6300     7.5010     6.6090     7.8290    24.0660     2.3870   -11.0750 
  121.1250   108.1720     7.0720     6.3280     6.7230    24.1010     2.3580   -11.1790 
  121.2500   111.7410     6.6250     5.9840     6.0440    24.2160     2.3320   -11.3220 
  121.3750   110.8600     6.3770     5.7500     6.0370    24.2820     2.3240   -11.4840 
  121.5000   110.0220     6.3550     5.6770     6.3440    24.3000     2.3300   -11.6250 
  121.6250   107.7800     6.5030     5.7470     6.7490    24.3090     2.3400   -11.7650 
  121.7500   103.7950     6.7260     5.9020     7.1530    24.3060     2.3420   -11.8970 
  121.8750   101.1080     6.9450     6.0830     7.2070    24.2540     2.3270   -12.0200 
  122.0000    99.2430     7.1490     6.2620     6.7630    24.1010     2.3010   -12.1900 
  122.1250    96.9170     7.3660     6.4480     6.2830    23.8110     2.2720   -12.3960 
  122.2500    94.5860     7.6220     6.6520     6.2800    23.4530     2.2500   -12.6300 
  122.3750    92.7740     7.8990     6.8660     6.5970    23.2160     2.2390   -12.8740 
  122.5000    92.3690     8.1310     7.0510     6.9430    23.0660     2.2370   -13.1120 
  122.6250    92.7310     8.2510     7.1620     7.1920    22.9880     2.2400   -13.3370 
  122.7500    93.9470     8.2120     7.1570     7.2440    22.9930     2.2440   -13.5270 
  122.8750    94.7680     7.9900     6.9980     7.0430    23.1020     2.2500   -13.6500 
  123.0000    95.1370     7.6850     6.7430     6.8310    23.2780     2.2560   -13.7050 
  123.1250    97.1420     7.4080     6.4670     6.7110    23.5010     2.2620   -13.6910 
  123.2500   101.4280     7.2830     6.2590     6.5530    23.7120     2.2670   -13.6130 
  123.3750   104.1690     7.4460     6.2310     6.3540    23.8160     2.2660   -13.5160 
  123.5000   101.8230     7.8370     6.3720     6.3630    23.7890     2.2570   -13.4460 
  123.6250    95.0250     8.3100     6.6160     6.6720    23.6430     2.2450   -13.3940 
  123.7500    88.9830     8.6420     6.8340     7.1670    23.4860     2.2340   -13.3580 
  123.8750    88.0460     8.5480     6.8400     7.4580    23.4400     2.2340   -13.2720 
  124.0000    91.9730     8.0370     6.5890     7.2450    23.5060     2.2440   -13.1230 
  124.1250    99.8200     7.2920     6.1480     6.6600    23.6750     2.2610   -12.9320 
  124.2500   108.8330     6.6450     5.7020     5.9360    23.8600     2.2750   -12.7600 
  124.3750   112.5140     6.5550     5.5590     5.5090    23.9440     2.2820   -12.5820 
  124.5000   109.9000     7.1250     5.8650     5.6240    23.8860     2.2890   -12.3730 
  124.6250   102.5620     8.2540     6.6230     6.2540    23.8110     2.3080   -12.1270 
  124.7500    93.4790     9.6050     7.6590     7.2990    23.7920     2.3480   -11.8570 
  124.8750    87.4480    10.5600     8.5630     8.3920    23.7720     2.4050   -11.6090 
  125.0000    86.0840    10.6960     8.9300     9.1470    23.6960     2.4540   -11.3970 
  125.1250    88.4050     9.9350     8.5860     9.0710    23.6080     2.4760   -11.2630 
  125.2500    91.9340     8.6150     7.6810     7.7910    23.5280     2.4630   -11.1740 
  125.3750    98.6320     7.3670     6.6420     6.1900    23.5110     2.4240   -11.1040 
  125.5000   106.6770     6.6110     5.8700     5.6120    23.5200     2.3820   -11.0430 
  125.6250   111.6870     6.4150     5.4960     5.6040    23.4910     2.3440   -11.0240 
  125.7500   109.3830     6.6620     5.5050     5.8950    23.3610     2.3130   -11.1020 
  125.8750   100.9560     7.1600     5.8180     6.2640    23.1280     2.2900   -11.2570 
  126.0000    93.1080     7.6390     6.2200     6.6320    22.9350     2.2760   -11.4560 
  126.1250    90.9650     7.9480     6.5680     6.8650    22.8780     2.2730   -11.6270 
  126.2500    95.0440     8.0220     6.7680     6.7540    22.9390     2.2780   -11.6640 
  126.3750   100.0720     7.8670     6.7770     6.4900    23.0550     2.2880   -11.6140 
  126.5000    99.5760     7.6070     6.6690     6.2830    23.1170     2.2960   -11.5480 
  126.6250    94.7060     7.3280     6.5060     6.2430    23.1350     2.3010   -11.4600 
  126.7500    92.9130     7.0930     6.3390     6.1970    23.1370     2.3050   -11.3410 
  126.8750    98.1000     6.9530     6.2080     6.1240    23.1540     2.3110   -11.2420 
  127.0000   101.6390     6.9000     6.1180     6.0580    23.2040     2.3200   -11.1310 
  127.1250   100.0100     6.9200     6.0700     5.9910    23.2620     2.3300   -11.0740 
  127.2500    98.1850     6.9890     6.0620     5.9740    23.2590     2.3370   -11.2010 
  127.3750    98.9410     7.0860     6.1110     6.0500    23.1990     2.3370   -11.4450 
  127.5000    96.6290     7.1950     6.2190     6.1520    23.1500     2.3290   -11.6960 
  127.6250    93.5520     7.3300     6.3940     6.2350    23.1210     2.3170   -11.9640 
  127.7500    93.8250     7.5070     6.6300     6.3590    23.0890     2.3040   -12.2210 
  127.8750    94.3360     7.7130     6.8950     6.5210    23.0740     2.2940   -12.4390 
  128.0000    90.4000     7.8900     7.1280     6.6880    23.0690     2.2900   -12.6480 
  128.1250    85.2840     7.9860     7.2820     6.8560    23.0690     2.2910   -12.7800 
  128.2500    83.7860     7.9760     7.3310     6.9280    23.0710     2.2990   -12.7950 
  128.3750    86.2690     7.8750     7.2660     6.7640    23.0850     2.3090   -12.7250 
  128.5000    90.1240     7.7510     7.1320     6.4900    23.1100     2.3170   -12.6460 
  128.6250    91.5910     7.6250     6.9520     6.3050    23.1300     2.3190   -12.5620 
  128.7500    88.1120     7.4720     6.7340     6.3190    23.1370     2.3140   -12.4360 
  128.8750    83.2510     7.2260     6.4650     6.3890    23.1410     2.3080   -12.3030 
  129.0000    82.4430     6.8840     6.1630     6.2960    23.1960     2.3050   -12.1700 
  129.1250    85.4730     6.5210     5.8770     6.1500    23.3680     2.3070   -12.0650 
  129.2500    87.6040     6.3120     5.7120     6.0960    23.6530     2.3120   -11.9840 
  129.3750    85.7870     6.6210     5.9250     6.3580    23.8160     2.3240   -11.9600 
  129.5000    81.7080     7.6400     6.6850     7.1440    23.8610     2.3450   -11.9450 
  129.6250    78.0370     9.4250     8.0990     8.8810    23.8540     2.3790   -11.9480 
  129.7500    74.7850    11.7710    10.0850    11.6450    23.8530     2.4210   -12.0280 
  129.8750    70.1520    14.0910    12.2600    14.8500    23.8740     2.4510   -12.1330 
  130.0000    65.6070    15.6530    13.9640    17.2980    23.7890     2.4490   -12.2390 
  130.1250    63.9340    16.0310    14.7160    17.2290    23.5270     2.4140   -12.3850 
  130.2500    63.7440    15.3010    14.4320    13.8930    23.1960     2.3570   -12.5960 
  130.3750    63.2000    14.0500    13.4900    10.7510    22.8980     2.3010   -12.8080 
  130.5000    64.6480    13.0300    12.5900     9.4920    22.6080     2.2610   -12.9780 
  130.6250    67.7540    12.4780    12.0100     9.2100    22.3710     2.2370   -13.0830 
  130.7500    69.8950    12.3360    11.7760     9.2170    22.2110     2.2260   -13.1280 
  130.8750    67.0250    12.4280    11.7950     9.2610    22.0940     2.2240   -13.1540 
  131.0000    60.9540    12.5320    11.8700     9.2620    22.0220     2.2240   -13.1770 
  131.1250    55.3800    12.5620    11.9060     9.2280    22.0280     2.2260   -13.1950 
  131.2500    55.6940    12.5020    11.8610     9.1460    22.1300     2.2280   -13.1590 
  131.3750    64.0980    12.3750    11.7420     9.0940    22.3100     2.2270   -13.1360 
  131.5000    69.6860    12.2500    11.6090     9.0560    22.4650     2.2210   -13.1740 
  131.6250    67.7590    12.1770    11.5140     9.0130    22.5340     2.2130   -13.2630 
