~V
VERS. 2.00: Ver 2.00
~W
STRT.M 55.0000:
STOP.M 277.0000:
STEP.M 0.1250:
NULL. -999.2500:
UWI. DF5040:
~C
DEPT.M :
GR.API :
CALI.CM :
RXO.OHMM :
RI. :
RML.OHMM :
DEN.GM/CC :
SP.MV :
~A
# ...
  167.5000    64.3830    24.3010   214.6600   165.2680   175.4690     2.2360   -37.0730 
  167.6250    64.2560    24.2990   287.8540   173.9980   184.7130     2.2310   -37.2270 
  167.7500    64.3630    24.3040   344.5560   183.3610   194.6290     2.2240   -37.3440 
  167.8750    65.2900    24.3080   356.8890   191.9150   203.6880     2.2220   -37.4090 
  168.0000    66.8840    24.3080   326.2080   198.7480   210.9240     2.2230   -37.4200 
  168.1250    68.2090    24.3020   275.5120   203.3240   215.7700     2.2190   -37.3880 
  168.2500    68.8120    24.2920   250.0770   206.5380   219.1740     2.2090   -37.3430 
  168.3750    67.9040    24.2820   259.1750   208.9170   221.6940     2.1980   -37.2990 
  168.5000    65.1530    24.2790   287.2060   210.1360   222.9840     2.1910   -37.2620 
  168.6250    62.4380    24.2980   309.6620   208.8560   221.6280     2.1870   -37.2270 
  168.7500    62.6110    24.3290   320.0680   204.9250   217.4650     2.1840   -37.1840 
  168.8750    65.1280    24.3490   319.9170   198.6820   210.8550     2.1830   -37.1260 
  169.0000    66.9510    24.3300   305.8040   191.0200   202.7400     2.1830   -37.0500 
  169.1250    65.8450    24.2550   273.9100   183.3240   194.5900     2.1850   -36.9490 
  169.2500    64.2050    24.2010   233.3220   176.9320   187.8210     2.1900   -36.8290 
  169.3750    64.3860    24.2190   198.8850   172.4150   183.0380     2.2020   -36.7020 
  169.5000    65.9490    24.2680   185.5380   169.5400   179.9930     2.2130   -36.5930 
  169.6250    66.0620    24.3230   193.8720   167.4310   177.7590     2.2120   -36.5370 
  169.7500    64.5390    24.3820   202.6530   164.9070   175.0860     2.2020   -36.5410 
  169.8750    63.7600    24.4460   199.0220   161.4120   171.3850     2.1980   -36.5990 
  170.0000    64.9430    24.4870   185.7260   156.8810   166.5870     2.2090   -36.6890 
  170.1250    65.7920    24.4780   174.9220   151.6100   161.0050     2.2250   -36.7740 
  170.2500    64.7530    24.4610   165.8690   146.2530   155.3320     2.2300   -36.8230 
  170.3750    63.5120    24.4950   156.0800   141.1920   149.9730     2.2270   -36.8190 
  170.5000    64.1330    24.5530   148.3980   136.6530   145.1660     2.2270   -36.7600 
  170.6250    66.5300    24.5880   146.5060   132.5820   140.8550     2.2350   -36.6490 
  170.7500    68.4000    24.5940   147.9010   128.5010   136.5330     2.2390   -36.5170 
  170.8750    68.7750    24.5790   148.3420   124.0990   131.8710     2.2310   -36.3940 
  171.0000    68.4240    24.5120   143.8590   119.3040   126.7930     2.2180   -36.3080 
  171.1250    68.8090    24.4190   132.3750   114.2870   121.4800     2.2190   -36.3010 
  171.2500    69.8510    24.3310   118.7220   109.4510   116.3590     2.2370   -36.3720 
  171.3750    70.4960    24.3140   109.3210   105.1720   111.8270     2.2550   -36.5040 
  171.5000    70.5450    24.3690   105.6800   101.7680   108.2220     2.2550   -36.6640 
  171.6250    70.7480    24.4810   104.5780    99.6180   105.9460     2.2420   -36.8180 
  171.7500    71.1030    24.5350   103.1070    98.6280   104.8970     2.2360   -36.9530 
  171.8750    71.1570    24.5310   100.4060    98.8200   105.1010     2.2410   -37.0770 
  172.0000    70.3900    24.4830    96.9080   100.2170   106.5800     2.2490   -37.1930 
  172.1250    68.5300    24.4290    94.4960   102.9930   109.5200     2.2500   -37.2910 
  172.2500    66.5030    24.3610    94.8230   106.8580   113.6120     2.2480   -37.3600 
  172.3750    65.2520    24.2820    97.4090   111.6150   118.6500     2.2470   -37.3930 
  172.5000    64.8760    24.2200   102.0240   116.9240   124.2730     2.2480   -37.4000 
  172.6250    64.4070    24.2200   110.7460   122.2890   129.9540     2.2490   -37.3900 
  172.7500    64.0900    24.3240   123.1510   127.3130   135.2740     2.2470   -37.3760 
  172.8750    64.5840    24.4240   135.2820   131.8800   140.1110     2.2430   -37.3550 
  173.0000    65.4160    24.4440   142.3780   136.0870   144.5670     2.2390   -37.3290 
  173.1250    65.5180    24.3620   141.9310   140.0500   148.7630     2.2390   -37.3140 
  173.2500    64.7290    24.2100   138.8490   143.6540   152.5790     2.2380   -37.3270 
  173.3750    63.6640    24.0030   137.1590   146.4240   155.5130     2.2320   -37.3800 
  173.5000    63.4140    23.7950   139.1530   147.6600   156.8220     2.2180   -37.4670 
  173.6250    64.7400    23.7180   146.5270   146.2340   155.3120     2.2020   -37.5650 
  173.7500    65.6350    23.8090   156.3480   142.2010   151.0410     2.1950   -37.6380 
  173.8750    64.0890    24.0530   161.7020   135.9220   144.3910     2.1990   -37.6640 
  174.0000    60.8060    24.3350   155.8760   128.3970   136.4220     2.2060   -37.6280 
  174.1250    59.4950    24.5200   141.4590   121.2490   128.8530     2.2110   -37.5230 
  174.2500    61.4430    24.6210   129.6520   115.9010   123.1890     2.2170   -37.3790 
  174.3750    64.5480    24.7310   123.5820   113.2050   120.3340     2.2310   -37.2280 
  174.5000    65.7320    24.8220   121.7860   113.5250   120.6730     2.2460   -37.1050 
  174.6250    64.4770    24.8860   118.7800   117.1450   124.5060     2.2520   -37.0500 
  174.7500    63.8360    24.9340   112.5640   122.8470   130.5450     2.2510   -37.0630 
  174.8750    64.9300    24.9490   102.0960   129.5170   137.6080     2.2510   -37.1260 
  175.0000    66.3130    24.9200    91.6380   135.7390   144.1970     2.2540   -37.2070 
  175.1250    65.9990    24.8630    90.1320   139.5260   148.2080     2.2550   -37.2670 
  175.2500    64.8920    24.7890    99.6290   140.1030   148.8190     2.2450   -37.2900 
  175.3750    64.7050    24.6730   114.4200   137.1970   145.7410     2.2200   -37.2800 
  175.5000    66.1510    24.5570   123.6350   131.2370   139.4300     2.1890   -37.2510 
  175.6250    67.9070    24.4920   120.7850   123.1910   130.9090     2.1730   -37.2210 
  175.7500    68.4670    24.4990   112.5130   114.9330   122.1640     2.1820   -37.2080 
  175.8750    68.2390    24.5690   103.9380   107.7550   114.5620     2.2090   -37.2240 
  176.0000    68.3960    24.6160    97.0000   102.6130   109.1170     2.2340   -37.2800 
  176.1250    68.5540    24.6030    92.7900   100.4550   106.8320     2.2400   -37.3780 
  176.2500    67.6250    24.5780    91.4800   100.8820   107.2840     2.2330   -37.4910 
  176.3750    66.4320    24.5590    94.3440   103.6080   110.1710     2.2220   -37.5890 
  176.5000    66.3180    24.5540   101.7390   108.0240   114.8470     2.2130   -37.6450 
  176.6250    67.0850    24.5580   113.6020   112.8280   119.9350     2.2070   -37.6390 
  176.7500    67.1160    24.5630   126.2270   116.1920   123.4970     2.2000   -37.5930 
  176.8750    66.2660    24.5630   136.7100   116.9650   124.3160     2.1930   -37.5330 
  177.0000    64.9190    24.5430   143.3750   114.9010   122.1300     2.1920   -37.4850 
  177.1250    63.6740    24.4670   144.0640   110.4750   117.4430     2.2090   -37.4810 
  177.2500    63.9320    24.3300   135.5170   105.3250   111.9890     2.2350   -37.5220 
  177.3750    66.5420    24.1660   114.6970   100.4960   106.8750     2.2580   -37.6030 
  177.5000    70.4140    24.0880    88.3790    96.6480   102.8010     2.2660   -37.7070 
  177.6250    72.3540    24.1440    80.7650    94.2810   100.2940     2.2620   -37.8060 
  177.7500    71.9680    24.2670    99.8140    92.9700    98.9050     2.2580   -37.8810 
  177.8750    71.3680    24.3570   131.6050    92.1660    98.0540     2.2530   -37.9250 
  178.0000    72.3340    24.3940   148.0770    91.3270    97.1650     2.2500   -37.9430 
  178.1250    74.6700    24.3330   129.0890    90.1810    95.9520     2.2510   -37.9520 
  178.2500    76.5480    24.1950   101.2120    88.6670    94.3490     2.2580   -37.9720 
  178.3750    77.1280    24.0630    88.4650    86.6810    92.2450     2.2660   -38.0100 
  178.5000    76.3070    23.9990    94.7400    84.1060    89.5180     2.2720   -38.0690 
  178.6250    75.0350    23.9890   102.0620    80.8530    86.0730     2.2770   -38.1350 
