~V
VERS. 2.00: Ver 2.00
~W
STRT.M 60.0000:
STOP.M 257.0000:
STEP.M 0.1250:
NULL. -999.2500:
UWI. DF5064:
~C
DEPT.M :
SP.MV :
GR.API :
RML.OHMM :
RI. :
RXO.OHMM :
CALI.CM :
DEN.GM/CC :
~A
# ...
  138.7500    -4.1100    65.1990    18.8500    17.8320    16.8390    28.1360     2.5380 
  138.8750    -4.2370    66.5630    19.1500    17.9320    15.7020    28.1370     2.5390 
  139.0000    -4.3290    64.0560    19.8500    18.3820    17.0120    28.1370     2.5420 
  139.1250    -4.3700    59.9080    20.6520    18.9940    17.8840    28.1460     2.5480 
  139.2500    -4.3600    57.6580    21.2350    19.5190    19.8110    28.1660     2.5550 
  139.3750    -4.3160    58.6960    21.4570    19.8190    20.9290    28.1870     2.5640 
  139.5000    -4.2610    61.7330    21.3460    19.8720    20.6120    28.1950     2.5720 
  139.6250    -4.1960    64.7360    21.0640    19.7450    19.1890    28.1950     2.5780 
  139.7500    -4.1190    65.0040    20.8030    19.5790    18.1900    28.1980     2.5810 
  139.8750    -4.0380    62.8630    20.5910    19.4120    18.0410    28.2070     2.5800 
  140.0000    -3.9660    60.3930    20.3620    19.2230    19.0110    28.2270     2.5740 
  140.1250    -3.9200    59.2860    20.0200    18.9600    20.4130    28.2540     2.5610 
  140.2500    -3.9030    58.4270    19.6000    18.6460    21.2680    28.2760     2.5440 
  140.3750    -3.9160    56.9770    19.2250    18.3660    20.1600    28.2830     2.5260 
  140.5000    -3.9260    56.1540    19.0440    18.2320    18.6080    28.2830     2.5110 
  140.6250    -3.9250    56.1210    19.1770    18.3550    18.6440    28.2900     2.5000 
  140.7500    -3.9170    56.0180    19.5060    18.6650    18.9540    28.2970     2.4960 
  140.8750    -3.9230    55.8500    19.8690    19.0490    19.3100    28.2820     2.4960 
  141.0000    -3.9660    56.6970    20.0920    19.3690    20.2660    28.2530     2.4960 
  141.1250    -4.0210    57.9310    20.0180    19.4780    22.2650    28.2430     2.4930 
  141.2500    -4.0680    59.4200    19.6960    19.3720    21.8700    28.2560     2.4870 
  141.3750    -4.0980    60.2850    19.2210    19.1000    20.2370    28.2950     2.4820 
  141.5000    -4.1130    59.5550    18.7130    18.7470    20.0570    28.3200     2.4830 
  141.6250    -4.1420    59.3580    18.2980    18.4130    20.8720    28.3150     2.4920 
  141.7500    -4.2130    60.6230    18.0100    18.1540    20.9280    28.2970     2.5030 
  141.8750    -4.3090    61.2100    17.8210    17.9640    19.4730    28.2940     2.5100 
  142.0000    -4.4080    59.4510    17.6630    17.7980    17.4440    28.2990     2.5130 
  142.1250    -4.5160    58.4320    17.4480    17.5850    17.5720    28.3200     2.5120 
  142.2500    -4.6360    60.4070    17.1390    17.2990    18.7340    28.3300     2.5100 
  142.3750    -4.7720    63.0520    16.7640    16.9540    19.3690    28.3400     2.5060 
  142.5000    -4.9360    64.5580    16.3970    16.6060    19.5000    28.3550     2.4990 
  142.6250    -5.1490    64.5300    16.1740    16.3530    19.2780    28.3850     2.4900 
  142.7500    -5.3540    65.5790    16.1600    16.2570    19.4220    28.4140     2.4820 
  142.8750    -5.5410    67.3740    16.3670    16.3400    18.3710    28.4520     2.4760 
  143.0000    -5.7030    68.5510    16.7560    16.5900    17.9000    28.5010     2.4710 
  143.1250    -5.8290    68.4570    17.2640    16.9730    17.6460    28.5350     2.4670 
  143.2500    -5.9470    67.1190    17.8110    17.4140    17.1010    28.5420     2.4640 
  143.3750    -6.0770    65.7770    18.3600    17.8740    17.5640    28.5060     2.4600 
  143.5000    -6.2360    65.5180    18.8810    18.3180    18.6430    28.3970     2.4580 
  143.6250    -6.3750    65.6980    19.3120    18.6920    19.8240    28.2500     2.4570 
  143.7500    -6.5000    66.1050    19.6050    18.9550    20.9910    28.1310     2.4580 
  143.8750    -6.6170    66.7890    19.7210    19.0720    21.2970    28.0380     2.4630 
  144.0000    -6.7300    67.3710    19.6590    19.0370    21.1140    27.9290     2.4720 
  144.1250    -6.8370    65.7810    19.4700    18.8770    21.0800    27.8090     2.4840 
  144.2500    -6.9430    62.5660    19.2870    18.7000    21.0510    27.7130     2.4980 
  144.3750    -7.0410    60.9330    19.2070    18.5840    20.3100    27.6530     2.5090 
  144.5000    -7.1100    62.6270    19.2790    18.5770    19.4020    27.6100     2.5160 
  144.6250    -7.1520    64.5060    19.4760    18.6740    18.9100    27.5700     2.5160 
  144.7500    -7.1840    62.9550    19.6440    18.7710    19.1740    27.5440     2.5140 
  144.8750    -7.2080    60.7510    19.6360    18.7580    19.7850    27.5270     2.5100 
  145.0000    -7.2470    61.5940    19.3430    18.5410    20.2950    27.5130     2.5070 
  145.1250    -7.3230    64.1040    18.7120    18.0610    20.1810    27.4990     2.5060 
  145.2500    -7.3890    64.3940    17.9350    17.4450    19.0660    27.4910     2.5080 
  145.3750    -7.4410    64.1950    17.2270    16.8500    18.2840    27.4850     2.5140 
  145.5000    -7.4850    65.4910    16.7980    16.4380    17.4170    27.4830     2.5210 
  145.6250    -7.5230    66.8050    16.8520    16.3800    16.0650    27.4800     2.5240 
  145.7500    -7.5300    64.6440    17.2990    16.6330    15.6190    27.4770     2.5210 
  145.8750    -7.5080    60.7400    18.0030    17.1170    16.5710    27.4730     2.5120 
  146.0000    -7.4620    60.0460    18.7690    17.7000    18.5180    27.4720     2.5010 
  146.1250    -7.3860    63.4060    19.3720    18.2190    20.6300    27.4700     2.4960 
  146.2500    -7.3150    65.1790    19.7330    18.5840    21.6520    27.4690     2.4990 
  146.3750    -7.2350    62.6360    19.8710    18.7840    21.3240    27.4810     2.5040 
  146.5000    -7.1670    58.4340    19.8770    18.8590    20.2310    27.5440     2.5070 
  146.6250    -7.1500    57.4820    19.8530    18.8670    20.5500    27.5850     2.5020 
  146.7500    -7.2100    59.6840    19.8510    18.8560    20.6110    27.6060     2.4930 
  146.8750    -7.3370    62.3070    19.8670    18.8320    21.3730    27.6180     2.4830 
  147.0000    -7.4850    62.4570    19.8840    18.7940    21.2530    27.6340     2.4770 
  147.1250    -7.6470    59.6280    19.9160    18.7570    20.8050    27.6610     2.4750 
  147.2500    -7.7970    57.4930    19.9980    18.7580    20.5160    27.6760     2.4760 
  147.3750    -7.9260    59.4130    20.1500    18.8210    20.2780    27.6830     2.4820 
  147.5000    -8.0020    64.3970    20.3660    18.9510    20.4780    27.6860     2.4950 
  147.6250    -7.9900    67.8330    20.6000    19.1270    21.1170    27.6980     2.5160 
  147.7500    -7.9140    68.1060    20.7850    19.2940    21.7130    27.7220     2.5370 
  147.8750    -7.7940    67.8900    20.8720    19.4110    21.3230    27.7570     2.5550 
  148.0000    -7.6670    67.5490    20.8390    19.4520    20.5520    27.8060     2.5640 
  148.1250    -7.5160    65.4930    20.6750    19.3950    20.1590    27.8440     2.5660 
  148.2500    -7.3740    63.5190    20.4330    19.2660    19.5730    27.8540     2.5660 
  148.3750    -7.2880    63.0940    20.1530    19.0890    19.2540    27.8430     2.5680 
  148.5000    -7.2750    63.0400    19.8750    18.8890    19.6040    27.8150     2.5710 
  148.6250    -7.3230    62.1080    19.6340    18.6900    19.6310    27.7980     2.5760 
  148.7500    -7.4060    61.8250    19.4330    18.5010    18.0520    27.7770     2.5810 
  148.8750    -7.5180    62.6850    19.2420    18.3080    17.2130    27.7310     2.5850 
  149.0000    -7.6550    62.3430    18.9940    18.0670    17.7070    27.6690     2.5830 
  149.1250    -7.8370    60.6260    18.5780    17.6970    18.4610    27.6180     2.5610 
  149.2500    -8.0300    60.9190    17.9830    17.1870    19.3070    27.6020     2.5200 
  149.3750    -8.1890    62.1100    17.2570    16.5670    19.9660    27.6020     2.4690 
  149.5000    -8.3020    61.2350    16.5050    15.9130    19.3410    27.6110     2.4260 
  149.6250    -8.4050    58.8780    15.8740    15.3380    17.5520    27.6130     2.4120 
  149.7500    -8.5180    56.8060    15.4330    14.9090    15.2640    27.5980     2.4260 
  149.8750    -8.6150    53.0520    15.2060    14.6570    14.6840    27.5510     2.4570 
