~V
VERS. 2.00: Ver 2.00
~W
STRT.M 55.0000:
STOP.M 271.0000:
STEP.M 0.1250:
NULL. -999.2500:
UWI. DF5028:
~C
DEPT.M :
SP.MV :
GR.API :
RML.OHMM :
RI. :
RXO.OHMM :
CALI.CM :
DEN.GM/CC :
~A
# ...
  201.2500   -16.1090    82.4740    14.1950    12.6950    11.6500    23.7550     2.4800 
  201.3750   -15.7140    81.3420    14.0170    12.5170    12.0580    23.8170     2.5000 
  201.5000   -15.2360    80.8150    13.4310    11.9310    12.2870    23.8760     2.5120 
  201.6250   -14.5220    82.7970    12.4720    10.9720    12.2620    23.8860     2.5060 
  201.7500   -13.8020    85.3930    11.3650     9.8650    11.9440    23.8890     2.4870 
  201.8750   -13.0360    83.4250    10.2810     8.7810    11.0020    23.9340     2.4580 
  202.0000   -12.3800    75.7310     9.3590     7.8590     9.3750    24.0200     2.4300 
  202.1250   -11.6990    69.1710     8.7220     7.2220     7.8890    24.0640     2.4130 
  202.2500   -11.1190    68.3280     8.3390     6.8390     7.0750    24.0460     2.4080 
  202.3750   -10.6400    70.9090     8.1680     6.6680     6.7710    24.0030     2.4120 
  202.5000   -10.2680    75.7680     8.1460     6.6460     6.6460    23.9690     2.4190 
  202.6250   -10.1270    82.9930     8.2070     6.7070     6.5510    23.9550     2.4230 
  202.7500   -10.0360    87.7070     8.2810     6.7810     6.5210    23.9650     2.4230 
  202.8750   -10.0910    86.9460     8.3420     6.8420     6.5860    23.9900     2.4190 
  203.0000   -10.1030    84.5270     8.3930     6.8870     6.6930    24.0220     2.4150 
  203.1250   -10.2280    85.4330     8.4540     6.9470     6.8000    24.0670     2.4120 
  203.2500   -10.3530    86.5660     8.5430     7.0750     6.9340    24.1150     2.4140 
  203.3750   -10.4780    84.3650     8.7630     7.3340     7.1330    24.1310     2.4170 
  203.5000   -10.6830    80.2660     9.2050     7.8080     7.4770    24.0950     2.4210 
  203.6250   -10.7790    78.1070    10.3110     8.6720     8.0760    24.0590     2.4190 
  203.7500   -10.9390    78.0500    12.0510     9.9570     8.7310    24.0740     2.4130 
  203.8750   -11.0580    77.7400    14.4990    11.6450     9.3280    24.1130     2.4050 
  204.0000   -11.2140    75.4570    17.4360    13.5990    10.2140    24.1080     2.3980 
  204.1250   -11.4060    72.0780    19.5450    15.4750    12.1000    24.0260     2.3920 
  204.2500   -11.5500    69.7860    20.9270    16.8870    14.9020    23.9060     2.3820 
  204.3750   -11.7430    69.4260    21.3910    17.6200    18.0790    23.7850     2.3640 
  204.5000   -11.8360    70.5080    21.0640    17.6770    20.4140    23.6950     2.3390 
  204.6250   -12.0070    71.0360    20.2960    17.2340    19.8330    23.6270     2.3180 
  204.7500   -12.1320    72.4750    19.7130    16.7550    17.5340    23.5690     2.3140 
  204.8750   -12.2760    77.2580    19.6200    16.5500    15.3250    23.5590     2.3280 
  205.0000   -12.4040    81.8690    20.0310    16.7430    13.9500    23.5900     2.3570 
  205.1250   -12.5490    79.3030    20.8510    17.3650    14.3780    23.5510     2.3830 
  205.2500   -12.7550    72.4050    21.8390    18.2860    16.5630    23.4300     2.3950 
  205.3750   -12.9240    68.3760    22.9040    19.4600    19.7510    23.3310     2.3920 
  205.5000   -13.1360    70.0260    24.2370    20.9390    21.5170    23.3110     2.3770 
  205.6250   -13.2950    72.4100    26.3110    23.0420    19.9880    23.3270     2.3570 
  205.7500   -13.5390    71.8190    29.8050    25.9560    18.2710    23.3620     2.3380 
  205.8750   -13.7280    68.3890    35.0620    29.8170    18.1650    23.4390     2.3190 
  206.0000   -13.9970    64.0290    42.1950    34.6600    20.9250    23.5240     2.2990 
  206.1250   -14.2400    62.2520    51.0360    40.4460    27.7810    23.5590     2.2770 
  206.2500   -14.4640    62.6350    59.0150    46.5510    38.4490    23.5120     2.2530 
  206.3750   -14.7290    64.1930    66.7540    52.5090    50.3300    23.3160     2.2320 
  206.5000   -14.9370    64.9140    73.7700    58.0720    53.2390    22.9370     2.2150 
  206.6250   -15.2500    64.4410    79.9280    63.1440    47.3160    22.5000     2.2060 
  206.7500   -15.4830    64.7570    85.5760    67.8690    46.2550    22.1980     2.2020 
  206.8750   -15.7670    66.6640    90.9540    72.3510    52.2580    22.0960     2.2030 
  207.0000   -16.0360    69.7240    95.9390    76.5500    63.9390    22.2390     2.2040 
  207.1250   -16.2230    71.5130    99.8960    80.0930    76.2260    22.6390     2.2050 
  207.2500   -16.4510    71.6010   102.8190    82.9580    81.5690    23.0620     2.2050 
  207.3750   -16.5910    70.8850   105.0970    85.3800    79.8730    23.3020     2.2040 
  207.5000   -16.8050    69.3980   107.5240    87.8330    75.7690    23.2950     2.2050 
  207.6250   -16.9450    68.0320   111.0750    91.0040    75.3780    23.1300     2.2060 
  207.7500   -17.1740    68.3310   115.9900    95.1030    79.5560    22.9910     2.2070 
  207.8750   -17.3940    69.8870   122.0310    99.9820    88.0800    22.9620     2.2060 
  208.0000   -17.6040    70.1290   128.4680   105.1470   102.1670    22.9460     2.2030 
  208.1250   -17.8560    67.6660   134.3120   109.8910   125.5610    22.6820     2.2000 
  208.2500   -18.0590    66.1160   139.2090   113.9710   160.0340    22.3000     2.1970 
  208.3750   -18.3350    66.4350   143.3520   117.5700   188.7270    22.1600     2.1960 
  208.5000   -18.5620    65.4200   147.1580   121.1100   171.3100    22.5070     2.1990 
  208.6250   -18.8690    62.1480   151.4090   125.1400   139.6060    23.1500     2.2040 
  208.7500   -19.0780    62.9170   156.6950   129.9620   134.9680    23.6210     2.2080 
  208.8750   -19.3240    67.9860   163.1460   135.6030   151.8830    23.8120     2.2110 
  209.0000   -19.4780    70.5480   170.4360   141.7590   176.3580    23.8320     2.2110 
  209.1250   -19.6700    67.3390   177.9510   147.8850   191.4350    23.8130     2.2090 
  209.2500   -19.8960    64.3970   184.6800   153.3100   202.0670    23.8020     2.2060 
  209.3750   -20.0620    63.5520   189.9720   157.5980   212.6200    23.7920     2.2040 
  209.5000   -20.3020    62.0150   193.9110   160.8070   213.7390    23.7800     2.2020 
  209.6250   -20.3860    59.1960   197.3040   163.5060   205.5490    23.7720     2.2000 
  209.7500   -20.5430    57.9130   201.1380   166.5880   206.9240    23.7970     2.1970 
  209.8750   -20.6320    58.4570   206.2490   170.8240   223.1090    23.8270     2.1930 
  210.0000   -20.6990    59.9180   213.6850   177.0970   251.8610    23.8140     2.1890 
  210.1250   -20.7900    61.6220   224.8670   186.6080   268.5120    23.7750     2.1860 
  210.2500   -20.8050    62.5610   239.1100   198.7810   254.7990    23.7730     2.1850 
  210.3750   -20.8570    62.4200   254.9020   212.4840   246.6280    23.8030     2.1850 
  210.5000   -20.8150    60.6450   269.4770   225.7010   277.7150    23.8170     2.1850 
  210.6250   -20.8440    58.6450   278.0700   235.1090   364.7580    23.8010     2.1850 
  210.7500   -20.7630    58.7570   278.7630   238.9210   444.7050    23.8010     2.1830 
  210.8750   -20.6540    60.6380   271.2460   236.2830   434.0040    23.8380     2.1810 
  211.0000   -20.5890    62.9670   257.5530   227.9100   411.3520    23.8910     2.1800 
  211.1250   -20.4190    63.4430   241.3890   215.7370   363.2900    23.9310     2.1810 
  211.2500   -20.2710    61.7460   226.8840   203.3190   293.5440    23.9580     2.1810 
  211.3750   -20.0550    59.4750   215.5360   192.6400   221.9760    23.9670     2.1820 
  211.5000   -19.8810    59.1220   207.4380   184.5560   182.6010    23.9510     2.1810 
  211.6250   -19.6440    60.6370   201.7090   178.9860   165.6580    23.9190     2.1780 
  211.7500   -19.4840    60.9220   196.0780   174.2750   154.3900    23.8980     2.1740 
  211.8750   -19.2690    60.0760   189.1160   169.1400   147.8440    23.9040     2.1720 
  212.0000   -19.1120    61.4040   180.0200   162.6320   149.1940    23.9360     2.1730 
  212.1250   -18.9480    64.8960   168.6100   154.1350   156.1110    23.9800     2.1800 
  212.2500   -18.7880    66.7650   156.5560   144.5630   157.8640    24.0140     2.1910 
  212.3750   -18.6920    65.5490   145.5370   135.1350   147.6400    24.0120     2.2060 
