~V
VERS. 2.00: Ver 2.00
~W
STRT.M 55.0000:
STOP.M 263.0000:
STEP.M 0.1250:
NULL. -999.2500:
UWI. DF5056:
~C
DEPT.M :
GR.API :
CALI.CM :
RXO.OHMM :
RI. :
RML.OHMM :
DEN.GM/CC :
SP.MV :
~A
# ...
  122.5000    64.3790    26.3690    10.0500     7.1680     8.7210     2.1570   -35.5200 
  122.6250    65.3530    26.3770     9.5620     7.3430     8.9400     2.1670   -35.5000 
  122.7500    64.3780    26.3990     9.3720     7.4490     8.9720     2.1720   -35.4650 
  122.8750    61.2350    26.4400     9.3840     7.4540     8.8520     2.1720   -35.3340 
  123.0000    58.5220    26.4910     8.9200     7.3870     8.6710     2.1700   -35.2210 
  123.1250    59.5840    26.5300     8.4970     7.3050     8.5260     2.1690   -34.9880 
  123.2500    61.3090    26.5460     8.4700     7.2460     8.4440     2.1700   -34.8680 
  123.3750    61.7990    26.5480     8.8310     7.2100     8.3990     2.1700   -34.6140 
  123.5000    62.2270    26.5470     9.0830     7.1800     8.3600     2.1690   -34.4530 
  123.6250    64.8950    26.5470     8.9530     7.1430     8.3080     2.1670   -34.2850 
  123.7500    67.4080    26.5470     8.2630     7.1020     8.2590     2.1660   -34.0780 
  123.8750    67.3140    26.5480     7.7530     7.0730     8.2380     2.1660   -33.8930 
  124.0000    65.2010    26.5420     8.0540     7.0730     8.2670     2.1660   -33.7090 
  124.1250    62.0830    26.5210     8.2950     7.1220     8.3640     2.1670   -33.5940 
  124.2500    60.1290    26.4980     8.7000     7.2150     8.5110     2.1680   -33.3700 
  124.3750    60.8340    26.4840     9.1250     7.3390     8.6840     2.1710   -33.2600 
  124.5000    63.5850    26.4890     9.1310     7.4670     8.8480     2.1820   -33.0130 
  124.6250    65.0220    26.5220     8.9540     7.5470     8.9390     2.2060   -32.8240 
  124.7500    62.8080    26.5870     8.9420     7.5430     8.9190     2.2360   -32.6440 
  124.8750    59.7080    26.6830     8.6400     7.4370     8.7720     2.2620   -32.5010 
  125.0000    58.4140    26.7910     8.2110     7.2440     8.5340     2.2680   -32.3610 
  125.1250    58.7740    26.8650     8.2860     7.0280     8.3010     2.2500   -32.2580 
  125.2500    59.9960    26.8920     8.5530     6.8830     8.1970     2.2240   -32.1740 
  125.3750    62.6610    26.9110     8.7210     6.8890     8.3290     2.2050   -32.0630 
  125.5000    65.4180    26.9680     9.6930     7.1190     8.7860     2.2050   -31.9940 
  125.6250    63.5210    27.0850    11.5810     7.6810     9.6920     2.2270   -31.9400 
  125.7500    58.0620    27.2660    13.7030     8.5620    10.9750     2.2640   -31.8790 
  125.8750    53.2800    27.5040    14.7050     9.7380    12.5240     2.3080   -31.8180 
  126.0000    51.2220    27.7410    14.2990    11.0890    14.1010     2.3520   -31.7380 
  126.1250    51.5920    27.8770    14.5630    12.3230    15.2740     2.3880   -31.7170 
  126.2500    51.9270    27.9280    14.9350    13.1280    15.7830     2.4100   -31.7500 
  126.3750    50.4570    27.9490    14.5980    13.3340    15.5600     2.4110   -31.8160 
  126.5000    47.3140    27.9680    13.0780    12.9680    14.7600     2.3930   -31.9880 
  126.6250    47.5340    27.9740    11.7260    12.1920    13.6550     2.3600   -32.0950 
  126.7500    52.3040    27.9290    11.0070    11.3010    12.5480     2.3240   -32.2990 
  126.8750    57.7300    27.7710    11.1780    10.4160    11.5370     2.2890   -32.4900 
  127.0000    59.2510    27.4640    11.2790     9.5910    10.6380     2.2600   -32.7020 
  127.1250    57.2450    27.0360    10.8290     8.8640     9.8690     2.2370   -32.7750 
  127.2500    55.5860    26.6830     9.9690     8.2490     9.2360     2.2210   -32.8480 
  127.3750    56.2460    26.5870     9.1230     7.7750     8.7780     2.2100   -32.8160 
  127.5000    59.0520    26.7560     8.2770     7.4630     8.5160     2.2020   -32.7810 
  127.6250    62.0110    26.9490     8.0640     7.3310     8.4520     2.1940   -32.7160 
  127.7500    64.1270    26.9720     8.3870     7.3120     8.4840     2.1860   -32.6230 
  127.8750    65.8240    26.8930     8.6760     7.3600     8.5510     2.1770   -32.5160 
  128.0000    67.3660    26.8370     8.7320     7.4440     8.6260     2.1700   -32.4280 
  128.1250    66.9720    26.8260     8.8860     7.5720     8.7460     2.1680   -32.3470 
  128.2500    64.0500    26.7930     9.1890     7.7540     8.9470     2.1730   -32.2540 
  128.3750    60.6470    26.7350     9.5940     7.9890     9.2320     2.1900   -32.2200 
  128.5000    58.5760    26.7450     9.9760     8.2470     9.5550     2.2200   -32.0620 
  128.6250    56.9240    26.9480     9.5500     8.4400     9.7820     2.2600   -32.0270 
  128.7500    55.2760    27.2410     8.4690     8.4690     9.7840     2.2940   -31.9460 
  128.8750    56.0710    27.4380     7.3850     8.2570     9.4820     2.3080   -31.9150 
  129.0000    60.7140    27.4560     7.5250     7.8030     8.8960     2.3010   -31.8790 
  129.1250    66.1380    27.3740     7.8210     7.1810     8.1450     2.2860   -31.9530 
  129.2500    68.1080    27.3280     7.9070     6.5650     7.4630     2.2790   -31.9760 
  129.3750    67.8580    27.3470     7.3350     6.1070     7.0640     2.2840   -32.0860 
  129.5000    67.0550    27.4040     6.8750     5.9440     7.1330     2.3020   -32.2690 
  129.6250    66.8690    27.4700     7.3650     6.2430     7.8560     2.3300   -32.4490 
  129.7500    67.5540    27.5540     8.0820     6.9610     9.0840     2.3630   -32.6470 
  129.8750    67.0840    27.6330    10.8080     8.0290    10.5980     2.3950   -32.8640 
  130.0000    63.1140    27.6150    16.3480     9.2300    12.0060     2.4140   -33.1410 
  130.1250    58.6030    27.3960    17.4520    10.0850    12.6780     2.4010   -33.4330 
  130.2500    58.1070    27.0400    13.6710    10.3130    12.4920     2.3590   -33.8370 
  130.3750    60.1430    26.6350    11.2510     9.9780    11.6930     2.3040   -34.0850 
  130.5000    61.1020    26.2820    11.5020     9.3700    10.7240     2.2500   -34.3860 
  130.6250    59.3040    26.1030    11.7010     8.8100    10.0060     2.2070   -34.5550 
  130.7500    57.4930    26.0670    11.5760     8.4520     9.6320     2.1770   -34.6630 
  130.8750    57.4190    26.0900    11.4910     8.2960     9.5340     2.1590   -34.6340 
  131.0000    58.4620    26.1160    11.3730     8.2720     9.5860     2.1490   -34.5080 
  131.1250    59.6850    26.1430    11.2270     8.3150     9.7010     2.1470   -34.1490 
  131.2500    60.7610    26.1840    11.0940     8.3770     9.8270     2.1490   -33.6630 
  131.3750    62.8870    26.2370    10.9060     8.4280     9.9180     2.1530   -33.1440 
  131.5000    64.2850    26.2780    10.9550     8.4120     9.8880     2.1560   -32.5010 
  131.6250    63.4310    26.2960    11.1120     8.2020     9.5760     2.1580   -31.8790 
  131.7500    64.2630    26.3580    10.7350     7.7510     8.9590     2.1630   -31.1950 
  131.8750    66.4840    26.5480     9.7390     7.0920     8.1160     2.1750   -30.4800 
  132.0000    68.2660    26.8900     8.8070     6.3620     7.2530     2.1970   -29.7800 
  132.1250    69.8150    27.3310     7.4670     5.7960     6.7070     2.2210   -29.2210 
  132.2500    72.1980    27.7160     6.1700     5.5440     6.6660     2.2400   -28.7130 
  132.3750    73.9770    27.9350     5.8410     5.7040     7.2170     2.2550   -28.3150 
  132.5000    73.2590    27.9740     6.6460     6.3000     8.2820     2.2730   -27.9260 
  132.6250    71.0210    27.9300     8.0710     7.2370     9.5240     2.3020   -27.6070 
  132.7500    68.1890    27.9290     9.3190     8.0890    10.3460     2.3420   -27.3250 
  132.8750    64.7380    27.9880    10.9800     8.4580    10.3610     2.3800   -27.1250 
  133.0000    63.3730    28.0780    11.8570     8.2050     9.6070     2.3980   -26.8520 
  133.1250    67.8600    28.1530     9.7640     7.5610     8.5710     2.3900   -26.6600 
  133.2500    73.3890    28.1770     7.2550     6.9760     7.8150     2.3720   -26.4280 
  133.3750    74.4610    28.1520     8.5880     6.6350     7.5030     2.3590   -26.2190 
  133.5000    70.9550    28.1100    11.5160     6.5520     7.5480     2.3490   -26.0470 
  133.6250    67.6260    28.0900    11.4280     6.6330     7.7330     2.3340   -25.8590 
