~V
VERS. 2.00: Ver 2.00
~W
STRT.M 55.0000:
STOP.M 261.0000:
STEP.M 0.1250:
NULL. -999.2500:
UWI. DF5033:
~C
DEPT.M :
SP.MV :
GR.API :
CALI.CM :
RXO.OHMM :
RI. :
RML.OHMM :
DEN.GM/CC :
~A
# ...
  246.2500   -10.2950    72.5590    25.4960    14.9450    12.0290    13.2830     2.4740 
  246.3750   -10.3160    74.0560    25.4580    12.8650    11.8870    13.3090     2.4590 
  246.5000   -10.3250    72.1560    25.4450    11.3360    11.7270    13.2660     2.4520 
  246.6250   -10.3130    68.5700    25.4390    10.8490    11.5960    13.1990     2.4650 
  246.7500   -10.2910    67.7380    25.4380    10.8390    11.4880    13.0930     2.4810 
  246.8750   -10.2430    68.6600    25.4380    10.8050    11.3580    12.8520     2.4890 
  247.0000   -10.1630    69.6490    25.4390    10.4880    11.1610    12.4360     2.4850 
  247.1250   -10.0420    70.7310    25.4400    10.1870    10.8710    11.9160     2.4810 
  247.2500    -9.9000    72.5590    25.4390    10.5340    10.5300    11.4450     2.4780 
  247.3750    -9.7420    74.4680    25.4330    12.1270    10.1890    11.1050     2.4690 
  247.5000    -9.5820    74.5090    25.4110    15.0740     9.9000    10.9030     2.4590 
  247.6250    -9.4040    73.6770    25.3570    17.5720     9.7170    10.8210     2.4580 
  247.7500    -9.2130    73.6700    25.2790    17.1160     9.6240    10.8090     2.4600 
  247.8750    -9.0090    74.5260    25.1990    13.9200     9.5930    10.8530     2.4560 
  248.0000    -8.8000    75.6480    25.1520    10.5760     9.5820    10.9400     2.4460 
  248.1250    -8.5980    75.7290    25.1740     9.3330     9.5450    11.0330     2.4440 
  248.2500    -8.4010    73.9140    25.2490     9.2620     9.4660    11.1000     2.4550 
  248.3750    -8.2180    70.9700    25.3520     9.2090     9.3630    11.1360     2.4700 
  248.5000    -8.0360    70.0970    25.4510     8.7980     9.2660    11.1440     2.4740 
  248.6250    -7.8790    71.5030    25.5280     8.3850     9.1990    11.1060     2.4660 
  248.7500    -7.7440    71.5890    25.5920     8.2520     9.1560    11.0150     2.4630 
  248.8750    -7.6400    70.6650    25.6540     8.3620     9.1190    10.8770     2.4700 
  249.0000    -7.5750    70.9400    25.7140     8.5670     9.0770    10.7300     2.4800 
  249.1250    -7.5560    73.1670    25.7580     8.6570     9.0410    10.6260     2.4770 
  249.2500    -7.5730    75.3370    25.7780     8.6310     9.0320    10.5770     2.4620 
  249.3750    -7.6090    75.9600    25.7740     8.6750     9.0620    10.5900     2.4440 
  249.5000    -7.6650    74.6990    25.7640     8.8440     9.1300    10.6420     2.4310 
  249.6250    -7.7110    73.1970    25.7810     8.8990     9.2070    10.6810     2.4200 
  249.7500    -7.7390    72.9190    25.8420     8.7140     9.2470    10.6510     2.4050 
  249.8750    -7.7460    72.4740    25.9420     8.4140     9.2180    10.5290     2.3890 
  250.0000    -7.7330    69.8930    26.0500     8.1740     9.1080    10.3360     2.3840 
  250.1250    -7.7000    66.0740    26.1200     8.1010     8.9360    10.1420     2.3970 
  250.2500    -7.6600    66.7130    26.1360     8.1320     8.7590    10.0310     2.4150 
  250.3750    -7.6050    68.2450    26.1100     8.1280     8.6170    10.0440     2.4240 
  250.5000    -7.5280    68.2450    26.0690     7.9660     8.5280    10.1260     2.4190 
  250.6250    -7.4560    68.2450    26.0420     7.7760     8.4910    10.1390     2.4040 
  250.7500    -7.3790    68.2450    26.0290     7.8080     8.4760    10.0250     2.3990 
  250.8750    -7.3100    68.2450    26.0230     8.0320     8.4680     9.8230     2.4090 
  251.0000    -7.2460    68.2450    26.0210     8.2410     8.4620     9.6370     2.4240 
  251.1250    -7.1910    68.2450    26.0240     8.3250     8.4660     9.6030     2.4250 
  251.2500    -7.1240    68.2450    26.0330     8.3430     8.4890     9.7220     2.4220 
  251.3750    -7.0650    68.2450    26.0460     8.2190     8.5410     9.9480     2.4270 
  251.5000    -7.0200    68.2450    26.0610     7.9110     8.6230    10.2090     2.4350 
  251.6250    -6.9760    68.2450    26.0860     7.6600     8.7210    10.4410     2.4320 
  251.7500    -6.9600    68.2450    26.1280     7.7080     8.8140    10.6110     2.4310 
  251.8750    -6.9700    68.2450    26.1820     7.9600     8.8940    10.6960     2.4470 
  252.0000    -7.0030    68.2450    26.2230     8.1810     8.9760    10.7360     2.4740 
  252.1250    -7.0540    68.2450    26.2030     8.4230     9.0950    10.8260     2.4930 
  252.2500    -7.1180    68.2450    26.1120     9.2170     9.2650    11.0080     2.5040 
  252.3750    -7.1730    68.2450    25.9720    10.9030     9.4820    11.2550     2.5150 
  252.5000    -7.2080    68.2450    25.8230    12.9020     9.7220    11.4980     2.5220 
  252.6250    -7.2240    68.2450    25.7170    13.6080     9.9440    11.6600     2.5200 
  252.7500    -7.2080    68.2450    25.6610    12.7390    10.1240    11.7470     2.5150 
  252.8750    -7.1690    68.2450    25.6400    11.2260    10.2570    11.7930     2.5150 
  253.0000    -7.1180    68.2450    25.6350    10.0200    10.3480    11.8490     2.5160 
  253.1250    -7.0640    68.2450    25.6340     9.3900    10.4120    11.9560     2.5140 
  253.2500    -7.0110    68.2450    25.6340     9.0980    10.4740    12.1260     2.5100 
  253.3750    -6.9780    68.2450    25.6360     9.2710    10.5490    12.3470     2.5030 
  253.5000    -6.9560    68.2450    25.6390    10.0730    10.6480    12.5720     2.4910 
  253.6250    -6.9550    68.2450    25.6370    11.2290    10.7780    12.7440     2.4830 
  253.7500    -6.9730    68.2450    25.6280    12.0360    10.9300    12.8700     2.4870 
  253.8750    -6.9880    68.2450    25.6140    12.4730    11.0880    12.9850     2.4990 
  254.0000    -6.9940    68.2450    25.6010    13.2900    11.2340    13.1220     2.5090 
  254.1250    -6.9860    68.2450    25.5960    15.2670    11.3420    13.2570     2.5110 
  254.2500    -6.9560    68.2450    25.6010    17.1730    11.4100    13.3270     2.5120 
  254.3750    -6.9160    68.2450    25.6140    17.2320    11.4430    13.3010     2.5130 
  254.5000    -6.8920    68.2450    25.6290    15.1730    11.4580    13.2050     2.5150 
  254.6250    -6.8780    68.2450    25.6370    12.7340    11.4650    13.1160     2.5160 
  254.7500    -6.8790    68.2450    25.6270    11.1490    11.4710    13.0540     2.5140 
  254.8750    -6.9020    68.2450    25.5890    10.1030    11.4740    12.9780     2.5050 
  255.0000    -6.9520    68.2450    25.5170     9.1850    11.4720    12.8700     2.4900 
  255.1250    -7.0470    68.2450    25.4080     8.5490    11.4650    12.7720     2.4780 
  255.2500    -7.1970    68.2450    25.2810     8.5760    11.4600    12.7510     2.4780 
  255.3750    -7.3860    68.2450    25.1540     9.4920    11.4590    12.8270     2.4850 
  255.5000    -7.5960    68.2450    25.0430    11.1220    11.4600    12.9620     2.4920 
  255.6250    -7.8260    68.2450    24.9580    12.6060    11.4620    13.0740     2.4950 
  255.7500    -8.0530    68.2450    24.8900    12.9750    11.4620    13.1270     2.5000 
  255.8750    -8.2710    68.2450    24.8310    12.2420    11.4620    13.1500     2.5100 
  256.0000    -8.4630    68.2450    24.7760    11.4400    11.4610    13.1710     2.5200 
  256.1250    -8.6030    68.2450    24.7200    11.8340    11.4600    13.1890     2.5240 
  256.2500    -8.6850    68.2450    24.6560    13.1050    11.4600    13.1990     2.5170 
  256.3750    -8.7190    68.2450    24.5710    14.4760    11.4600    13.2020     2.5000 
  256.5000    -8.7190    68.2450    24.4550    15.5780    11.4600    13.2020     2.4790 
  256.6250    -8.6790    68.2450    24.3110    16.3560    11.4600    13.2020     2.4710 
  256.7500    -8.6250    68.2450    24.1650    16.4910    11.4600    13.2020     2.4780 
  256.8750    -8.5720    68.2450    24.0380    15.9710    11.4600    13.2020     2.4940 
  257.0000    -8.5230    68.2450    23.9420    15.6630    11.4600    13.2020     2.5040 
  257.1250    -8.4810    68.2450    23.8790    16.5290    11.4600    13.2020     2.5100 
  257.2500    -8.4480    68.2450    23.8270    17.8640    11.4600    13.2020     2.5220 
  257.3750    -8.4220    68.2450    23.7720    18.7720    11.4600    13.2020     2.5400 
