~V
VERS. 2.00: Ver 2.00
~W
STRT.M 55.0000:
STOP.M 271.0000:
STEP.M 0.1250:
NULL. -999.2500:
UWI. DF5009:
~C
DEPT.M :
GR.API :
CALI.CM :
RXO.OHMM :
RI. :
RML.OHMM :
DEN.GM/CC :
SP.MV :
~A
# ...
  190.0000    82.7110    25.0590    42.6320    90.8060    98.8920     2.2520   -18.5620 
  190.1250    77.2540    24.8560    47.3560   107.4130   117.2140     2.2370   -18.5420 
  190.2500    74.0370    24.7350    48.4360   123.5870   134.7580     2.2210   -18.6540 
  190.3750    72.5600    24.6550    46.5690   136.1730   148.3130     2.2080   -18.6190 
  190.5000    71.9350    24.5990    45.0520   143.4940   156.2920     2.1990   -18.6480 
  190.6250    73.3040    24.5740    44.1110   146.0770   159.5340     2.1950   -18.6290 
  190.7500    74.9860    24.5730    43.6620   147.4040   161.6810     2.1910   -18.5960 
  190.8750    75.5060    24.5900    44.1600   148.9300   163.9440     2.1870   -18.5390 
  191.0000    74.2110    24.6140    45.0940   150.1070   165.2700     2.1840   -18.4040 
  191.1250    72.8320    24.6220    45.6320   148.4630   162.4620     2.1860   -18.3080 
  191.2500    73.2080    24.6050    45.8950   142.8590   154.5260     2.1940   -18.0260 
  191.3750    74.9310    24.5640    46.0030   133.4840   142.2280     2.2070   -17.8390 
  191.5000    76.2720    24.5030    45.1460   121.7480   127.7450     2.2200   -17.5620 
  191.6250    76.0300    24.4140    44.0940   109.5200   113.5490     2.2290   -17.2750 
  191.7500    77.7250    24.2840    41.8300    98.2340   100.9930     2.2300   -16.9850 
  191.8750    80.8600    24.1120    38.6940    88.4960    90.5490     2.2270   -16.6130 
  192.0000    80.1020    23.9470    34.7920    80.6420    82.4180     2.2220   -16.3050 
  192.1250    74.1470    23.9150    34.7330    75.1770    76.9980     2.2200   -15.8660 
  192.2500    70.4520    24.0690    39.0220    71.6410    73.6410     2.2210   -15.5670 
  192.3750    71.5250    24.4080    46.8490    69.7250    71.9390     2.2230   -15.2770 
  192.5000    73.3550    24.8990    57.1420    69.0180    71.3940     2.2260   -15.0430 
  192.6250    72.3390    25.4240    63.4730    69.1100    71.5360     2.2300   -14.8460 
  192.7500    70.3850    25.8100    62.5570    69.5090    71.9490     2.2330   -14.5300 
  192.8750    69.7260    25.9980    62.0730    70.2550    72.8080     2.2350   -14.2740 
  193.0000    70.9670    26.0470    65.9320    71.7570    74.6430     2.2310   -13.9320 
  193.1250    73.5510    26.0330    70.4740    74.9340    78.4600     2.2200   -13.7910 
  193.2500    75.6670    26.0000    70.7810    80.1420    84.4970     2.2090   -13.5450 
  193.3750    75.2760    25.9800    82.3770    87.6260    92.8440     2.2010   -13.2720 
  193.5000    71.9090    26.0090   104.0680    97.0120   102.9410     2.2020   -13.0780 
  193.6250    69.3520    26.0500   116.1010   106.6900   112.9720     2.2120   -12.7250 
  193.7500    70.2420    26.0440   110.7300   114.1460   120.3390     2.2240   -12.4810 
  193.8750    72.1500    26.0190   114.6190   117.4740   123.0610     2.2330   -12.1860 
  194.0000    72.0470    26.0310   130.3220   115.7660   120.2780     2.2380   -11.9870 
  194.1250    70.4570    26.0820   127.3250   108.8490   112.0800     2.2340   -11.5960 
  194.2500    70.2770    26.1180   107.3710    99.3730   101.5600     2.2210   -11.2030 
  194.3750    70.7790    26.1410   108.5570    89.4920    91.1380     2.2030   -10.9420 
  194.5000    69.9840    26.1770   108.8530    81.1080    82.7990     2.1890   -10.5290 
  194.6250    68.0950    26.2080    93.6900    76.2960    78.5580     2.1890   -10.0920 
  194.7500    67.1310    26.1940    66.3120    75.6370    78.6710     2.2020    -9.6290 
  194.8750    66.4310    26.1600    59.9540    80.0170    83.8180     2.2240    -9.2200 
  195.0000    64.8170    26.1860    93.2430    90.8170    95.1210     2.2540    -8.8270 
  195.1250    64.1980    26.2530   110.7390   112.3400   116.1930     2.2960    -8.3880 
  195.2500    65.6130    26.2430   116.1520   145.2190   147.4670     2.3530    -8.0980 
  195.3750    65.7460    26.1700   151.1420   183.3680   182.8420     2.4240    -7.6480 
  195.5000    60.9340    26.1090   297.4170   202.1340   195.2310     2.5010    -7.1980 
  195.6250    55.8150    26.0300   505.3850   162.6850   147.5020     2.5500    -6.8900 
  195.7500    56.8360    25.8500   468.8480    99.2270    84.5700     2.5510    -6.5120 
  195.8750    62.3650    25.6050   231.3140    50.3510    41.3620     2.5180    -6.1750 
  196.0000    67.1020    25.3760    52.1170    23.5680    19.1070     2.4820    -5.7340 
  196.1250    67.7930    25.1950    14.3270    12.6590    10.2470     2.4640    -5.5010 
  196.2500    66.2690    25.1030     5.3440     7.8920     6.4300     2.4630    -5.2190 
  196.3750    63.8740    25.1810     5.0220     5.8690     4.9510     2.4720    -4.9460 
  196.5000    61.6350    25.4040     5.4070     5.0870     4.5400     2.4790    -4.8190 
  196.6250    62.0840    25.5340     5.5120     5.0060     4.6390     2.4680    -4.6190 
  196.7500    64.4290    25.4420     5.1710     5.1820     4.8440     2.4420    -4.6090 
  196.8750    65.1160    25.2440     4.9260     5.4050     4.9820     2.4110    -4.6070 
  197.0000    61.8550    25.1160     4.8190     5.5620     5.0000     2.3840    -4.7090 
  197.1250    57.3900    25.0890     4.6440     5.6190     4.9240     2.3650    -4.7850 
  197.2500    55.7810    25.0600     4.6140     5.6180     4.8280     2.3530    -4.8460 
  197.3750    57.1330    24.9900     4.6720     5.5860     4.7490     2.3480    -5.0260 
  197.5000    58.5380    24.8760     4.6510     5.5520     4.7260     2.3480    -5.1000 
  197.6250    59.4770    24.7620     4.5840     5.5590     4.8200     2.3550    -5.2830 
  197.7500    60.9360    24.7040     4.7650     5.6330     5.0430     2.3680    -5.3830 
  197.8750    62.2130    24.7330     5.3160     5.7780     5.3820     2.3860    -5.5200 
  198.0000    63.7570    24.8160     5.9580     5.9650     5.7830     2.4030    -5.6850 
  198.1250    66.8680    24.8480     6.3610     6.1320     6.1540     2.4120    -5.8450 
  198.2500    73.3550    24.8540     6.7920     6.2270     6.4300     2.4130    -6.1180 
  198.3750    80.4140    24.9550     6.9940     6.2360     6.5970     2.4090    -6.2770 
  198.5000    85.3270    25.1830     6.8960     6.1830     6.6930     2.4060    -6.5760 
  198.6250    88.9080    25.3710     6.6290     6.1240     6.7910     2.4050    -6.9560 
  198.7500    93.0670    25.4000     6.5690     6.1170     6.9570     2.4060    -7.3540 
  198.8750    96.3310    25.3100     6.6530     6.1920     7.2220     2.4040    -7.7560 
  199.0000    97.4690    25.1710     6.6560     6.3600     7.6030     2.3980    -8.1250 
  199.1250    98.6380    25.0930     6.6310     6.6290     8.1080     2.3870    -8.6210 
  199.2500   101.9290    25.1530     6.9950     6.9570     8.6810     2.3780    -8.9490 
  199.3750   103.7650    25.3150     7.6590     7.3040     9.2600     2.3720    -9.3730 
  199.5000   102.1790    25.4740     8.3980     7.6260     9.7680     2.3690    -9.7970 
  199.6250   101.2000    25.6170     9.2250     7.8560    10.1090     2.3690   -10.0530 
  199.7500   101.1960    25.8030     9.5430     7.9820    10.2950     2.3710   -10.3490 
  199.8750    97.8120    25.9870     9.5420     8.0220    10.3900     2.3750   -10.5670 
  200.0000    91.7700    26.0820     9.7400     8.0330    10.4960     2.3800   -10.8270 
  200.1250    89.7510    26.0560     9.9600     8.0960    10.7220     2.3820   -10.8990 
  200.2500    91.2950    25.9760     9.9130     8.2550    11.0990     2.3830   -11.0140 
  200.3750    91.7200    25.8680    10.6220     8.5430    11.6520     2.3840   -11.1740 
  200.5000    91.9430    25.7240    11.9990     8.9900    12.4120     2.3880   -11.1810 
  200.6250    93.3950    25.5580    12.8180     9.6370    13.4100     2.3960   -11.1520 
  200.7500    92.9360    25.4220    13.6470    10.4160    14.5210     2.4030   -10.9650 
  200.8750    89.4660    25.3530    14.9480    11.2380    15.5970     2.4070   -10.7730 
  201.0000    86.2370    25.3390    17.8960    11.9890    16.4700     2.4050   -10.5040 
  201.1250    85.4760    25.3400    20.9790    12.5060    16.9320     2.4010   -10.1200 
