~V
VERS. 2.00: Ver 2.00
~W
STRT.M 55.0000:
STOP.M 268.0000:
STEP.M 0.1250:
NULL. -999.2500:
UWI. DF5025:
~C
DEPT.M :
SP.MV :
GR.API :
CALI.CM :
RXO.OHMM :
RI. :
RML.OHMM :
DEN.GM/CC :
~A
# ...
  190.0000   -10.3150    58.6500    24.5870     5.4290     5.2760     5.7580     2.5590 
  190.1250   -10.3480    58.3630    24.5450     5.4800     5.4010     5.9190     2.5070 
  190.2500   -10.3870    58.2640    24.5380     5.2090     5.3980     5.9150     2.4600 
  190.3750   -10.4300    58.8000    24.5350     4.8280     5.2890     5.7750     2.4240 
  190.5000   -10.4730    59.8950    24.5080     4.5670     5.1300     5.5710     2.3950 
  190.6250   -10.5270    58.8110    24.4520     4.5060     4.9810     5.3780     2.3720 
  190.7500   -10.5820    56.7080    24.3900     4.5190     4.8660     5.2310     2.3620 
  190.8750   -10.6300    56.8860    24.3490     4.5310     4.7920     5.1350     2.3680 
  191.0000   -10.6780    57.3560    24.3500     4.5230     4.7560     5.0900     2.3850 
  191.1250   -10.7000    54.4570    24.3830     4.5120     4.7640     5.1000     2.4050 
  191.2500   -10.7310    50.7910    24.4090     4.5420     4.8030     5.1490     2.4270 
  191.3750   -10.7720    49.7340    24.4360     4.6420     4.8590     5.2210     2.4460 
  191.5000   -10.8230    50.6140    24.4860     4.7890     4.9210     5.3020     2.4510 
  191.6250   -10.9050    49.8140    24.5340     4.9150     4.9890     5.3890     2.4300 
  191.7500   -11.0380    49.3460    24.5410     5.0150     5.0660     5.4880     2.3980 
  191.8750   -11.2330    52.2240    24.5270     5.1490     5.1580     5.6060     2.3730 
  192.0000   -11.4680    59.9330    24.5420     5.3620     5.2620     5.7390     2.3680 
  192.1250   -11.7520    70.8490    24.5910     5.6030     5.3720     5.8810     2.3840 
  192.2500   -12.0720    80.6330    24.6170     5.7820     5.4800     6.0200     2.4070 
  192.3750   -12.4370    87.5630    24.5870     5.9050     5.5910     6.1620     2.4230 
  192.5000   -12.8600    92.4020    24.5210     6.0540     5.7180     6.3260     2.4260 
  192.6250   -13.3340    96.7170    24.4760     6.3160     5.8950     6.5530     2.4240 
  192.7500   -13.8650   100.1740    24.4640     6.6390     6.1270     6.8520     2.4210 
  192.8750   -14.4380   102.6180    24.4590     6.9640     6.4040     7.2080     2.4150 
  193.0000   -15.0370   104.3010    24.4130     7.2640     6.6980     7.5860     2.4050 
  193.1250   -15.6540   104.3060    24.3800     7.5430     6.9620     7.9260     2.4030 
  193.2500   -16.2590   100.7810    24.4610     7.8330     7.1620     8.1820     2.4130 
  193.3750   -16.8400    94.5840    24.6440     8.1650     7.2710     8.3230     2.4230 
  193.5000   -17.3770    89.0980    24.8390     8.5170     7.2790     8.3340     2.4190 
  193.6250   -17.8590    89.8280    24.9490     8.7240     7.1850     8.2130     2.4070 
  193.7500   -18.2780    93.8690    24.9790     8.6810     7.0490     8.0370     2.4050 
  193.8750   -18.6270    95.8740    24.9620     8.4510     6.9310     7.8850     2.4110 
  194.0000   -18.9190    94.0240    24.8890     8.2150     6.8950     7.8400     2.4150 
  194.1250   -19.1570    92.5640    24.7300     8.1800     7.0160     7.9950     2.4110 
  194.2500   -19.3500    93.2680    24.5790     8.4060     7.2800     8.3340     2.4030 
  194.3750   -19.4890    93.9720    24.6740     8.9320     7.6580     8.8210     2.3850 
  194.5000   -19.5630    93.8590    25.0290     9.7410     8.1060     9.3970     2.3590 
  194.6250   -19.5800    91.5520    25.2950    10.6820     8.5830    10.0100     2.3420 
  194.7500   -19.5310    89.0460    25.2700    11.5190     9.0570    10.6190     2.3550 
  194.8750   -19.4420    89.5630    25.1390    12.3240     9.4980    11.1860     2.3960 
  195.0000   -19.3370    90.9540    25.1520    13.3980     9.8450    11.6330     2.4470 
  195.1250   -19.2350    89.3440    25.3180    14.6250     9.9580    11.7770     2.4790 
  195.2500   -19.1560    90.8970    25.4180    15.0180     9.7830    11.5530     2.4850 
  195.3750   -19.1020    98.6860    25.3590    13.9040     9.3280    10.9670     2.4700 
  195.5000   -19.0810   104.3010    25.2530    11.6720     8.6860    10.1420     2.4440 
  195.6250   -19.0960    99.9930    25.2800     9.5790     8.0150     9.2800     2.4190 
  195.7500   -19.1690    94.9330    25.3430     8.3400     7.4590     8.5640     2.4070 
  195.8750   -19.2700    92.6020    25.3120     7.8950     7.0940     8.0960     2.4050 
  196.0000   -19.3370    90.6770    25.2020     7.9800     6.9530     7.9140     2.4020 
  196.1250   -19.3060    90.6220    25.2190     8.2940     7.0430     8.0300     2.3960 
  196.2500   -19.1540    95.5590    25.3860     8.4680     7.2410     8.2840     2.3940 
  196.3750   -18.8890   100.3760    25.4750     8.3990     7.4270     8.5230     2.4030 
  196.5000   -18.5430    99.6450    25.3210     8.2120     7.4830     8.5950     2.4180 
  196.6250   -18.1350    92.7670    25.0430     8.0060     7.2990     8.3580     2.4300 
  196.7500   -17.6890    82.3350    24.9130     7.6440     6.9250     7.8780     2.4390 
  196.8750   -17.2490    70.0390    24.9460     6.9950     6.4490     7.2660     2.4480 
  197.0000   -16.8950    60.0810    24.9910     6.1730     5.9780     6.6600     2.4530 
  197.1250   -16.6720    55.4250    24.9650     5.5100     5.6210     6.2010     2.4470 
  197.2500   -16.5830    52.7850    24.9010     5.1410     5.3920     5.9070     2.4310 
  197.3750   -16.6230    51.1400    24.8450     4.9900     5.2780     5.7600     2.4120 
  197.5000   -16.7840    51.1970    24.8160     4.9400     5.2440     5.7170     2.4020 
  197.6250   -17.0590    51.3410    24.8130     4.9370     5.2690     5.7480     2.4060 
  197.7500   -17.4200    49.8200    24.8160     4.9550     5.3240     5.8200     2.4150 
  197.8750   -17.8580    50.7290    24.8130     4.9810     5.4010     5.9190     2.4150 
  198.0000   -18.3340    57.3470    24.8030     5.0140     5.4860     6.0270     2.4040 
  198.1250   -18.8650    64.8240    24.8140     5.0610     5.5500     6.1100     2.3990 
  198.2500   -19.4910    69.2900    24.8440     5.1000     5.5720     6.1380     2.4110 
  198.3750   -20.2350    72.7190    24.8820     5.1040     5.5420     6.0990     2.4330 
  198.5000   -21.0840    76.3450    24.9280     5.0620     5.4660     6.0020     2.4480 
  198.6250   -22.0120    78.3850    24.9500     5.0190     5.3650     5.8730     2.4510 
  198.7500   -22.9650    79.9230    24.9290     5.0420     5.2640     5.7420     2.4470 
  198.8750   -23.9140    82.2360    24.9080     5.1440     5.1670     5.6170     2.4380 
  199.0000   -24.8370    84.5950    24.9390     5.2690     5.0700     5.4930     2.4280 
  199.1250   -25.7310    84.9300    25.0090     5.3330     4.9780     5.3750     2.4200 
  199.2500   -26.5750    84.9170    25.0620     5.3300     4.9060     5.2830     2.4120 
  199.3750   -27.3610    86.3560    25.1300     5.2970     4.8780     5.2460     2.4030 
  199.5000   -28.1080    89.9050    25.2440     5.2900     4.9140     5.2920     2.3960 
  199.6250   -28.8190    93.9220    25.3760     5.4160     5.0450     5.4610     2.4020 
  199.7500   -29.5060    96.2870    25.4380     5.7370     5.2680     5.7470     2.4170 
  199.8750   -30.1740    99.0550    25.3750     6.2390     5.5850     6.1540     2.4290 
  200.0000   -30.8320   101.7150    25.2290     6.8470     5.9950     6.6830     2.4310 
  200.1250   -31.4570    99.1150    25.1180     7.5590     6.5130     7.3480     2.4260 
  200.2500   -32.0450    91.2950    25.0730     8.4540     7.1100     8.1150     2.4190 
  200.3750   -32.5660    82.6350    25.1180     9.5930     7.7550     8.9450     2.4140 
  200.5000   -32.9840    79.5270    25.2810    10.8700     8.3870     9.7570     2.4150 
  200.6250   -33.2980    81.5270    25.4080    11.9650     8.8980    10.4150     2.4290 
  200.7500   -33.5460    84.7070    25.3030    12.6360     9.2480    10.8650     2.4410 
  200.8750   -33.7480    87.6310    25.0340    12.8890     9.4590    11.1350     2.4450 
  201.0000   -33.9360    89.2750    24.8420    13.0660     9.6240    11.3480     2.4460 
  201.1250   -34.1190    89.6300    24.8590    13.8480     9.9200    11.7290     2.4540 
