~V
VERS. 2.00: Ver 2.00
~W
STRT.M 60.0000:
STOP.M 248.0000:
STEP.M 0.1250:
NULL. -999.2500:
UWI. DF5054:
~C
DEPT.M :
SP.MV :
GR.API :
CALI.CM :
RXO.OHMM :
RI. :
RML.OHMM :
DEN.GM/CC :
~A
# ...
  183.7500   -33.3030    60.2620    24.6220   355.6430   202.5070   207.4070     2.1510 
  183.8750   -32.7850    62.6740    24.6040   337.4050   171.7820   171.8010     2.1550 
  184.0000   -32.2790    67.5850    24.5680   290.4740   140.6150   137.9840     2.1750 
  184.1250   -31.7910    73.2840    24.5020   217.7120   114.4790   111.3370     2.2050 
  184.2500   -31.3010    76.5950    24.4220   143.6160    95.0770    92.2030     2.2280 
  184.3750   -30.8050    76.5840    24.3740    93.1560    82.6830    80.1790     2.2390 
  184.5000   -30.3070    74.2740    24.3590    72.7220    76.5180    74.2700     2.2390 
  184.6250   -29.8050    71.0680    24.3350    72.5510    76.2150    74.1820     2.2380 
  184.7500   -29.3040    68.6480    24.2720    76.3140    80.0390    78.2630     2.2400 
  184.8750   -28.8100    68.1450    24.1660    79.0090    87.3250    85.8180     2.2430 
  185.0000   -28.3290    69.2620    24.0380    83.1550    97.2270    95.9970     2.2400 
  185.1250   -27.8800    70.8440    23.9770    97.8720   108.6630   107.8220     2.2280 
  185.2500   -27.4800    71.8790    24.0230   124.4330   120.0400   119.8390     2.2200 
  185.3750   -27.1360    71.6540    24.1590   156.5770   130.5450   131.3300     2.2210 
  185.5000   -26.8430    70.2080    24.3050   186.7980   140.0700   142.1420     2.2260 
  185.6250   -26.6040    68.5230    24.3390   206.4200   149.3920   152.8880     2.2240 
  185.7500   -26.4060    67.1030    24.2980   199.7490   159.7690   164.6760     2.2150 
  185.8750   -26.2290    64.8910    24.2140   172.9290   171.7940   178.2210     2.2020 
  186.0000   -26.0490    61.0910    24.2020   163.6200   184.7540   193.0650     2.1880 
  186.1250   -25.8510    58.2350    24.3290   224.1550   195.4090   205.9680     2.1820 
  186.2500   -25.6250    58.7490    24.4830   332.4090   200.3000   212.6180     2.1870 
  186.3750   -25.3600    61.1400    24.5730   415.0250   197.1780   209.9900     2.1980 
  186.5000   -25.0440    62.5020    24.5840   409.4210   186.0970   198.0850     2.2050 
  186.6250   -24.6730    63.6990    24.5140   328.2260   169.2930   179.9130     2.2120 
  186.7500   -24.2730    67.2030    24.3800   248.5380   151.9950   161.6870     2.2260 
  186.8750   -23.8580    70.8270    24.2410   193.1680   137.6000   147.0240     2.2450 
  187.0000   -23.4380    71.1880    24.1460   153.1680   127.9840   137.5160     2.2570 
  187.1250   -23.0280    69.0180    24.2020   134.2000   123.7450   133.3070     2.2530 
  187.2500   -22.6500    67.7040    24.2750   142.7180   122.1240   131.3950     2.2390 
  187.3750   -22.3290    67.4300    24.3490   176.8530   120.8710   129.4220     2.2220 
  187.5000   -22.0670    66.7350    24.4150   213.8850   118.3270   125.7090     2.2040 
  187.6250   -21.8450    65.4930    24.4890   218.1860   113.1590   119.0980     2.1890 
  187.7500   -21.6320    65.1590    24.5410   189.9060   105.2440   109.9080     2.1820 
  187.8750   -21.4270    66.8780    24.5470   153.9580    94.4100    98.2870     2.1850 
  188.0000   -21.2270    69.1670    24.5040   128.3180    81.1140    84.8240     2.2010 
  188.1250   -20.9990    68.2830    24.4120   110.4060    66.5870    70.5550     2.2440 
  188.2500   -20.7200    64.8730    24.2860    92.8190    52.7260    56.7800     2.3170 
  188.3750   -20.3930    62.8090    24.1790    77.5540    40.7220    44.3370     2.4060 
  188.5000   -20.0610    65.5780    24.0810    63.3100    31.1930    33.8330     2.4850 
  188.6250   -19.7790    73.6330    24.0660    45.3140    24.5800    26.0450     2.5300 
  188.7500   -19.5520    82.6500    24.0610    28.2540    20.1070    20.6080     2.5470 
  188.8750   -19.3640    89.2950    24.0290    17.6960    17.3170    17.2280     2.5400 
  189.0000   -19.2000    92.0020    23.9710    13.8190    15.7350    15.4080     2.5180 
  189.1250   -19.0560    91.1790    23.9310    13.8030    14.9980    14.6830     2.4910 
  189.2500   -18.9180    89.5780    23.9200    15.6800    14.6080    14.3870     2.4610 
  189.3750   -18.7760    88.8330    23.9150    17.9000    14.3250    14.2170     2.4310 
  189.5000   -18.6120    88.9380    23.8760    18.3800    13.9940    13.9910     2.4100 
  189.6250   -18.4040    87.4940    23.7580    16.0770    13.5250    13.6170     2.4180 
  189.7500   -18.1590    83.7950    23.5960    13.3100    12.9580    13.1420     2.4500 
  189.8750   -17.9010    79.4630    23.5020    11.7340    12.3510    12.6390     2.4930 
  190.0000   -17.6640    75.7320    23.5150    11.6570    11.7700    12.1840     2.5260 
  190.1250   -17.4970    71.8420    23.5990    12.0570    11.2790    11.8410     2.5290 
  190.2500   -17.4130    67.9130    23.6600    11.8790    10.8910    11.5960     2.5140 
  190.3750   -17.3990    66.0140    23.6250    11.0400    10.6050    11.4340     2.5030 
  190.5000   -17.4170    67.1540    23.5260    10.0590    10.4140    11.3410     2.5070 
  190.6250   -17.4410    67.6070    23.5140     9.3610    10.3310    11.3390     2.5110 
  190.7500   -17.4680    64.5510    23.6270     8.8670    10.3380    11.4270     2.5000 
  190.8750   -17.4960    60.2790    23.6910     8.6050    10.4040    11.5870     2.4850 
  191.0000   -17.5090    58.4660    23.6950     8.6240    10.4800    11.7650     2.4860 
  191.1250   -17.4780    59.4720    23.6900     8.7890    10.5080    11.8910     2.5090 
  191.2500   -17.3870    60.3230    23.6480     8.9180    10.4540    11.9220     2.5390 
  191.3750   -17.2350    60.7760    23.5440     9.2000    10.2960    11.8180     2.5690 
  191.5000   -17.0410    61.4950    23.4440     9.6080    10.0240    11.5560     2.5990 
  191.6250   -16.8300    61.9660    23.4620     9.6140     9.6430    11.1320     2.6180 
  191.7500   -16.6190    61.5150    23.4360     8.9060     9.2180    10.6370     2.6150 
  191.8750   -16.4110    60.4030    23.3350     7.9110     8.7980    10.1440     2.5900 
  192.0000   -16.2140    60.2140    23.3220     7.1010     8.4270     9.7170     2.5550 
  192.1250   -16.0660    63.0360    23.4890     6.6900     8.1420     9.4110     2.5200 
  192.2500   -15.9920    66.0290    23.6590     6.6340     7.9390     9.2170     2.4910 
  192.3750   -15.9990    65.4560    23.7400     6.9090     7.8190     9.1340     2.4700 
  192.5000   -16.0720    61.8420    23.7630     7.3990     7.7880     9.1600     2.4570 
  192.6250   -16.1910    61.1610    23.7720     7.7540     7.8570     9.3080     2.4500 
  192.7500   -16.3280    66.0100    23.7670     7.7910     8.0110     9.5590     2.4470 
  192.8750   -16.4680    74.6650    23.7260     7.5830     8.2460     9.9170     2.4520 
  193.0000   -16.5930    84.7240    23.6410     7.4390     8.5510    10.3690     2.4640 
  193.1250   -16.6810    93.2000    23.5130     7.8630     8.8840    10.8580     2.4740 
  193.2500   -16.7280    97.6720    23.4190     8.7700     9.1690    11.2720     2.4740 
  193.3750   -16.7430    98.2190    23.3430     9.6660     9.3340    11.5060     2.4670 
  193.5000   -16.7360    97.5160    23.3070    10.1030     9.3300    11.4910     2.4670 
  193.6250   -16.7200    98.2090    23.3500    10.0140     9.1490    11.2170     2.4840 
  193.7500   -16.7090    99.7860    23.4590     9.6790     8.8990    10.8480     2.4970 
  193.8750   -16.7150   101.0590    23.6110     9.2170     8.6890    10.5570     2.4920 
  194.0000   -16.7520   101.3640    23.7590     8.7180     8.6280    10.5130     2.4700 
  194.1250   -16.8320    99.7270    23.9020     8.6000     8.8350    10.8980     2.4470 
  194.2500   -16.9500    96.0000    24.0640     9.1890     9.2720    11.6240     2.4330 
  194.3750   -17.1010    91.2310    24.2030    10.6380     9.8620    12.5380     2.4340 
  194.5000   -17.2740    87.3390    24.2540    12.6940    10.4640    13.4080     2.4560 
  194.6250   -17.4440    86.4150    24.2120    14.5690    10.8470    13.8870     2.5000 
  194.7500   -17.5930    88.3870    24.1730    15.5350    10.8830    13.8360     2.5380 
  194.8750   -17.7150    92.3940    24.1480    15.3010    10.5410    13.2490     2.5430 
