~V
VERS. 2.00: Ver 2.00
~W
STRT.M 60.0000:
STOP.M 256.0000:
STEP.M 0.1250:
NULL. -999.2500:
UWI. DF5048:
~C
DEPT.M :
GR.API :
CALI.CM :
RXO.OHMM :
RI. :
RML.OHMM :
DEN.GM/CC :
SP.MV :
~A
# ...
  116.2500    82.8640    24.9750     5.8720     5.3210     6.0630     2.1640   -26.2670 
  116.3750    82.2140    24.9840     5.9690     5.3130     6.0070     2.1650   -26.2800 
  116.5000    80.8240    25.0030     5.9460     5.2820     5.9620     2.1740   -26.2790 
  116.6250    79.4270    25.0360     5.9550     5.2880     5.9910     2.1920   -26.3110 
  116.7500    80.8080    25.0840     6.3340     5.3520     6.1060     2.2140   -26.3340 
  116.8750    84.6290    25.1340     7.7530     5.4720     6.2930     2.2320   -26.3430 
  117.0000    86.9340    25.1440     8.4380     5.6180     6.5050     2.2360   -26.3580 
  117.1250    83.5990    25.0860     7.6970     5.7350     6.6730     2.2220   -26.3180 
  117.2500    79.0410    25.0140     6.3010     5.7970     6.7730     2.2000   -26.3120 
  117.3750    78.8570    24.9760     6.0240     5.8200     6.8290     2.1800   -26.2880 
  117.5000    82.0900    24.9710     6.2420     5.8390     6.8810     2.1640   -26.2420 
  117.6250    83.5410    24.9740     6.6860     5.8800     6.9440     2.1540   -26.1260 
  117.7500    81.6060    24.9900     6.8770     5.9170     6.9770     2.1490   -25.9950 
  117.8750    78.4530    25.0310     6.9540     5.8980     6.9240     2.1500   -25.8460 
  118.0000    78.0680    25.0650     6.8840     5.7840     6.7590     2.1580   -25.7120 
  118.1250    82.7970    25.0480     6.5890     5.5910     6.5250     2.1710   -25.5470 
  118.2500    87.8520    25.0080     6.2550     5.4180     6.3480     2.1800   -25.3700 
  118.3750    89.1440    24.9680     6.1660     5.3460     6.3200     2.1790   -25.1840 
  118.5000    87.1230    24.9010     6.4000     5.4240     6.4830     2.1700   -25.0100 
  118.6250    85.0090    24.7700     7.0520     5.6700     6.8260     2.1570   -24.8240 
  118.7500    81.7460    24.6420     7.4810     5.9950     7.2090     2.1470   -24.6350 
  118.8750    77.9190    24.5720     7.5880     6.2980     7.4980     2.1440   -24.4000 
  119.0000    76.4310    24.5540     7.5650     6.4670     7.5800     2.1460   -24.1320 
  119.1250    77.4340    24.5570     7.5030     6.3960     7.3830     2.1560   -23.8950 
  119.2500    77.3110    24.5700     7.1050     6.1450     7.0170     2.1700   -23.6310 
  119.3750    77.5180    24.6090     6.6320     5.7900     6.5840     2.1860   -23.3580 
  119.5000    80.8500    24.7100     6.2740     5.4090     6.1610     2.2010   -23.0640 
  119.6250    86.3430    24.8950     5.8280     5.0660     5.8050     2.2140   -22.8410 
  119.7500    91.1460    25.0860     5.4750     4.7790     5.5140     2.2250   -22.6190 
  119.8750    95.0900    25.2150     5.2500     4.5490     5.2840     2.2360   -22.5110 
  120.0000    98.3990    25.2650     5.0480     4.3720     5.1090     2.2450   -22.4420 
  120.1250    97.1530    25.2680     4.8320     4.2600     5.0080     2.2510   -22.4540 
  120.2500    93.0910    25.2300     4.8000     4.2190     4.9880     2.2540   -22.4970 
  120.3750    91.2910    25.1370     4.8570     4.2590     5.0560     2.2520   -22.5720 
  120.5000    93.7980    25.0070     4.9120     4.3790     5.2050     2.2460   -22.6800 
  120.6250    96.2900    24.8790     4.9710     4.5640     5.4040     2.2390   -22.8340 
  120.7500    95.3400    24.7890     5.2990     4.7620     5.5860     2.2320   -22.9600 
  120.8750    92.6540    24.7570     5.6200     4.9190     5.6940     2.2280   -23.0780 
  121.0000    90.2460    24.7800     5.6570     4.9870     5.6850     2.2290   -23.1130 
  121.1250    87.9250    24.8340     5.6210     4.9210     5.5390     2.2370   -23.1240 
  121.2500    86.6240    24.8900     5.4580     4.7590     5.3190     2.2500   -23.0950 
  121.3750    90.1260    24.9440     5.1590     4.5460     5.0830     2.2670   -23.0700 
  121.5000    98.6220    24.9910     4.7710     4.3300     4.8770     2.2860   -23.0400 
  121.6250   104.2330    25.0210     4.7080     4.1480     4.7250     2.3020   -23.0460 
  121.7500   104.9080    25.0340     5.2580     4.0020     4.6140     2.3110   -23.0460 
  121.8750   104.5570    25.0370     5.7760     3.8900     4.5350     2.3120   -23.0690 
  122.0000   105.4320    25.0350     5.5710     3.8110     4.4860     2.3080   -23.1070 
  122.1250   102.9500    25.0370     4.6520     3.7670     4.4690     2.3000   -23.2640 
  122.2500    96.0150    25.0350     4.5980     3.7580     4.4920     2.2910   -23.4330 
  122.3750    87.9120    25.0210     4.8370     3.8000     4.5850     2.2840   -23.6340 
  122.5000    82.2780    24.9860     5.1820     3.9280     4.7960     2.2810   -23.8140 
  122.6250    79.7640    24.9290     5.3600     4.2010     5.1920     2.2830   -24.0000 
  122.7500    78.9140    24.8820     5.7720     4.6140     5.7480     2.2820   -24.2110 
  122.8750    78.6090    24.8570     7.5620     5.1400     6.4030     2.2720   -24.4170 
  123.0000    78.3030    24.8420     8.8390     5.7000     7.0300     2.2470   -24.6440 
  123.1250    75.3000    24.8370     8.3020     6.1250     7.4150     2.2140   -24.7900 
  123.2500    70.0120    24.8650     7.0560     6.3170     7.4900     2.1860   -24.8940 
  123.3750    67.7120    24.9200     6.8640     6.2730     7.3040     2.1660   -24.9250 
  123.5000    70.4730    24.9670     6.7840     6.0830     6.9950     2.1580   -24.9730 
  123.6250    73.6900    24.9750     6.5860     5.8910     6.7440     2.1560   -24.9120 
  123.7500    73.0530    24.9480     6.5170     5.7940     6.6390     2.1550   -24.8730 
  123.8750    69.8460    24.9050     6.6270     5.8140     6.6790     2.1540   -24.7640 
  124.0000    67.9100    24.8660     6.8380     5.9350     6.8280     2.1510   -24.6440 
  124.1250    66.7080    24.8580     7.0210     6.1360     7.0450     2.1490   -24.4500 
  124.2500    65.8170    24.8830     7.2030     6.3590     7.2560     2.1480   -24.2660 
  124.3750    66.0130    24.9110     7.2410     6.5320     7.3820     2.1480   -24.0900 
  124.5000    68.4880    24.9090     7.0570     6.5630     7.3260     2.1490   -23.8880 
  124.6250    71.6070    24.8750     6.6820     6.3280     6.9700     2.1580   -23.6770 
  124.7500    73.1590    24.8490     6.2820     5.8560     6.3710     2.1810   -23.4330 
  124.8750    74.6040    24.8460     5.6410     5.2220     5.6280     2.2180   -23.2300 
  125.0000    78.1600    24.9020     4.7920     4.5430     4.8790     2.2620   -23.0700 
  125.1250    85.4110    25.0790     4.3270     3.9550     4.2920     2.2980   -23.0170 
  125.2500    91.4450    25.2950     4.1480     3.5340     3.9340     2.3160   -23.0430 
  125.3750    92.2430    25.4360     4.0990     3.3280     3.8450     2.3160   -23.1370 
  125.5000    88.3370    25.4590     4.1090     3.3700     4.0540     2.3030   -23.3200 
  125.6250    85.0380    25.4090     4.5050     3.7240     4.6260     2.2810   -23.5600 
  125.7500    84.9520    25.3460     5.8150     4.3370     5.4710     2.2560   -23.8570 
  125.8750    85.0610    25.2530     7.8270     5.1400     6.4450     2.2290   -24.1770 
  126.0000    83.8590    25.0920     8.6480     5.9660     7.2910     2.2080   -24.4670 
  126.1250    79.6240    24.8740     7.8220     6.4840     7.6280     2.1990   -24.7070 
  126.2500    72.9610    24.7250     7.1080     6.5430     7.4260     2.2050   -24.9060 
  126.3750    65.9120    24.7510     6.8680     6.2060     6.8660     2.2210   -25.0970 
  126.5000    63.9380    24.9570     6.2510     5.7000     6.2520     2.2390   -25.2970 
  126.6250    71.3340    25.2200     5.6290     5.2950     5.8860     2.2410   -25.4870 
  126.7500    79.8730    25.3920     5.4700     5.1080     5.8310     2.2220   -25.6990 
  126.8750    83.2660    25.3660     5.8480     5.1600     6.0630     2.1850   -25.8840 
  127.0000    80.2490    25.1220     6.4210     5.4260     6.5110     2.1430   -26.1020 
  127.1250    75.6320    24.8000     7.0100     5.8560     7.0690     2.1130   -26.3150 
  127.2500    72.8490    24.5930     7.2910     6.3140     7.5710     2.1000   -26.5620 
  127.3750    70.1240    24.5460     7.6370     6.6860     7.9010     2.1030   -26.7640 
