~V
VERS. 2.00: Ver 2.00
~W
STRT.M 59.0000:
STOP.M 277.0000:
STEP.M 0.1250:
NULL. -999.2500:
UWI. DF5027:
~C
DEPT.M :
GR.API :
RML.OHMM :
RI. :
RXO.OHMM :
CALI.CM :
DEN.GM/CC :
SP.MV :
~A
# ...
  115.2500    91.1130     6.7060     6.1030     6.0740    24.4810     2.3550   -31.0250 
  115.3750    91.7600     6.4790     5.9420     5.7190    24.4460     2.3090   -31.2980 
  115.5000    93.9990     6.3770     5.8380     5.9790    24.4170     2.2780   -31.5590 
  115.6250    93.0470     6.4570     5.8390     6.1700    24.3470     2.2640   -31.7690 
  115.7500    89.6450     6.6560     5.9180     6.1970    24.2110     2.2520   -32.0040 
  115.8750    87.8290     6.8950     6.0370     6.4030    24.0550     2.2360   -32.1430 
  116.0000    88.3110     7.0830     6.1420     6.5450    23.9610     2.2160   -32.3030 
  116.1250    87.3330     7.1220     6.1680     6.6540    23.9390     2.1990   -32.2960 
  116.2500    84.2620     7.0220     6.1090     6.7850    23.9370     2.1930   -32.3220 
  116.3750    83.4190     6.8280     5.9830     6.6290    23.9400     2.1990   -32.2470 
  116.5000    85.9520     6.6040     5.8260     6.0540    23.9620     2.2130   -32.1630 
  116.6250    87.1370     6.4310     5.6880     5.7130    23.9850     2.2310   -32.1320 
  116.7500    86.6280     6.3480     5.5980     5.4930    23.9920     2.2450   -32.0440 
  116.8750    89.7040     6.3610     5.5680     5.4650    23.9710     2.2500   -32.0470 
  117.0000    95.1480     6.4500     5.5920     5.6030    23.9510     2.2470   -32.0100 
  117.1250    91.7330     6.5790     5.6550     5.6990    23.9470     2.2360   -32.0320 
  117.2500    82.0940     6.6970     5.7250     6.0670    23.9610     2.2270   -31.9950 
  117.3750    77.9690     6.7740     5.7820     6.4680    24.0510     2.2250   -31.9310 
  117.5000    82.9870     6.8100     5.8150     6.4720    24.2820     2.2330   -31.8580 
  117.6250    89.0720     6.8290     5.8310     6.1870    24.5350     2.2470   -31.6300 
  117.7500    90.8090     6.8630     5.8460     5.8410    24.5960     2.2590   -31.4430 
  117.8750    90.7190     6.9080     5.8630     5.9750    24.4750     2.2640   -31.1360 
  118.0000    91.7940     6.9370     5.8680     6.3500    24.4070     2.2660   -30.8690 
  118.1250    93.1750     6.9000     5.8400     6.3730    24.5380     2.2650   -30.5910 
  118.2500    92.5710     6.7840     5.7670     6.2040    24.6740     2.2620   -30.3470 
  118.3750    90.5940     6.6090     5.6550     6.1870    24.7040     2.2570   -30.1350 
  118.5000    88.6980     6.4350     5.5300     6.3150    24.6940     2.2490   -29.9600 
  118.6250    87.6480     6.3250     5.4230     6.2560    24.7600     2.2480   -29.8600 
  118.7500    88.1170     6.2890     5.3520     5.9350    24.8590     2.2590   -29.7120 
  118.8750    90.1380     6.3050     5.3180     5.5950    24.9220     2.2880   -29.6790 
  119.0000    92.9960     6.3150     5.3010     5.3760    24.9110     2.3300   -29.6120 
  119.1250    91.5340     6.2130     5.2590     5.9120    24.8290     2.3690   -29.6480 
  119.2500    86.5520     5.9900     5.1860     6.7220    24.7870     2.3880   -29.6420 
  119.3750    82.5040     5.7700     5.1300     6.7020    24.8540     2.3790   -29.6540 
  119.5000    82.5200     5.7150     5.1900     6.2610    24.9030     2.3450   -29.7030 
  119.6250    83.6830     6.2450     5.5570     6.1030    24.8320     2.3020   -29.6790 
  119.7500    82.8560     7.3530     6.2950     6.6360    24.7230     2.2730   -29.7190 
  119.8750    81.5070     9.0100     7.3780     7.8940    24.6690     2.2720   -29.7310 
  120.0000    80.5180    10.9260     8.6400    10.7390    24.6590     2.3080   -29.6850 
  120.1250    76.5730    12.1010     9.7250    15.8000    24.5890     2.3800   -29.6450 
  120.2500    71.3410    12.5250    10.2910    23.0720    24.5350     2.4610   -29.6360 
  120.3750    69.5660    11.9180    10.1350    30.5800    24.4910     2.5190   -29.6360 
  120.5000    73.1120    10.4930     9.3070    28.5510    24.4410     2.5290   -29.6060 
  120.6250    80.3140     8.8560     8.1030    17.6120    24.4190     2.4820   -29.6420 
  120.7500    86.9080     7.5720     6.9750     9.0590    24.4800     2.4110   -29.7340 
  120.8750    89.1140     6.8230     6.1450     6.0640    24.3700     2.3390   -29.8070 
  121.0000    84.8470     6.5860     5.6910     5.6630    24.1060     2.2830   -29.9960 
  121.1250    80.2420     6.7580     5.6050     6.0450    23.9980     2.2500   -30.0280 
  121.2500    81.6120     7.0580     5.6980     6.3900    24.0310     2.2360   -30.0210 
  121.3750    84.9110     7.3010     5.8420     6.6160    24.1730     2.2350   -29.9350 
  121.5000    84.1540     7.3700     5.9370     6.6980    24.3680     2.2420   -29.7830 
  121.6250    83.1170     7.2140     5.9140     6.5210    24.6730     2.2500   -29.6300 
  121.7500    85.4540     6.9410     5.8010     6.3540    25.0260     2.2560   -29.3310 
  121.8750    87.8040     6.6450     5.6370     6.1950    25.3010     2.2650   -29.0690 
  122.0000    89.6560     6.3760     5.4570     5.7790    25.3560     2.2820   -28.7210 
  122.1250    92.2930     6.1530     5.2810     5.1310    25.2450     2.3110   -28.4700 
  122.2500    93.0610     5.9570     5.1110     5.0120    25.1180     2.3420   -28.3060 
  122.3750    90.4060     5.7770     4.9470     5.2650    25.0670     2.3650   -28.2000 
  122.5000    87.4080     5.6110     4.7930     5.2860    25.0480     2.3700   -28.1900 
  122.6250    86.2220     5.4830     4.6660     5.2200    25.0010     2.3610   -28.1580 
  122.7500    84.4550     5.4180     4.5870     4.9960    24.8880     2.3490   -28.2780 
  122.8750    81.7790     5.4330     4.5740     4.8810    24.6980     2.3430   -28.4170 
  123.0000    78.7290     5.5350     4.6360     4.9070    24.5030     2.3440   -28.6110 
  123.1250    75.5190     5.7490     4.7970     5.1640    24.2390     2.3440   -28.9310 
  123.2500    73.3160     6.0750     5.0520     5.5890    24.1420     2.3360   -29.2330 
  123.3750    71.7880     6.5300     5.4100     6.3210    24.1820     2.3150   -29.6000 
  123.5000    70.3610     7.1170     5.8710     6.9180    24.1940     2.2850   -29.9960 
  123.6250    67.7440     7.8420     6.4430     7.1280    24.1420     2.2610   -30.4300 
  123.7500    64.0200     8.6550     7.0890     7.1520    24.0820     2.2590   -30.8480 
  123.8750    60.5970     9.5010     7.7730     7.2030    23.9850     2.2860   -31.1970 
  124.0000    59.4920    10.3070     8.4430     7.5510    23.8660     2.3310   -31.5950 
  124.1250    61.8290    11.0030     9.0400     8.3540    23.7630     2.3660   -31.8700 
  124.2500    64.7850    11.5850     9.5500     9.0740    23.8090     2.3640   -32.1420 
  124.3750    65.8340    12.0530     9.9620     9.4400    23.9420     2.3240   -32.3450 
  124.5000    64.1390    12.4240    10.2790     9.7990    24.0660     2.2640   -32.4190 
  124.6250    60.4480    12.6500    10.4630     9.9870    24.0830     2.2100   -32.4730 
  124.7500    58.1030    12.6330    10.4670     9.9350    24.0460     2.1750   -32.3670 
  124.8750    57.3000    12.2660    10.2290     9.8080    24.0060     2.1550   -32.2670 
  125.0000    57.5590    11.5320     9.7370     9.6620    23.9730     2.1450   -32.0290 
  125.1250    60.0730    10.4790     9.0080     9.3550    23.9560     2.1440   -31.7850 
  125.2500    65.5290     9.3560     8.1920     8.9240    23.9500     2.1550   -31.4980 
  125.3750    72.3830     8.3900     7.4390     8.3810    23.9950     2.1800   -31.2520 
  125.5000    75.8710     7.7780     6.8960     7.4880    24.1110     2.2130   -31.1440 
  125.6250    74.0930     7.7290     6.7410     6.5410    24.1350     2.2400   -31.0580 
  125.7500    71.2690     8.1980     6.9750     6.4040    24.0030     2.2520   -31.1590 
  125.8750    67.8850     9.1340     7.5790     7.2860    23.7590     2.2480   -31.3050 
  126.0000    63.5140    10.3850     8.4580     8.5480    23.5600     2.2340   -31.5340 
  126.1250    59.6050    11.6750     9.4340     9.3850    23.4650     2.2200   -31.8380 
  126.2500    57.6040    12.6660    10.2520     9.7030    23.4730     2.2120   -32.1140 
  126.3750    57.2560    13.1150    10.7270     9.7220    23.5800     2.2070   -32.3900 
