~V
VERS. 2.00: Ver 2.00
~W
STRT.M 64.0000:
STOP.M 243.0000:
STEP.M 0.1250:
NULL. -999.2500:
UWI. DF5061:
~C
DEPT.M :
GR.API :
RML.OHMM :
RI. :
RXO.OHMM :
CALI.CM :
DEN.GM/CC :
SP.MV :
~A
# ...
  221.5000    78.0000    41.8500    36.2520    38.1390    25.2900     2.3390   -19.8120 
  221.6250    76.2890    46.9060    40.5950    44.4200    25.2990     2.3280   -19.5150 
  221.7500    72.4530    53.4290    46.4620    53.3790    25.2980     2.3170   -19.1920 
  221.8750    70.3990    60.8460    53.4210    62.5520    25.2870     2.3070   -18.8370 
  222.0000    70.4240    67.8280    60.2080    71.5310    25.2610     2.2970   -18.4410 
  222.1250    68.8500    73.2050    65.6370    79.6450    25.2110     2.2860   -18.0150 
  222.2500    64.8220    76.2190    68.8020    84.2840    25.0950     2.2760   -17.5500 
  222.3750    62.8520    76.5870    69.1420    82.7890    24.9700     2.2740   -17.0150 
  222.5000    64.1580    75.3910    67.6890    76.9080    24.8840     2.2890   -16.3870 
  222.6250    64.0050    72.9970    65.0880    69.5970    24.8400     2.3230   -15.6800 
  222.7500    61.6650    69.1230    61.5440    63.9350    24.7500     2.3750   -14.9360 
  222.8750    62.7520    62.7270    56.4980    61.3380    24.7000     2.4290   -14.1780 
  223.0000    65.6480    54.1380    49.8460    58.5000    24.6430     2.4650   -13.4380 
  223.1250    68.4190    44.4450    41.9690    52.9860    24.6340     2.4720   -12.7220 
  223.2500    72.8370    35.3760    33.9580    43.4720    24.6330     2.4500   -12.0360 
  223.3750    79.6850    28.8390    27.4600    30.4360    24.6330     2.4140   -11.4170 
  223.5000    82.5490    24.8780    23.0620    21.4420    24.6320     2.3850   -10.9060 
  223.6250    78.5090    23.1140    20.7940    17.9040    24.6270     2.3710   -10.4900 
  223.7500    73.5440    22.9810    20.3310    18.4190    24.6180     2.3730   -10.1420 
  223.8750    71.6230    23.9630    21.2640    21.1610    24.5960     2.3830    -9.8300 
  224.0000    69.9510    25.1620    22.6120    24.1120    24.5470     2.3880    -9.5270 
  224.1250    66.6490    25.9500    23.6470    25.7100    24.5010     2.3830    -9.2390 
  224.2500    61.9340    25.8840    23.8230    24.9500    24.4850     2.3690    -8.9930 
  224.3750    60.0010    24.8050    22.8890    22.6180    24.4590     2.3520    -8.8150 
  224.5000    61.3900    23.2450    21.4310    20.4100    24.3970     2.3380    -8.6940 
  224.6250    65.3370    21.6230    19.9590    18.7310    24.3210     2.3290    -8.6320 
  224.7500    69.4310    20.3660    18.8140    17.5510    24.2500     2.3260    -8.6100 
  224.8750    68.8240    19.6200    18.1750    17.1390    24.0910     2.3260    -8.6370 
  225.0000    64.8930    19.3060    17.8860    17.2420    23.9120     2.3290    -8.7040 
  225.1250    62.4090    19.3230    17.8090    17.5910    23.7860     2.3320    -8.7820 
  225.2500    63.7470    19.3740    17.8270    17.8910    23.6760     2.3350    -8.8480 
  225.3750    66.4070    19.4240    17.8730    17.9020    23.6140     2.3360    -8.8990 
  225.5000    68.0380    19.5090    17.9520    17.7990    23.5340     2.3360    -8.9450 
  225.6250    68.9940    19.6600    18.0930    17.8300    23.4670     2.3350    -9.0040 
  225.7500    67.6420    19.8820    18.3010    18.1250    23.4450     2.3350    -9.0890 
  225.8750    62.8830    20.1300    18.5330    18.8050    23.4530     2.3360    -9.2140 
  226.0000    60.7600    20.3380    18.7270    19.7540    23.4810     2.3390    -9.3680 
  226.1250    63.1470    20.5080    18.8860    20.6320    23.5480     2.3410    -9.5390 
  226.2500    67.3130    20.7390    19.1020    20.8850    23.5940     2.3400    -9.7300 
  226.3750    70.7420    21.2490    19.5780    20.8930    23.6360     2.3330    -9.9260 
  226.5000    70.6850    22.1400    20.4110    21.4510    23.6900     2.3220   -10.1140 
  226.6250    68.2150    23.4090    21.5970    23.2810    23.6990     2.3100   -10.2900 
  226.7500    67.8570    24.9240    23.0130    25.8860    23.7000     2.3000   -10.4590 
  226.8750    71.6100    26.4480    24.4380    28.0310    23.7000     2.2930   -10.6220 
  227.0000    73.6480    27.7820    25.6840    29.5480    23.7000     2.2880   -10.7830 
  227.1250    70.4760    28.8680    26.6990    30.9310    23.7000     2.2850   -10.9620 
  227.2500    64.4440    29.7450    27.5190    32.1900    23.7000     2.2840   -11.1440 
  227.3750    60.7700    30.4620    28.1890    33.3000    23.7000     2.2850   -11.2960 
  227.5000    59.6940    31.0600    28.7470    34.5420    23.7000     2.2870   -11.4360 
  227.6250    58.6300    31.4900    29.1490    35.2990    23.7000     2.2890   -11.5530 
  227.7500    55.4390    31.6960    29.3420    34.7840    23.7000     2.2880   -11.6290 
  227.8750    53.1050    31.6500    29.2990    32.8800    23.7000     2.2840   -11.6610 
  228.0000    55.1630    31.5150    29.1730    31.2380    23.7000     2.2800   -11.6520 
  228.1250    57.9780    31.4650    29.1260    31.0410    23.7000     2.2800   -11.6120 
  228.2500    57.8180    31.6290    29.2790    30.7400    23.7000     2.2850   -11.5530 
  228.3750    55.7930    31.9760    29.6040    30.2300    23.7000     2.2950   -11.4800 
  228.5000    56.9270    32.1630    29.7800    29.6580    23.7000     2.3040   -11.3790 
  228.6250    62.1320    31.7780    29.4180    29.8520    23.7000     2.3110   -11.2450 
  228.7500    68.9990    30.4770    28.1900    30.0520    23.7010     2.3180   -11.1150 
  228.8750    75.2110    28.0520    25.9280    28.5840    23.7090     2.3250   -11.0030 
  229.0000    80.2780    25.1140    23.1980    25.4120    23.7240     2.3310   -10.9010 
  229.1250    83.6460    22.2620    20.5870    20.7700    23.7490     2.3350   -10.8050 
  229.2500    83.9500    20.1080    18.6230    16.8120    23.8260     2.3340   -10.7190 
  229.3750    79.3440    19.1850    17.8470    16.1070    23.8500     2.3260   -10.6550 
  229.5000    73.0460    19.6040    18.2220    17.9840    23.8810     2.3200   -10.6140 
  229.6250    68.0180    21.3510    19.6840    21.2070    23.9490     2.3250   -10.5820 
  229.7500    65.4880    23.8700    21.9870    25.1620    23.9960     2.3500   -10.5310 
  229.8750    65.0310    26.7260    24.6750    27.7730    24.0460     2.3970   -10.4590 
  230.0000    65.6240    29.0740    27.0480    29.3470    24.1180     2.4490   -10.3690 
  230.1250    66.9800    30.3940    28.6150    30.8760    24.1600     2.4840   -10.2860 
  230.2500    67.5120    30.4870    29.1380    30.5250    24.2520     2.4840   -10.2260 
  230.3750    66.5350    29.5440    28.6270    30.0180    24.3100     2.4420   -10.1870 
  230.5000    65.1750    28.7490    27.7060    30.2490    24.3850     2.3840   -10.1620 
  230.6250    65.3150    28.1190    26.8630    29.5700    24.4270     2.3310   -10.1530 
  230.7500    66.6070    28.1880    26.5060    27.6570    24.5170     2.2920   -10.1500 
  230.8750    67.0190    29.1190    26.9760    27.4080    24.5660     2.2710   -10.1430 
  231.0000    65.5270    30.3240    28.0600    29.9370    24.6190     2.2600   -10.1540 
  231.1250    63.9810    31.7560    29.3980    33.6190    24.6190     2.2550   -10.1770 
  231.2500    64.1030    32.9240    30.4900    35.8180    24.6000     2.2550   -10.1920 
  231.3750    65.1510    33.1240    30.6760    35.9770    24.5540     2.2590   -10.1870 
  231.5000    64.8740    32.2490    29.8590    35.0070    24.4780     2.2670   -10.1500 
  231.6250    63.6360    30.4800    28.2130    32.6960    24.4250     2.2760   -10.0700 
  231.7500    62.9610    28.2240    26.1080    29.3250    24.3190     2.2830    -9.9620 
  231.8750    64.3010    25.8640    23.8930    25.3060    24.2220     2.2870    -9.8460 
  232.0000    66.0180    23.6150    21.7520    22.8620    24.0820     2.2880    -9.7250 
  232.1250    67.0980    21.5110    19.7220    21.9490    24.1070     2.2890    -9.5810 
  232.2500    67.2860    19.5890    17.8530    20.7270    24.1430     2.2930    -9.3910 
  232.3750    67.6400    18.0200    16.3270    18.4890    24.1590     2.3000    -9.1900 
  232.5000    68.0580    16.8410    15.2570    16.4520    24.1360     2.3040    -9.0350 
  232.6250    67.2820    16.2570    14.7190    15.3390    24.1090     2.3040    -8.9370 
