~V
VERS. 2.00: Ver 2.00
~W
STRT.M 72.0000:
STOP.M 259.0000:
STEP.M 0.1250:
NULL. -999.2500:
UWI. DF5020:
~C
DEPT.M :
DEN.GM/CC :
GR.API :
RML.OHMM :
RI. :
RXO.OHMM :
CALI.CM :
SP.MV :
~A
# ...
   83.2500     2.3460    94.9940     5.7880     4.8960     6.1290    24.8410   -35.9040 
   83.3750     2.3340    95.4840     6.2100     5.1160     6.3380    24.6800   -35.6310 
   83.5000     2.3270    96.5940     6.6180     5.4570     6.1580    24.4210   -35.3820 
   83.6250     2.3290    97.0790     6.8870     5.7940     6.1870    24.3530   -35.2580 
   83.7500     2.3400    98.9690     7.0060     6.0450     6.5750    24.4480   -35.1260 
   83.8750     2.3580   100.8150     6.9890     6.1780     6.9670    24.5940   -35.0160 
   84.0000     2.3770    98.8400     6.8690     6.1940     7.3600    24.6560   -34.9300 
   84.1250     2.3850    94.2180     6.6940     6.1120     6.4950    24.6440   -34.8340 
   84.2500     2.3820    92.8500     6.5410     6.0030     6.3120    24.6670   -34.7590 
   84.3750     2.3680    94.2020     6.4690     5.9230     6.0430    24.7030   -34.6890 
   84.5000     2.3500    93.8350     6.5210     5.9140     5.8960    24.7250   -34.6860 
   84.6250     2.3350    92.1880     6.7130     6.0010     6.3910    24.7350   -34.6860 
   84.7500     2.3250    92.5650     6.9570     6.1330     7.3850    24.7310   -34.7320 
   84.8750     2.3190    93.4840     7.1620     6.2510     8.7530    24.6480   -34.7960 
   85.0000     2.3170    91.8820     7.2550     6.3020    11.0130    24.4810   -34.8570 
   85.1250     2.3200    91.0520     7.1920     6.2450    12.8260    24.2990   -34.9560 
   85.2500     2.3270    93.5900     7.0480     6.1210    10.6020    24.3690   -35.0980 
   85.3750     2.3350    98.1880     6.9000     5.9840     7.2830    24.6050   -35.2950 
   85.5000     2.3410   100.8110     6.7880     5.8750     5.9080    24.8280   -35.5590 
   85.6250     2.3370    97.0210     6.6930     5.8070     5.9050    24.8520   -35.8640 
   85.7500     2.3250    90.2750     6.5610     5.7510     6.1140    24.6690   -36.2090 
   85.8750     2.3080    86.8170     6.3760     5.6860     6.3970    24.3340   -36.6090 
   86.0000     2.2910    89.6170     6.1830     5.6230     6.7820    24.2280   -37.0850 
   86.1250     2.2810    93.6170     6.1230     5.6290     6.5830    24.4150   -37.6110 
   86.2500     2.2750    93.2250     6.3110     5.7770     6.3170    24.5160   -38.2750 
   86.3750     2.2660    89.1410     6.8140     6.1170     6.5920    24.3440   -38.8660 
   86.5000     2.2500    83.0190     7.6120     6.6500     7.3280    24.0420   -39.4350 
   86.6250     2.2250    76.5130     8.5810     7.3110     8.2850    23.8770   -39.8830 
   86.7500     2.1990    72.1180     9.4460     7.9180     8.8480    23.8170   -40.1820 
   86.8750     2.1770    72.6970     9.9620     8.3030     9.0820    23.7410   -40.2940 
   87.0000     2.1660    76.9600     9.9550     8.3360     8.9570    23.5950   -40.2160 
   87.1250     2.1680    78.8790     9.3290     7.9290     8.9940    23.4990   -39.9210 
   87.2500     2.1820    79.4780     8.3350     7.2430     8.7470    23.6450   -39.4010 
   87.3750     2.2070    84.7330     7.1840     6.4230     7.9140    23.9910   -38.8350 
   87.5000     2.2390    94.7220     6.0660     5.6050     6.6540    24.3640   -38.2690 
   87.6250     2.2740    99.8680     5.1910     4.9380     5.5760    24.5660   -37.8050 
   87.7500     2.3020    99.0410     4.6880     4.5100     5.2610    24.6770   -37.5400 
   87.8750     2.3230    98.0920     4.6890     4.4070     5.1900    24.6900   -37.4980 
   88.0000     2.3380    98.6850     5.2760     4.6920     5.4070    24.6540   -37.7140 
   88.1250     2.3560    96.5230     6.4880     5.4240     6.7960    24.6640   -38.2050 
   88.2500     2.3790    90.5480     7.9780     6.4140     9.0950    24.6200   -38.9160 
   88.3750     2.3960    81.2330     9.3620     7.4430    12.5430    24.4260   -39.7410 
   88.5000     2.3910    71.1640    10.2260     8.2430    17.7950    24.1090   -40.6070 
   88.6250     2.3500    65.5660    10.2140     8.5320    17.2500    23.9140   -41.4280 
   88.7500     2.2890    65.6880     9.6570     8.4120    11.6080    23.8480   -42.1390 
   88.8750     2.2310    68.1600     8.9810     8.0970     9.2540    23.8450   -42.7530 
   89.0000     2.1920    69.1630     8.5410     7.8110     8.7690    23.8470   -43.2430 
   89.1250     2.1780    67.9240     8.5280     7.7130     8.8060    23.8490   -43.5450 
   89.2500     2.1780    65.6800     8.7910     7.7670     9.1470    23.8460   -43.7220 
   89.3750     2.1830    63.8720     9.1710     7.9010     9.4220    23.8410   -43.8260 
   89.5000     2.1880    62.8910     9.5250     8.0430     9.5840    23.8350   -43.8170 
   89.6250     2.1920    64.2260     9.7490     8.1420     9.7290    23.8330   -43.8690 
   89.7500     2.1940    67.8480     9.8640     8.1960     9.8180    23.8360   -43.8600 
   89.8750     2.1920    71.0170     9.9140     8.2140     9.7020    23.8400   -43.8320 
   90.0000     2.1870    70.1750     9.9460     8.2120     9.3970    23.8430   -43.7320 
   90.1250     2.1810    66.1750     9.9970     8.2110     9.1010    23.8400   -43.6600 
   90.2500     2.1770    64.2970    10.0850     8.2320     9.0870    23.8190   -43.4870 
   90.3750     2.1760    64.5360    10.2210     8.2860     9.2630    23.7790   -43.2510 
   90.5000     2.1740    64.3720    10.4010     8.3720     9.6070    23.7450   -42.9560 
   90.6250     2.1680    62.7690    10.5750     8.4620     9.7640    23.7240   -42.4860 
   90.7500     2.1600    61.3490    10.6490     8.4990     9.8920    23.6980   -41.9400 
   90.8750     2.1530    61.4180    10.5310     8.4220     9.9370    23.6820   -41.2930 
   91.0000     2.1530    62.8910    10.1640     8.1890     9.7980    23.6820   -40.5460 
   91.1250     2.1620    65.7250     9.5390     7.7800     9.4510    23.7130   -39.6850 
   91.2500     2.1800    70.5400     8.8100     7.2820     8.7750    23.7810   -38.7760 
   91.3750     2.2050    77.0140     8.1080     6.7720     7.9590    23.8560   -37.8520 
   91.5000     2.2330    82.4300     7.5350     6.3240     7.2210    23.9040   -36.9750 
   91.6250     2.2590    83.5070     7.1660     6.0020     7.0320    23.9290   -36.2110 
   91.7500     2.2790    84.2640     6.9510     5.7930     7.1270    23.9930   -35.5710 
   91.8750     2.2920    89.1300     6.8490     5.6780     6.9900    24.0960   -35.1200 
   92.0000     2.2970    95.9710     6.8270     5.6360     6.1540    24.1250   -34.8330 
   92.1250     2.2960    97.9200     6.8790     5.6570     5.8970    24.1470   -34.7200 
   92.2500     2.2930    95.0660     6.9980     5.7220     5.9760    24.1420   -34.7470 
   92.3750     2.2900    91.0120     7.1750     5.8190     6.0480    24.1230   -34.9170 
   92.5000     2.2880    89.6310     7.3680     5.9230     6.1150    24.0660   -35.1200 
   92.6250     2.2840    90.6030     7.4640     5.9720     6.3760    24.0150   -35.3480 
   92.7500     2.2780    90.3310     7.3600     5.9110     6.3960    23.9810   -35.6110 
   92.8750     2.2710    87.9820     6.9900     5.7100     6.3790    24.0050   -35.7960 
   93.0000     2.2660    85.6050     6.3950     5.3910     6.3150    24.0550   -36.0470 
   93.1250     2.2680    85.8320     5.8020     5.0770     6.2590    24.1410   -36.2790 
   93.2500     2.2790    86.4700     5.5550     4.9560     6.5820    24.2440   -36.6120 
   93.3750     2.3020    88.3080     5.8900     5.1770     7.2630    24.3510   -36.9440 
   93.5000     2.3390    91.2270     6.8620     5.7990     8.6160    24.4070   -37.4390 
   93.6250     2.3850    88.8790     8.3180     6.7730    10.2120    24.4370   -38.0100 
   93.7500     2.4190    79.4970     9.7240     7.7810    14.2380    24.4480   -38.6840 
   93.8750     2.4200    69.3610    10.6050     8.5220    21.4820    24.3610   -39.4320 
   94.0000     2.3800    64.9330    10.6630     8.7710    25.1870    24.1370   -40.1550 
   94.1250     2.3070    65.1040     9.9350     8.4790    19.6720    23.9690   -40.8020 
   94.2500     2.2320    65.6000     9.0540     8.0000    12.7350    23.9000   -41.3360 
   94.3750     2.1740    65.6720     8.4190     7.5880     9.9420    23.8890   -41.7420 
