~V
VERS. 2.00: Ver 2.00
~W
STRT.M 60.0000:
STOP.M 277.0000:
STEP.M 0.1250:
NULL. -999.2500:
UWI. DF5010:
~C
DEPT.M :
GR.API :
CALI.CM :
RXO.OHMM :
RI. :
RML.OHMM :
SP.MV :
DEN.GM/CC :
~A
# ...
  105.0000    94.4990    24.6380     5.1710     4.5230     5.0160   -39.8150     2.2550 
  105.1250    93.8860    24.5330     5.2480     4.6200     5.2010   -40.1000     2.2400 
  105.2500    94.3450    24.4210     5.4070     4.8010     5.4490   -40.4370     2.2220 
  105.3750    93.6740    24.3430     5.7180     5.0510     5.7470   -40.8240     2.2050 
  105.5000    88.2470    24.3130     6.0930     5.3660     6.0950   -41.1810     2.2010 
  105.6250    81.8710    24.3160     6.7690     5.7430     6.4870   -41.6230     2.2260 
  105.7500    79.8800    24.3260     9.1200     6.1290     6.8700   -42.0170     2.2680 
  105.8750    80.8280    24.3140    11.2740     6.4600     7.1810   -42.3190     2.2990 
  106.0000    80.5580    24.2240    10.9420     6.6700     7.3630   -42.6330     2.2930 
  106.1250    78.0990    24.0500     8.1230     6.7000     7.3760   -42.9170     2.2450 
  106.2500    77.2000    23.9070     7.7110     6.6120     7.2950   -43.1090     2.1880 
  106.3750    77.3000    23.8520     7.8220     6.4710     7.1830   -43.2280     2.1500 
  106.5000    77.0480    23.8530     7.7840     6.3300     7.0900   -43.3280     2.1420 
  106.6250    77.1430    23.8550     7.5240     6.2150     7.0270   -43.3340     2.1540 
  106.7500    76.7150    23.8550     7.4660     6.1150     6.9680   -43.3770     2.1610 
  106.8750    73.5100    23.8550     7.8050     6.0200     6.9000   -43.4340     2.1580 
  107.0000    69.2200    23.8520     8.2310     5.9360     6.8330   -43.3770     2.1540 
  107.1250    70.0070    23.8550     7.8950     5.8950     6.8120   -43.3830     2.1610 
  107.2500    73.2560    23.9230     7.4950     5.9160     6.8690   -43.2980     2.1770 
  107.3750    74.7800    24.0830     7.4020     6.0050     7.0080   -43.2950     2.1910 
  107.5000    75.7320    24.2710     7.5190     6.1470     7.2010   -43.3590     2.1950 
  107.6250    80.5900    24.3750     7.6850     6.3180     7.4100   -43.3310     2.1920 
  107.7500    86.9120    24.3970     7.8520     6.4860     7.5940   -43.4320     2.1890 
  107.8750    88.2500    24.3940     7.9490     6.6290     7.7420   -43.4960     2.1900 
  108.0000    83.3510    24.3940     7.9710     6.7420     7.8570   -43.5110     2.1930 
  108.1250    78.1760    24.3940     8.0310     6.8210     7.9440   -43.5710     2.1940 
  108.2500    77.9320    24.3940     8.2430     6.8750     8.0100   -43.6390     2.1880 
  108.3750    79.8500    24.3940     8.4640     6.9030     8.0510   -43.7130     2.1770 
  108.5000    79.4810    24.3940     8.4520     6.9140     8.0790   -43.6880     2.1640 
  108.6250    77.3840    24.3940     8.4480     6.9210     8.1120   -43.6300     2.1630 
  108.7500    76.2870    24.3930     8.5930     6.9420     8.1620   -43.5720     2.1710 
  108.8750    76.4060    24.3920     8.7210     6.9820     8.2300   -43.4910     2.1800 
  109.0000    78.1710    24.4000     8.7550     7.0400     8.3080   -43.4560     2.1820 
  109.1250    79.2920    24.4240     8.7690     7.0970     8.3740   -43.4180     2.1790 
  109.2500    78.5600    24.4550     8.8300     7.1310     8.4050   -43.3280     2.1780 
  109.3750    76.8280    24.4850     8.8200     7.1260     8.3870   -43.2290     2.1800 
  109.5000    77.2980    24.5100     8.7070     7.0780     8.3160   -43.0660     2.1810 
  109.6250    78.0250    24.5250     8.6260     6.9900     8.1910   -43.0140     2.1780 
  109.7500    76.4940    24.5280     8.4480     6.8850     8.0360   -42.8980     2.1740 
  109.8750    74.3720    24.5350     8.2610     6.7800     7.8800   -42.6950     2.1710 
  110.0000    72.4160    24.5630     8.1890     6.6980     7.7520   -42.5900     2.1700 
  110.1250    70.6920    24.5990     8.1700     6.6580     7.6830   -42.3770     2.1720 
  110.2500    69.2000    24.6280     8.1330     6.6610     7.6670   -42.1690     2.1700 
  110.3750    68.9890    24.6690     8.1750     6.7000     7.6890   -42.0080     2.1570 
  110.5000    69.5280    24.7520     8.4020     6.7620     7.7240   -41.7970     2.1310 
  110.6250    69.2160    24.8480     8.4520     6.8220     7.7430   -41.5240     2.1060 
  110.7500    68.5420    24.7890     8.1610     6.8550     7.7200   -41.2090     2.0960 
  110.8750    68.6380    24.4850     7.6690     6.8210     7.6190   -40.8290     2.0990 
  111.0000    70.0980    24.0700     7.2360     6.6770     7.3900   -40.3820     2.1090 
  111.1250    72.4330    23.8220     6.8840     6.3720     6.9840   -39.8800     2.1230 
  111.2500    73.5340    23.7670     6.4620     5.9640     6.4740   -39.3690     2.1430 
  111.3750    74.3010    23.7770     5.9420     5.5310     5.9630   -38.7900     2.1710 
  111.5000    77.8930    23.7870     5.2740     5.1670     5.5650   -38.1980     2.2040 
  111.6250    86.6510    23.8150     4.9430     4.9690     5.3930   -37.6660     2.2280 
  111.7500    94.7180    23.8580     5.1060     4.9240     5.4010   -37.2650     2.2400 
  111.8750    97.7090    23.9440     5.5360     4.9860     5.5070   -36.9740     2.2430 
  112.0000    93.6810    24.1290     5.9840     5.0770     5.5980   -36.6850     2.2430 
  112.1250    85.7360    24.4060     6.0820     5.0850     5.5400   -36.4950     2.2430 
  112.2500    81.4120    24.6280     5.7660     4.9720     5.3270   -36.3160     2.2430 
  112.3750    83.1890    24.7220     5.4060     4.7680     5.0250   -36.2290     2.2410 
  112.5000    89.2230    24.7260     5.2690     4.5470     4.7370   -36.2220     2.2370 
  112.6250    94.5290    24.7230     5.1070     4.3990     4.5740   -36.2640     2.2350 
  112.7500    97.8820    24.7210     4.8200     4.3600     4.5550   -36.2610     2.2360 
  112.8750    99.1040    24.6840     4.8370     4.4270     4.6600   -36.3000     2.2370 
  113.0000    96.7300    24.5990     5.0710     4.5710     4.8390   -36.4470     2.2330 
  113.1250    93.6060    24.5100     5.1580     4.7360     5.0210   -36.5730     2.2260 
  113.2500    92.4750    24.4660     5.2280     4.8560     5.1350   -36.8680     2.2190 
  113.3750    93.7690    24.4610     5.1430     4.8810     5.1330   -37.0960     2.2140 
  113.5000    95.6740    24.4620     5.0370     4.7800     4.9930   -37.3870     2.2150 
  113.6250    99.0770    24.4610     4.8740     4.5300     4.7030   -37.6950     2.2320 
  113.7500   103.5760    24.4590     4.5920     4.1940     4.3360   -37.8810     2.2610 
  113.8750   106.7110    24.4540     4.1460     3.8530     3.9890   -38.1400     2.2910 
  114.0000   109.3260    24.4500     3.8200     3.6110     3.7860   -38.3750     2.3130 
  114.1250   111.2460    24.4540     3.9910     3.5990     3.8800   -38.7150     2.3350 
  114.2500   108.2240    24.4590     4.3440     3.8300     4.2760   -39.0700     2.3670 
  114.3750   100.0690    24.4640     5.5600     4.3010     4.9440   -39.4400     2.3970 
  114.5000    91.5640    24.4620     8.4940     4.9390     5.7530   -39.9490     2.4000 
  114.6250    85.5780    24.4140     9.1660     5.5620     6.4200   -40.4460     2.3540 
  114.7500    79.9090    24.2970     7.8870     5.9750     6.7510   -41.0680     2.2910 
  114.8750    76.3140    24.1400     6.6910     6.1350     6.7680   -41.6950     2.2400 
  115.0000    77.7890    24.0020     6.7670     6.1340     6.6480   -42.2180     2.2080 
  115.1250    81.1020    23.9350     7.1110     6.1340     6.6170   -42.7630     2.1750 
  115.2500    80.7220    23.9110     7.6950     6.2370     6.7560   -43.1670     2.1360 
  115.3750    77.1810    23.8630     8.3450     6.4370     7.0210   -43.5480     2.1110 
  115.5000    74.4540    23.7320     8.7600     6.6630     7.3080   -43.8710     2.1150 
  115.6250    74.9220    23.5440     8.7090     6.8220     7.5070   -44.0420     2.1330 
  115.7500    74.3650    23.4270     8.6140     6.8950     7.6110   -44.1730     2.1410 
  115.8750    70.3270    23.4510     8.5410     6.9000     7.6500   -44.2130     2.1400 
  116.0000    67.1370    23.5800     8.5530     6.8760     7.6710   -44.2250     2.1370 
  116.1250    71.3740    23.7060     8.6690     6.8670     7.7140   -44.1620     2.1340 
