~V
VERS. 2.00: Ver 2.00
~W
STRT.M 55.0000:
STOP.M 271.0000:
STEP.M 0.1250:
NULL. -999.2500:
UWI. DF5032:
~C
DEPT.M :
SP.MV :
GR.API :
CALI.CM :
RXO.OHMM :
RI. :
RML.OHMM :
DEN.GM/CC :
~A
# ...
  111.2500   -21.4460    69.7720    22.0840    11.7480     8.3670     8.9070     2.1250 
  111.3750   -21.5600    74.6920    22.1540    11.4020     8.2510     8.7780     2.1470 
  111.5000   -21.6700    80.1030    22.2550    11.1220     8.1150     8.5940     2.1700 
  111.6250   -21.7710    83.0470    22.3480    10.8440     7.9230     8.3340     2.1940 
  111.7500   -21.8610    82.7040    22.4230    10.3740     7.6810     8.0340     2.2140 
  111.8750   -21.9390    80.1070    22.4250     9.6210     7.4150     7.7390     2.2240 
  112.0000   -22.0000    77.3960    22.3750     8.7370     7.1700     7.4940     2.2250 
  112.1250   -22.0280    76.3160    22.3210     8.0560     7.0100     7.3650     2.2220 
  112.2500   -22.0180    76.0580    22.3050     7.7400     6.9550     7.3670     2.2200 
  112.3750   -21.9620    75.5890    22.3200     7.7520     7.0030     7.4980     2.2170 
  112.5000   -21.8580    75.0560    22.3730     7.9540     7.1350     7.7230     2.2060 
  112.6250   -21.7050    75.0830    22.4840     8.2330     7.3190     7.9790     2.1890 
  112.7500   -21.5190    75.6320    22.6680     8.6080     7.4910     8.1990     2.1770 
  112.8750   -21.3130    76.2390    22.9630     9.1930     7.6060     8.3390     2.1750 
  113.0000   -21.1000    76.3970    23.3210     9.9450     7.6400     8.3720     2.1850 
  113.1250   -20.8890    75.7270    23.4600    10.0840     7.5860     8.2950     2.2020 
  113.2500   -20.6880    74.8230    23.3210     9.5880     7.4910     8.1630     2.2160 
  113.3750   -20.5010    74.9550    23.0770     8.8670     7.3850     8.0190     2.2220 
  113.5000   -20.3300    76.3200    22.9050     8.3320     7.2930     7.8910     2.2180 
  113.6250   -20.1730    77.3090    22.8520     8.1030     7.2330     7.8000     2.2060 
  113.7500   -20.0220    77.0040    22.8570     8.0660     7.2000     7.7390     2.1940 
  113.8750   -19.8680    76.4100    22.8700     8.1440     7.1860     7.6930     2.1890 
  114.0000   -19.7040    76.6880    22.8900     8.2090     7.1800     7.6620     2.1910 
  114.1250   -19.5230    78.2930    22.9070     8.1690     7.1700     7.6380     2.1970 
  114.2500   -19.3280    80.8430    22.9130     8.0890     7.1530     7.6150     2.1990 
  114.3750   -19.1210    83.5550    22.9140     8.0330     7.1210     7.5900     2.1950 
  114.5000   -18.9010    84.8780    22.9220     7.9950     7.0690     7.5630     2.1910 
  114.6250   -18.6620    83.2550    22.9600     7.8670     6.9810     7.5160     2.1970 
  114.7500   -18.4040    80.0550    23.0360     7.7050     6.8590     7.4120     2.2150 
  114.8750   -18.1280    77.7790    23.1320     7.5770     6.6990     7.2350     2.2350 
  115.0000   -17.8390    78.7910    23.2270     7.4920     6.5020     6.9850     2.2410 
  115.1250   -17.5480    84.0420    23.3480     7.3690     6.2900     6.6930     2.2320 
  115.2500   -17.2670    89.9980    23.5060     7.2690     6.1040     6.4410     2.2260 
  115.3750   -17.0100    93.5700    23.6830     7.2300     5.9730     6.2730     2.2290 
  115.5000   -16.7910    93.6150    23.8780     7.1940     5.9160     6.2170     2.2350 
  115.6250   -16.6250    90.7870    24.0300     7.1180     5.9630     6.3140     2.2370 
  115.7500   -16.5000    87.0090    23.9960     7.0840     6.1010     6.5350     2.2360 
  115.8750   -16.4020    83.3800    23.7260     7.2270     6.3160     6.8430     2.2280 
  116.0000   -16.3100    81.3660    23.2860     7.4750     6.5810     7.1760     2.2130 
  116.1250   -16.1870    81.7880    22.9710     7.5950     6.8350     7.4440     2.1970 
  116.2500   -16.0080    82.6430    22.8270     7.5310     7.0080     7.5740     2.1820 
  116.3750   -15.7540    82.9910    22.8270     7.4380     7.0430     7.5170     2.1700 
  116.5000   -15.4140    83.7230    22.8630     7.4770     6.9170     7.2770     2.1630 
  116.6250   -14.9780    86.0510    22.9340     7.6150     6.6350     6.8940     2.1690 
  116.7500   -14.4740    89.3150    23.1310     7.6520     6.2910     6.4890     2.1960 
  116.8750   -13.9290    93.6780    23.4370     7.3600     5.9610     6.1410     2.2420 
  117.0000   -13.3730    99.5050    23.7940     6.7210     5.6970     5.8980     2.2880 
  117.1250   -12.8460   104.1610    24.0930     6.0000     5.5340     5.7880     2.3070 
  117.2500   -12.3750   104.2670    24.2790     5.6230     5.4410     5.7530     2.2950 
  117.3750   -11.9750   100.4210    24.3310     5.7260     5.3790     5.7380     2.2700 
  117.5000   -11.6560    96.7630    24.2750     6.1310     5.3070     5.6870     2.2530 
  117.6250   -11.4300    97.6610    24.2450     6.2670     5.1850     5.5540     2.2530 
  117.7500   -11.2800   102.0200    24.3720     5.9270     5.0200     5.3650     2.2580 
  117.8750   -11.1990   106.6130    24.5440     5.4040     4.8350     5.1560     2.2610 
  118.0000   -11.1800   109.1090    24.6050     5.1370     4.6630     4.9760     2.2620 
  118.1250   -11.2240   109.5930    24.4840     5.2440     4.5640     4.8900     2.2740 
  118.2500   -11.3130   109.6550    24.3450     5.4250     4.5610     4.9310     2.2970 
  118.3750   -11.4370   108.8460    24.3030     5.4940     4.6600     5.0940     2.3280 
  118.5000   -11.5880   105.7110    24.2780     5.4970     4.8420     5.3390     2.3590 
  118.6250   -11.7610   101.0240    24.2440     5.5700     5.0800     5.6220     2.3840 
  118.7500   -11.9460    98.6180    24.2730     5.8060     5.3230     5.8830     2.4020 
  118.8750   -12.1350    99.4820    24.3140     6.4630     5.5370     6.0840     2.4030 
  119.0000   -12.3170   101.1080    24.2810     7.4620     5.6980     6.1960     2.3810 
  119.1250   -12.4780   100.4910    24.1390     7.9170     5.7720     6.1840     2.3360 
  119.2500   -12.6130    99.3830    24.0820     7.4480     5.7740     6.0970     2.2960 
  119.3750   -12.7150    99.5990    24.1160     6.5660     5.7290     5.9820     2.2760 
  119.5000   -12.7820   100.4260    24.1560     5.9730     5.6680     5.8800     2.2760 
  119.6250   -12.8040   100.2010    23.9870     5.9230     5.6080     5.8170     2.2770 
  119.7500   -12.7850    99.0990    23.7220     6.0600     5.5580     5.7860     2.2730 
  119.8750   -12.7230    97.1870    23.5050     6.0740     5.5160     5.7830     2.2700 
  120.0000   -12.6170    94.2090    23.4030     5.9520     5.4650     5.7860     2.2740 
  120.1250   -12.4650    91.4270    23.2630     5.9210     5.3890     5.7650     2.2810 
  120.2500   -12.2840    91.0480    23.2500     5.9310     5.2950     5.7100     2.2840 
  120.3750   -12.0840    92.8860    23.4400     5.8960     5.1880     5.6250     2.2860 
  120.5000   -11.8790    94.5460    23.6810     5.8790     5.0800     5.5280     2.2860 
  120.6250   -11.6810    94.7850    23.7950     5.8550     5.0080     5.4690     2.2790 
  120.7500   -11.4990    95.4120    23.8070     5.7790     5.0040     5.4890     2.2650 
  120.8750   -11.3370    96.8170    23.7280     5.7100     5.0830     5.6020     2.2550 
  121.0000   -11.1950    97.5000    23.5580     5.7930     5.2420     5.7940     2.2590 
  121.1250   -11.0780    96.1780    23.4340     6.0300     5.4580     6.0400     2.2920 
  121.2500   -10.9800    93.8590    23.5120     6.5310     5.6670     6.2610     2.3490 
  121.3750   -10.8950    91.8210    23.7330     7.6200     5.8050     6.3860     2.4110 
  121.5000   -10.8230    91.5290    23.9500     9.1420     5.8260     6.3700     2.4490 
  121.6250   -10.7710    94.6200    24.0430     9.5980     5.6920     6.1900     2.4370 
  121.7500   -10.7430    99.3410    24.0980     8.4670     5.4710     5.9390     2.3970 
  121.8750   -10.7420   103.1160    24.0880     6.6470     5.2450     5.7200     2.3530 
  122.0000   -10.7700   103.6810    23.9770     5.3350     5.0950     5.6200     2.3140 
  122.1250   -10.8230    99.8430    23.7130     5.0410     5.0860     5.6950     2.2850 
  122.2500   -10.8840    94.9480    23.4100     5.2600     5.1940     5.8890     2.2700 
  122.3750   -10.9330    92.2810    23.1230     5.7860     5.3790     6.1370     2.2650 
