~V
VERS. 2.00: Ver 2.00
~W
STRT.M 62.0000:
STOP.M 250.0000:
STEP.M 0.1250:
NULL. -999.2500:
UWI. DF5059:
~C
DEPT.M :
SP.MV :
GR.API :
RML.OHMM :
RI. :
RXO.OHMM :
CALI.CM :
DEN.GM/CC :
~A
# ...
  197.0000   -11.2820    65.6540    64.5900    56.7900    89.2410    23.9030     2.2550 
  197.1250   -11.4250    67.6110    56.8170    50.7410    56.1530    23.9000     2.2390 
  197.2500   -11.5800    70.4780    51.8990    46.1810    41.4800    23.8990     2.2360 
  197.3750   -11.7540    74.1850    51.0900    44.6750    40.6010    23.9040     2.2400 
  197.5000   -11.9510    76.8540    54.0860    46.3930    45.7220    23.9100     2.2450 
  197.6250   -12.2090    76.1730    60.2940    51.1230    52.9590    23.9080     2.2420 
  197.7500   -12.4940    72.6640    68.0370    57.4720    60.8040    23.9070     2.2340 
  197.8750   -12.7370    70.0650    76.3570    64.5670    68.2950    23.9060     2.2250 
  198.0000   -12.9570    69.0280    84.6340    71.7500    73.7210    23.8970     2.2200 
  198.1250   -13.2000    67.9960    92.7050    78.7260    78.9580    23.8740     2.2230 
  198.2500   -13.4560    66.9100   100.7640    85.5800    85.0880    23.8530     2.2280 
  198.3750   -13.6710    65.8040   108.8010    92.3010    91.8410    23.8960     2.2310 
  198.5000   -13.7850    62.7280   116.4120    98.6110    99.1100    23.9950     2.2250 
  198.6250   -13.8280    58.7620   122.4470   103.6480   106.7130    24.0170     2.2100 
  198.7500   -13.8540    58.8740   126.1340   106.8250   111.6470    23.9660     2.1890 
  198.8750   -13.9110    64.4600   127.0550   107.7970   112.5050    23.9190     2.1690 
  199.0000   -13.9840    70.9810   125.5740   106.8250   110.5280    23.8840     2.1550 
  199.1250   -13.9930    70.8620   122.8970   104.8630   107.3270    23.8340     2.1500 
  199.2500   -13.9590    65.4320   120.9470   103.5250   105.3310    23.7800     2.1540 
  199.3750   -13.9480    61.0250   120.9180   103.8980   106.8250    23.6750     2.1630 
  199.5000   -13.9700    62.7480   123.3790   106.5840   111.9310    23.5000     2.1730 
  199.6250   -13.9880    66.6610   128.4910   111.9150   124.9890    23.2960     2.1790 
  199.7500   -14.0030    64.8740   134.7140   118.6220   137.5490    23.1480     2.1780 
  199.8750   -14.0130    61.3440   140.1850   125.1130   142.9770    22.9740     2.1750 
  200.0000   -14.0110    62.8800   142.5640   129.2630   138.1130    22.7090     2.1720 
  200.1250   -14.0220    66.4760   138.5720   127.9410   134.9510    22.6570     2.1740 
  200.2500   -14.0220    63.8630   128.1980   120.6760   142.3130    22.9220     2.1790 
  200.3750   -14.0030    60.1760   112.7660   108.1590   141.5730    23.2710     2.1870 
  200.5000   -14.0090    64.4510    95.5440    92.9250   126.3950    23.3050     2.1980 
  200.6250   -14.0510    72.2110    81.4950    79.2930   105.6270    22.8510     2.2090 
  200.7500   -14.0720    72.8920    73.6400    70.6880    88.3290    22.3370     2.2180 
  200.8750   -14.0560    70.5850    73.8610    69.3570    77.2330    22.1210     2.2220 
  201.0000   -14.0490    72.0650    83.4060    76.7400    82.4010    22.2750     2.2170 
  201.1250   -14.0930    74.0290   103.8140    94.4660   110.8730    22.7130     2.2040 
  201.2500   -14.1740    71.1190   131.0900   118.9320   150.5750    23.3740     2.1890 
  201.3750   -14.2310    65.3830   160.3900   146.0160   183.6190    24.0070     2.1750 
  201.5000   -14.2370    60.1900   185.6740   170.2890   201.6150    24.4160     2.1640 
  201.6250   -14.2240    59.4980   199.1830   185.0200   208.8420    24.4470     2.1570 
  201.7500   -14.2570    62.6070   202.3290   189.7250   206.0160    24.3530     2.1530 
  201.8750   -14.3360    68.5630   199.1450   186.1010   195.9870    24.1990     2.1520 
  202.0000   -14.4060    75.8590   193.9510   176.8070   184.2480    24.0630     2.1540 
  202.1250   -14.3910    77.9740   186.8420   163.8740   171.6470    23.9790     2.1620 
  202.2500   -14.3470    73.8480   176.7940   150.1470   155.5320    23.9280     2.1740 
  202.3750   -14.3480    69.4010   164.7730   137.5070   135.4540    23.9080     2.1860 
  202.5000   -14.3670    69.9620   151.5800   127.0860   115.1810    23.9070     2.1920 
  202.6250   -14.3590    75.1560   141.7690   119.0970   103.7740    23.9110     2.1870 
  202.7500   -14.3290    77.0080   132.8110   112.0600   101.2890    23.9140     2.1730 
  202.8750   -14.2910    76.6990   123.6620   105.0240   104.3840    23.8970     2.1570 
  203.0000   -14.2550    76.3420   114.3540    97.8080   104.6660    23.8250     2.1490 
  203.1250   -14.2270    79.2280   106.2790    91.3270    94.2500    23.7160     2.1580 
  203.2500   -14.1930    84.2110   100.6120    86.5780    77.1480    23.7260     2.1760 
  203.3750   -14.1640    86.5400    97.8350    84.1090    69.6160    23.8540     2.1930 
  203.5000   -14.1310    83.4640    97.6380    83.8230    74.4860    23.9690     2.2000 
  203.6250   -14.0790    81.3660    99.2100    85.1820    84.9860    23.9290     2.1920 
  203.7500   -14.0050    81.5770   101.1780    87.0490    92.5330    23.8670     2.1790 
  203.8750   -13.9270    79.5330   102.9700    88.9870    89.6430    23.8170     2.1690 
  204.0000   -13.8790    73.0280   104.4260    90.9350    83.7230    23.7980     2.1660 
  204.1250   -13.8340    68.9860   105.1570    92.8710    87.2990    23.8000     2.1700 
  204.2500   -13.7620    69.4990   104.7290    94.3950    94.3340    23.8040     2.1770 
  204.3750   -13.6390    71.2930   102.7860    94.7510   101.0240    23.8150     2.1830 
  204.5000   -13.5170    71.4740    99.3290    93.1480   104.6280    23.8360     2.1880 
  204.6250   -13.4800    70.7510    94.0670    88.9930    95.1840    23.8550     2.1930 
  204.7500   -13.4910    72.6830    87.8640    83.4810    79.6980    23.8420     2.1970 
  204.8750   -13.4570    77.0760    82.0070    77.8790    69.5420    23.8250     2.2020 
  205.0000   -13.3500    81.2030    77.5220    73.3230    65.3990    23.8200     2.2050 
  205.1250   -13.3140    80.1890    75.5080    70.9250    64.8670    23.8180     2.2060 
  205.2500   -13.3830    77.4160    75.8940    70.7400    65.5760    23.8160     2.2050 
  205.3750   -13.4780    76.0070    78.6110    72.7670    67.2880    23.8170     2.2040 
  205.5000   -13.5490    73.8550    83.2770    76.7080    70.9610    23.8140     2.2060 
  205.6250   -13.5730    68.9800    89.0570    81.9140    77.6810    23.8130     2.2110 
  205.7500   -13.6030    64.7490    94.2080    86.8300    86.6700    23.8120     2.2180 
  205.8750   -13.7020    64.1180    97.1560    90.0020    95.2420    23.8210     2.2240 
  206.0000   -13.8400    66.7400    96.7970    90.2970    98.0330    23.8470     2.2260 
  206.1250   -13.9060    70.3200    92.6890    87.0880    92.8420    23.8240     2.2210 
  206.2500   -13.9040    73.3600    86.7700    81.9910    82.6240    23.8060     2.2140 
  206.3750   -13.9200    74.6130    80.6390    76.4380    72.7150    23.7980     2.2050 
  206.5000   -13.9970    73.7420    75.4720    71.5860    65.6710    23.7980     2.1980 
  206.6250   -14.0610    72.1460    72.0010    68.2470    64.9100    23.7930     2.1980 
  206.7500   -14.0760    70.7290    69.8200    66.1620    66.8860    23.7610     2.2110 
  206.8750   -14.0670    69.5130    68.5960    65.0410    66.9730    23.7000     2.2390 
  207.0000   -14.0750    67.9960    68.0800    64.6200    63.0380    23.6000     2.2790 
  207.1250   -14.0880    62.6840    68.2030    64.7870    62.7730    23.5200     2.3130 
  207.2500   -14.0610    59.3200    68.7270    65.2710    65.1840    23.5380     2.3240 
  207.3750   -13.9850    64.9480    69.4920    65.8900    64.1100    23.6700     2.3070 
  207.5000   -13.8710    76.7370    70.3200    66.4490    62.8630    23.7780     2.2710 
  207.6250   -13.8360    79.3200    71.0230    66.7170    63.6780    23.8030     2.2360 
  207.7500   -13.8460    70.6980    71.6320    66.7100    63.0370    23.8090     2.2130 
  207.8750   -13.8060    63.3350    72.4540    66.6820    60.9510    23.8050     2.1980 
  208.0000   -13.7230    66.7290    74.2200    67.1290    60.9230    23.7650     2.1870 
  208.1250   -13.7370    75.5960    77.9170    68.9890    62.2320    23.6700     2.1760 
