~V
VERS. 2.00: Ver 2.00
~W
STRT.M 55.0000:
STOP.M 271.0000:
STEP.M 0.1250:
NULL. -999.2500:
UWI. DF5009:
~C
DEPT.M :
GR.API :
CALI.CM :
RXO.OHMM :
RI. :
RML.OHMM :
DEN.GM/CC :
SP.MV :
~A
# ...
  133.7500   100.0140    25.2220     5.1980     4.7920     4.8970     2.2570   -19.0990 
  133.8750    97.6210    25.1210     5.6410     5.0960     5.2800     2.2380   -19.4830 
  134.0000    89.7670    24.8910     6.2160     5.4350     5.6700     2.2280   -19.7940 
  134.1250    83.0530    24.6090     7.0540     5.8050     6.1260     2.2340   -20.2470 
  134.2500    79.5010    24.4350     7.8280     6.3100     6.8640     2.2580   -20.6180 
  134.3750    79.1030    24.4340     8.7370     7.1490     8.1920     2.3050   -20.8600 
  134.5000    79.8320    24.5730    10.6260     8.5620    10.3780     2.3710   -21.0330 
  134.6250    79.5040    24.7820    14.5500    10.8790    13.5960     2.4390   -21.0800 
  134.7500    78.6970    24.9380    21.4470    13.8360    17.1750     2.4700   -21.1400 
  134.8750    77.0120    24.9710    29.9340    16.6920    20.0350     2.4400   -21.3230 
  135.0000    74.2090    24.8910    33.0980    18.2270    20.9470     2.3670   -21.5820 
  135.1250    72.4000    24.7410    24.8720    17.4630    19.2810     2.2910   -21.7140 
  135.2500    72.9610    24.5430    16.3770    15.5550    16.6170     2.2370   -21.7800 
  135.3750    73.3640    24.3060    12.4990    13.5690    14.2100     2.2060   -21.9370 
  135.5000    72.4610    24.0930    11.1760    12.1100    12.7050     2.1920   -22.1370 
  135.6250    72.8910    23.9780    10.8300    11.4700    12.3170     2.1870   -22.2910 
  135.7500    75.7080    23.9270    10.7700    11.4450    12.6240     2.1780   -22.4880 
  135.8750    76.8780    23.8990    10.9900    11.8570    13.3170     2.1640   -22.5200 
  136.0000    74.2110    23.8830    11.7270    12.4920    14.1030     2.1480   -22.4110 
  136.1250    70.5400    23.8350    12.1850    13.0880    14.6600     2.1360   -22.4430 
  136.2500    69.0440    23.6840    11.7780    13.4140    14.8000     2.1290   -22.5580 
  136.3750    69.7620    23.5020    11.2720    13.3340    14.4450     2.1250   -22.6040 
  136.5000    70.8100    23.4750    11.6770    12.8570    13.6810     2.1200   -22.6490 
  136.6250    70.6640    23.6750    11.9150    12.1460    12.7680     2.1120   -22.6810 
  136.7500    68.8830    23.9080    11.0470    11.5010    12.0520     2.1060   -22.6580 
  136.8750    67.0750    24.0920     9.7780    11.1010    11.7260     2.1040   -22.6720 
  137.0000    68.0900    24.2570     9.6970    11.0300    11.8400     2.1090   -22.8260 
  137.1250    70.5200    24.3910    10.9930    11.2920    12.3200     2.1190   -22.9560 
  137.2500    70.4600    24.4410    12.7030    11.6800    12.8590     2.1300   -22.9630 
  137.3750    69.3320    24.4060    13.4460    11.9960    13.2060     2.1390   -23.0760 
  137.5000    71.3020    24.3220    12.4950    12.0700    13.1960     2.1440   -23.0580 
  137.6250    75.6880    24.2550    10.9420    11.8160    12.7940     2.1460   -23.0030 
  137.7500    77.5120    24.2470    10.0240    11.4100    12.2600     2.1450   -22.9510 
  137.8750    75.5730    24.2810     9.9130    11.0100    11.7970     2.1440   -22.8720 
  138.0000    72.3250    24.2980    10.2400    10.7270    11.5290     2.1430   -22.8510 
  138.1250    69.9030    24.2190    10.6850    10.6220    11.5090     2.1440   -22.6600 
  138.2500    68.2800    24.0720    11.0520    10.6490    11.6440     2.1490   -22.4910 
  138.3750    68.1790    23.9440    11.2560    10.7630    11.8500     2.1550   -22.3170 
  138.5000    71.0860    23.8940    11.0100    10.9030    12.0340     2.1600   -22.1800 
  138.6250    75.4840    23.9160    11.0160    10.9700    12.0690     2.1600   -22.1520 
  138.7500    76.1680    23.9820    11.3910    10.9100    11.9360     2.1560   -22.1370 
  138.8750    72.3730    24.1030    11.6290    10.7350    11.6820     2.1510   -22.1490 
  139.0000    68.6490    24.2250    11.4200    10.5020    11.3900     2.1490   -21.9970 
  139.1250    68.7410    24.2560    10.6870    10.2740    11.1340     2.1520   -21.8240 
  139.2500    68.8970    24.3130    10.7790    10.0740    10.9250     2.1520   -21.8040 
  139.3750    67.3980    24.4800    14.6520     9.8940    10.7440     2.1500   -21.7480 
  139.5000    66.2910    24.6240    18.6480     9.7030    10.5590     2.1460   -21.6550 
  139.6250    66.2200    24.4880    16.2470     9.4790    10.3470     2.1430   -21.5890 
  139.7500    66.8160    24.1400    10.5460     9.2410    10.1240     2.1440   -21.3990 
  139.8750    68.4760    23.7510     8.2070     9.0190     9.9160     2.1470   -21.1620 
  140.0000    71.5620    23.4100     7.9520     8.8450     9.7510     2.1480   -21.0330 
  140.1250    73.7500    23.1750     8.0560     8.7500     9.6550     2.1450   -20.9550 
  140.2500    73.6180    23.0580     8.0830     8.7080     9.6010     2.1390   -20.7710 
  140.3750    74.2120    23.0210     8.1070     8.6890     9.5640     2.1340   -20.5540 
  140.5000    75.8660    23.0210     8.1370     8.6780     9.5650     2.1290   -20.3620 
  140.6250    74.3320    23.0500     8.0610     8.7540     9.7430     2.1250   -20.1180 
  140.7500    69.3840    23.1070     8.0160     9.0120    10.2070     2.1330   -19.9200 
  140.8750    65.7950    23.2210     8.2280     9.5180    10.9830     2.1590   -19.6890 
  141.0000    67.8450    23.4590     8.4530    10.2460    11.9410     2.2080   -19.3430 
  141.1250    71.6870    23.8010     8.5580    10.9880    12.6980     2.2710   -18.9790 
  141.2500    71.7170    24.0310     8.6560    11.3970    12.8820     2.3190   -18.6600 
  141.3750    68.9660    24.0370     8.9770    11.2630    12.3860     2.3220   -18.3780 
  141.5000    66.8620    23.9410     9.2740    10.7080    11.5240     2.2850   -18.0500 
  141.6250    67.7120    23.9930     9.3550    10.1870    10.9780     2.2480   -17.5360 
  141.7500    68.1320    24.1830     9.2930    10.0690    11.0990     2.2450   -17.1530 
  141.8750    67.9860    24.3820     9.5450    10.4160    11.7970     2.2760   -16.7660 
  142.0000    69.1760    24.5370    11.1280    11.0210    12.6220     2.3310   -16.2690 
  142.1250    70.3290    24.7280    17.5690    11.2820    12.7060     2.3770   -15.8910 
  142.2500    71.6530    24.9360    18.8520    10.7080    11.6500     2.3860   -15.4850 
  142.3750    75.5480    25.0620    12.6740     9.3440     9.7080     2.3600   -15.0290 
  142.5000    83.4260    25.0800     6.3040     7.6960     7.6070     2.3200   -14.6460 
  142.6250    90.9140    25.0810     5.6090     6.3310     6.0630     2.2930   -14.3880 
  142.7500    93.4250    25.1230     5.2850     5.4090     5.1550     2.2830   -14.0910 
  142.8750    93.9700    25.1660     4.9910     4.9160     4.7650     2.2820   -13.8030 
  143.0000    94.6120    25.1790     4.8800     4.7590     4.7020     2.2850   -13.6880 
  143.1250    96.3040    25.1720     4.9110     4.8090     4.7740     2.2850   -13.4830 
  143.2500    98.6070    25.1580     5.0110     4.8920     4.8240     2.2850   -13.3900 
  143.3750   100.8140    25.1350     5.0510     4.9370     4.8160     2.2880   -13.3790 
  143.5000   101.2780    25.0960     4.9620     4.9260     4.7570     2.2950   -13.2740 
  143.6250    98.9530    25.0460     4.9380     4.8580     4.6560     2.3060   -13.2580 
  143.7500    99.1550    25.0060     4.8210     4.7560     4.5330     2.3190   -13.1940 
  143.8750   101.2090    24.9850     4.7420     4.6370     4.4070     2.3310   -13.1940 
  144.0000   101.1160    24.9970     4.7000     4.5160     4.3020     2.3400   -13.1640 
  144.1250   100.8270    25.0470     4.5890     4.4140     4.2470     2.3430   -13.2340 
  144.2500   102.4370    25.1020     4.4640     4.3450     4.2390     2.3390   -13.2310 
  144.3750   103.5790    25.1400     4.4670     4.3110     4.2620     2.3320   -13.1040 
  144.5000   101.5310    25.1530     4.5910     4.3020     4.2870     2.3270   -13.0850 
  144.6250   101.4120    25.1360     4.7610     4.3060     4.3010     2.3280   -13.0920 
  144.7500   105.9990    25.0940     4.8240     4.3150     4.3130     2.3320   -13.1850 
  144.8750   108.2590    25.0440     4.6920     4.3330     4.3400     2.3350   -13.2370 
