~V
VERS. 2.00: Ver 2.00
~W
STRT.M 65.0000:
STOP.M 272.0000:
STEP.M 0.1250:
NULL. -999.2500:
UWI. DF5002:
~C
DEPT.M :
DEN.GM/CC :
GR.API :
CALI.CM :
RXO.OHMM :
RI. :
RML.OHMM :
SP.MV :
~A
# ...
  256.2500     2.3420    63.4980    24.5540     6.9890     4.9600     6.3350    -4.5050 
  256.3750     2.3550    62.2290    24.3760     6.6080     4.8770     6.2370    -4.5140 
  256.5000     2.3630    61.0700    24.2820     6.2490     4.7800     6.1180    -4.5690 
  256.6250     2.3650    60.0370    24.3600     6.2880     4.7140     6.0440    -4.5830 
  256.7500     2.3730    61.4450    24.4940     6.3200     4.7090     6.0590    -4.6390 
  256.8750     2.3840    63.5220    24.5400     6.1130     4.7760     6.1820    -4.7640 
  257.0000     2.3900    63.5370    24.4800     5.9180     4.9120     6.4000    -4.9230 
  257.1250     2.3890    62.9230    24.4100     6.1310     5.1090     6.6760    -5.0600 
  257.2500     2.3920    63.3660    24.4040     6.6490     5.3210     6.9430    -5.2490 
  257.3750     2.3960    63.6010    24.4470     7.1200     5.5170     7.1630    -5.4660 
  257.5000     2.3920    62.7020    24.4920     7.3820     5.6760     7.3190    -5.6300 
  257.6250     2.3800    61.5610    24.5230     7.5140     5.7930     7.4140    -5.8270 
  257.7500     2.3770    60.1800    24.5850     7.6790     5.8950     7.4900    -5.9660 
  257.8750     2.3870    59.1470    24.6470     7.9960     6.0010     7.5780    -6.0730 
  258.0000     2.4000    58.7960    24.6270     8.3200     6.1180     7.7010    -6.1300 
  258.1250     2.4040    57.6330    24.3550     8.5110     6.2510     7.8760    -6.1850 
  258.2500     2.4000    58.6240    24.2250     8.6520     6.3910     8.0790    -6.2280 
  258.3750     2.3970    62.9470    24.2200     9.0270     6.5310     8.2850    -6.2110 
  258.5000     2.4030    66.3380    24.3070     9.4760     6.6580     8.4600    -6.1730 
  258.6250     2.4170    65.2170    24.4490     9.7390     6.7470     8.5730    -6.0770 
  258.7500     2.4240    63.9050    24.4660     9.7060     6.7850     8.6170    -5.9020 
  258.8750     2.4170    64.4320    24.4640     9.3640     6.7670     8.5950    -5.6670 
  259.0000     2.4010    64.8250    24.4820     8.8780     6.7090     8.5260    -5.4720 
  259.1250     2.3860    64.7750    24.4880     8.8760     6.6360     8.4390    -5.2830 
  259.2500     2.3760    65.5220    24.4100     9.2740     6.5730     8.3580    -5.0600 
  259.3750     2.3710    65.2410    24.3290     9.4490     6.5280     8.2930    -4.8140 
  259.5000     2.3690    64.3260    24.3200     9.1360     6.4930     8.2430    -4.5810 
  259.6250     2.3690    62.9450    24.3600     8.3520     6.4630     8.2020    -4.3660 
  259.7500     2.3730    61.0110    24.3930     7.9410     6.4340     8.1640    -4.2090 
  259.8750     2.3790    60.7290    24.3960     7.8800     6.4020     8.1270    -4.1210 
  260.0000     2.3860    63.6320    24.3620     8.0730     6.3590     8.0840    -4.0570 
  260.1250     2.3900    66.4800    24.3310     8.4930     6.2920     8.0120    -4.0240 
  260.2500     2.3900    66.4800    24.3290     8.6350     6.1980     7.8990    -4.0110 
  260.3750     2.3820    66.4800    24.3770     8.4080     6.0830     7.7510    -3.9600 
  260.5000     2.3610    66.4800    24.4040     7.8740     5.9690     7.6000    -3.8610 
  260.6250     2.3360    66.4800    24.3690     7.2620     5.8920     7.5030    -3.7770 
  260.7500     2.3260    66.4800    24.3320     6.9430     5.8630     7.4790    -3.7480 
  260.8750     2.3320    66.4800    24.3130     6.8940     5.8730     7.5120    -3.6920 
  261.0000     2.3480    66.4800    24.1870     7.0170     5.8920     7.5560    -3.6300 
  261.1250     2.3590    66.4800    24.0150     7.1980     5.8720     7.5360    -3.5430 
  261.2500     2.3530    66.4800    23.7550     7.3950     5.7860     7.4140    -3.4530 
  261.3750     2.3330    66.4800    23.5030     7.5810     5.6350     7.1860    -3.3990 
  261.5000     2.3130    66.4800    23.6070     7.5930     5.4320     6.8920    -3.3860 
  261.6250     2.3140    66.4800    23.8170     7.1550     5.2050     6.6010    -3.3250 
  261.7500     2.3240    66.4800    23.9320     6.4690     4.9920     6.3690    -3.1570 
  261.8750     2.3310    66.4800    23.9510     5.8820     4.8190     6.2200    -2.9660 
  262.0000     2.3290    66.4800    23.9570     5.5500     4.6970     6.1470    -2.7690 
  262.1250     2.3230    66.4800    23.9610     5.3830     4.6320     6.1270    -2.6150 
  262.2500     2.3180    66.4800    23.9630     5.2740     4.6000     6.1220    -2.5250 
  262.3750     2.3150    66.4800    23.9330     5.2780     4.5870     6.1170    -2.4670 
  262.5000     2.3150    66.4800    23.8850     5.4510     4.5820     6.1080    -2.4950 
  262.6250     2.3220    66.4800    23.8620     5.8210     4.5870     6.0920    -2.5850 
  262.7500     2.3320    66.4800    23.8550     6.0780     4.5950     6.0740    -2.7540 
  262.8750     2.3410    66.4800    23.8540     6.0360     4.5960     6.0510    -2.9280 
  263.0000     2.3480    66.4800    23.8580     5.7970     4.5830     6.0250    -3.0560 
  263.1250     2.3600    66.4800    23.8680     5.5950     4.5540     5.9970    -3.2100 
  263.2500     2.3760    66.4800    23.8810     5.5410     4.5180     5.9740    -3.3150 
  263.3750     2.3880    66.4800    23.8880     5.5820     4.4850     5.9580    -3.3610 
  263.5000     2.3890    66.4800    23.8930     5.6540     4.4690     5.9470    -3.3430 
  263.6250     2.3750    66.4800    23.8940     5.6230     4.4720     5.9420    -3.3080 
  263.7500     2.3630    66.4800    23.8840     5.5430     4.4770     5.9430    -3.2910 
  263.8750     2.3620    66.4800    23.8770     5.5600     4.4730     5.9550    -3.3060 
  264.0000     2.3690    66.4800    23.9020     5.7500     4.4620     5.9780    -3.3550 
  264.1250     2.3690    66.4800    23.9530     6.1820     4.4590     6.0070    -3.3370 
  264.2500     2.3600    66.4800    23.9870     6.5990     4.4690     6.0270    -3.2640 
  264.3750     2.3540    66.4800    23.9910     6.7250     4.4930     6.0350    -3.2590 
  264.5000     2.3610    66.4800    23.9770     6.4960     4.5190     6.0310    -3.2570 
  264.6250     2.3760    66.4800    23.9550     6.0940     4.5290     6.0220    -3.2920 
  264.7500     2.3770    66.4800    23.9290     5.7840     4.5270     6.0150    -3.2970 
  264.8750     2.3630    66.4800    23.9120     5.5420     4.5240     6.0090    -3.3110 
  265.0000     2.3440    66.4800    23.8710     5.3780     4.5270     5.9980    -3.3000 
  265.1250     2.3390    66.4800    23.8530     5.3230     4.5340     5.9850    -3.2990 
  265.2500     2.3490    66.4800    23.8440     5.3330     4.5330     5.9780    -3.3310 
  265.3750     2.3650    66.4800    23.8620     5.3480     4.5240     5.9870    -3.3400 
  265.5000     2.3700    66.4800    23.8870     5.3570     4.5110     6.0080    -3.4280 
  265.6250     2.3550    66.4800    23.8600     5.3770     4.4970     6.0280    -3.5170 
  265.7500     2.3410    66.4800    23.8420     5.4150     4.4800     6.0330    -3.5900 
  265.8750     2.3430    66.4800    23.8410     5.4500     4.4540     6.0170    -3.6490 
  266.0000     2.3580    66.4800    23.8400     5.4740     4.4140     5.9840    -3.7700 
  266.1250     2.3700    66.4800    23.8800     5.5230     4.3800     5.9520    -3.8370 
  266.2500     2.3800    66.4800    23.8780     5.6230     4.3800     5.9520    -3.9010 
  266.3750     2.3960    66.4800    23.8750     5.7500     4.3800     5.9520    -4.0200 
  266.5000     2.4190    66.4800    23.8760     5.8740     4.3800     5.9520    -4.0750 
  266.6250     2.4260    66.4800    23.8900     6.0940     4.3800     5.9520    -4.0500 
  266.7500     2.4070    66.4800    23.9060     6.3610     4.3800     5.9520    -4.0110 
  266.8750     2.3730    66.4800    23.9170     6.4310     4.3800     5.9520    -3.9250 
  267.0000     2.3460    66.4800    23.9300     6.2100     4.3800     5.9520    -3.8190 
  267.1250     2.3380    66.4800    23.9010     5.9060     4.3800     5.9520    -3.8000 
  267.2500     2.3420    66.4800    23.8500     5.7880     4.3800     5.9520    -3.7360 
  267.3750     2.3470    66.4800    23.7970     5.7720     4.3800     5.9520    -3.6080 
