~V
VERS. 2.00: Ver 2.00
~W
STRT.M 50.0000:
STOP.M 276.0000:
STEP.M 0.1250:
NULL. -999.2500:
UWI. DF5011:
~C
DEPT.M :
DEN.GM/CC :
GR.API :
CALI.CM :
RXO.OHMM :
RI. :
RML.OHMM :
SP.MV :
~A
# ...
  140.0000     2.1710    63.1500    24.0370     9.5060     9.2290    10.0840   -33.6630 
  140.1250     2.1670    60.4770    24.0370     9.5760     9.2440    10.0050   -33.7940 
  140.2500     2.1650    59.3450    24.0360     9.5600     9.1210     9.7600   -33.9300 
  140.3750     2.1660    60.8220    24.0330     9.6560     8.9290     9.4680   -33.9920 
  140.5000     2.1710    61.9520    24.0310     9.5070     8.7410     9.2310   -33.9860 
  140.6250     2.1780    62.0280    24.0310     9.1500     8.6170     9.1220   -33.8980 
  140.7500     2.1730    63.1650    24.0310     8.9750     8.6000     9.1760   -33.7910 
  140.8750     2.1560    63.5700    24.0310     9.0920     8.6460     9.3080   -33.8180 
  141.0000     2.1440    62.0690    24.0330     9.2480     8.7100     9.4380   -33.7360 
  141.1250     2.1520    60.9340    24.0350     9.3310     8.7580     9.5150   -33.6960 
  141.2500     2.1740    61.0390    24.0240     9.3590     8.7940     9.5540   -33.5710 
  141.3750     2.1920    60.0830    23.9980     9.1570     8.8640     9.6330   -33.4190 
  141.5000     2.2000    58.2470    23.9720     8.6990     9.0010     9.8000   -33.3720 
  141.6250     2.2030    57.1710    23.9570     8.1130     9.2050    10.0530   -33.2570 
  141.7500     2.2020    58.0880    23.9610     8.0860     9.4250    10.3150   -33.2970 
  141.8750     2.1970    60.3730    23.9910     8.3300     9.5760    10.4830   -33.2330 
  142.0000     2.1920    62.4480    24.0420     8.6470     9.6100    10.5050   -33.1870 
  142.1250     2.1890    62.2270    24.0870     8.9630     9.5220    10.3900   -33.1410 
  142.2500     2.1850    61.5700    24.1000     9.3860     9.3420    10.1880   -33.0250 
  142.3750     2.1750    61.6930    24.0960     9.7310     9.1540    10.0020   -32.9800 
  142.5000     2.1580    60.2400    24.0820     9.8950     9.0220     9.9030   -32.8100 
  142.6250     2.1410    55.9760    24.0590     9.6680     8.9860     9.9260   -32.7570 
  142.7500     2.1390    53.9530    24.0360     9.3470     9.0670    10.0850   -32.7020 
  142.8750     2.1520    58.4090    24.0050     9.5430     9.2270    10.3300   -32.5190 
  143.0000     2.1730    65.6530    23.9640    10.3450     9.4260    10.6040   -32.3270 
  143.1250     2.1940    69.5630    23.9270    10.7690     9.6070    10.8350   -32.0980 
  143.2500     2.2080    68.3010    23.9140    10.5190     9.7140    10.9550   -32.0200 
  143.3750     2.2130    66.6810    23.9130    10.5670     9.7580    10.9930   -31.9090 
  143.5000     2.2050    65.4490    23.9140    10.5980     9.7690    10.9940   -31.8530 
  143.6250     2.1930    62.3280    23.9090    10.1640     9.7800    11.0010   -31.8660 
  143.7500     2.1870    58.6420    23.8910    10.6250     9.8100    11.0310   -31.7140 
  143.8750     2.1850    57.5280    23.8550    11.1640     9.8330    11.0310   -31.6410 
  144.0000     2.1780    58.8370    23.7780    11.0740     9.8030    10.9380   -31.4940 
  144.1250     2.1660    60.0550    23.6500    10.3410     9.6990    10.7360   -31.3850 
  144.2500     2.1620    59.4370    23.5250    10.6610     9.5870    10.5430   -31.2500 
  144.3750     2.1670    58.2100    23.4630    11.4390     9.6120    10.5720   -31.0180 
  144.5000     2.1690    58.5280    23.4530    11.4440     9.8860    10.9510   -30.8140 
  144.6250     2.1620    59.8520    23.4570    10.7380    10.4110    11.6290   -30.4510 
  144.7500     2.1690    60.1620    23.4610    11.2060    10.9620    12.2490   -30.1420 
  144.8750     2.2200    60.6490    23.4620    13.9530    11.1210    12.3090   -29.7160 
  145.0000     2.3040    62.7380    23.4530    15.8860    10.6120    11.5450   -29.2950 
  145.1250     2.3780    65.9520    23.4370    13.4790     9.5180    10.1350   -28.8290 
  145.2500     2.3910    67.6340    23.4270     8.6370     8.2650     8.6550   -28.3650 
  145.3750     2.3590    68.5470    23.4220     6.6010     7.2580     7.5600   -27.8890 
  145.5000     2.3130    69.8460    23.4170     6.5700     6.6100     6.9410   -27.3810 
  145.6250     2.2680    69.8980    23.4130     7.3300     6.3000     6.7090   -26.9620 
  145.7500     2.2280    68.4560    23.4130     8.2140     6.2650     6.7230   -26.5500 
  145.8750     2.2010    68.3470    23.4200     8.0740     6.3560     6.8040   -26.2450 
  146.0000     2.1940    72.6660    23.4430     7.2810     6.5020     6.9040   -25.8530 
  146.1250     2.2170    80.0910    23.4870     6.6490     6.6630     7.0190   -25.5410 
  146.2500     2.2700    83.7100    23.5790     7.8100     6.7750     7.0950   -25.2050 
  146.3750     2.3280    82.5500    23.7290     9.5730     6.7590     7.0320   -24.9090 
  146.5000     2.3720    80.2500    23.9160     9.5490     6.5600     6.7610   -24.7320 
  146.6250     2.3920    79.7120    24.0840     7.6690     6.1980     6.3070   -24.4980 
  146.7500     2.3870    80.4200    24.1790     5.6180     5.7710     5.8150   -24.2460 
  146.8750     2.3620    80.5710    24.2180     5.4230     5.4100     5.4390   -24.0070 
  147.0000     2.3190    80.7250    24.2270     5.5570     5.1630     5.2240   -23.9730 
  147.1250     2.2720    82.6120    24.2250     5.6130     5.0220     5.1300   -23.9430 
  147.2500     2.2470    85.6980    24.2250     5.3830     4.9260     5.0630   -23.8830 
  147.3750     2.2480    88.6620    24.2250     5.1170     4.8030     4.9490   -23.9520 
  147.5000     2.2650    90.1850    24.2230     4.8200     4.6370     4.7850   -23.8920 
  147.6250     2.2860    90.0160    24.2120     4.6820     4.4440     4.5980   -23.8630 
  147.7500     2.3090    90.1050    24.1770     4.5340     4.2450     4.4070   -23.8270 
  147.8750     2.3320    92.3670    24.1320     4.4340     4.0550     4.2190   -23.8240 
  148.0000     2.3540    95.9820    24.0990     4.4440     3.8980     4.0640   -23.8710 
  148.1250     2.3750    97.8170    24.0860     4.4610     3.8110     3.9940   -23.8690 
  148.2500     2.3840    96.3390    24.0880     4.5000     3.8610     4.1000   -23.9650 
  148.3750     2.3790    94.0340    24.1020     4.7850     4.0610     4.3950   -24.0070 
  148.5000     2.3700    91.1500    24.1260     5.7760     4.4070     4.8640   -24.1210 
  148.6250     2.3660    87.1110    24.1490     6.9720     4.8490     5.4310   -24.2660 
  148.7500     2.3500    83.0640    24.1560     7.2980     5.2880     5.9520   -24.4060 
  148.8750     2.3160    80.7230    24.1550     6.7060     5.6220     6.3140   -24.6440 
  149.0000     2.2780    78.2200    24.1520     6.3660     5.8140     6.4920   -24.8220 
  149.1250     2.2500    74.8240    24.1490     6.2880     5.8840     6.5360   -25.1140 
  149.2500     2.2330    73.3400    24.1480     6.3390     5.8940     6.5460   -25.3150 
  149.3750     2.2190    75.5190    24.1500     6.4570     5.9110     6.5950   -25.5160 
  149.5000     2.2090    78.2880    24.1520     6.5390     5.9470     6.6820   -25.7540 
  149.6250     2.2040    77.3480    24.1530     6.5680     5.9880     6.7750   -25.9130 
  149.7500     2.1980    75.4790    24.1520     6.5850     6.0130     6.8390   -26.2010 
  149.8750     2.1880    76.4550    24.1500     6.6450     6.0230     6.8780   -26.4400 
  150.0000     2.1820    77.9670    24.1480     6.6820     6.0350     6.9220   -26.5790 
  150.1250     2.1850    76.8240    24.1480     6.7270     6.0840     7.0180   -26.6570 
  150.2500     2.1960    74.4900    24.1480     6.8190     6.2190     7.2210   -26.7000 
  150.3750     2.2000    73.3680    24.1480     7.0750     6.4370     7.5150   -26.7760 
  150.5000     2.1940    72.8850    24.1480     7.8370     6.7200     7.8650   -26.7470 
  150.6250     2.1810    72.1890    24.1490     8.4290     7.0340     8.2250   -26.7610 
  150.7500     2.1650    72.5710    24.1470     8.4200     7.3270     8.5310   -26.7210 
  150.8750     2.1520    72.9220    24.1560     7.7890     7.5520     8.7380   -26.6330 
  151.0000     2.1580    72.1220    24.1910     7.2590     7.6700     8.8070   -26.5440 
  151.1250     2.2000    71.0030    24.2440     6.9890     7.6430     8.7040   -26.3280 
