~V
VERS. 2.00: Ver 2.00
~W
STRT.M 58.0000:
STOP.M 276.0000:
STEP.M 0.1250:
NULL. -999.2500:
UWI. DF5012:
~C
DEPT.M :
SP.MV :
GR.API :
CALI.CM :
RXO.OHMM :
RI. :
RML.OHMM :
DEN.GM/CC :
~A
# ...
  148.0000   -44.5180   108.0340    25.6170     4.5700     3.9670     4.1750     2.3020 
  148.1250   -44.6780   107.2030    25.5460     4.6800     4.0630     4.4090     2.3070 
  148.2500   -44.8780   106.7670    25.5560     5.0720     4.3040     4.8110     2.3130 
  148.3750   -45.1050   105.4020    25.5920     5.7380     4.6680     5.3430     2.3200 
  148.5000   -45.3050   100.8440    25.5400     6.8040     5.1190     5.9550     2.3190 
  148.6250   -45.4970    94.2300    25.3810     8.0730     5.6340     6.6320     2.3040 
  148.7500   -45.5910    86.2020    25.2620     9.2520     6.2130     7.3960     2.2770 
  148.8750   -45.6360    78.6420    25.2530     9.8170     6.8780     8.2560     2.2530 
  149.0000   -45.6280    74.1030    25.3310     9.3980     7.6010     9.1240     2.2460 
  149.1250   -45.5560    73.8430    25.4260    12.7440     8.2190     9.7240     2.2730 
  149.2500   -45.4330    76.3970    25.4750    19.8700     8.5180     9.8380     2.3290 
  149.3750   -45.2730    79.2790    25.4710    22.2660     8.3930     9.4260     2.3970 
  149.5000   -45.1710    82.6540    25.4330    15.2380     7.9490     8.7150     2.4470 
  149.6250   -45.0180    88.1760    25.3340     9.1230     7.4660     8.1330     2.4450 
  149.7500   -44.9390    93.6340    25.1660     7.5230     7.1610     7.9050     2.4010 
  149.8750   -44.8270    91.5810    24.9970     8.5690     7.0880     8.0120     2.3370 
  150.0000   -44.6820    80.6610    24.9080    10.2400     7.1890     8.2670     2.2750 
  150.1250   -44.4750    72.9050    24.9030    11.2950     7.2920     8.3550     2.2330 
  150.2500   -44.2920    74.1210    24.9080    10.2340     7.2280     8.1450     2.2160 
  150.3750   -44.1050    80.0030    24.9040     8.5120     7.0020     7.7620     2.2200 
  150.5000   -43.8530    85.3690    24.9050     7.6670     6.7520     7.4540     2.2390 
  150.6250   -43.6360    88.2830    24.9730     7.4300     6.6320     7.4080     2.2600 
  150.7500   -43.4200    88.6930    25.0990     8.1910     6.6310     7.5100     2.2720 
  150.8750   -43.2490    86.9740    25.2360     9.2120     6.6740     7.5940     2.2740 
  151.0000   -43.1270    85.2170    25.3490     9.6630     6.6870     7.5590     2.2720 
  151.1250   -43.0680    85.8390    25.4240     8.9430     6.6900     7.5260     2.2770 
  151.2500   -43.0110    88.6820    25.4520     7.8930     6.8370     7.8320     2.2940 
  151.3750   -42.9550    90.6060    25.4030     8.0820     7.3310     8.8320     2.3280 
  151.5000   -42.9260    86.4150    25.2750    11.8520     8.3950    10.8010     2.3770 
  151.6250   -42.9070    76.1430    25.0900    15.6900    10.3610    13.9550     2.4400 
  151.7500   -42.8800    67.1310    24.9060    19.8940    13.0370    17.6140     2.5040 
  151.8750   -42.8570    62.0320    24.7740    24.9990    15.7240    20.5680     2.5540 
  152.0000   -42.8400    59.6130    24.7090    29.0720    17.0300    21.1950     2.5840 
  152.1250   -42.8240    59.6070    24.6970    26.7950    15.6050    18.3930     2.5880 
  152.2500   -42.8070    62.3730    24.6990    20.4740    12.8420    14.2650     2.5690 
  152.3750   -42.7990    66.9410    24.7000    13.3760    10.1750    10.6770     2.5250 
  152.5000   -42.7670    71.7090    24.7000     8.6390     8.3470     8.5710     2.4640 
  152.6250   -42.7060    75.5060    24.7000     8.3820     7.7030     8.4020     2.4120 
  152.7500   -42.6540    76.4690    24.7000     9.9780     8.1340     9.8640     2.3850 
  152.8750   -42.6070    73.5450    24.7000    15.0930     9.7950    12.9020     2.3880 
  153.0000   -42.5600    67.3050    24.7000    21.5210    12.8010    17.1840     2.4200 
  153.1250   -42.4970    59.7010    24.7000    24.7260    16.7370    21.3670     2.4710 
  153.2500   -42.4260    54.5880    24.7000    26.1560    19.5810    23.2000     2.5200 
  153.3750   -42.3540    53.5130    24.7000    25.9320    19.5180    21.4670     2.5520 
  153.5000   -42.2790    57.7160    24.6990    22.5870    16.7630    17.2320     2.5590 
  153.6250   -42.2140    66.1400    24.7010    15.9290    13.3440    13.0360     2.5290 
  153.7500   -42.1330    73.3310    24.7270    10.1010    10.7780    10.2650     2.4770 
  153.8750   -42.0750    78.2900    24.7910     7.3410     9.2560     8.9310     2.4210 
  154.0000   -42.0110    81.4350    24.8700     6.7680     8.5910     8.6440     2.3790 
  154.1250   -42.0030    83.5380    24.9160     9.1830     8.5340     8.9150     2.3610 
  154.2500   -41.9990    82.8520    24.9220    11.5310     8.5930     9.1020     2.3600 
  154.3750   -42.0030    79.5310    24.9370    11.0750     8.4840     8.9330     2.3680 
  154.5000   -42.0230    79.3240    24.9930     8.6280     8.1870     8.5280     2.3740 
  154.6250   -42.0370    83.6140    25.0370     6.4490     8.0060     8.4310     2.3720 
  154.7500   -42.0630    86.9940    25.0240     6.8940     8.2590     9.0880     2.3720 
  154.8750   -42.0700    85.2800    24.9690    10.7700     9.1810    10.7300     2.3810 
  155.0000   -42.0840    78.4780    24.9110    17.3590    10.9350    13.3520     2.4040 
  155.1250   -42.0630    70.9690    24.8690    22.4260    13.5780    16.6460     2.4450 
  155.2500   -42.0500    64.2990    24.8420    22.0350    16.4380    19.7170     2.4960 
  155.3750   -42.0110    59.6160    24.8370    20.4180    18.7530    21.8630     2.5440 
  155.5000   -41.9800    57.3170    24.8390    20.5780    20.0550    22.8500     2.5730 
  155.6250   -41.9330    57.9600    24.8380    22.9050    20.3920    22.9700     2.5790 
  155.7500   -41.9190    60.0460    24.8380    25.8690    20.3970    22.9370     2.5700 
  155.8750   -41.9240    60.8590    24.8380    27.9890    20.3770    23.0320     2.5560 
  156.0000   -41.9130    59.1550    24.8380    28.0880    20.4350    23.2950     2.5430 
  156.1250   -41.8990    56.8680    24.8390    24.9290    20.5600    23.6580     2.5340 
  156.2500   -41.8830    57.8050    24.8340    23.7150    20.7110    24.0440     2.5290 
  156.3750   -41.8700    61.2140    24.8370    23.2790    20.8860    24.4330     2.5270 
  156.5000   -41.8580    62.8420    24.9100    23.7710    21.0830    24.7920     2.5320 
  156.6250   -41.8730    60.9430    25.0900    24.1910    21.2300    24.9760     2.5390 
  156.7500   -41.8490    59.1960    25.2680    24.2800    21.2090    24.8450     2.5450 
  156.8750   -41.7970    58.8430    25.3550    24.8530    20.9170    24.2980     2.5460 
  157.0000   -41.7850    58.4940    25.3620    26.4640    20.3210    23.3590     2.5400 
  157.1250   -41.7610    57.9150    25.3590    23.8120    19.4920    22.2000     2.5260 
  157.2500   -41.7420    57.9500    25.3620    20.4490    18.6600    21.1360     2.5090 
  157.3750   -41.7510    57.2970    25.3620    18.2810    17.9840    20.3570     2.4910 
  157.5000   -41.7480    57.8600    25.3630    18.0650    17.5580    19.9410     2.4770 
  157.6250   -41.7760    62.1660    25.3640    19.2340    17.4460    19.9120     2.4710 
  157.7500   -41.7640    65.3540    25.3590    19.5740    17.5550    20.0900     2.4740 
  157.8750   -41.7700    63.9840    25.3430    19.0880    17.7820    20.3250     2.4860 
  158.0000   -41.7120    59.9390    25.3140    19.7020    18.0020    20.4850     2.5030 
  158.1250   -41.6520    59.6580    25.2790    19.6150    18.0960    20.4750     2.5180 
  158.2500   -41.6360    63.0500    25.2520    19.7780    18.0520    20.3240     2.5260 
  158.3750   -41.6000    66.6400    25.2430    19.6430    17.8690    20.0360     2.5270 
  158.5000   -41.5650    69.1370    25.2490    18.8020    17.5210    19.5710     2.5250 
  158.6250   -41.5120    69.2260    25.2540    18.5210    16.9370    18.8370     2.5240 
  158.7500   -41.4830    68.2490    25.2540    20.7510    16.1660    17.8960     2.5290 
  158.8750   -41.4490    67.6940    25.2530    27.6390    15.2890    16.8620     2.5380 
  159.0000   -41.4430    69.1730    25.2520    28.5540    14.4360    15.9060     2.5470 
  159.1250   -41.4630    71.3180    25.2530    22.9130    13.7830    15.2520     2.5510 
