~V
VERS. 2.00: Ver 2.00
~W
STRT.M 67.0000:
STOP.M 277.0000:
STEP.M 0.1250:
NULL. -999.2500:
UWI. DF5013:
~C
DEPT.M :
SP.MV :
GR.API :
RML.OHMM :
RI. :
RXO.OHMM :
CALI.CM :
DEN.GM/CC :
~A
# ...
  213.2500   -12.9380    80.5340    10.4420     8.9220    10.1200    24.3580     2.3910 
  213.3750   -13.2770    80.2660    11.9810     9.8890    11.1090    24.3710     2.4000 
  213.5000   -13.6200    78.0740    13.8350    11.0810    12.7620    24.3970     2.4060 
  213.6250   -13.9240    74.9140    15.2820    12.3310    14.6100    24.4090     2.4080 
  213.7500   -14.1770    71.9990    16.5200    13.4330    16.1510    24.4140     2.4030 
  213.8750   -14.3940    71.8500    17.2570    14.1540    17.1860    24.4230     2.3930 
  214.0000   -14.6090    75.1710    17.1630    14.2130    16.5060    24.4470     2.3800 
  214.1250   -14.7940    78.1370    16.4020    13.7160    14.9420    24.4690     2.3670 
  214.2500   -14.9370    79.3430    15.2180    12.8550    13.5960    24.4770     2.3570 
  214.3750   -15.0650    79.9740    14.0210    11.9230    12.6260    24.4780     2.3540 
  214.5000   -15.1740    83.1720    13.3850    11.3250    12.2090    24.4780     2.3590 
  214.6250   -15.3100    86.2390    13.7180    11.4420    12.4770    24.4780     2.3710 
  214.7500   -15.4590    85.5130    15.6240    12.9490    15.6090    24.4780     2.3830 
  214.8750   -15.6330    79.9750    20.3640    17.0500    23.9170    24.4780     2.3890 
  215.0000   -15.7990    70.9260    30.7410    26.4190    40.8030    24.4780     2.3800 
  215.1250   -15.9780    63.1500    47.8780    41.8950    65.1690    24.4810     2.3590 
  215.2500   -16.1520    59.6730    71.8570    63.3400    93.9420    24.4930     2.3300 
  215.3750   -16.3040    59.3180   100.8380    88.3400   119.5240    24.5190     2.3010 
  215.5000   -16.4330    58.9780   128.3350   111.2710   132.9610    24.5320     2.2770 
  215.6250   -16.5270    57.5340   147.1780   127.1010   137.0930    24.5370     2.2570 
  215.7500   -16.6080    56.4180   154.5190   134.0490   136.5290    24.5370     2.2420 
  215.8750   -16.6890    56.4730   152.4840   133.4490   134.0100    24.5370     2.2300 
  216.0000   -16.7710    57.4560   144.8740   127.7060   128.6350    24.5350     2.2220 
  216.1250   -16.8570    59.1330   135.8270   120.2960   119.3080    24.5250     2.2180 
  216.2500   -16.9470    61.7040   126.9860   112.8200   109.8030    24.5010     2.2190 
  216.3750   -17.0800    64.3420   119.2880   106.2810   102.7270    24.4820     2.2250 
  216.5000   -17.2230    65.3490   113.3790   101.4270    96.8550    24.4730     2.2330 
  216.6250   -17.3730    63.9970   108.7760    97.9390    92.8700    24.4740     2.2420 
  216.7500   -17.5080    62.4930   104.8160    95.2680    89.3310    24.4750     2.2530 
  216.8750   -17.6110    63.4840   100.5990    92.5800    84.1310    24.4730     2.2680 
  217.0000   -17.6580    65.9680    95.0720    88.7930    79.5400    24.4730     2.2900 
  217.1250   -17.6810    65.6900    88.2550    83.6450    74.0640    24.4730     2.3170 
  217.2500   -17.6720    62.7380    80.8150    77.4950    67.6780    24.4750     2.3430 
  217.3750   -17.6290    61.1520    73.8710    71.2310    61.2860    24.4870     2.3570 
  217.5000   -17.5770    64.1430    68.8500    66.2790    55.5830    24.5140     2.3520 
  217.6250   -17.5280    67.8160    66.2950    63.6240    52.4760    24.5310     2.3340 
  217.7500   -17.4570    69.1060    67.0730    64.2650    52.6610    24.5360     2.3120 
  217.8750   -17.3970    67.0250    72.0460    69.3230    57.7790    24.5370     2.2930 
  218.0000   -17.3350    63.8110    84.5210    81.2810    68.0970    24.5370     2.2790 
  218.1250   -17.2810    62.1690   104.9130   100.3710    84.3520    24.5370     2.2660 
  218.2500   -17.2280    61.2350   134.0370   126.4160   108.9150    24.5370     2.2540 
  218.3750   -17.1650    60.1280   170.1280   157.2060   139.8720    24.5370     2.2430 
  218.5000   -17.0810    61.4730   205.0610   187.5340   163.0400    24.5370     2.2350 
  218.6250   -16.9940    63.5330   233.1570   211.3300   168.4220    24.5330     2.2300 
  218.7500   -16.9300    61.8590   248.7020   224.6610   165.3990    24.5200     2.2280 
  218.8750   -16.8780    58.4220   249.9450   226.5460   162.6490    24.4900     2.2240 
  219.0000   -16.8660    59.8480   238.4110   217.7990   160.4410    24.4750     2.2170 
  219.1250   -16.8660    64.3510   220.9330   203.5090   155.8930    24.4700     2.2080 
  219.2500   -16.9030    67.5500   201.2200   186.5240   147.6740    24.4700     2.2000 
  219.3750   -16.9520    68.6720   182.6100   169.5810   133.6990    24.4700     2.1960 
  219.5000   -17.0560    69.2750   169.0990   156.3430   119.0130    24.4700     2.1960 
  219.6250   -17.1590    68.2520   162.0860   148.8230   109.7150    24.4710     2.1990 
  219.7500   -17.2630    66.7380   162.5220   148.3840   105.6270    24.4740     2.2040 
  219.8750   -17.3300    65.4790   170.8950   155.6810   105.7790    24.4800     2.2080 
  220.0000   -17.3700    64.6230   188.2510   171.6410   111.6210    24.5090     2.2090 
  220.1250   -17.3700    63.9950   211.4270   193.1620   121.9230    24.5540     2.2060 
  220.2500   -17.3240    63.0910   236.6890   216.8720   134.7750    24.5860     2.2000 
  220.3750   -17.2880    61.3240   258.6470   238.0920   149.6150    24.5980     2.1940 
  220.5000   -17.2110    59.2310   269.4980   250.0760   163.5610    24.6010     2.1900 
  220.6250   -17.1380    59.6160   267.8460   251.1210   171.8560    24.6010     2.1890 
  220.7500   -17.0510    61.5780   256.0010   242.3760   172.9160    24.5990     2.1900 
  220.8750   -17.0010    61.9700   239.7450   228.1130   168.5980    24.5960     2.1920 
  221.0000   -16.9590    60.3030   226.2660   214.5910   159.6420    24.5950     2.1950 
  221.1250   -16.9700    60.0220   219.0510   206.2330   153.8700    24.5950     2.1970 
  221.2500   -17.0170    61.4730   218.5930   204.3600   155.6780    24.5950     2.1960 
  221.3750   -17.0680    63.0760   223.4780   208.0910   165.0930    24.5950     2.1940 
  221.5000   -17.1200    64.0010   230.9000   215.0330   174.6850    24.5950     2.1890 
  221.6250   -17.1530    63.3000   236.7400   221.1740   183.4550    24.5950     2.1850 
  221.7500   -17.2050    61.5930   238.3260   223.8710   187.7230    24.5950     2.1850 
  221.8750   -17.2570    59.8320   234.5300   221.7540   184.7670    24.5900     2.1880 
  222.0000   -17.3230    59.9100   225.5000   214.4610   176.1540    24.5750     2.1910 
  222.1250   -17.3850    59.5710   214.0940   204.3980   165.7460    24.5550     2.1930 
  222.2500   -17.4710    58.8810   202.1140   193.2350   158.0650    24.5440     2.1940 
  222.3750   -17.5990    60.1690   190.8490   182.3160   154.0920    24.5330     2.1950 
  222.5000   -17.7420    62.8670   181.5910   172.9700   148.6070    24.5110     2.1990 
  222.6250   -17.9100    62.9160   174.9020   165.8630   140.1670    24.4830     2.2070 
  222.7500   -18.0550    59.5550   171.4190   161.6590   130.9180    24.4720     2.2180 
  222.8750   -18.1970    57.1140   171.4820   160.7690   123.8930    24.4700     2.2280 
  223.0000   -18.3050    59.4390   175.2500   163.5150   124.6800    24.4640     2.2320 
  223.1250   -18.3770    61.2250   180.7530   168.1960   132.5490    24.4470     2.2290 
  223.2500   -18.3940    60.3100   185.8690   172.9310   142.8140    24.4220     2.2230 
  223.3750   -18.3440    58.4090   188.2820   175.5670   149.7500    24.3990     2.2170 
  223.5000   -18.2600    59.3650   185.5640   173.7370   149.6350    24.3530     2.2150 
  223.6250   -18.1390    63.1570   178.6550   167.9620   142.7360    24.2550     2.2160 
  223.7500   -18.0190    65.7660   169.3160   159.5870   129.7340    24.0960     2.2170 
  223.8750   -17.8980    64.6870   159.6650   150.4910   114.0430    23.8720     2.2160 
  224.0000   -17.7760    60.0100   151.2690   142.3160   101.2280    23.6160     2.2110 
  224.1250   -17.6600    56.8200   143.8080   135.1410    93.5410    23.4670     2.2050 
  224.2500   -17.5350    56.9470   136.2800   128.2260    89.5730    23.3960     2.2030 
  224.3750   -17.4100    60.2250   127.6840   120.6450    87.8320    23.3590     2.2110 
