~V
VERS. 2.00: Ver 2.00
~W
STRT.M 55.0000:
STOP.M 277.0000:
STEP.M 0.1250:
NULL. -999.2500:
UWI. DF5040:
~C
DEPT.M :
GR.API :
CALI.CM :
RXO.OHMM :
RI. :
RML.OHMM :
DEN.GM/CC :
SP.MV :
~A
# ...
  178.7500    74.3440    23.9810    96.5550    77.1710    82.1750     2.2810   -38.1890 
  178.8750    73.7660    23.9700    81.3430    73.3940    78.1740     2.2820   -38.2090 
  179.0000    73.3230    23.9700    65.0160    70.0140    74.5950     2.2830   -38.1820 
  179.1250    74.8120    23.9900    54.4720    67.9700    72.4300     2.2810   -38.0880 
  179.2500    77.3910    24.0020    47.7360    67.7800    72.2290     2.2730   -37.9450 
  179.3750    78.0970    24.0040    42.4750    69.8420    74.4120     2.2610   -37.7730 
  179.5000    75.4850    24.0060    41.3360    74.2600    79.0920     2.2530   -37.6000 
  179.6250    72.4450    23.9930    48.8150    81.1670    86.4060     2.2490   -37.4660 
  179.7500    70.6700    23.9800    61.2710    89.6440    95.3820     2.2410   -37.3860 
  179.8750    68.5410    23.9760    72.1390    98.8860   105.1700     2.2240   -37.3560 
  180.0000    65.3280    23.9930    76.8030   107.8150   114.6260     2.2060   -37.3560 
  180.1250    63.2950    24.0500    80.0520   114.7510   121.9710     2.2030   -37.3530 
  180.2500    63.3110    24.1610    90.9610   119.0020   126.4730     2.2120   -37.3210 
  180.3750    63.8890    24.2890   109.3450   120.4520   128.0090     2.2210   -37.2490 
  180.5000    64.2450    24.3590   128.4100   119.6140   127.1210     2.2170   -37.1400 
  180.6250    65.1840    24.2600   134.1810   117.6270   125.0170     2.1960   -37.0070 
  180.7500    65.8400    24.1720   124.8060   116.2400   123.5490     2.1770   -36.8780 
  180.8750    64.9150    24.1340   109.7700   116.6780   124.0120     2.1700   -36.7790 
  181.0000    63.1500    24.0880   103.8260   119.7120   127.2250     2.1790   -36.7280 
  181.1250    63.2020    24.0830   121.3390   125.9780   133.8610     2.1940   -36.7440 
  181.2500    64.6300    24.1500   143.3010   134.5070   142.8920     2.1980   -36.8010 
  181.3750    65.2030    24.2390   160.5460   144.5250   153.5020     2.1900   -36.8730 
  181.5000    63.7110    24.2900   170.9820   155.3390   164.9550     2.1770   -36.9260 
  181.6250    60.9660    24.3180   177.5560   166.4080   176.6760     2.1710   -36.9210 
  181.7500    58.8220    24.3610   189.7670   177.2990   188.2100     2.1730   -36.8570 
  181.8750    58.0040    24.4010   211.0130   187.4460   198.9550     2.1810   -36.7420 
  182.0000    58.0160    24.4080   231.5280   195.3560   207.3320     2.1870   -36.5960 
  182.1250    57.5300    24.3770   242.3760   196.9010   208.9680     2.1850   -36.4430 
  182.2500    56.4960    24.3540   249.2760   189.6980   201.3410     2.1760   -36.3040 
  182.3750    56.0380    24.3900   265.0770   172.6580   183.2950     2.1660   -36.1900 
  182.5000    56.8580    24.4760   276.3900   147.5800   156.5580     2.1650   -36.1020 
  182.6250    59.1770    24.5150   257.5300   118.8050   125.6110     2.1820   -36.0290 
  182.7500    62.5410    24.5360   208.4280    92.0490    96.7500     2.2090   -35.9460 
  182.8750    66.9140    24.5430   146.8200    70.2140    73.6080     2.2360   -35.8340 
  183.0000    71.7580    24.4430    89.7500    54.3050    56.9920     2.2570   -35.6840 
  183.1250    75.3720    24.2440    52.5590    44.6740    46.9650     2.2700   -35.4990 
  183.2500    77.1950    24.0830    34.7570    39.1340    41.1990     2.2790   -35.3090 
  183.3750    77.8290    23.9900    28.7720    36.5170    38.4740     2.2810   -35.1380 
  183.5000    77.9330    23.8830    27.8130    35.8460    37.7760     2.2750   -35.0120 
  183.6250    77.3590    23.7160    28.8990    36.4080    38.3610     2.2710   -34.9570 
  183.7500    76.1220    23.6430    30.3980    37.2850    39.2740     2.2790   -34.9660 
  183.8750    75.1310    23.7080    31.5210    37.9900    40.0070     2.2950   -35.0280 
  184.0000    75.4700    23.7880    33.5920    38.2330    40.2600     2.3050   -35.1250 
  184.1250    77.5550    23.9140    37.2060    37.9340    39.9490     2.3010   -35.2300 
  184.2500    79.8960    24.0880    40.3550    37.4520    39.4470     2.2960   -35.3120 
  184.3750    81.3900    24.2320    40.4930    37.2270    39.2140     2.2980   -35.3480 
  184.5000    81.3340    24.3010    38.1030    37.7320    39.7390     2.3010   -35.3240 
  184.6250    79.4180    24.3450    38.0950    39.5470    41.6290     2.2990   -35.2290 
  184.7500    77.3250    24.4070    42.5440    42.6390    44.8470     2.2950   -35.0820 
  184.8750    76.5570    24.4730    50.8700    46.9230    49.3070     2.2920   -34.8970 
  185.0000    76.7780    24.5210    60.3600    52.1160    54.7130     2.2930   -34.6920 
  185.1250    76.6410    24.5440    68.2840    57.7540    60.5820     2.2960   -34.4900 
  185.2500    76.4080    24.5170    73.1600    63.1060    66.1530     2.2930   -34.3120 
  185.3750    76.6800    24.4240    76.3430    67.6360    70.8690     2.2810   -34.1770 
  185.5000    77.4180    24.3390    79.2840    71.0410    74.4140     2.2600   -34.0970 
  185.6250    78.5080    24.3120    83.3270    73.1240    76.5820     2.2450   -34.0940 
  185.7500    79.6500    24.3250    87.2460    74.1180    77.6170     2.2470   -34.1570 
  185.8750    79.7060    24.3480    87.1720    73.9370    77.4280     2.2590   -34.2800 
  186.0000    77.7270    24.3730    80.6030    72.4540    75.8850     2.2640   -34.4490 
  186.1250    74.7630    24.3580    71.6290    69.5200    72.8300     2.2540   -34.6510 
  186.2500    73.4770    24.3240    65.6860    65.7720    68.9290     2.2450   -34.8620 
  186.3750    75.0510    24.3040    62.1110    61.8310    64.8260     2.2510   -35.0640 
  186.5000    77.6540    24.3010    58.0560    58.3860    61.2400     2.2700   -35.2430 
  186.6250    78.0920    24.3210    51.9860    56.3020    59.0700     2.2860   -35.3790 
  186.7500    76.5400    24.3630    47.0240    55.7190    58.4630     2.2860   -35.4720 
  186.8750    74.2890    24.3990    47.6610    56.5490    59.3270     2.2780   -35.5240 
  187.0000    71.6870    24.4010    55.2670    58.3970    61.2510     2.2750   -35.5410 
  187.1250    68.5490    24.3460    67.6710    60.6750    63.6220     2.2730   -35.5200 
  187.2500    66.2270    24.3100    76.6830    62.7230    65.7540     2.2670   -35.4680 
  187.3750    65.8930    24.2990    78.5560    64.2730    67.3680     2.2590   -35.3850 
  187.5000    67.3990    24.3180    72.4630    65.4010    68.5430     2.2610   -35.2760 
  187.6250    69.5910    24.3570    62.7420    66.5390    69.7270     2.2680   -35.1490 
  187.7500    71.4240    24.3900    56.9110    68.2380    71.4960     2.2670   -35.0170 
  187.8750    72.4830    24.3800    60.1440    70.9040    74.2720     2.2590   -34.8930 
  188.0000    72.7080    24.3490    72.3940    74.6390    78.1590     2.2540   -34.7890 
  188.1250    73.1160    24.2840    89.6270    79.1730    82.8790     2.2550   -34.7280 
  188.2500    74.1190    24.1940   104.6590    83.6150    87.5030     2.2500   -34.7210 
  188.3750    74.6630    24.1560   114.0320    87.2370    91.2740     2.2380   -34.7760 
  188.5000    73.6350    24.2430   117.7480    89.5500    93.6810     2.2280   -34.8920 
  188.6250    71.4140    24.3630   119.8310    90.4120    94.5790     2.2250   -35.0650 
  188.7500    69.7160    24.4580   123.6400    90.6970    94.8760     2.2210   -35.2670 
  188.8750    69.4220    24.4970   127.0230    91.3400    95.5450     2.2100   -35.4760 
  189.0000    70.5080    24.5310   125.8600    93.4460    97.7370     2.2000   -35.6640 
  189.1250    71.3150    24.5670   119.5590    98.7360   103.2440     2.2020   -35.7950 
  189.2500    70.1990    24.5980   116.6370   107.7490   112.6270     2.2170   -35.8590 
  189.3750    67.5810    24.6100   126.8830   121.0150   126.4370     2.2360   -35.8580 
  189.5000    64.9970    24.6130   149.8010   138.5520   144.6930     2.2480   -35.8070 
  189.6250    63.6050    24.6260   178.9090   159.9270   166.9440     2.2450   -35.7320 
  189.7500    63.0330    24.6530   218.0220   182.5120   190.4550     2.2320   -35.6630 
  189.8750    62.4770    24.6820   278.6100   203.7470   212.5610     2.2190   -35.6160 
