~V
VERS. 2.00: Ver 2.00
~W
STRT.M 58.0000:
STOP.M 240.0000:
STEP.M 0.1250:
NULL. -999.2500:
UWI. DF5049:
~C
DEPT.M :
GR.API :
RML.OHMM :
RI. :
RXO.OHMM :
CALI.CM :
DEN.GM/CC :
SP.MV :
~A
# ...
   69.2500    62.0280    11.1290     9.3030     8.9150    26.1340     2.1340   -25.4440 
   69.3750    61.3480    11.1750     9.3110     8.9710    26.1180     2.1300   -25.4620 
   69.5000    64.9880    11.1130     9.2750     9.0530    26.0780     2.1320   -25.5440 
   69.6250    70.2340    10.9360     9.2010     9.1980    26.0600     2.1380   -25.7250 
   69.7500    72.4400    10.7170     9.0970     9.2910    26.0610     2.1430   -25.9060 
   69.8750    71.2920    10.5160     8.9660     9.3090    26.0760     2.1490   -26.0440 
   70.0000    68.4380    10.3880     8.8200     9.2150    26.1070     2.1560   -26.2100 
   70.1250    65.8040    10.3590     8.6890     9.0750    26.1200     2.1590   -26.4310 
   70.2500    64.2070    10.3930     8.6130     8.9860    26.1090     2.1530   -26.5920 
   70.3750    64.6480    10.4700     8.6270     8.9840    26.0640     2.1370   -26.7370 
   70.5000    65.3840    10.5940     8.7430     9.1060    25.9630     2.1190   -26.8510 
   70.6250    63.7010    10.8140     8.9520     9.4280    25.6690     2.1090   -26.7870 
   70.7500    62.3330    11.1270     9.2040     9.9600    25.1240     2.1140   -26.5690 
   70.8750    63.1210    11.4920     9.4540    10.5320    24.5030     2.1280   -26.3030 
   71.0000    65.6140    11.8250     9.6510    10.7200    23.9840     2.1420   -25.9730 
   71.1250    66.8300    11.9580     9.7230    10.7140    23.7440     2.1510   -25.5730 
   71.2500    66.2840    11.8390     9.6650    10.7290    23.6710     2.1560   -25.2070 
   71.3750    65.7030    11.5140     9.5040    11.0100    23.7000     2.1610   -24.8180 
   71.5000    66.2180    11.1340     9.3040    11.2430    23.7460     2.1670   -24.4090 
   71.6250    67.0510    10.9710     9.1970    10.9540    23.7880     2.1690   -24.0620 
   71.7500    65.4270    11.1530     9.2770    10.5260    23.8030     2.1650   -23.7650 
   71.8750    62.7380    11.6200     9.5440    10.3710    23.8060     2.1610   -23.4350 
   72.0000    61.8590    12.1170     9.8800    10.7560    23.8090     2.1650   -22.9870 
   72.1250    63.4460    12.1690     9.9850    13.0590    23.8240     2.1850   -22.2580 
   72.2500    68.0070    11.5650     9.6470    17.2530    23.9350     2.2150   -21.2760 
   72.3750    76.7950    10.3890     8.8570    17.5820    24.3140     2.2450   -20.1400 
   72.5000    87.5480     9.0040     7.8400    10.1550    25.0090     2.2660   -18.8720 
   72.6250    93.0730     7.8870     6.9350     7.0220    25.5990     2.2760   -17.5540 
   72.7500    94.5350     7.2010     6.3200     6.0710    25.7200     2.2810   -16.3180 
   72.8750    94.8060     6.9210     6.0320     6.0600    25.4710     2.2850   -15.1890 
   73.0000    95.0390     6.9470     6.0370     6.1380    25.0290     2.2850   -14.2260 
   73.1250    94.4120     7.1800     6.2660     6.4980    24.8300     2.2810   -13.5900 
   73.2500    93.7280     7.4950     6.5570     6.6530    24.8500     2.2720   -13.1590 
   73.3750    92.8460     7.8380     6.8090     6.8140    24.9720     2.2640   -12.9060 
   73.5000    91.4040     8.1330     6.9540     6.7030    25.1650     2.2570   -12.8230 
   73.6250    92.2870     8.2430     6.9250     6.5320    25.1920     2.2580   -12.8350 
   73.7500    94.0070     8.1020     6.7190     6.5070    25.0590     2.2680   -12.8260 
   73.8750    93.8520     7.6840     6.3350     6.7170    24.9770     2.2880   -12.8020 
   74.0000    92.8760     7.0430     5.8140     6.3780    25.1250     2.3130   -12.7580 
   74.1250    95.2770     6.3520     5.2710     6.0860    25.2390     2.3310   -12.7090 
   74.2500    99.6260     5.9310     4.9000     5.7390    25.2620     2.3320   -12.8190 
   74.3750   100.4570     6.1490     4.8970     5.5620    25.1540     2.3230   -13.1220 
   74.5000    96.4630     7.3710     5.4610     6.0360    24.8430     2.3220   -13.5660 
   74.6250    88.8600    10.0530     6.9600     8.2660    24.4350     2.3570   -14.1410 
   74.7500    79.8920    13.8240     9.4120    13.8450    24.3390     2.4190   -14.8570 
   74.8750    71.8210    17.8080    12.5330    29.1360    24.5360     2.4790   -15.7180 
   75.0000    66.2860    20.3380    15.1900    45.8380    24.6180     2.4990   -16.6810 
   75.1250    65.5380    19.4100    15.4010    32.5140    24.3310     2.4470   -17.7080 
   75.2500    66.5820    16.2370    13.6230    16.3630    23.8690     2.3570   -18.6990 
   75.3750    67.0330    12.6840    11.2440    11.4850    23.5670     2.2660   -19.5420 
   75.5000    68.4910    10.0400     9.2710    10.2440    23.4340     2.2060   -20.2370 
   75.6250    74.1400     8.8780     8.1530     9.8580    23.3560     2.1860   -20.7950 
   75.7500    80.4240     8.7700     7.7050     9.4520    23.3080     2.1830   -21.2150 
   75.8750    81.0890     9.3540     7.7600     9.3280    23.2640     2.1790   -21.4420 
   76.0000    77.4160    10.2000     8.0910    10.1590    23.2220     2.1710   -21.5000 
   76.1250    76.7430    10.7680     8.3560    10.7730    23.2360     2.1670   -21.4010 
   76.2500    78.5790    10.7510     8.2830    10.7520    23.3120     2.1770   -21.0610 
   76.3750    80.5140    10.1240     7.8150     9.9380    23.4330     2.2040   -20.4380 
   76.5000    84.6940     9.1330     7.1040     8.6320    23.5600     2.2380   -19.6290 
   76.6250    92.7130     8.2100     6.4290     7.4130    23.6860     2.2650   -18.7360 
   76.7500    99.7640     7.6720     5.9870     6.3600    23.7140     2.2730   -17.8980 
   76.8750   103.2200     7.6400     5.8610     6.1350    23.5840     2.2610   -17.3490 
   77.0000   102.5410     8.0910     6.0640     6.7190    23.2490     2.2360   -17.1360 
   77.1250    95.7210     8.9450     6.6010     7.8780    22.9960     2.2090   -17.1850 
   77.2500    85.8750     9.9150     7.3150     9.0020    22.8570     2.1910   -17.5140 
   77.3750    78.2350    10.7490     8.0390     9.8110    22.7970     2.1800   -18.1400 
   77.5000    73.9310    11.2420     8.5900    10.2650    22.7780     2.1740   -18.9240 
   77.6250    72.4270    11.2580     8.8070    10.1280    22.7570     2.1710   -19.7540 
   77.7500    73.8090    10.9610     8.7770     9.8970    22.8110     2.1710   -20.4970 
   77.8750    76.7270    10.4780     8.5920     9.6390    22.9050     2.1750   -20.9380 
   78.0000    79.7650     9.9230     8.3200     9.2320    22.9490     2.1810   -20.9810 
   78.1250    83.6990     9.3940     7.9930     8.7450    22.9530     2.1930   -20.5790 
   78.2500    89.0520     8.9220     7.6290     8.7850    23.0620     2.2120   -19.8500 
   78.3750    94.5600     8.4960     7.2300     8.5660    23.4090     2.2390   -18.8610 
   78.5000    98.0000     8.1110     6.8280     7.8460    23.8940     2.2680   -17.6800 
   78.6250   100.0320     7.8170     6.5080     7.3730    24.3170     2.2870   -16.3950 
   78.7500   101.7090     7.6600     6.3380     7.8650    24.5460     2.2880   -15.1710 
   78.8750   102.9140     7.7030     6.3600     7.6590    24.5370     2.2730   -14.0820 
   79.0000   101.5590     7.9730     6.5800     6.9780    24.3400     2.2510   -13.2260 
   79.1250    94.7700     8.4140     6.9600     7.4010    24.0620     2.2350   -12.7550 
   79.2500    89.6970     8.8020     7.3300     8.1250    23.9080     2.2320   -12.4410 
   79.3750    90.7620     8.9450     7.5260     8.2130    23.9710     2.2410   -12.2040 
   79.5000    96.0270     8.7320     7.4370     7.5640    24.2860     2.2590   -12.0600 
   79.6250    99.6150     8.1260     7.0090     6.7460    24.7390     2.2800   -11.9090 
   79.7500    99.7100     7.3380     6.4050     6.3800    25.1060     2.2950   -11.6210 
   79.8750    99.2480     6.5970     5.8020     5.9170    25.3570     2.3020   -11.2360 
   80.0000    99.9460     6.1410     5.3820     5.4430    25.5090     2.3010   -10.7850 
   80.1250    99.9300     6.2460     5.3450     5.0380    25.5780     2.2970   -10.2270 
   80.2500    96.5770     6.9130     5.6970     5.0070    25.5750     2.2970    -9.8170 
   80.3750    90.6250     8.0410     6.4120     6.2250    25.4190     2.2990    -9.7240 
